~Version Information
VERS.                      2.0: CWLS Log ASCII Standard - VERSION 2.0
WRAP.                       NO: One line per depth step
~Well Information Block
STRT.FT               235.0000: 
STOP.FT              1271.0000: 
STEP.FT                 0.1000: 
NULL.                -999.2500: 
COMP.          Pioneer Natural Resources: COMPANY
WELL.              Julie 11-30: WELL
FLD.           Purgatoire River: FIELD
LOC.           672' FNL & 1052' FWL: LOCATION
CNTY.               Las Animas: COUNTY
SRVC.                Patterson: SERVICE COMPANY
DATE.          Fri Apr 14 07:21:24 2006: LOG DATE
UWI.           05 071 08724 00: UNIQUE WELL ID
STAT.                 Colorado: STATE
~Curve Information Block
DEPT.FT            0 000 00 00: Depth
DCAL.in                       : CDL Caliper
RHOB.g/cc                     : CDL Bulk Density
RHOC.g/cc                     : CDL Density Correction
DPOR.pu                       : CDL Density Porosity
GR.GAPI                       : Gamma Ray
NPOR.pu                       : Neutron Porosity
~Parameter Information Block
~A  Depth       DCAL        RHOB        RHOC        DPOR         GR         NPOR    
# ...
  1252.6000      7.8238      2.6013      0.0614      2.9535     67.3981     20.5667
  1252.7000      7.8238      2.5930      0.0913      3.4528     36.0057     21.8615
  1252.8000      7.8324      2.5811      0.0945      4.1751     11.7591     21.9980
  1252.9000      7.8324      2.5640      0.0516      5.2111      2.1859     21.9746
  1253.0000      7.8247      2.5468      0.0487      6.2543      0.2226     23.2138
  1253.1000      7.8247      2.5254      0.0933      7.5526      0.0119     24.6406
  1253.2000      7.8247      2.4972     -0.0272      9.2623      0.0000     24.5716
  1253.3000      7.8191      2.4841     -0.0130     10.0563   -999.2500     23.5304
  1253.4000      7.8191      2.5022     -0.0044      8.9566   -999.2500     22.5177
  1253.5000      7.8180      2.5299      0.0527      7.2807   -999.2500     21.7157
  1253.6000      7.8180      2.5358      0.0544      6.9185   -999.2500     21.4021
  1253.7000      7.8180      2.5324      0.0182      7.1267   -999.2500     21.5966
  1253.8000      7.8191      2.5558      0.0416      5.7114   -999.2500     21.9949
  1253.9000      7.8191      2.6123      0.1272      2.2835   -999.2500     22.5761
  1254.0000      7.8192      2.6803      0.1380     -1.8388   -999.2500     23.1088
  1254.1000      7.8192      2.7288      0.1959     -4.7742   -999.2500     23.1860
  1254.2000      7.8192      2.7311      0.2193     -4.9178   -999.2500     22.7501
  1254.3000      7.7854      2.6922      0.1607     -2.5573   -999.2500     21.7813
  1254.4000      7.7854      2.6466      0.1153      0.2042   -999.2500     20.4933
  1254.5000      7.7798      2.6237      0.0511      1.5952   -999.2500     19.7585
  1254.6000      7.7798      2.6186      0.0804      1.9058   -999.2500     19.8480
  1254.7000      7.7798      2.6074      0.0371      2.5841   -999.2500     19.8520
  1254.8000      7.7850      2.5786      0.0417      4.3303   -999.2500     19.2680
  1254.9000      7.7850      2.5403     -0.0042      6.6500   -999.2500     18.5543
  1255.0000      7.7827      2.5222     -0.0880      7.7436   -999.2500     18.0463
  1255.1000      7.7827      2.5352      0.0250      6.9591   -999.2500     17.7191
  1255.2000      7.7827      2.5566      0.0340      5.6600   -999.2500     17.5464
  1255.3000      7.7786      2.5766      0.0418      4.4515   -999.2500     18.0341
  1255.4000      7.7786      2.5890      0.0880      3.6960   -999.2500     19.2735
  1255.5000      7.7782      2.5847      0.1181      3.9566   -999.2500     20.4442
  1255.6000      7.7782      2.5733      0.0645      4.6511   -999.2500     21.1145
  1255.7000      7.7782      2.5757      0.0483      4.5011   -999.2500     21.4474
  1255.8000      7.7796      2.5871      0.1250      3.8096   -999.2500     21.6129
  1255.9000      7.7796      2.5749      0.0967      4.5489   -999.2500     21.5091
  1256.0000      7.7844      2.5392      0.0127      6.7123   -999.2500     21.2292
  1256.1000      7.7844      2.5072      0.0538      8.6571   -999.2500     21.2477
  1256.2000      7.7844      2.4797      0.0463     10.3239   -999.2500     21.8926
  1256.3000      7.7875      2.4615     -0.0752     11.4227   -999.2500     22.6609
  1256.4000      7.7875      2.4703     -0.0002     10.8887   -999.2500     22.8095
  1256.5000      7.7882      2.4922      0.0385      9.5615   -999.2500     22.6246
  1256.6000      7.7882      2.5082      0.0273      8.5916   -999.2500     22.5968
  1256.7000      7.7882      2.5214      0.0550      7.7954   -999.2500     23.0901
  1256.8000      7.7824      2.5418      0.0790      6.5603   -999.2500     25.8304
  1256.9000      7.7824      2.5748      0.0795      4.5597   -999.2500     33.7085
  1257.0000      7.7805      2.6090      0.0996      2.4826   -999.2500     44.8370
  1257.1000      7.7805      2.6272      0.1021      1.3804   -999.2500     52.2005
  1257.2000      7.7805      2.6282      0.1021      1.3197   -999.2500     54.7004
  1257.3000      7.7788      2.6214      0.0921      1.7304   -999.2500     55.1779
  1257.4000      7.7788      2.6183      0.0829      1.9204   -999.2500     55.2282
  1257.5000      7.7796      2.6295      0.0497      1.2412   -999.2500     55.2310
  1257.6000      7.7796      2.6516      0.0649     -0.0979   -999.2500   -999.2500
  1257.7000      7.7796      2.6610      0.0795     -0.6692   -999.2500   -999.2500
  1257.8000      7.7805      2.6414      0.0535      0.5229   -999.2500   -999.2500
  1257.9000      7.7805      2.6046      0.0094      2.7491   -999.2500   -999.2500
  1258.0000      7.7795      2.5796     -0.0099      4.2673   -999.2500   -999.2500
  1258.1000      7.7795      2.5747      0.0501      4.5622   -999.2500   -999.2500
  1258.2000      7.7795      2.5673      0.0757      5.0149   -999.2500   -999.2500
  1258.3000      7.7865      2.5580     -0.0109      5.5782   -999.2500   -999.2500
  1258.4000      7.7865      2.5686      0.0229      4.9357   -999.2500   -999.2500
  1258.5000      7.7811      2.5921      0.0524      3.5108   -999.2500   -999.2500
  1258.6000      7.7811      2.6127      0.0636      2.2588   -999.2500   -999.2500
  1258.7000      7.7811      2.6222      0.0932      1.6865   -999.2500   -999.2500
  1258.8000      7.7773      2.6156      0.0456      2.0840   -999.2500   -999.2500
  1258.9000      7.7773      2.6012      0.0473      2.9603   -999.2500   -999.2500
  1259.0000      7.7767      2.5831      0.0826      4.0560   -999.2500   -999.2500
  1259.1000      7.7767      2.5681      0.0637      4.9642   -999.2500   -999.2500
  1259.2000      7.7767      2.5804      0.0718      4.2173   -999.2500   -999.2500
  1259.3000      7.7772      2.6148      0.1506      2.1341   -999.2500   -999.2500
  1259.4000      7.7772      2.6263      0.1238      1.4387   -999.2500   -999.2500
  1259.5000      7.7774      2.5972      0.0955      3.2006   -999.2500   -999.2500
  1259.6000      7.7774      2.5578      0.0046      5.5888   -999.2500   -999.2500
  1259.7000      7.7774      2.5360      0.0617      6.9064   -999.2500   -999.2500
  1259.8000      7.7819      2.5360      0.0076      6.9078   -999.2500   -999.2500
  1259.9000      7.7819      2.5552      0.0341      5.7473   -999.2500   -999.2500
  1260.0000      7.7781      2.5768      0.0599      4.4391   -999.2500   -999.2500
  1260.1000      7.7781      2.5850      0.0580      3.9389   -999.2500   -999.2500
  1260.2000      7.7781      2.5861      0.0432      3.8753   -999.2500   -999.2500
  1260.3000      7.7765      2.5925      0.0503      3.4868   -999.2500   -999.2500
  1260.4000      7.7765      2.6091      0.0815      2.4771   -999.2500   -999.2500
  1260.5000      7.7774      2.6190      0.1326      1.8797   -999.2500   -999.2500
  1260.6000      7.7774      2.6083      0.0339      2.5291   -999.2500   -999.2500
  1260.7000      7.7774      2.5937      0.0553      3.4094   -999.2500   -999.2500
  1260.8000      7.7766      2.5881      0.0406      3.7537   -999.2500   -999.2500
  1260.9000      7.7766      2.5853      0.0363      3.9206   -999.2500   -999.2500
  1261.0000      7.7778      2.5828     -0.0272      4.0724   -999.2500   -999.2500
  1261.1000      7.7778      2.5869     -0.0050      3.8254   -999.2500   -999.2500
  1261.2000      7.7778      2.5959      0.0025      3.2796   -999.2500   -999.2500
  1261.3000      7.7774      2.5957      0.0509      3.2887   -999.2500   -999.2500
  1261.4000      7.7774      2.5803      0.0393      4.2252   -999.2500   -999.2500
  1261.5000      7.7775      2.5685      0.0127      4.9397   -999.2500   -999.2500
  1261.6000      7.7775      2.5713      0.0765      4.7679   -999.2500   -999.2500
  1261.7000      7.7775      2.5785      0.0398      4.3324   -999.2500   -999.2500
  1261.8000      7.7788      2.5910      0.0594      3.5759   -999.2500   -999.2500
  1261.9000      7.7788      2.6079      0.0606      2.5505   -999.2500   -999.2500
  1262.0000      7.7779      2.6149      0.0801      2.1303   -999.2500   -999.2500
  1262.1000      7.7779      2.6092      0.0553      2.4719   -999.2500   -999.2500
