~Version Information
VERS.                      2.0: CWLS Log ASCII Standard - VERSION 2.0
WRAP.                       NO: One line per depth step
~Well Information Block
STRT.FT               -10.7500: 
STOP.FT              1466.2500: 
STEP.FT                 0.2500: 
NULL.                -999.2500: 
COMP.          Pioneer Natural Resources: COMPANY
WELL.             Andrew 23-15: WELL
FLD.           Purgatorie River: FIELD
LOC.           2137' FSL & 2292' FWL--: LOCATION
PROV.                       CO: PROVINCE
CNTY.               Las Animas: COUNTRY
SRVC.          Patterson Wireline: SERVICE COMPANY
DATE.          Thu Aug 18 11:51:45 2005: LOG DATE
UWI.           05 071 08460 00: UNIQUE WELL ID
~Curve Information Block
DEPT.FT            0 000 00 00: Depth
CCL.                          : Casing Collar Locator
TT3.usec                      : CBL 3' Travel Time
AMP3.mV                       : CBL 3' Amplitude
GR.GAPI                       : Gamma Ray
~Parameter Information Block
~A  Depth       CCL         TT3         AMP3         GR     
   -10.7500   -999.2500   -999.2500   -999.2500     97.4004
   -10.5000   -999.2500   -999.2500   -999.2500     93.3877
   -10.2500   -999.2500   -999.2500   -999.2500     90.8954
   -10.0000   -999.2500   -999.2500   -999.2500     90.0540
    -9.7500   -999.2500   -999.2500   -999.2500     90.0433
    -9.5000   -999.2500   -999.2500   -999.2500     90.1904
    -9.2500   -999.2500   -999.2500   -999.2500     90.2259
    -9.0000   -999.2500   -999.2500   -999.2500     89.9730
    -8.7500   -999.2500   -999.2500   -999.2500     89.3185
    -8.5000   -999.2500   -999.2500   -999.2500     88.2922
    -8.2500   -999.2500   -999.2500   -999.2500     86.9878
    -8.0000   -999.2500   -999.2500   -999.2500     85.7057
    -7.7500   -999.2500   -999.2500   -999.2500     85.2158
    -7.5000   -999.2500   -999.2500   -999.2500     86.1872
    -7.2500   -999.2500   -999.2500   -999.2500     87.9715
    -7.0000   -999.2500   -999.2500   -999.2500     88.6158
    -6.7500   -999.2500   -999.2500   -999.2500     86.7371
    -6.5000   -999.2500   -999.2500   -999.2500     83.1338
    -6.2500   -999.2500   -999.2500   -999.2500     80.1576
    -6.0000   -999.2500   1149.0000      1.9178     79.7674
    -5.7500   -999.2500   1149.0000      1.9071     82.3855
    -5.5000   -999.2500   1149.0000      1.8978     86.9216
    -5.2500   -999.2500   1149.0000      1.8949     91.2168
    -5.0000   -999.2500   1149.0000      1.9014     92.9772
    -4.7500   -999.2500   1149.0000      1.9154     91.2266
    -4.5000   -999.2500   1149.0000      1.9305     87.0299
    -4.2500   -999.2500   1149.0000      1.9399     82.5889
    -4.0000   -999.2500   1149.0000      1.9398     79.7470
    -3.7500   -999.2500   1149.0000      1.9310     79.3203
    -3.5000   -999.2500   1149.0000      1.9166     81.1512
    -3.2500   -999.2500   1149.0000      1.9013     84.1853
    -3.0000   -999.2500   1149.0000      1.8906     86.7444
    -2.7500   -999.2500   1149.0000      1.8891     87.4747
    -2.5000   -999.2500   1149.0000      1.8981     86.4895
    -2.2500   -999.2500   1149.0000      1.9147     85.3554
    -2.0000   -999.2500   1149.0000      1.9328     85.5480
    -1.7500   -999.2500   1149.0000      1.9470     86.9192
    -1.5000   -999.2500   1149.0000      1.9545     87.9128
    -1.2500   -999.2500   1149.0000      1.9546     87.3532
    -1.0000   -999.2500   1149.0000      1.9469     85.7262
    -0.7500      0.0000   1149.0000      1.9330     84.4209
    -0.5000      0.0000   1149.0000      1.9190     84.0767
    -0.2500      0.0000   1149.0000      1.9127     84.1424
     0.0000      0.0000   1149.0000      1.9289     82.1908
     0.2500     -2.0000   1149.0000      1.9392     79.4418
     0.5000      2.0000   1149.0000      1.9436     75.4443
     0.7500      0.0000   1149.0000      1.9431     70.2120
     1.0000     -2.0000   1149.0000      1.9415     63.8653
     1.2500      2.0000   1149.0000      1.9406     56.8041
     1.5000     -2.0000   1149.0000      1.9390     49.7517
     1.7500      0.0000   1149.0000      1.9339     43.5725
     2.0000      0.0000   1149.0000      1.9236     38.9461
     2.2500      2.0000   1149.0000      1.9099     36.1848
     2.5000      0.0000   1149.0000      1.8971     35.4208
     2.7500      2.0000   1149.0000      1.8896     36.7722
     3.0000     -2.0000   1149.0000      1.8897     40.0410
     3.2500      0.0000   1149.0000      1.8961     44.4476
     3.5000      0.0000   1149.0000      1.9046     48.9698
     3.7500      0.0000   1149.0000      1.9115     52.8075
     4.0000      0.0000   1149.0000      1.9161     55.4880
     4.2500      0.0000   1149.0000      1.9201     57.0232
     4.5000      0.0000   1149.0000      1.9245     58.1406
     4.7500      0.0000   1149.0000      1.9285     59.7914
     5.0000      0.0000   1149.0000      1.9308     62.1040
     5.2500      0.0000   1149.0000      1.9311     64.1651
     5.5000      0.0000   1149.0000      1.9296     65.0488
     5.7500      0.0000   1149.0000      1.9270     64.8559
     6.0000      0.0000   1149.0000      1.9247     64.5203
     6.2500      0.0000   1149.0000      1.9245     64.6603
     6.5000      0.0000   1149.0000      1.9272     64.8546
     6.7500      0.0000   1148.9406      1.9364     64.1826
     7.0000      0.0000   1148.5532      1.9670     62.2874
     7.2500      0.0000   1146.5861      2.0967     59.8113
     7.5000      0.0000   1138.8060      2.5972     58.0354
     7.7500      0.0000   1114.8435      4.1326     58.1450
     8.0000      0.0000   1057.3644      7.7934     60.4064
     8.2500      0.0000    949.9892     14.5721     63.7872
     8.5000      0.0000    793.7767     24.3307     66.5908
     8.7500      0.0000    616.7883     35.2602     67.7049
     9.0000      0.0000    460.6202     44.7899     67.3097
     9.2500      0.0000    353.3033     51.2720     66.4851
     9.5000      0.0000    295.8653     54.7312     66.3448
     9.7500      0.0000    271.9173     56.2008     67.5488
    10.0000      0.0000    264.1337     56.7142     70.1366
    10.2500      0.0000    262.1557     56.8694     73.3210
    10.5000      0.0000    261.7582     56.9067     75.6667
    10.7500      0.0000    261.6931     56.9001     76.1353
    11.0000      0.0000    261.6915     56.8747     75.0216
    11.2500      0.0000    261.6891     56.8559     73.4668
    11.5000      0.0000    261.6806     56.8689     72.1548
    11.7500      0.0000    261.6660     56.9228     70.8979
    12.0000      0.0000    261.6501     57.0013     69.3475
    12.2500      0.0000    261.6390     57.0748     67.6641
    12.5000      0.0000    261.6358     57.1192     66.4672
    12.7500      0.0000    261.6407     57.1253     66.2525
    13.0000      0.0000    261.6524     57.0971     66.7169
    13.2500      0.0000    261.6691     57.0467     66.6284
    13.5000      0.0000    261.6895     56.9866     64.7635
    13.7500      0.0000    261.7121     56.9277     61.2030
    14.0000      0.0000    261.7348     56.8817     57.4883
    14.2500      0.0000    261.7538     56.8614     55.3994
    14.5000      0.0000    261.7656     56.8719     55.6898
    14.7500      0.0000    261.7686     56.9049     57.8291
    15.0000      0.0000    261.7625     56.9468     60.7057
    15.2500      0.0000    261.7479     56.9918     63.6428
    15.5000      0.0000    261.7267     57.0446     66.7453
    15.7500      0.0000    261.7033     57.1093     70.0953
    16.0000      0.0000    261.6835     57.1794     72.8560
    16.2500      0.0000    261.6724     57.2395     73.6716
    16.5000      0.0000    261.6729     57.2733     71.9107
    16.7500      0.0000    261.6854     57.2687     68.1670
    17.0000      0.0000    261.7085     57.2209     63.7015
    17.2500      0.0000    261.7380     57.1388     59.8144
    17.5000      0.0000    261.7667     57.0496     57.5169
    17.7500      0.0000    261.7855     56.9896     57.0970
    18.0000      0.0000    261.7883     56.9807     57.7890
    18.2500      0.0000    261.7752     57.0177     58.2576
    18.5000      0.0000    261.7520     57.0825     57.5899
    18.7500      0.0000    261.7260     57.1642     55.7213
    19.0000      0.0000    261.7020     57.2605     53.0750
    19.2500      0.0000    261.6830     57.3634     50.1330
    19.5000      0.0000    261.6703     57.4532     47.4073
    19.7500      0.0000    261.6643     57.5096     45.5443
    20.0000      0.0000    261.6649     57.5231     45.1782
    20.2500      0.0000    261.6717     57.4949     46.6675
    20.5000      0.0000    261.6842     57.4309     50.0719
    20.7500      0.0000    261.7023     57.3381     55.3464
    21.0000      0.0000    261.7244     57.2272     62.3828
    21.2500      0.0000    261.7471     57.1158     70.6823
    21.5000      0.0000    261.7658     57.0254     78.9337
    21.7500      0.0000    261.7764     56.9718     85.2509
    22.0000      0.0000    261.7782     56.9562     88.2940
    22.2500      0.0000    261.7734     56.9655     88.1966
    22.5000      0.0000    261.7647     56.9847     86.0531
