~Version Information
VERS.                      2.0: CWLS Log ASCII Standard - VERSION 2.0
WRAP.                       NO: One line per depth step
~Well Information Block
STRT.FT                -8.2500: 
STOP.FT              2119.7500: 
STEP.FT                 0.2500: 
NULL.                -999.2500: 
COMP.          Pioneer Natural Resources: COMPANY
WELL.          Hemisphere 32-24: WELL
FLD.           Purgatorie River: FIELD
LOC.           1850' FNL & 2284' FEL--: LOCATION
PROV.                       CO: PROVINCE
CNTY.               Las Animas: COUNTRY
SRVC.          Patterson Wireline: SERVICE COMPANY
DATE.          Sat Aug 27 08:06:42 2005: LOG DATE
UWI.           05 071 08440 00: UNIQUE WELL ID
~Curve Information Block
DEPT.FT            0 000 00 00: Depth
CCL.                          : Casing Collar Locator
TT3.usec                      : CBL 3' Travel Time
AMP3.mV                       : CBL 3' Amplitude
GR.GAPI                       : Gamma Ray
~Parameter Information Block
~A  Depth       CCL         TT3         AMP3         GR     
# ...
   259.7500      0.0000    820.0975      7.2296     54.0862
   260.0000      0.0000    838.1652      7.2016     54.0086
   260.2500      0.0000    865.6142      7.1187     54.2912
   260.5000      0.0000    894.3608      6.9878     55.7402
   260.7500      0.0000    910.2584      6.8271     58.4067
   261.0000      0.0000    903.3296      6.6622     61.6896
   261.2500      0.0000    876.4063      6.5188     65.2164
   261.5000      0.0000    842.4777      6.4102     69.3031
   261.7500      0.0000    814.4680      6.3300     74.4202
   262.0000      0.0000    798.1039      6.2574     80.3147
   262.2500      0.0000    791.5707      6.1734     85.7935
   262.5000      0.0000    788.7293      6.0743     89.4281
   262.7500      0.0000    783.7150      5.9734     90.5757
   263.0000      0.0000    775.8630      5.8910     89.8085
   263.2500      0.0000    770.9833      5.8439     88.3281
   263.5000      0.0000    775.9401      5.8415     87.0129
   263.7500      0.0000    791.6116      5.8855     86.1245
   264.0000      0.0000    812.3279      5.9713     85.6757
   264.2500      0.0000    831.7470      6.0878     85.6161
   264.5000      0.0000    847.9597      6.2212     85.6031
   264.7500      0.0000    863.6013      6.3600     85.0198
   265.0000      0.0000    882.2208      6.4954     83.7116
   265.2500      0.0000    904.2408      6.6188     82.6001
   265.5000      0.0000    926.2214      6.7195     82.9194
   265.7500      0.0000    944.6332      6.7879     84.6901
   266.0000      0.0000    959.5961      6.8212     86.5591
   266.2500      0.0000    973.6132      6.8257     87.4312
   266.5000      0.0000    987.8520      6.8141     87.7418
   266.7500      0.0000   1001.4296      6.7999     88.9467
   267.0000      0.0000   1013.0272      6.7906     92.1274
   267.2500      0.0000   1021.2969      6.7819     97.0860
   267.5000      0.0000   1024.6915      6.7601    102.2553
   267.7500      0.0000   1022.7812      6.7110    105.3172
   268.0000      0.0000   1017.4692      6.6324    104.6019
   268.2500      0.0000   1011.8000      6.5387    100.6691
   268.5000      0.0000   1007.7385      6.4510     96.3783
   268.7500      0.0000   1005.5073      6.3796     94.8078
   269.0000      0.0000   1004.4584      6.3163     96.9847
   269.2500      0.0000   1003.9663      6.2442    101.5374
   269.5000      0.0000   1003.6610      6.1543    105.9050
   269.7500      0.0000   1003.3096      6.0525    107.7205
   270.0000      0.0000   1002.6844      5.9515    105.8345
   270.2500      0.0000   1001.4233      5.8609    100.7257
   270.5000      0.0000    998.9815      5.7867     94.0402
   270.7500      0.0000    994.8188      5.7355     87.7495
   271.0000      0.0000    988.6928      5.7154     83.5989
   271.2500      0.0000    980.5984      5.7307     82.7994
   271.5000      0.0000    970.4066      5.7755     85.4931
   271.7500      0.0000    957.9504      5.8326     90.3223
   272.0000      0.0000    943.4117      5.8831     94.9912
   272.2500      0.0000    926.8393      5.9195     97.8633
   272.5000      0.0000    907.0850      5.9500     99.1797
   272.7500      0.0000    882.3096      5.9894    100.4106
   273.0000      0.0000    852.6732      6.0453    102.2799
   273.2500      0.0000    822.5448      6.1138    103.6959
   273.5000      0.0000    799.4268      6.1850    102.8650
   273.7500      0.0000    789.5881      6.2548     99.2577
   274.0000      0.0000    793.4709      6.3287     94.0872
   274.2500      0.0000    805.2916      6.4140     88.8208
   274.5000      0.0000    817.9065      6.5087     83.6137
   274.7500      0.0000    827.7188      6.6001     77.5984
   275.0000      0.0000    834.4932      6.6755     70.7118
   275.2500      0.0000    838.1448      6.7310     64.8230
   275.5000      0.0000    837.6707      6.7707     62.6402
   275.7500      0.0000    832.8322      6.7989     65.4460
   276.0000      0.0000    825.3455      6.8137     71.9529
   276.2500      0.0000    817.9698      6.8086     79.2545
   276.5000      0.0000    812.8179      6.7794     84.6561
   276.7500      0.0000    810.6472      6.7331     86.7374
   277.0000      0.0000    811.2618      6.6851     85.3342
   277.2500      0.0000    813.9183      6.6490     81.1593
   277.5000      0.0000    817.4325      6.6287     75.6073
   277.7500      0.0000    820.6095      6.6206     70.4826
   278.0000      0.0000    823.1088      6.6213     67.2827
   278.2500      0.0000    825.4605      6.6295     66.3959
   278.5000      0.0000    827.5939      6.6431     67.0503
   278.7500      0.0000    827.5519      6.6556     68.0252
   279.0000      0.0000    822.6129      6.6579     68.3425
   279.2500      0.0000    812.2460      6.6454     67.6014
   279.5000      0.0000    799.1685      6.6229     66.1749
   279.7500      0.0000    786.4116      6.6016     65.1485
   280.0000      0.0000    773.2540      6.5920     65.7044
   280.2500      0.0000    754.4536      6.5983     68.1741
   280.5000      0.0000    724.3544      6.6150     71.4648
   280.7500      0.0000    683.7387      6.6291     73.5294
   281.0000      0.0000    643.8975      6.6271     72.7826
   281.2500      0.0000    622.4243      6.6028     69.3930
   281.5000      0.0000    631.4297      6.5600     65.3130
   281.7500      0.0000    667.4439      6.5097     62.8883
   282.0000      0.0000    713.7740      6.4628     63.1550
   282.2500      0.0000    754.9825      6.4247     65.2248
   282.5000      0.0000    788.0171      6.3938     67.0089
   282.7500      0.0000    817.2166      6.3668     66.5470
   283.0000      0.0000    842.7388      6.3449     63.3137
   283.2500      0.0000    859.7789      6.3364     58.7535
   283.5000      0.0000    866.6356      6.3516     55.2820
   283.7500      0.0000    867.2360      6.3938     54.4529
   284.0000      0.0000    865.7420      6.4569     56.0926
   284.2500      0.0000    863.4227      6.5293     58.8577
   284.5000      0.0000    861.5340      6.6000     61.2419
   284.7500      0.0000    862.3868      6.6626     62.5248
   285.0000      0.0000    865.0451      6.7163     63.2402
   285.2500      0.0000    863.8084      6.7673     64.2901
   285.5000      0.0000    854.1824      6.8262     65.4307
   285.7500      0.0000    838.2379      6.9004     65.3001
   286.0000      0.0000    821.5076      6.9825     63.0343
   286.2500      0.0000    806.1957      7.0414     59.3310
   286.5000      0.0000    790.2065      7.0244     56.0239
   286.7500      0.0000    772.6147      6.8772     54.9362
   287.0000      0.0000    758.9032      6.5761     56.6997
   287.2500      0.0000    759.9945      6.1558     60.0971
   287.5000      0.0000    784.5797      5.7104     62.7829
   287.7500      0.0000    830.2675      5.3525     63.2872
   288.0000      0.0000    883.0682      5.1454     62.3848
   288.2500      0.0000    928.5485      5.0666     62.2371
   288.5000      0.0000    963.6862      5.0432     64.3776
   288.7500     -2.0000    994.8705      5.0191     68.6749
   289.0000      0.0000   1023.4779      4.9895     73.6841
   289.2500      0.0000   1037.3895      4.9885     77.5329
   289.5000      0.0000   1020.8576      5.0533     78.9666
   289.7500      0.0000    972.5873      5.1972     78.1355
   290.0000      0.0000    911.5865      5.4079     76.3067
   290.2500      0.0000    863.6676      5.6634     74.7543
   290.5000      0.0000    842.5380      5.9363     74.2498
   290.7500      0.0000    843.5577      6.1850     75.4882
   291.0000      0.0000    853.0408      6.3687     79.1626
   291.2500      0.0000    860.3128      6.4760     85.1837
   291.5000      0.0000    861.7650      6.5280     92.2310
   291.7500      0.0000    857.6185      6.5527     98.4063
   292.0000      0.0000    848.4974      6.5658    102.1648
   292.2500      0.0000    835.1318      6.5722    102.7977
   292.5000      0.0000    819.3637      6.5750    100.6528
   292.7500      0.0000    804.0790      6.5788     96.9763
   293.0000      0.0000    791.8901      6.5862     92.9950
