~Version Information
VERS.                      2.0: CWLS Log ASCII Standard - VERSION 2.0
WRAP.                       NO: One line per depth step
~Well Information Block
STRT.FT                 0.0000: 
STOP.FT              1147.5000: 
STEP.FT                 0.2500: 
NULL.                -999.2500: 
COMP.          Pioneer Natural Resources: COMPANY
WELL.          Tin Barn 14-20 TR: WELL
FLD.           Purgatorie River: FIELD
LOC.           925 FSL & 1151 FWL: LOCATION
PROV.                 Colorado: PROVINCE
CNTY.               Las Animas: COUNTRY
SRVC.                Patterson: SERVICE COMPANY
DATE.          Wed Jan 18 12:02:25 2006: LOG DATE
UWI.                          : UNIQUE WELL ID
~Curve Information Block
DEPT.FT            0 000 00 00: Depth
CCL.                          : Casing Collar Locator
TT3.usec                      : CBL 3' Travel Time
AMP3.mV                       : CBL 3' Amplitude
GR.GAPI                       : Gamma Ray
~Parameter Information Block
~A  Depth       CCL         TT3         AMP3         GR     
# ...
  1105.5000      0.0000    584.4241      7.5982    146.9170
  1105.7500      0.0000    613.6652      7.4492    147.2812
  1106.0000      0.0000    647.5347      7.3440    145.6501
  1106.2500      0.0000    670.7537      7.3519    141.8491
  1106.5000      0.0000    678.7521      7.4575    138.0384
  1106.7500      0.0000    677.3876      7.5869    136.7943
  1107.0000      0.0000    675.3533      7.6826    138.2546
  1107.2500      0.0000    676.6557      7.7565    139.7889
  1107.5000      0.0000    678.3197      7.8406    138.5014
  1107.7500      0.0000    677.2858      7.9026    133.6228
  1108.0000      0.0000    676.1902      7.8325    126.5826
  1108.2500      0.0000    678.4896      7.5056    119.3767
  1108.5000      0.0000    682.5952      6.9071    113.2986
  1108.7500      0.0000    683.7132      6.2555    108.9284
  1109.0000      0.0000    677.9354      5.8635    106.5601
  1109.2500      0.0000    666.8294      5.7409    105.9601
  1109.5000      0.0000    659.1344      5.6869    105.7344
  1109.7500      0.0000    659.9621      5.7764    103.6140
  1110.0000      0.0000    663.8985      6.1526     98.0487
  1110.2500      0.0000    665.7763      6.6323     89.6518
  1110.5000      2.0000    668.0777      6.9590     81.0260
  1110.7500      2.0000    675.7979      7.0832     75.1388
  1111.0000      0.0000    686.8624      7.0533     73.5223
  1111.2500      0.0000    687.4215      6.9115     75.5988
  1111.5000      0.0000    666.0732      6.7835     79.6236
  1111.7500      0.0000    634.4596      6.8115     84.3324
  1112.0000      0.0000    619.6408      6.8841     89.5709
  1112.2500      0.0000    631.1524      6.8877     95.4251
  1112.5000      0.0000    651.1253      7.1243    101.3063
  1112.7500      0.0000    662.5033      7.7909    106.3004
  1113.0000      0.0000    665.4935      8.5068    110.1954
  1113.2500      0.0000    666.1644      8.8524    113.5976
  1113.5000      0.0000    667.2783      8.8432    116.9012
  1113.7500      0.0000    668.5038      8.7121    119.5694
  1114.0000      0.0000    667.0218      8.5892    120.7497
  1114.2500      0.0000    660.4846      8.4587    120.4032
  1114.5000      0.0000    653.2027      8.2813    119.4314
  1114.7500      0.0000    651.9857      8.1176    118.6293
  1115.0000      0.0000    654.2430      8.0935    117.8788
  1115.2500      0.0000    647.7871      8.2409    116.7154
  1115.5000      0.0000    617.6873      8.4560    115.6379
  1115.7500      0.0000    556.6734      8.6216    116.4315
  1116.0000      0.0000    480.5294      8.7230    120.7013
  1116.2500      0.0000    419.9810      8.8157    127.9309
  1116.5000      0.0000    389.5834      8.9164    135.5108
  1116.7500      0.0000    382.0103      8.9918    141.1165
  1117.0000      0.0000    390.5604      9.0165    144.5371
  1117.2500      0.0000    421.5122      8.9861    146.7005
  1117.5000      0.0000    480.1267      8.9030    147.6804
  1117.7500      0.0000    547.9894      8.7769    146.5453
  1118.0000      0.0000    592.3354      8.6069    142.8792
  1118.2500      0.0000    602.6743      8.3760    137.8250
  1118.5000      0.0000    596.0129      8.1098    133.5983
  1118.7500      0.0000    589.1437      7.8885    132.2189
  1119.0000      0.0000    585.7285      7.7605    134.5556
  1119.2500      0.0000    583.3714      7.7108    140.0488
  1119.5000      0.0000    579.9905      7.7236    147.0950
  1119.7500      0.0000    576.8599      7.8087    154.0159
  1120.0000      0.0000    581.4055      7.9563    159.9840
  1120.2500      0.0000    602.2163      8.1143    164.8926
  1120.5000      0.0000    636.7153      8.2247    168.2643
  1120.7500      0.0000    671.2893      8.2774    168.7608
  1121.0000      0.0000    694.4223      8.3144    165.2809
  1121.2500      0.0000    701.0842      8.3624    158.3618
  1121.5000      0.0000    692.7783      8.3990    150.1554
  1121.7500      0.0000    679.3605      8.4122    143.1311
  1122.0000      0.0000    670.2943      8.4234    138.8032
  1122.2500      0.0000    666.6061      8.4486    137.2734
  1122.5000      0.0000    664.9964      8.4847    137.5572
  1122.7500      0.0000    662.3474      8.5194    138.2906
  1123.0000      0.0000    655.5269      8.5401    138.4960
  1123.2500      0.0000    642.9156      8.5444    138.1898
  1123.5000      0.0000    627.7040      8.5497    138.4124
  1123.7500      0.0000    616.1331      8.5841    140.2825
  1124.0000      0.0000    614.1942      8.6475    143.8264
  1124.2500      0.0000    626.1115      8.6937    147.8846
  1124.5000      0.0000    647.7538      8.6746    151.1111
  1124.7500      0.0000    665.8173      8.5842    152.8719
  1125.0000      0.0000    671.8526      8.4553    153.4700
  1125.2500      0.0000    669.9759      8.3315    153.8551
  1125.5000      0.0000    668.2613      8.2184    154.7198
  1125.7500      0.0000    670.5457      8.0797    155.3035
  1126.0000      0.0000    674.8358      7.9176    153.5300
  1126.2500      0.0000    673.1084      7.8002    148.3127
  1126.5000      0.0000    657.6961      7.7806    141.5813
  1126.7500      0.0000    633.7619      7.8395    136.8995
  1127.0000      0.0000    618.0632      7.9029    135.8226
  1127.2500      0.0000    620.9229      7.9149    136.1887
  1127.5000      0.0000    636.2388      7.9173    133.9772
  1127.7500      0.0000    651.0068      8.0198    126.4777
  1128.0000      0.0000    658.8460      8.2622    114.1192
  1128.2500      0.0000    661.3729      8.5585    100.0233
  1128.5000      0.0000    661.4937      8.7995     87.9995
  1128.7500      0.0000    659.6005      8.9717     80.5238
  1129.0000      0.0000    654.4351      9.1450     78.0443
  1129.2500      0.0000    647.1620      9.3623     79.7054
  1129.5000      0.0000    643.7844      9.5866     84.3797
  1129.7500      0.0000    648.3690      9.7681     91.0017
  1130.0000      0.0000    656.5670      9.8986     98.3182
  1130.2500      0.0000    662.0938      9.9717    104.9186
  1130.5000      0.0000    663.8950      9.9524    109.7651
  1130.7500      0.0000    663.9363      9.8185    112.3881
  1131.0000      0.0000    663.5581      9.6206    112.0579
  1131.2500      0.0000    663.1487      9.4428    106.7845
  1131.5000      0.0000    662.8182      9.2807     94.0563
  1131.7500      0.0000    662.6062      9.0555     73.6330
  1132.0000      0.0000    662.4937      8.7609     49.4633
  1132.2500      0.0000    662.4338      8.4797     27.7487
  1132.5000      0.0000    662.3580      8.2670     12.7506
  1132.7500      0.0000    662.1573      8.1186      4.7341
  1133.0000      0.0000    661.4030      8.0290      1.4063
  1133.2500      0.0000    658.4361      7.9869      0.3316
  1133.5000      0.0000    649.8132      7.9612      0.0611
  1133.7500      0.0000    633.5166      7.9497      0.0080
  1134.0000      0.0000    615.0871      7.9559      0.0000
  1134.2500      0.0000    606.4291      7.9287   -999.2500
  1134.5000      0.0000    614.2123      7.8506   -999.2500
  1134.7500      0.0000    632.2389      7.8029   -999.2500
  1135.0000      0.0000    648.4838      7.8406   -999.2500
  1135.2500      0.0000    657.1085      7.9187   -999.2500
  1135.5000      0.0000    660.0959      7.9831   -999.2500
  1135.7500      0.0000    661.0061      8.0305   -999.2500
  1136.0000      0.0000    661.4966      8.0839   -999.2500
  1136.2500      0.0000    661.3444      8.1526   -999.2500
  1136.5000      0.0000    656.7406      8.1785   -999.2500
  1136.7500      0.0000    633.1095      7.9569   -999.2500
  1137.0000      0.0000    560.6591      7.1413   -999.2500
  1137.2500      0.0000    419.4577      5.5553   -999.2500
  1137.5000      0.0000    243.1766      3.6166   -999.2500
  1137.7500      0.0000    102.0596      2.0901   -999.2500
  1138.0000      0.0000     29.6185      1.3147   -999.2500
  1138.2500      0.0000      5.7731      1.0611   -999.2500
  1138.5000      0.0000      0.7402      1.0078   -999.2500
  1138.7500      0.0000      0.0591      1.0006   -999.2500
