~Version Information
VERS.                      2.0: CWLS Log ASCII Standard - VERSION 2.0
WRAP.                       NO: One line per depth step
~Well Information Block
STRT.FT                -4.0000: 
STOP.FT               675.2500: 
STEP.FT                 0.2500: 
NULL.                -999.2500: 
COMP.          Pioneer Natural Resources: COMPANY
WELL.          Razor Clam 23-27: WELL
FLD.           Purgatoire River: FIELD
LOC.           2499' FSL & 2636' FWL: LOCATION
CNTY.               Las Animas: COUNTY
SRVC.                         : SERVICE COMPANY
DATE.          Thu Mar 09 13:15:19 2006: LOG DATE
UWI.           05 071 08667 00: UNIQUE WELL ID
STAT.                       CO: STATE
~Curve Information Block
DEPT.FT            0 000 00 00: Depth
GR.GAPI                       : Gamma Ray
CCL.                          : Casing Collar Locator
TT3.usec                      : CBL 3' Travel Time
AMP3.mV                       : CBL 3' Amplitude
~Parameter Information Block
~A  Depth        GR         CCL         TT3         AMP3    
# ...
   130.0000     80.4230      0.0000    459.8166     23.4570
   130.2500     84.4195      0.0000    395.7570     23.7753
   130.5000     87.2235      0.0000    347.5289     24.0850
   130.7500     88.4072      0.0000    320.6883     24.3475
   131.0000     87.9392      0.0000    309.3756     24.5010
   131.2500     86.3560      0.0000    305.7937     24.5430
   131.5000     84.9608      0.0000    305.0101     24.5625
   131.7500     85.3067      0.0000    304.9586     24.6691
   132.0000     88.2466      0.0000    305.0370     24.8950
   132.2500     93.5551      0.0000    305.2965     25.1640
   132.5000    100.1814      0.0000    306.2627     25.3628
   132.7500    106.5096      0.0000    309.1798     25.4437
   133.0000    110.8246      0.0000    316.3694     25.4362
   133.2500    112.3244      0.0000    331.8262     25.3566
   133.5000    111.8282      0.0000    361.1133     25.1515
   133.7500    111.1105      0.0000    408.2802     24.7531
   134.0000    111.3457      0.0000    469.2778     24.1409
   134.2500    112.3336      0.0000    528.6526     23.3146
   134.5000    113.1967      0.0000    567.7653     22.2465
   134.7500    113.4118      0.0000    578.7033     20.9504
   135.0000    113.1577      0.0000    567.6237     19.6259
   135.2500    113.1367      0.0000    545.1814     18.6342
   135.5000    114.1193      0.0000    519.7081     18.2032
   135.7500    116.2635      0.0000    499.4184     18.1898
   136.0000    118.7726      0.0000    492.1940     18.2462
   136.2500    120.3375      0.0000    498.5477     18.1738
   136.5000    120.0125      0.0000    509.4779     18.0194
   136.7500    118.0044      0.0000    514.8218     17.9114
   137.0000    115.8761      1.6620    512.0449     17.9401
   137.2500    115.5993      0.0000    505.6833     18.1572
   137.5000    117.8274      0.0000    499.9424     18.6157
   137.7500    121.1382      0.0000    493.2161     19.3854
   138.0000    123.4594      0.0000    480.6677     20.4910
   138.2500    124.1765      0.0000    462.3364     21.7716
   138.5000    124.2627      0.0000    444.7502     22.8657
   138.7500    124.4104      0.0000    431.2878     23.4678
   139.0000    124.0593      0.0000    415.9416     23.5799
   139.2500    122.6163      0.0000    391.7851     23.4389
   139.5000    120.6222      0.0000    361.5285     23.2684
   139.7500    119.0361      0.0000    334.6956     23.1721
   140.0000    117.9154      0.0000    317.6082     23.1780
   140.2500    116.3315      0.0000    309.8580     23.2801
   140.5000    113.4158      0.0000    308.3945     23.4345
   140.7500    109.4076      0.0000    311.8962     23.5535
   141.0000    105.8110      0.0000    321.9516     23.5372
   141.2500    104.2222      0.0000    341.2549     23.3296
   141.5000    104.6603      0.0000    370.0234     22.9584
   141.7500    105.3706      0.0000    404.0575     22.5148
   142.0000    104.6068      0.0000    438.9706     22.0950
   142.2500    102.1872      0.0000    476.7591     21.7515
   142.5000     98.9697      0.0000    523.3940     21.4894
   142.7500     95.3901      0.0000    577.3062     21.2939
   143.0000     91.2940      0.0000    625.2533     21.1525
   143.2500     86.8997      0.0000    653.4225     21.0605
   143.5000     83.1147      0.0000    659.4988     21.0189
   143.7500     80.9411      0.0000    651.8387     21.0204
   144.0000     81.1338      0.0000    640.8658     21.0268
   144.2500     84.2537      0.0000    634.8648     20.9780
   144.5000     90.2881      0.0000    640.2773     20.8437
   144.7500     98.0455      0.0000    658.9684     20.6554
   145.0000    105.5402      0.0000    684.9976     20.4757
   145.2500    111.3744      0.0000    708.4992     20.3505
   145.5000    115.5005      0.0000    723.3035     20.2990
   145.7500    118.5208      0.0000    728.9714     20.3283
   146.0000    120.5367      0.0000    726.5941     20.4374
   146.2500    120.9626      0.0000    714.5562     20.6093
   146.5000    119.5226      0.0000    688.3638     20.8068
   146.7500    117.1605      0.0000    645.2354     20.9848
   147.0000    115.4107      0.0000    590.3073     21.1135
   147.2500    114.6626      0.0000    536.5293     21.1916
   147.5000    113.5205      0.0000    494.7758     21.2299
   147.7500    110.2504      0.0000    465.0695     21.2266
   148.0000    104.5757      0.0000    440.7617     21.1734
   148.2500     97.8325      0.0000    419.2903     21.0791
   148.5000     91.6499      0.0000    405.9939     20.9725
   148.7500     86.6691      0.0000    410.2004     20.8849
   149.0000     82.4666      0.0000    438.5042     20.8435
   149.2500     78.5693      0.0000    487.1125     20.8784
   149.5000     75.2188      0.0000    539.0814     21.0102
   149.7500     72.9812      0.0000    572.7238     21.2079
   150.0000     72.0011      0.0000    575.0064     21.3766
   150.2500     72.0417      0.0000    547.7195     21.4182
   150.5000     73.0720      0.0000    505.0046     21.3141
   150.7500     75.5330      0.0000    466.9185     21.1354
   151.0000     80.0545      0.0000    449.6581     20.9833
   151.2500     86.9113      0.0000    456.6324     20.9287
   151.5000     95.6933      0.0000    479.4501     20.9820
   151.7500    105.5493      0.0000    507.8939     21.0867
   152.0000    115.5853      0.0000    536.0883     21.1569
   152.2500    124.7586      0.0000    560.0271     21.1542
   152.5000    131.5623      0.0000    575.6354     21.1279
   152.7500    134.3387      0.0000    582.0036     21.1560
   153.0000    132.2634      0.0000    582.0563     21.2501
   153.2500    125.9771      0.0000    576.0586     21.3409
   153.5000    117.1652      0.0000    557.0984     21.3568
   153.7500    107.7155      0.0000    519.3942     21.2899
   154.0000     99.2217      0.0000    472.4775     21.1799
   154.2500     92.7460      0.0000    441.6441     21.0628
   154.5000     88.7621      0.0000    450.1985     20.9524
   154.7500     87.4058      0.0000    500.9162     20.8497
   155.0000     88.4842      0.0000    574.2342     20.7523
   155.2500     91.0288      0.0000    642.8339     20.6617
   155.5000     93.6800      0.0000    687.7983     20.5926
   155.7500     96.1742      0.0000    703.1123     20.5675
   156.0000     99.7329      0.0000    689.9370     20.5926
   156.2500    105.2733      0.0000    653.3596     20.6393
   156.5000    111.9086      0.0000    606.8991     20.6574
   156.7500    117.8454      0.0000    573.7688     20.6111
   157.0000    122.1567      0.0000    573.9778     20.5058
   157.2500    125.2126      0.0000    607.6358     20.3761
   157.5000    127.8532      0.0000    655.2792     20.2476
   157.7500    130.4753      0.0000    695.5361     20.1281
   158.0000    132.5741      0.0000    719.5408     20.0419
   158.2500    132.9012      0.0000    730.1584     20.0424
   158.5000    130.3333      0.0000    733.6721     20.1528
   158.7500    124.8901      0.0000    734.4521     20.2996
   159.0000    117.8507      0.0000    734.4037     20.3431
   159.2500    110.8781      0.0000    734.1362     20.2011
   159.5000    105.0992      0.0000    733.8491     19.9340
   159.7500    100.8359      0.0000    733.6064     19.7024
   160.0000     98.0175      0.0000    733.3041     19.6445
   160.2500     96.7808      0.0000    732.3365     19.7948
   160.5000     97.6365      0.0000    728.6860     20.1046
   160.7500    101.0637      0.0000    717.4673     20.5154
   161.0000    107.0220      0.0000    690.8801     20.9898
   161.2500    114.8276      0.0000    642.9702     21.4884
   161.5000    123.2413      0.0000    579.0397     21.9642
   161.7500    130.6824      0.0000    520.2541     22.3973
   162.0000    135.8043      0.0000    492.3435     22.7986
   162.2500    138.2033      0.0000    503.2753     23.1585
   162.5000    138.4022      0.0000    532.3390     23.4187
   162.7500    136.9435      0.0000    545.5617     23.5104
   163.0000    133.7402      0.0000    524.2473     23.4021
   163.2500    128.6271      0.0000    478.4250     23.1062
