~Version Information
VERS.                      2.0: CWLS Log ASCII Standard - VERSION 2.0
WRAP.                       NO: One line per depth step
~Well Information Block
STRT.FT               240.0000: 
STOP.FT              1159.2000: 
STEP.FT                 0.1000: 
NULL.                -999.2500: 
COMP.          Pioneer Natural Resources: COMPANY
WELL.               Ryan 41-17: WELL
FLD.           Purgatoire River: FIELD
LOC.           822' FNL & 532' FEL--: LOCATION
CNTY.               Las Animas: COUNTY
SRVC.                Patterson: SERVICE COMPANY
DATE.          Fri Mar 17 07:19:36 2006: LOG DATE
UWI.           05 071 08719 00: UNIQUE WELL ID
STAT.                 Colorado: STATE
~Curve Information Block
DEPT.FT            0 000 00 00: Depth
DCAL.in                       : CDL Caliper
RHOB.g/cc                     : CDL Bulk Density
RHOC.g/cc                     : CDL Density Correction
DPOR.pu                       : CDL Density Porosity
NPOR.pu                       : Neutron Porosity
GR.GAPI                       : Gamma Ray
~Parameter Information Block
~A  Depth       DCAL        RHOB        RHOC        DPOR        NPOR         GR     
# ...
  1075.2000      7.8109      2.5127      0.0026      8.3196     20.9236     74.9819
  1075.3000      7.8105      2.5208      0.0386      7.8281     21.2061     76.7188
  1075.4000      7.8105      2.5321      0.0505      7.1470     21.2211     76.9913
  1075.5000      7.8105      2.5231      0.0312      7.6891     20.8070     78.8439
  1075.6000      7.8105      2.4927      0.0454      9.5335     20.2704     81.2478
  1075.7000      7.8105      2.4663     -0.0398     11.1332     20.1828     79.2913
  1075.8000      7.8094      2.4699      0.0145     10.9177     20.4933     76.3377
  1075.9000      7.8094      2.4912      0.0500      9.6240     20.7776     77.7746
  1076.0000      7.8094      2.4974      0.0850      9.2488     20.7105     81.5902
  1076.1000      7.8094      2.4829      0.0055     10.1295     20.3855     83.2631
  1076.2000      7.8094      2.4706      0.0225     10.8737     20.1970     81.3368
  1076.3000      7.8076      2.4741      0.0119     10.6613     20.2642     78.4647
  1076.4000      7.8076      2.4916      0.0639      9.5994     20.4861     76.5622
  1076.5000      7.8006      2.5150      0.0344      8.1817     20.8358     75.4214
  1076.6000      7.8006      2.5328      0.0480      7.1038     21.1612     76.0512
  1076.7000      7.8006      2.5382      0.0670      6.7748     21.2758     80.0784
  1076.8000      7.7911      2.5412      0.0547      6.5923     21.3804     83.9148
  1076.9000      7.7911      2.5535      0.0861      5.8507     21.5776     81.7739
  1077.0000      7.7874      2.5697      0.0681      4.8675     21.6553     79.4048
  1077.1000      7.7874      2.5741      0.1059      4.5992     21.7566     85.8752
  1077.2000      7.7874      2.5620      0.0297      5.3331     21.9295     98.6619
  1077.3000      7.7898      2.5544      0.0287      5.7926     21.7945    108.6678
  1077.4000      7.7898      2.5653      0.0440      5.1315     21.4447    109.4235
  1077.5000      7.7925      2.5821      0.0709      4.1169     21.2944     98.6375
  1077.6000      7.7925      2.5932      0.0703      3.4430     21.4647     79.8286
  1077.7000      7.7925      2.6024      0.0482      2.8855     21.8306     63.0243
  1077.8000      7.7932      2.6084      0.0979      2.5221     22.1501     54.7418
  1077.9000      7.7932      2.6058      0.0664      2.6798     22.2468     55.1959
  1078.0000      7.7921      2.6043      0.0246      2.7705     22.1552     62.4660
  1078.1000      7.7921      2.6034      0.0988      2.8250     22.0908     72.3200
  1078.2000      7.7921      2.5927      0.0321      3.4753     22.0756     79.1799
  1078.3000      7.7903      2.5797      0.0565      4.2578     21.9557     80.9197
  1078.4000      7.7903      2.5681      0.0630      4.9610     21.8518     79.3055
  1078.5000      7.7897      2.5564      0.0316      5.6701     21.9599     77.1779
  1078.6000      7.7897      2.5541      0.0514      5.8145     22.2470     78.3131
  1078.7000      7.7897      2.5654      0.0715      5.1250     22.4869     82.2682
  1078.8000      7.7890      2.5774      0.0740      4.4024     22.5987     84.6700
  1078.9000      7.7890      2.5719      0.0689      4.7327     22.7140     84.7947
  1079.0000      7.7867      2.5524      0.0365      5.9149     22.8000     84.9124
  1079.1000      7.7867      2.5422      0.0091      6.5347     22.7898     86.0719
  1079.2000      7.7867      2.5526      0.0208      5.9006     22.9002     88.6223
  1079.3000      7.7838      2.5705      0.0782      4.8156     23.2640     92.1529
  1079.4000      7.7838      2.5818      0.0639      4.1328     23.6989     96.3980
  1079.5000      7.7850      2.5890      0.0550      3.6959     23.7207     98.3323
  1079.6000      7.7850      2.5894      0.0600      3.6707     23.1063     95.3139
  1079.7000      7.7850      2.5760      0.0423      4.4840     22.4663     90.1186
  1079.8000      7.7937      2.5552      0.0565      5.7480     22.4620     88.3339
  1079.9000      7.7937      2.5396     -0.0108      6.6929     22.7436     91.6826
  1080.0000      7.8048      2.5363      0.0448      6.8939     22.5752     96.1252
  1080.1000      7.8048      2.5395     -0.0111      6.6999     22.0503     95.3269
  1080.2000      7.8048      2.5416      0.0163      6.5703     21.5976     87.6755
  1080.3000      7.8098      2.5370      0.0555      6.8479     21.2542     82.4839
  1080.4000      7.8098      2.5289      0.0392      7.3387     21.0524     85.7708
  1080.5000      7.8112      2.5306      0.0160      7.2393     21.2482     90.2458
  1080.6000      7.8112      2.5445      0.0475      6.3936     21.6749     90.5276
  1080.7000      7.8112      2.5611      0.0667      5.3888     21.6746     91.8261
  1080.8000      7.8115      2.5742      0.0578      4.5928     21.2626     96.3418
  1080.9000      7.8115      2.5826      0.0617      4.0860     20.9521    100.8908
  1081.0000      7.8104      2.5830      0.0556      4.0597     20.8223    106.1903
  1081.1000      7.8104      2.5745      0.0557      4.5773     20.7400    108.2651
  1081.2000      7.8104      2.5659      0.0090      5.0978     20.4714    103.7679
  1081.3000      7.8089      2.5699      0.0392      4.8554     20.1957     99.0936
  1081.4000      7.8089      2.5888      0.0303      3.7084     20.3368     99.1753
  1081.5000      7.8093      2.6091      0.0838      2.4812     20.3096     98.5933
  1081.6000      7.8093      2.6106      0.0763      2.3852     19.8651     93.2015
  1081.7000      7.8093      2.5936      0.0275      3.4178     19.8097     89.5958
  1081.8000      7.8098      2.5784      0.0505      4.3386     20.0495     90.0224
  1081.9000      7.8098      2.5798      0.0177      4.2554     19.8837     87.8259
  1082.0000      7.8093      2.5902      0.0568      3.6246     19.5856     81.0059
  1082.1000      7.8093      2.5939      0.0126      3.3995     19.8625     74.1979
  1082.2000      7.8093      2.5964      0.0327      3.2461     20.6516     73.5703
  1082.3000      7.8107      2.6058      0.0685      2.6759     21.4629     78.9667
  1082.4000      7.8107      2.6154      0.0516      2.0946     21.9494     83.7508
  1082.5000      7.8131      2.6237      0.0477      1.5966     22.0611     84.2925
  1082.6000      7.8131      2.6333      0.0624      1.0103     22.3085     84.0959
  1082.7000      7.8131      2.6406      0.0836      0.5718     22.9286     86.5192
  1082.8000      7.8130      2.6377      0.1094      0.7438     23.2387     92.3125
  1082.9000      7.8130      2.6204      0.0775      1.7926     23.0473     97.9868
  1083.0000      7.8066      2.5986      0.0338      3.1165     22.8037    102.2459
  1083.1000      7.8066      2.5843      0.0572      3.9832     22.4585    106.6456
  1083.2000      7.8066      2.5745      0.0410      4.5773     22.0820    104.3019
  1083.3000      7.7975      2.5642      0.0668      5.1993     22.0638     94.8941
  1083.4000      7.7975      2.5545      0.0664      5.7883     22.1122     87.3859
  1083.5000      7.7920      2.5531      0.0257      5.8715     21.8402     84.2671
  1083.6000      7.7920      2.5658      0.0781      5.1009     21.4522     83.8883
  1083.7000      7.7920      2.5797      0.0603      4.2599     21.0488     85.2198
  1083.8000      7.7895      2.5810      0.0751      4.1826     20.5489     87.6469
  1083.9000      7.7895      2.5709      0.0763      4.7966     20.0228     88.1960
  1084.0000      7.7887      2.5549      0.0519      5.7659     19.7495     83.4806
  1084.1000      7.7887      2.5457     -0.0019      6.3240     20.0176     76.2650
  1084.2000      7.7887      2.5532      0.0194      5.8686     20.5170     73.7765
  1084.3000      7.7886      2.5693      0.0669      4.8920     20.5266     79.3704
  1084.4000      7.7886      2.5887      0.0393      3.7156     20.0802     88.7848
  1084.5000      7.7900      2.6033      0.1258      2.8313     19.9647     95.9111
  1084.6000      7.7900      2.5916      0.0891      3.5375     20.5099     98.1653
  1084.7000      7.7900      2.5606      0.0436      5.4188     21.1493     97.2433
