~Version Information
VERS.                      2.0: CWLS Log ASCII Standard - VERSION 2.0
WRAP.                       NO: One line per depth step
~Well Information Block
STRT.FT                 0.0000: 
STOP.FT              1877.2500: 
STEP.FT                 0.2500: 
NULL.                -999.2500: 
COMP.          Pioneer Natural Resources: COMPANY
WELL.            Corazon 13-10: WELL
FLD.           Purgatoire River: FIELD
LOC.           2510' FSL & 439' FWL--------: LOCATION
PROV.                 Colorado: PROVINCE
CNTY.               Las Animas: COUNTRY
SRVC.                         : SERVICE COMPANY
DATE.          Mon Dec 19 14:34:49 2005: LOG DATE
UWI.                          : UNIQUE WELL ID
~Curve Information Block
DEPT.FT            0 000 00 00: Depth
CCL.                          : Casing Collar Locator
TT3.usec                      : CBL 3' Travel Time
AMP3.mV                       : CBL 3' Amplitude
AMP5.mV                       : CBL 5' Amplitude
GR.GAPI                       : Gamma Ray
~Parameter Information Block
~A  Depth       CCL         TT3         AMP3        AMP5         GR     
# ...
  1232.0000      0.0000    758.5237      6.1733      0.4666    132.5759
  1232.2500      0.0000    771.9553      6.1619      0.4705    138.7487
  1232.5000      0.0000    781.8179      6.1471      0.4567    145.8485
  1232.7500      0.0000    788.6342      6.1391      0.4258    151.5927
  1233.0000      0.0000    791.6441      6.1427      0.4017    155.1737
  1233.2500      0.0000    790.5813      6.1519      0.4097    157.5169
  1233.5000      0.0000    786.5458      6.1560      0.4521    159.8648
  1233.7500      0.0000    781.3811      6.1562      0.5049    162.0363
  1234.0000      0.0000    776.6359      6.1645      0.5390    162.6194
  1234.2500      0.0000    773.0323      6.1793      0.5467    160.8465
  1234.5000      0.0000    770.0696      6.1695      0.5433    157.6552
  1234.7500      0.0000    765.8736      6.0937      0.5443    154.8858
  1235.0000      0.0000    758.4512      5.9382      0.5492    153.8525
  1235.2500      0.0000    747.8630      5.7325      0.5490    154.7328
  1235.5000      0.0000    736.5938      5.5277      0.5417    156.9135
  1235.7500      0.0000    727.2378      5.3619      0.5355    159.5937
  1236.0000      0.0000    720.3906      5.2455      0.5401    162.2332
  1236.2500      0.0000    715.3344      5.1689      0.5584    164.7739
  1236.5000      0.0000    712.0923      5.1174      0.5849    167.4225
  1236.7500      0.0000    712.0270      5.0800      0.6087    170.0821
  1237.0000      0.0000    716.5741      5.0505      0.6175    172.1315
  1237.2500      0.0000    725.5331      5.0233      0.6022    172.8517
  1237.5000      0.0000    736.2189      4.9880      0.5619    171.8196
  1237.7500      0.0000    744.3684      4.9313      0.5080    168.7354
  1238.0000      0.0000    746.7879      4.8458      0.4612    163.3105
  1238.2500      0.0000    743.9443      4.7396      0.4390    155.8965
  1238.5000      0.0000    739.9456      4.6308      0.4428    148.0245
  1238.7500      0.0000    739.4811      4.5338      0.4562    141.7177
  1239.0000      0.0000    744.4004      4.4562      0.4567    138.1629
  1239.2500      0.0000    752.8387      4.4071      0.4359    137.1775
  1239.5000      0.0000    760.9166      4.3991      0.4085    137.6714
  1239.7500      0.0000    765.2490      4.4325      0.3979    138.4015
  1240.0000      0.0000    764.7734      4.4835      0.4124    138.4215
  1240.2500      0.0000    760.8716      4.5167      0.4405    137.1739
  1240.5000      0.0000    755.9006      4.5103      0.4650    134.7520
  1240.7500      0.0000    751.8224      4.4682      0.4743    132.2734
  1241.0000      0.0000    750.0557      4.4117      0.4655    131.4713
  1241.2500      0.0000    751.7674      4.3661      0.4392    133.4050
  1241.5000      0.0000    757.6183      4.3514      0.3939    137.6051
  1241.7500      0.0000    766.8448      4.3800      0.3305    142.6842
  1242.0000      0.0000    776.6375      4.4568      0.2626    147.5347
  1242.2500      0.0000    783.4756      4.5763      0.2117    151.5374
  1242.5000      0.0000    785.7724      4.7189      0.1901    153.7694
  1242.7500      0.0000    784.6454      4.8557      0.1958    152.8362
  1243.0000      0.0000    782.2026      4.9637      0.2229    148.0988
  1243.2500      0.0000    780.5071      5.0352      0.2646    140.7888
  1243.5000      0.0000    781.9560      5.0731      0.3086    133.2318
  1243.7500      0.0000    787.4776      5.0818      0.3410    127.0366
  1244.0000      0.0000    791.9225      5.0679      0.3574    122.5432
  1244.2500      0.0000    783.7892      5.0428      0.3647    119.7613
  1244.5000      0.0000    754.4656      5.0187      0.3699    118.9213
  1244.7500      0.0000    708.3735      5.0030      0.3756    119.8059
  1245.0000      0.0000    660.8774      4.9951      0.3893    121.1516
  1245.2500      0.0000    626.0288      4.9875      0.4272    121.3263
  1245.5000      0.0000    608.3870      4.9685      0.4971    119.7486
  1245.7500      0.0000    604.9264      4.9284      0.5823    117.4157
  1246.0000      0.0000    610.5956      4.8646      0.6490    115.8826
  1246.2500      0.0000    621.1354      4.7820      0.6732    116.0045
  1246.5000      0.0000    633.1188      4.6918      0.6568    117.8859
  1246.7500      0.0000    643.5966      4.6086      0.6228    121.5102
  1247.0000      0.0000    650.7079      4.5487      0.5986    126.7349
  1247.2500      0.0000    654.6430      4.5244      0.6003    132.7976
  1247.5000      0.0000    656.8299      4.5355      0.6256    138.1505
  1247.7500      0.0000    657.1567      4.5659      0.6558    140.7567
  1248.0000      0.0000    652.8923      4.5909      0.6681    139.0471
  1248.2500      0.0000    641.5734      4.5927      0.6533    133.4444
  1248.5000      0.0000    624.2597      4.5726      0.6243    126.8616
  1248.7500      0.0000    604.9292      4.5486      0.6007    122.9942
  1249.0000      0.0000    587.2889      4.5377      0.5817    123.8226
  1249.2500      0.0000    573.1390      4.5453      0.5441    128.6473
  1249.5000      0.0000    563.4053      4.5733      0.4736    135.0318
  1249.7500      0.0000    559.6579      4.6264      0.3884    140.2500
  1250.0000      0.0000    563.9843      4.6993      0.3248    142.0978
  1250.2500      0.0000    577.3290      4.7690      0.3036    139.2437
  1250.5000      0.0000    598.2952      4.8111      0.3183    131.7604
  1250.7500      0.0000    623.6351      4.8190      0.3488    121.5492
  1251.0000      0.0000    649.4825      4.8002      0.3797    111.7044
  1251.2500      0.0000    672.0989      4.7608      0.4050    104.7736
  1251.5000      0.0000    688.4348      4.7035      0.4203    101.2131
  1251.7500      0.0000    696.6579      4.6341      0.4188     99.3430
  1252.0000      0.0000    696.0048      4.5662      0.3990     96.8312
  1252.2500      0.0000    686.4661      4.5151      0.3737     92.4323
  1252.5000      0.0000    669.7756      4.4887      0.3642     86.5566
  1252.7500      0.0000    651.0265      4.4816      0.3850     80.5854
  1253.0000      0.0000    637.7824      4.4778      0.4324     76.0906
  1253.2500      0.0000    635.6651      4.4587      0.4895     74.4830
  1253.5000      0.0000    644.2208      4.4136      0.5366     76.5266
  1253.7500      0.0000    657.7384      4.3453      0.5581     81.6839
  1254.0000      0.0000    670.3889      4.2615      0.5455     88.0392
  1254.2500      0.0000    680.0625      4.1656      0.5018     93.1068
  1254.5000      0.0000    687.3860      4.0616      0.4446     94.9750
  1254.7500      0.0000    692.6326      3.9671      0.3976     93.2012
  1255.0000      0.0000    694.8868      3.9098      0.3768     89.0979
  1255.2500      0.0000    693.7661      3.9121      0.3816     85.2150
  1255.5000      0.0000    690.9294      3.9761      0.3971     84.1222
  1255.7500      0.0000    689.3615      4.0821      0.4017     86.9411
  1256.0000      0.0000    691.0062      4.2002      0.3765     92.5205
  1256.2500      0.0000    695.2488      4.3068      0.3157     98.1067
  1256.5000      0.0000    699.8766      4.3921      0.2334    101.2536
  1256.7500      0.0000    703.1985      4.4564      0.1584    101.4271
  1257.0000      0.0000    705.0281      4.5059      0.1195     99.9426
  1257.2500      0.0000    706.1295      4.5534      0.1293     98.5559
  1257.5000      0.0000    707.3867      4.6173      0.1778     98.2435
  1257.7500      0.0000    709.3556      4.7149      0.2395     98.9484
  1258.0000      0.0000    711.8561      4.8481      0.2920     99.8552
  1258.2500      0.0000    713.3481      4.9953      0.3294     99.8726
  1258.5000      0.0000    710.7925      5.1215      0.3617     98.3781
  1258.7500      0.0000    700.7615      5.1989      0.4041     95.7509
  1259.0000      0.0000    681.4563      5.2188      0.4663     92.9334
  1259.2500      0.0000    653.9630      5.1876      0.5467     90.4304
  1259.5000      0.0000    621.5236      5.1181      0.6312     87.9797
  1259.7500      0.0000    587.8595      5.0244      0.6972     85.2145
