~Version Information
 VERS.                                  2.0 : CWLS LAS VERSION
 WRAP.                                   NO : WRAPING MODE
 SWARE .                MController 2.5.0QA : SOFTWARE VERSION
~Well Information
 WELL.                            Ray 34-06 : WELL
 COMP.    Pioneer Natural Resources USA Inc : COMPANY
 FLD.                      Purgatoire River : FIELD
 LOC.                  SWSE Sec06 T34S R65W : LOCATION
 DATE.                             05/25/06 : DATE(S) LOGGED
 SRVC.       Blanco Geological Services LLC : SERVICE COMPANY
 STAT.                             Colorado : STATE
 CNTY.                           Las Animas : COUNTY
 CTRY.                                  USA : COUNTRY
 API.                       05-071-08695-00 : API NUMBER
 STRT.FT                             347.00 : START DEPTH
 STOP.FT                            1270.00 : STOP DEPTH
 STEP.FT                               1.00 : DEPTH INCREMENT
 NULL.                                -9999 : NULL VALUE
~Curve information
 DEPTH.FT                                   :
 ROP.MIN/FT                                 :
 GAS.UNITS                                  :
~ASCII Log data
# ...
       547.0         0.27          2.9 
       548.0         0.20          2.9 
       549.0         0.23          2.6 
       550.0         0.23          3.0 
       551.0         0.27          2.7 
       552.0         0.30          3.1 
       553.0         0.30          3.4 
       554.0         0.27          3.3 
       555.0         0.27          3.7 
       556.0         0.27          3.6 
       557.0         0.27          3.5 
       558.0         0.28          4.0 
       559.0         0.33          3.4 
       560.0         0.40          4.2 
       561.0         0.33          3.1 
       562.0         4.77         14.2 
       563.0         0.20          4.7 
       564.0         0.30          4.6 
       565.0         0.23          4.3 
       566.0         0.23          4.2 
       567.0         0.30          4.3 
       568.0         0.23          3.7 
       569.0         0.37          4.2 
       570.0         0.23          3.7 
       571.0         0.30          4.1 
       572.0         0.30          4.0 
       573.0         0.38          3.9 
       574.0         0.33          4.0 
       575.0         0.27          4.1 
       576.0         0.20          3.9 
       577.0         0.37          4.0 
       578.0         0.33          4.0 
       579.0         0.37          4.0 
       580.0         0.33          3.9 
       581.0         0.37          4.0 
       582.0         0.33          3.7 
       583.0         0.38          3.9 
       584.0         0.33          4.0 
       585.0         0.43          4.4 
       586.0         0.37          4.0 
       587.0         0.23          4.9 
       588.0         0.30         44.8 
       589.0         0.20         80.0 
       590.0         0.20         80.0 
       591.0         0.20         68.9 
       592.0         5.97        837.1 
       593.0         0.27         76.1 
       594.0         0.33         74.2 
       595.0         0.37         70.3 
       596.0         0.30         68.7 
       597.0         0.35         67.2 
       598.0         0.27         66.2 
       599.0         0.23         66.0 
       600.0         0.27         66.0 
       601.0         0.27         65.6 
       602.0         0.23         64.2 
       603.0         0.27         62.6 
       604.0         0.27         61.9 
       605.0         0.23         61.0 
       606.0         0.20         61.3 
       607.0         0.27         62.8 
       608.0         0.33         63.0 
       609.0         0.20         61.6 
       610.0         0.27         61.0 
       611.0         0.28         62.2 
       612.0         0.23         62.0 
       613.0         0.27         60.9 
       614.0         0.23         59.6 
       615.0         0.27         55.5 
       616.0         0.23         58.2 
       617.0         0.47         60.9 
       618.0         0.27         61.2 
       619.0         0.23         60.5 
       620.0         0.23         60.6 
       621.0         0.23         60.6 
       622.0         9.58        460.1 
       623.0         0.30         63.1 
       624.0         0.23         62.0 
       625.0         0.27         62.0 
       626.0         0.22         61.6 
       627.0         0.17         60.3 
       628.0         0.20         60.0 
       629.0         0.23         59.4 
       630.0         0.23         59.6 
       631.0         0.27         61.4 
       632.0         0.27         60.9 
       633.0         0.23         59.4 
       634.0         0.30         56.4 
       635.0         0.23         55.6 
       636.0         0.23         56.1 
       637.0         0.23         57.2 
       638.0         0.20         56.5 
       639.0         0.23         56.4 
       640.0         0.28         57.5 
       641.0         0.17         58.8 
       642.0         0.23         58.8 
       643.0         0.30         57.7 
       644.0         0.27         56.4 
       645.0         0.23         55.6 
       646.0         0.20         55.4 
       647.0         0.30         58.5 
       648.0         0.20         60.6 
       649.0         0.27         60.4 
       650.0         0.27         39.2 
       651.0         0.23         30.1 
       652.0         7.32        391.6 
       653.0         0.27         56.6 
       654.0         0.33         58.4 
       655.0         0.40         62.6 
       656.0         0.27         62.9 
       657.0         0.40         60.2 
       658.0         0.30         55.2 
       659.0         0.23         53.8 
       660.0         0.33         54.3 
       661.0         0.23         57.0 
       662.0         0.17         59.3 
       663.0         0.30         59.2 
       664.0         0.25         55.5 
       665.0         0.20         54.4 
       666.0         0.23         53.3 
       667.0         0.27         53.2 
       668.0         0.23         52.9 
       669.0         0.23         52.2 
       670.0         0.33         53.8 
       671.0         0.23         56.6 
       672.0         0.20         58.2 
       673.0         0.37         55.6 
       674.0         0.50         55.0 
       675.0         0.20         57.1 
       676.0         0.10         57.1 
       677.0         0.25         60.8 
       678.0         0.30         51.0 
       679.0         0.23         32.2 
       680.0         0.20         32.2 
       681.0         0.27         27.8 
       682.0         5.08        280.4 
       683.0         0.37         61.8 
       684.0         0.35         60.8 
       685.0         0.20         57.3 
       686.0         0.23         56.9 
       687.0         0.27         54.7 
       688.0         0.27         54.1 
       689.0         0.20         54.7 
       690.0         0.23         55.6 
       691.0         0.27         55.7 
       692.0         0.23         52.5 
       693.0         0.27         51.5 
       694.0         0.27         50.1 
       695.0         0.23         51.0 
       696.0         0.23         51.5 
       697.0         0.28         51.7 
       698.0         0.20         50.7 
       699.0         0.30         45.6 
       700.0         0.23         43.9 
       701.0         0.27         48.2 
       702.0         0.53         51.3 
       703.0         0.67         50.6 
       704.0         0.57         51.0 
       705.0         0.68         52.1 
       706.0         0.67         48.6 
       707.0         0.33         46.1 
       708.0         0.33         46.5 
       709.0         0.40         48.5 
       710.0         0.43         44.5 
       711.0         0.47         25.3 
       712.0        11.67        854.9 
       713.0         3.02         75.5 
       714.0         0.40         65.8 
       715.0         0.37         60.1 
       716.0         0.30         56.0 
       717.0         0.33         55.6 
       718.0         0.33         54.0 
       719.0         0.30         52.6 
       720.0         0.30         53.2 
       721.0         0.28         53.4 
       722.0         0.30         52.4 
       723.0         0.33         48.5 
       724.0         0.33         48.5 
       725.0         0.30         50.6 
       726.0         0.20         51.4 
       727.0         0.20         49.6 
       728.0         0.30         46.9 
       729.0         0.30         38.6 
       730.0         0.53         43.3 
       731.0         0.37         47.2 
       732.0         0.38         49.8 
       733.0         0.37         50.5 
       734.0         0.40         51.2 
       735.0         0.40         51.4 
       736.0         0.37         51.9 
       737.0         0.33         51.9 
       738.0         0.37         52.2 
       739.0         0.33         52.4 
       740.0         0.30         52.1 
       741.0         0.35         52.1 
       742.0        12.18         56.8 
       743.0         0.30         53.0 
       744.0         0.27         52.8 
       745.0         0.27         52.8 
       746.0         0.28         52.9 
