~Version Information
VERS.                      2.0: CWLS Log ASCII Standard - VERSION 2.0
WRAP.                       NO: One line per depth step
~Well Information Block
STRT.FT                 0.0000: 
STOP.FT              1981.7500: 
STEP.FT                 0.2500: 
NULL.                -999.2500: 
COMP.          Petrogulf Corporation: COMPANY
WELL.          Collister 17-31R: WELL
FLD.           Purgatorie River: FIELD
LOC.           962' FNL & 1520' FEL: LOCATION
STAT.                 Colorado: State
CNTY.               Las Animas: COUNTY
CTRY. USA : Country
SECT. 17 : Section
TOWN. 33S : Township
RANG. 67W : Range
SRVC.                Patterson: SERVICE COMPANY
DATE.          Fri Jan 06 10:32:29 2006: LOG DATE
API. 05-071-08436                         : UNIQUE WELL ID
~Curve Information Block
DEPT.FT            0 000 00 00: Depth
CCL.                          : Casing Collar Locator
TT3.usec                      : CBL 3' Travel Time
AMP3.mV                       : CBL 3' Amplitude
GR.GAPI                       : Gamma Ray
~Parameter Information Block
~A  Depth       CCL         TT3         AMP3         GR     
# ...
   904.5000      0.0000    454.0122     24.5883    104.9735
   904.7500      0.0000    560.6918     21.9177    105.0537
   905.0000      0.0000    648.0395     19.0820    106.9441
   905.2500      0.0000    680.7736     17.1166    109.7917
   905.5000      0.0000    657.8094     16.2933    111.5783
   905.7500      0.0000    603.9818     16.3602    110.5396
   906.0000      0.0000    561.4073     16.7966    106.7896
   906.2500      0.0000    558.1542     17.1073    102.3939
   906.5000      0.0000    570.8307     17.0463     99.7861
   906.7500      0.0000    550.6561     16.7136     99.8007
   907.0000      0.0000    488.7052     16.4565    100.9485
   907.2500      0.0000    421.0120     16.6234    100.8389
   907.5000      0.0000    375.3943     17.3629     98.6178
   907.7500      0.0000    350.8603     18.5881     95.8535
   908.0000      0.0000    338.4919     20.0209     94.8304
   908.2500      0.0000    333.4475     21.2261     96.0582
   908.5000      0.0000    333.4761     21.7727     97.6788
   908.7500      0.0000    338.1661     21.5180     97.3201
   909.0000      0.0000    347.6217     20.7062     94.2440
   909.2500      0.0000    359.1814     19.7730     89.6357
   909.5000      0.0000    367.3853     19.0933     85.3763
   909.7500      0.0000    367.9871     18.8484     82.9075
   910.0000      0.0000    360.7925     19.0325     82.8059
   910.2500      0.0000    349.8022     19.5065     84.7800
   910.5000      0.0000    340.4596     20.0458     88.0302
   910.7500      0.0000    335.3213     20.4664     92.0204
   911.0000      0.0000    333.3889     20.7111     96.9379
   911.2500      0.0000    332.8215     20.7626    103.0066
   911.5000      0.0000    332.4294     20.6273    109.3616
   911.7500      0.0000    331.2339     20.4786    114.1780
   912.0000      0.0000    328.0422     20.5894    116.1523
   912.2500      0.0000    322.8443     21.0004    115.4576
   912.5000      0.0000    319.1402     21.4356    113.0914
   912.7500      0.0000    322.5960     21.5625    109.9264
   913.0000      0.0000    336.9134     21.1468    106.8552
   913.2500      0.0000    364.0065     20.0447    105.2364
   913.5000      0.0000    405.9272     18.3190    106.1828
   913.7500      0.0000    463.0778     16.3545    109.1623
   914.0000      0.0000    530.9633     14.6289    111.8169
   914.2500      0.0000    596.3934     13.3076    111.7526
   914.5000      0.0000    642.5189     12.2191    108.6713
   914.7500      0.0000    664.2761     11.1994    104.6119
   915.0000      0.0000    670.4383     10.2734    102.0678
   915.2500      0.0000    670.9351      9.5176    102.0270
   915.5000      0.0000    670.2727      8.9002    103.7503
   915.7500      0.0000    669.5431      8.3061    105.9580
   916.0000      0.0000    668.9816      7.6922    107.9529
   916.2500      0.0000    668.7137      7.1584    109.9061
   916.5000      0.0000    668.7475      6.8259    112.3925
   916.7500      0.0000    668.9297      6.7169    115.7210
   917.0000      0.0000    669.0320      6.7986    119.6965
   917.2500      0.0000    668.9254      7.0172    124.0989
   917.5000      0.0000    668.2468      7.2730    129.1215
   917.7500      0.0000    665.2657      7.4901    134.8493
   918.0000      0.0000    656.7535      7.6830    140.4356
   918.2500      0.0000    641.6413      7.8938    144.4228
   918.5000      0.0000    623.5302      8.1171    145.9249
   918.7500      0.0000    604.9321      8.3137    145.1445
   919.0000      0.0000    584.8527      8.4541    142.9017
   919.2500      0.0000    564.6093      8.5322    140.0688
   919.5000      0.0000    546.7817      8.5434    137.3677
   919.7500      0.0000    532.2070      8.4791    135.2751
   920.0000      0.0000    521.9033      8.3581    133.7893
   920.2500      0.0000    516.3848      8.2170    132.2614
   920.5000      0.0000    514.2721      8.0617    130.0045
   920.7500      0.0000    513.7092      7.8757    127.4752
   921.0000      0.0000    513.8535      7.6742    126.1467
   921.2500      0.0000    515.7999      7.4950    126.6400
   921.5000      0.0000    523.5290      7.3393    127.7643
   921.7500      0.0000    541.8533      7.1754    128.0794
   922.0000      0.0000    568.5377      7.0043    127.7142
   922.2500      0.0000    591.5906      6.8715    127.9654
   922.5000      0.0000    603.8116      6.8046    129.5824
   922.7500      0.0000    611.5466      6.7771    131.9666
   923.0000      0.0000    618.2504      6.7299    133.6184
   923.2500      0.0000    619.4473      6.5960    133.0305
   923.5000      0.0000    620.4661      6.3304    129.6149
   923.7500      0.0000    631.8201      5.9494    124.2855
   924.0000      0.0000    650.5986      5.5120    119.1551
   924.2500      0.0000    667.4835      5.0663    116.4608
   924.5000      0.0000    679.0804      4.6235    117.4110
   924.7500      0.0000    685.6370      4.1783    121.4253
   925.0000      0.0000    688.1468      3.7653    125.9671
   925.2500      0.0000    688.3783      3.4459    127.4134
   925.5000      0.0000    687.9059      3.2273    123.0314
   925.7500      0.0000    687.5039      3.0681    112.8141
   926.0000      0.0000    687.3543      2.9537     99.6436
   926.2500      0.0000    687.3716      2.9017     87.6986
   926.5000      0.0000    687.5529      2.9272     80.3645
   926.7500      0.0000    688.0192      3.0335     78.9133
   927.0000      0.0000    688.3546      3.2072     82.5547
   927.2500      0.0000    686.9847      3.4382     89.5663
   927.5000      0.0000    682.3590      3.7737     98.2642
   927.7500      0.0000    675.5014      4.2838    107.0262
   928.0000      0.0000    669.6623      4.9205    114.1476
   928.2500      0.0000    666.7339      5.4927    118.4912
   928.5000      0.0000    666.0536      5.8379    120.3071
   928.7500      0.0000    666.3070      5.9482    121.0168
   929.0000      0.0000    666.7323      5.9235    121.9857
   929.2500      0.0000    667.0564      5.8712    123.5572
   929.5000      0.0000    667.2641      5.8427    125.2355
   929.7500      0.0000    667.3744      5.8473    126.4346
   930.0000      0.0000    667.3810      5.8849    126.7696
   930.2500      0.0000    667.3394      5.9351    126.0065
   930.5000      0.0000    667.2958      5.9708    124.3455
   930.7500      0.0000    667.1970      6.0010    122.7412
   931.0000      0.0000    667.0206      6.0434    122.5101
   931.2500      0.0000    666.8950      6.0737    124.3632
   931.5000      0.0000    666.8757      6.0761    127.7329
   931.7500      0.0000    666.5554      6.1183    131.0193
   932.0000      0.0000    664.5967      6.3040    132.6326
   932.2500      0.0000    658.4311      6.6227    132.0161
   932.5000      0.0000    646.3513      6.8927    129.8137
   932.7500      0.0000    632.4678      6.9704    127.0936
   933.0000      0.0000    626.7240      6.9154    124.3845
   933.2500      0.0000    635.4429      6.8083    121.3857
   933.5000      0.0000    655.0822      6.7430    117.4757
   933.7500      0.0000    677.7353      6.9168    112.4534
   934.0000      0.0000    696.0149      7.2809    106.8289
   934.2500     -2.0000    702.7289      7.5338    101.4353
   934.5000      2.0000    697.9932      7.6400     96.8365
   934.7500      0.0000    693.9036      7.8546     93.0796
   935.0000      0.0000    699.0921      8.2898     89.9400
   935.2500      0.0000    708.0573      8.7735     87.3969
   935.5000      0.0000    713.8448      9.0788     85.8398
   935.7500      0.0000    715.6617      9.1373     85.7271
   936.0000      0.0000    712.2876      9.0449     87.0253
   936.2500      0.0000    704.1982      8.9896     89.0621
   936.5000      0.0000    696.7530      9.0411     91.0563
   936.7500      0.0000    692.8047      8.9579     92.7612
   937.0000      0.0000    691.6886      8.5521     94.4153
   937.2500      0.0000    694.4203      8.0548     96.0204
   937.5000      0.0000    700.6949      7.7647     97.0031
   937.7500      0.0000    708.3799      7.6908     96.9279
