~Version Information
VERS.                      2.0: CWLS Log ASCII Standard - VERSION 2.0
WRAP.                       NO: One line per depth step
~Well Information Block
STRT.FT                 7.7500: 
STOP.FT              2101.0000: 
STEP.FT                 0.2500: 
NULL.                -999.2500: 
COMP.          Pioneer Natural Resources: COMPANY
WELL.          Gunslinger 13-24: WELL
FLD.           Purgatoire River: FIELD
LOC.           1968' FSL & 633' FWL: LOCATION
PROV.                 Colorado: PROVINCE
CNTY.               Las Animas: COUNTRY
SRVC.                Patterson: SERVICE COMPANY
DATE.          Mon Aug 15 11:00:02 2005: LOG DATE
UWI.           05 071 08442 00: UNIQUE WELL ID
~Curve Information Block
DEPT.FT            0 000 00 00: Depth
GR.GAPI                       : Gamma Ray
CCL.                          : Casing Collar Locator
TT3.usec                      : CBL 3' Travel Time
AMP3.mV                       : CBL 3' Amplitude
~Parameter Information Block
~A  Depth        GR         CCL         TT3         AMP3    
# ...
   141.7500    101.4900      0.0000    253.6094     53.5664
   142.0000     98.4040      0.0000    253.7455     52.9838
   142.2500     96.7949      0.0000    253.8806     52.3688
   142.5000     95.9009      0.0000    254.0050     51.7549
   142.7500     94.6385      0.0000    254.1115     51.1863
   143.0000     93.0715      0.0000    254.1979     50.6958
   143.2500     92.4759      0.0000    254.2647     50.3125
   143.5000     93.8664      0.0000    254.3120     50.0600
   143.7500     96.7125      0.0000    254.3397     49.9460
   144.0000     99.2576      0.0000    254.3493     49.9612
   144.2500     99.9285      0.0000    254.3458     50.0839
   144.5000     98.3400      0.0000    254.3359     50.2734
   144.7500     95.1886      0.0000    254.3255     50.4670
   145.0000     91.6552      0.0000    254.3171     50.6007
   145.2500     89.0630      0.0000    254.3101     50.6404
   145.5000     88.5609      0.0000    254.3043     50.5877
   145.7500     90.4101      0.0000    254.3030     50.4605
   146.0000     93.3688      0.0000    254.3118     50.2773
   146.2500     95.1947      0.0000    254.3336     50.0653
   146.5000     94.2742      0.0000    254.3642     49.8704
   146.7500     90.8775      0.0000    254.3939     49.7420
   147.0000     86.7389      0.0000    254.4147     49.7023
   147.2500     83.5845      0.0000    254.4266     49.7352
   147.5000     82.2074      0.0000    254.4374     49.7964
   147.7500     82.5663      0.0000    254.4587     49.8278
   148.0000     84.2710      0.0000    254.4982     49.7774
   148.2500     87.0140      0.0000    254.5535     49.6318
   148.5000     90.7738      0.0000    254.6118     49.4315
   148.7500     95.5042      0.0000    254.6581     49.2426
   149.0000    100.6596      0.0000    254.6863     49.1082
   149.2500    105.3416      0.0000    254.7006     49.0281
   149.5000    108.8875      0.0000    254.7085     48.9762
   149.7500    110.9479      0.0000    254.7137     48.9340
   150.0000    111.0641      0.0000    254.7142     48.9146
   150.2500    108.8186      0.0000    254.7036     48.9648
   150.5000    104.7679      0.0000    254.6726     49.1448
   150.7500    100.8471      0.0000    254.6111     49.4982
   151.0000     99.3001      0.0000    254.5128     50.0356
   151.2500    100.8503      0.0000    254.3788     50.7406
   151.5000    103.8333      0.0000    254.2179     51.5828
   151.7500    105.4034      0.0000    254.0436     52.5164
   152.0000    103.9041      0.0000    253.8724     53.4641
   152.2500    100.1392      0.0000    253.7215     54.3161
   152.5000     96.4241      0.0000    253.6073     54.9684
   152.7500     94.5670      0.0000    253.5444     55.3694
   153.0000     94.7452      0.0000    253.5787     55.5065
   153.2500     96.1039      0.0000    253.8583     55.3131
   153.5000     97.9512      0.0000    254.7327     54.5785
   153.7500     99.9121      0.0000    256.7513     53.0345
   154.0000    101.2877      0.0000    260.4173     50.6391
   154.2500    101.1876      0.0000    265.8083     47.7492
   154.5000     99.4798      0.0000    272.4535     44.8823
   154.7500     97.0652      0.0000    279.5682     42.3251
   155.0000     95.0614      0.0000    286.2921     40.0890
   155.2500     93.9657      0.0000    291.8221     38.1480
   155.5000     93.5236      0.0000    295.6698     36.5400
   155.7500     93.0972      0.0000    297.9261     35.2888
   156.0000     92.2441      0.0000    299.1591     34.3795
   156.2500     91.1338      0.0000    300.0789     33.8011
   156.5000     90.3136      0.0000    301.2175     33.6138
   156.7500     90.1452      0.0000    302.6626     34.0263
   157.0000     90.7447      0.0000    303.8344     35.3476
   157.2500     92.2069      0.0000    303.4777     37.6958
   157.5000     94.3262      0.0000    300.0565     40.7324
   157.7500     96.3201      0.0000    292.6708     43.8247
   158.0000     97.3413      0.0000    282.1844     46.4593
   158.2500     97.0259      0.0000    271.2755     48.4310
   158.5000     95.2554      0.0000    262.7354     49.7581
   158.7500     91.8774      0.0000    257.6458     50.5773
   159.0000     87.0320      0.0000    255.3061     51.0800
   159.2500     81.5405      0.0000    254.4477     51.4461
   159.5000     76.8173      0.0000    254.1644     51.7968
   159.7500     74.2783      0.0000    254.0499     52.1738
   160.0000     74.5450      0.0000    253.9775     52.5414
   160.2500     77.1571      0.0000    253.9281     52.8150
   160.5000     81.1476      0.0000    253.9016     52.9271
   160.7500     85.6516      0.0000    253.9009     52.8739
   161.0000     89.8066      0.0000    253.9208     52.7115
   161.2500     92.5870      0.0000    253.9492     52.5139
   161.5000     93.3570      0.0000    253.9734     52.3308
   161.7500     92.5006      0.0000    253.9879     52.1699
   162.0000     91.1459      0.0000    253.9967     52.0086
   162.2500     90.1313      0.0000    254.0096     51.8278
   162.5000     89.1848      0.0000    254.0349     51.6327
   162.7500     87.1422      0.0000    254.0770     51.4419
   163.0000     83.1092      0.0000    254.1362     51.2529
   163.2500     77.5152      0.0000    254.2109     51.0276
   163.5000     72.0381      0.0000    254.2971     50.7297
   163.7500     68.5669      0.0000    254.3849     50.3822
   164.0000     68.1920      0.0000    254.4569     50.0786
   164.2500     70.7609      0.0000    254.4947     49.9276
   164.5000     74.9287      0.0000    254.4903     49.9826
   164.7500     78.8308      0.0000    254.4498     50.2197
   165.0000     81.3430      0.0000    254.3870     50.5744
   165.2500     82.9471      0.0000    254.3120     51.0015
   165.5000     85.1002      0.0000    254.2253     51.5039
   165.7500     88.5344      0.0000    254.1208     52.1043
   166.0000     92.2091      0.0000    253.9981     52.7847
   166.2500     94.0291      0.0000    253.8699     53.4631
   166.5000     92.7462      0.0000    253.7551     54.0471
   166.7500     89.2192      0.0000    253.6641     54.5101
   167.0000     85.6020      0.0000    253.5923     54.8952
   167.2500     83.2622      0.0000    253.5290     55.2463
   167.5000     81.8139      0.0000    253.4693     55.5606
   167.7500     80.1408      0.0000    253.4160     55.8143
   168.0000     77.7541      0.0000    253.3727     56.0072
   168.2500     75.0775      0.0000    253.3387     56.1637
   168.5000     73.0343      0.0000    253.3100     56.2942
   168.7500     72.5285      0.0000    253.2861     56.3638
   169.0000     73.9221      0.0000    253.2736     56.3098
   169.2500     76.8070      0.0000    253.2804     56.0982
   169.5000     80.1813      0.0000    253.3049     55.7703
   169.7500     82.8071      0.0000    253.3351     55.4226
   170.0000     83.7674      0.0000    253.3600     55.1280
   170.2500     83.1097      0.0000    253.3808     54.8761
   170.5000     81.8807      0.0000    253.4073     54.5968
   170.7500     81.2591      0.0000    253.4450     54.2383
   171.0000     81.6296      0.0000    253.4891     53.8146
   171.2500     82.5384      0.0000    253.5310     53.3823
   171.5000     83.3623      0.0000    253.5683     52.9807
   171.7500     83.8376      0.0000    253.6083     52.6027
   172.0000     83.9807      0.0000    253.6594     52.2234
   172.2500     83.7645      0.0000    253.7200     51.8493
   172.5000     83.0908      0.0000    253.7772     51.5285
   172.7500     81.9742      0.0000    253.8176     51.3176
   173.0000     80.5820      0.0000    253.8367     51.2475
   173.2500     79.2131      0.0000    253.8382     51.3166
   173.5000     78.3686      0.0000    253.8280     51.4990
   173.7500     78.6097      0.0000    253.8107     51.7568
   174.0000     80.0521      0.0000    253.7887     52.0598
   174.2500     82.0434      0.0000    253.7629     52.3974
   174.5000     83.5474      0.0000    253.7354     52.7643
   174.7500     83.9602      0.0000    253.7112     53.1340
   175.0000     83.5078      0.0000    253.6964     53.4523
