~Version Information
VERS.                      2.0: CWLS Log ASCII Standard - VERSION 2.0
WRAP.                       NO: One line per depth step
~Well Information Block
STRT.FT               245.0000: 
STOP.FT              1273.7500: 
STEP.FT                 0.2500: 
NULL.                -999.2500: 
COMP.          Pioneer Natural Resources: COMPANY
WELL.                 Ray 34-6: WELL
FLD.           Purgatoire River: FIELD
LOC.           684' FSL & 2254' FEL--: LOCATION
CNTY.               Las Animas: COUNTY
SRVC.                Patterson: SERVICE COMPANY
DATE.          Fri May 26 03:08:09 2006: LOG DATE
UWI.           05 071 08695 00: UNIQUE WELL ID
STAT.                 Colorado: STATE
~Curve Information Block
DEPT.FT            0 000 00 00: Depth
SN.Ohm-m                      : IEL Short Normal
SP.mV                         : IEL Spontaneous Potential
DIR.Ohm-m                     : IEL Induction Resistivity
GR.GAPI                       : Gamma Ray
~Parameter Information Block
~A  Depth        SN          SP         DIR          GR     
# ...
   647.0000    685.7410   -564.8247      8.4656    151.9935
   647.2500    685.7410   -564.8219      8.2961    151.5376
   647.5000    685.7410   -564.8187      8.1886    152.3150
   647.7500    685.7410   -564.8155      8.1274    153.7003
   648.0000    685.7410   -564.8123      8.0965    156.7980
   648.2500    685.7410   -564.8091      8.0848    159.2034
   648.5000    685.7410   -564.8062      8.0881    162.4562
   648.7500    685.7410   -564.8034      8.1088    163.9304
   649.0000    685.7410   -564.8009      8.1513    164.8268
   649.2500    685.7410   -564.7987      8.2193    164.6452
   649.5000    685.7410   -564.7968      8.3141    163.1053
   649.7500    685.7410   -564.7953      8.4355    160.7805
   650.0000    685.7410   -564.7941      8.5842    154.6900
   650.2500    685.7410   -564.7932      8.7643    149.2748
   650.5000    685.7410   -564.7925      8.9834    141.1620
   650.7500    685.7410   -564.7919      9.2507    137.0920
   651.0000    685.7410   -564.7913      9.5735    134.2699
   651.2500    685.7410   -564.7905      9.9538    134.4243
   651.5000    685.7410   -564.7895     10.3847    135.8980
   651.7500    685.7410   -564.7881     10.8471    136.1989
   652.0000    685.7410   -564.7864     11.3092    133.9139
   652.2500    685.7410   -564.7845     11.7297    130.7538
   652.5000    685.7410   -564.7826     12.0667    125.4615
   652.7500    685.7410   -564.7808     12.2893    122.6601
   653.0000    685.7410   -564.7792     12.3859    120.0959
   653.2500    685.7410   -564.7782     12.3661    119.2085
   653.5000    685.7410   -564.7779     12.2578    118.9572
   653.7500    685.7410   -564.7784     12.1004    119.8888
   654.0000    685.7410   -564.7797     11.9342    123.4511
   654.2500    685.7410   -564.7819     11.7902    126.9392
   654.5000    685.7410   -564.7849     11.6837    132.4674
   654.7500    685.7410   -564.7883     11.6154    135.6428
   655.0000    685.7410   -564.7921     11.5792    138.9712
   655.2500    685.7410   -564.7960     11.5717    139.9647
   655.5000    685.7410   -564.7997     11.5977    139.2325
   655.7500    685.7410   -564.8030     11.6710    137.2940
   656.0000    685.7410   -564.8058     11.8091    132.8459
   656.2500    685.7410   -564.8079     12.0274    129.2970
   656.5000    685.7410   -564.8094     12.3342    123.5667
   656.7500    685.7410   -564.8101     12.7279    119.6846
   657.0000    685.7410   -564.8103     13.1964    114.2987
   657.2500    685.7410   -564.8101     13.7202    111.2855
   657.5000    685.7410   -564.8095     14.2797    107.7223
   657.7500    685.7410   -564.8088     14.8641    105.7970
   658.0000    685.7410   -564.8080     15.4744    103.0381
   658.2500    685.7410   -564.8073     16.1165    100.9982
   658.5000    685.7410   -564.8068     16.7900     97.5712
   658.7500    685.7410   -564.8065     17.4812     95.2449
   659.0000    685.7410   -564.8063     18.1654     92.0065
   659.2500    685.7410   -564.8065     18.8159     90.0794
   659.5000    685.7410   -564.8069     19.4130     87.7362
   659.7500    685.7410   -564.8076     19.9470     86.7086
   660.0000    685.7410   -564.8084     20.4171     86.0411
   660.2500    685.7410   -564.8095     20.8284     86.1258
   660.5000    685.7410   -564.8108     21.1889     87.0872
   660.7500    685.7410   -564.8123     21.5059     88.2525
   661.0000    685.7410   -564.8137     21.7841     90.1649
   661.2500    685.7410   -564.8151     22.0262     91.0204
   661.5000    685.7410   -564.8163     22.2346     91.4179
   661.7500    685.7410   -564.8172     22.4132     91.4865
   662.0000    685.7410   -564.8177     22.5628     92.0677
   662.2500    685.7410   -564.8177     22.6773     92.8386
   662.5000    685.7410   -564.8173     22.7434     94.1984
   662.7500    685.7410   -564.8165     22.7449     95.0313
   663.0000    685.7410   -564.8155     22.6679     95.9625
   663.2500    685.7410   -564.8144     22.5020     96.3761
   663.5000    685.7410   -564.8134     22.2420     97.1072
   663.7500    685.7410   -564.8124     21.8883     98.0337
   664.0000    685.7410   -564.8116     21.4467    100.3517
   664.2500    685.7410   -564.8110     20.9290    102.4383
   664.5000    685.7410   -564.8106     20.3563    106.3440
   664.7500    685.7410   -564.8104     19.7629    109.5809
   665.0000    685.7410   -564.8102     19.1909    115.1782
   665.2500    685.7410   -564.8102     18.6777    118.6976
   665.5000    685.7410   -564.8102     18.2459    121.8834
   665.7500    685.7410   -564.8102     17.9061    122.0226
   666.0000    685.7410   -564.8104     17.6679    119.9917
   666.2500    685.7410   -564.8105     17.5474    118.2860
   666.5000    685.7410   -564.8108     17.5639    116.8059
   666.7500    685.7410   -564.8112     17.7291    116.7459
   667.0000    685.7410   -564.8116     18.0375    117.5235
   667.2500    685.7410   -564.8122     18.4662    118.2733
   667.5000    685.7410   -564.8127     18.9833    119.2637
   667.7500    685.7410   -564.8132     19.5597    119.4008
   668.0000    685.7410   -564.8134     20.1749    117.9489
   668.2500    685.7410   -564.8133     20.8141    115.7606
   668.5000    685.7410   -564.8127     21.4595    111.6005
   668.7500    685.7410   -564.8115     22.0849    109.0201
   669.0000    685.7410   -564.8096     22.6595    105.8596
   669.2500    685.7410   -564.8070     23.1607    103.8116
   669.5000    685.7410   -564.8037     23.5828    100.0829
   669.7500    685.7410   -564.7998     23.9372     97.2291
   670.0000    685.7410   -564.7953     24.2461     93.0402
   670.2500    685.7410   -564.7905     24.5352     90.4396
   670.5000    685.7410   -564.7854     24.8283     86.4012
   670.7500    685.7410   -564.7802     25.1428     83.4166
   671.0000    685.7410   -564.7750     25.4888     78.9617
   671.2500    685.7410   -564.7700     25.8721     76.6027
   671.5000    685.7410   -564.7653     26.2973     74.6686
   671.7500    685.7410   -564.7609     26.7657     74.3778
   672.0000    685.7410   -564.7570     27.2702     74.6880
   672.2500    685.7410   -564.7535     27.7923     74.8454
   672.5000    685.7410   -564.7505     28.3035     74.2849
   672.7500    685.7410   -564.7481     28.7717     73.2321
   673.0000    685.7410   -564.7461     29.1686     70.9125
   673.2500    685.7410   -564.7445     29.4792     69.2502
   673.5000    685.7410   -564.7430     29.7076     67.1936
   673.7500    685.7410   -564.7416     29.8755     66.2234
   674.0000    685.7410   -564.7398     30.0108     65.1977
   674.2500    685.7410   -564.7375     30.1290     64.7705
   674.5000    685.7410   -564.7346     30.2184     64.7967
   674.7500    685.7410   -564.7307     30.2422     65.3711
   675.0000    685.7410   -564.7261     30.1612     66.6968
   675.2500    685.7410   -564.7208     29.9645     67.4680
   675.5000    685.7410   -564.7151     29.6811     68.0792
   675.7500    685.7410   -564.7092     29.3635     68.2582
   676.0000    685.7410   -564.7036     29.0579     68.5313
   676.2500    685.7410   -564.6985     28.7818     68.6712
   676.5000    685.7410   -564.6943     28.5218     68.4480
   676.7500    685.7410   -564.6910     28.2478     67.9781
   677.0000    685.7410   -564.6888     27.9356     67.3434
   677.2500    685.7410   -564.6877     27.5815     67.4125
   677.5000    685.7410   -564.6875     27.1984     68.5733
   677.7500    685.7410   -564.6880     26.8035     69.8754
   678.0000    685.7410   -564.6890     26.4117     72.0356
   678.2500    685.7410   -564.6904     26.0366     73.2925
   678.5000    685.7410   -564.6921     25.6926     74.4253
   678.7500    685.7410   -564.6939     25.3904     74.4230
   679.0000    685.7410   -564.6959     25.1324     73.0967
   679.2500    685.7410   -564.6981     24.9162     71.5385
   679.5000    685.7410   -564.7005     24.7403     69.0885
   679.7500    685.7410   -564.7031     24.6036     67.9542
   680.0000    685.7410   -564.7059     24.4966     67.4897
   680.2500    685.7410   -564.7089     24.3967     67.9347
