~Version Information
VERS.                      2.0: CWLS Log ASCII Standard - VERSION 2.0
WRAP.                       NO: One line per depth step
~Well Information Block
STRT.FT                15.0000: 
STOP.FT              1532.0000: 
STEP.FT                 0.2500: 
NULL.                -999.2500: 
COMP.          Pioneer Natural Resources: COMPANY
WELL.           Bobsy 34-11 Tr: WELL
FLD.           Purgatoire River: FIELD
LOC.           514' FSL & 1784' FEL: LOCATION
PROV.                 Colorado: PROVINCE
CNTY.               Las Animas: COUNTRY
SRVC.                Patterson: SERVICE COMPANY
DATE.          Fri Jul 22 12:22:14 2005: LOG DATE
UWI.           05 071 08438 00: UNIQUE WELL ID
~Curve Information Block
DEPT.FT            0 000 00 00: Depth
GR.GAPI                       : Gamma Ray
CCL.                          : Casing Collar Locator
TT3.usec                      : CBL 3' Travel Time
AMP3.mV                       : CBL 3' Amplitude
~Parameter Information Block
~A  Depth        GR         CCL         TT3         AMP3    
# ...
   316.5000     85.2918      0.0000    728.1804     13.6990
   316.7500     80.9682      0.0000    726.4561     13.7810
   317.0000     75.9555      0.0000    722.2516     13.8454
   317.2500     71.0425      0.0000    717.2544     13.8805
   317.5000     67.0627      0.0000    712.9650     13.8869
   317.7500     64.5323      0.0000    709.9473     13.8745
   318.0000     63.8492      0.0000    708.3174     13.8532
   318.2500     65.2644      0.0000    708.4678     13.8316
   318.5000     68.2549      0.0000    710.8057     13.8238
   318.7500     71.3481      0.0000    715.1001     13.8493
   319.0000     73.1374      0.0000    720.5189     13.9252
   319.2500     73.4009      0.0000    726.0793     14.0550
   319.5000     72.9559      0.0000    730.9094     14.2240
   319.7500     72.5578      0.0000    734.4471     14.4033
   320.0000     72.2868      0.0000    736.6191     14.5623
   320.2500     71.9282      0.0000    737.7245     14.6801
   320.5000     71.5521      0.0000    737.8885     14.7483
   320.7500     71.4381      0.0000    736.4276     14.7642
   321.0000     71.5251      0.0000    731.3782     14.7158
   321.2500     71.1939      0.0000    720.2905     14.5638
   321.5000     69.8546      0.0000    703.2241     14.2332
   321.7500     67.8903      0.0000    686.0870     13.6525
   322.0000     66.7110      0.0000    679.5027     12.8369
   322.2500     67.3111      0.0000    692.0649     11.9260
   322.5000     68.9303      0.0000    724.0431     11.0917
   322.7500     69.8229      0.0000    767.3041     10.4193
   323.0000     69.2522      0.0000    809.7898      9.9280
   323.2500     68.0001      0.0000    840.5023      9.6573
   323.5000     67.0138      0.0000    854.0030      9.6384
   323.7500     66.3480      0.0000    853.1041      9.8057
   324.0000     65.5355     -2.0709    845.4964     10.0222
   324.2500     64.3790      0.0000    834.3760     10.1965
   324.5000     63.2013      0.0000    812.9521     10.3577
   324.7500     62.5859      0.0000    772.0416     10.6416
   325.0000     62.9703      0.0000    714.6786     11.1941
   325.2500     64.3577      0.0000    660.0409     12.0322
   325.5000     66.2835      0.0000    628.5013     12.9932
   325.7500     68.0111      0.0000    624.0696     13.8689
   326.0000     68.8939      0.0000    636.0170     14.5761
   326.2500     68.7280      0.0000    654.4644     15.1561
   326.5000     67.7438      0.0000    676.6110     15.6542
   326.7500     66.2783      0.0000    700.2526     16.0673
   327.0000     64.6779      0.0000    720.3439     16.3805
   327.2500     63.4853      0.0000    733.1647     16.6021
   327.5000     63.3231      0.0000    739.1898     16.7584
   327.7500     64.3143      0.0000    741.1548     16.8708
   328.0000     65.7103      0.0000    741.4007     16.9441
   328.2500     66.3550      0.0000    741.1243     16.9706
   328.5000     65.7154      0.0000    740.7632     16.9488
   328.7500     64.3607      0.0000    740.4423     16.8960
   329.0000     63.2597      0.0000    740.1990     16.8433
   329.2500     62.7713      0.0000    740.0212     16.8156
   329.5000     62.6307      0.0000    739.8839     16.8166
   329.7500     62.7905      0.0000    739.7704     16.8298
   330.0000     63.8045      0.0000    739.6879     16.8337
   330.2500     66.2333      0.0000    739.6624     16.8149
   330.5000     69.8778      0.0000    739.7119     16.7726
   330.7500     73.7641      0.0000    739.8251     16.7137
   331.0000     76.9114      0.0000    739.9644     16.6457
   331.2500     79.1418      0.0000    740.0889     16.5752
   331.5000     81.1151      0.0000    740.1783     16.5112
   331.7500     83.6175      0.0000    740.2376     16.4659
   332.0000     86.8780      0.0000    740.2828     16.4470
   332.2500     90.4200      0.0000    740.3221     16.4501
   332.5000     93.3501      0.0000    740.3505     16.4591
   332.7500     94.8572      0.0000    740.3599     16.4555
   333.0000     94.7947      0.0000    740.3486     16.4295
   333.2500     93.9111      0.0000    740.2812     16.3877
   333.5000     93.2638      0.0000    739.9736     16.3492
   333.7500     93.1873      0.0000    738.9283     16.3303
   334.0000     93.0039      0.0000    736.2999     16.3318
   334.2500     91.8881      0.0000    731.2925     16.3407
   334.5000     89.7886      0.0000    723.9582     16.3438
   334.7500     87.3613      0.0000    715.6817     16.3397
   335.0000     85.3167      0.0000    708.6364     16.3407
   335.2500     84.0114      0.0000    704.6546     16.3621
   335.5000     83.4147      0.0000    704.6316     16.4068
   335.7500     83.3173      0.0000    708.5984     16.4603
   336.0000     83.5437      0.0000    715.7123     16.5045
   336.2500     83.9155      0.0000    724.1622     16.5359
   336.5000     84.2091      0.0000    731.7399     16.5674
   336.7500     84.4820      0.0000    736.9302     16.6116
   337.0000     85.2534      0.0000    739.3847     16.6651
   337.2500     86.9214      0.0000    739.3354     16.7112
   337.5000     89.0910      0.0000    736.8033     16.7389
   337.7500     90.8153      0.0000    731.5810     16.7575
   338.0000     91.5012      0.0000    724.0411     16.7869
   338.2500     91.4650      0.0000    715.8138     16.8335
   338.5000     91.6539      0.0000    709.4093     16.8812
   338.7500     92.7471      0.0000    707.0182     16.9111
   339.0000     94.3481      0.0000    709.4782     16.9244
   339.2500     95.1926      0.0000    715.9177     16.9376
   339.5000     94.5312      0.0000    724.0938     16.9574
   339.7500     93.1978      0.0000    731.4575     16.9668
   340.0000     92.7957      0.0000    736.4442     16.9392
   340.2500     93.9004      0.0000    738.9294     16.8686
   340.5000     95.6985      0.0000    739.5462     16.7800
   340.7500     97.3330      0.0000    738.6818     16.7095
   341.0000     98.8130      0.0000    736.0829     16.6700
   341.2500    100.4813      0.0000    731.3690     16.6426
   341.5000    102.2669      0.0000    725.1188     16.6010
   341.7500    103.7987      0.0000    719.4719     16.5385
   342.0000    104.8291      0.0000    717.1656     16.4674
   342.2500    105.1804      0.0000    719.4746     16.3953
   342.5000    104.4517      0.0000    725.1083     16.3096
   342.7500    102.2146      0.0000    731.3058     16.1889
   343.0000     98.7587      0.0000    735.9191     16.0292
   343.2500     95.5335      0.0000    738.4310     15.8559
   343.5000     94.4726      0.0000    739.4383     15.7085
   343.7500     96.6293      0.0000    739.6622     15.6090
   344.0000    101.4803      0.0000    739.3793     15.5472
   344.2500    107.3776      0.0000    738.2994     15.4982
   344.5000    112.4604      0.0000    735.7238     15.4533
   344.7500    115.3785      0.0000    731.1064     15.4295
   345.0000    115.6804      0.0000    724.9986     15.4454
   345.2500    113.7740      0.0000    719.5318     15.4954
   345.5000    110.5499      0.0000    717.3800     15.5516
   345.7500    107.0156      0.0000    719.6110     15.5888
   346.0000    103.9975      0.0000    724.4347     15.6012
   346.2500    101.8153      0.0000    728.2692     15.5955
   346.5000    100.1834      0.0000    728.2686     15.5758
   346.7500     98.6244      0.0000    724.2707     15.5417
   347.0000     97.0388      0.0000    718.7785     15.4952
   347.2500     95.7515      0.0000    715.0836     15.4462
   347.5000     94.9868      0.0000    715.0581     15.4116
   347.7500     94.5141      0.0000    718.4318     15.4070
   348.0000     93.9207      0.0000    723.7074     15.4344
   348.2500     93.0078      0.0000    729.2156     15.4787
   348.5000     91.8787      0.0000    733.4594     15.5213
   348.7500     90.9478      0.0000    735.3287     15.5503
   349.0000     90.9414      0.0000    734.5809     15.5554
   349.2500     92.4929      0.0000    731.9708     15.5214
   349.5000     95.5159      0.0000    728.4788     15.4408
   349.7500     99.1095      0.0000    724.3042     15.3311
