~Version Information
VERS.                      2.0: CWLS Log ASCII Standard - VERSION 2.0
WRAP.                       NO: One line per depth step
~Well Information Block
STRT.FT                 0.0000: 
STOP.FT              2473.5000: 
STEP.FT                 0.2500: 
NULL.                -999.2500: 
COMP.          Petrogulf Corporation: COMPANY
WELL.          Montoya 18-11V-B: WELL
FLD.           Purgatorie River: FIELD
LOC.           848' FNL & 619' FWL: LOCATION
PROV.                 Colorado: PROVINCE
CNTY.               Las Animas: COUNTRY
SRVC.                Patterson: SERVICE COMPANY
DATE.          Wed Nov 09 10:15:13 2005: LOG DATE
UWI.                          : UNIQUE WELL ID
~Curve Information Block
DEPT.FT            0 000 00 00: Depth
CCL.                          : Casing Collar Locator
TT3.usec                      : CBL 3' Travel Time
AMP3.mV                       : CBL 3' Amplitude
GR.GAPI                       : Gamma Ray
~Parameter Information Block
~A  Depth       CCL         TT3         AMP3         GR     
# ...
   971.5000      0.0000    266.6027     64.9601    103.7874
   971.7500      0.0000    274.8844     57.8963    110.2277
   972.0000      0.0000    282.2814     53.3342    117.4035
   972.2500      0.0000    284.7481     52.0709    122.8551
   972.5000      0.0000    282.0339     51.7118    124.4526
   972.7500      0.0000    276.4608     51.2569    121.8201
   973.0000      0.0000    271.0798     51.1752    116.2288
   973.2500      0.0000    267.9089     51.3264    109.5098
   973.5000     -2.0000    266.7321     51.4074    103.3811
   973.7500      2.0000    266.4035     51.5277     99.1048
   974.0000      0.0000    266.1892     52.0183     97.0838
   974.2500      0.0000    265.7737     53.3990     96.9025
   974.5000      0.0000    265.0037     56.3263     97.9367
   974.7500      0.0000    263.8628     60.8933     99.6894
   975.0000      0.0000    262.4876     65.9191    101.6868
   975.2500      0.0000    261.0994     69.9151    103.5031
   975.5000      0.0000    259.9465     72.4566    104.9375
   975.7500      0.0000    259.2122     73.8177    105.9718
   976.0000      0.0000    258.8789     74.3594    106.5124
   976.2500      0.0000    258.7778     74.5183    106.1924
   976.5000      0.0000    258.7579     74.6166    104.4718
   976.7500      0.0000    258.7461     74.7242    101.1217
   977.0000      0.0000    258.7279     74.7860     96.7505
   977.2500      0.0000    258.7201     74.7654     92.6980
   977.5000      0.0000    258.7331     74.6932     90.2923
   977.7500      0.0000    258.7525     74.6517     90.2574
   978.0000      0.0000    258.7602     74.6895     92.4548
   978.2500      0.0000    258.7533     74.7531     95.7150
   978.5000      0.0000    258.7374     74.7691     98.3924
   978.7500      0.0000    258.7212     74.7409     99.7389
   979.0000      0.0000    258.7162     74.7025    100.6069
   979.2500      0.0000    258.7260     74.6603    102.5880
   979.5000      0.0000    258.7396     74.6137    106.6728
   979.7500      0.0000    258.7452     74.5666    112.4842
   980.0000      0.0000    258.7412     74.5167    118.1969
   980.2500      0.0000    258.7287     74.4715    121.4403
   980.5000      0.0000    258.7063     74.4613    121.0757
   980.7500      0.0000    258.6823     74.4972    118.2287
   981.0000      0.0000    258.6727     74.5211    115.2676
   981.2500      0.0000    258.6831     74.4526    113.7222
   981.5000      0.0000    258.7110     74.2986    113.3529
   981.7500      0.0000    258.7496     74.1563    113.0852
   982.0000      0.0000    258.7838     74.0993    112.4678
   982.2500      0.0000    258.8024     74.1236    112.0307
   982.5000      0.0000    258.8126     74.1804    112.5083
   982.7500      0.0000    258.8269     74.2219    114.1965
   983.0000      0.0000    258.8446     74.2321    117.1897
   983.2500      0.0000    258.8587     74.2162    121.8050
   983.5000      0.0000    258.8669     74.1884    128.2190
   983.7500      0.0000    258.8708     74.1852    135.5576
   984.0000      0.0000    258.8692     74.2384    141.7405
   984.2500      0.0000    258.8587     74.3252    144.5528
   984.5000      0.0000    258.8395     74.3939    142.8904
   984.7500      0.0000    258.8189     74.4234    137.2691
   985.0000      0.0000    258.8060     74.4261    129.6703
   985.2500      0.0000    258.8049     74.4207    122.6570
   985.5000      0.0000    258.8172     74.4117    117.8647
   985.7500      0.0000    258.8400     74.3842    115.1771
   986.0000      0.0000    258.8614     74.3367    113.4811
   986.2500      0.0000    258.8705     74.2979    111.8940
   986.5000      0.0000    258.8705     74.2932    110.3500
   986.7500      0.0000    258.8718     74.3111    109.5919
   987.0000      0.0000    258.8807     74.3016    110.6251
   987.2500      0.0000    258.8958     74.2273    113.7087
   987.5000      0.0000    258.9109     74.1146    117.9083
   987.7500      0.0000    258.9207     74.0313    121.8758
   988.0000      0.0000    258.9179     74.0107    124.7326
   988.2500      0.0000    258.8943     74.0203    125.9566
   988.5000      0.0000    258.8511     74.0241    125.0233
   988.7500      0.0000    258.8054     74.0205    121.7582
   989.0000      0.0000    258.7740     74.0136    116.9553
   989.2500      0.0000    258.7597     74.0037    112.1902
   989.5000      0.0000    258.7585     73.9984    108.6729
   989.7500      0.0000    258.7657     74.0042    106.4077
   990.0000      0.0000    258.7742     74.0210    104.7432
   990.2500      0.0000    258.7759     74.0519    103.4506
   990.5000      0.0000    258.7662     74.0966    102.7865
   990.7500      0.0000    258.7500     74.1324    102.7000
   991.0000      0.0000    258.7375     74.1456    102.6280
   991.2500      0.0000    258.7309     74.1564    102.1988
   991.5000      0.0000    258.7292     74.1759    101.6999
   991.7500      0.0000    258.7375     74.1794    101.5998
   992.0000      0.0000    258.7539     74.1444    101.9672
   992.2500      0.0000    258.7660     74.0787    102.7487
   992.5000      0.0000    258.7670     74.0087    104.3577
   992.7500      0.0000    258.7609     73.9553    107.3448
   993.0000      0.0000    258.7480     73.9284    111.4328
   993.2500      0.0000    258.7271     73.9409    115.3859
   993.5000      0.0000    258.7108     73.9968    117.9931
   993.7500      0.0000    258.7141     74.0711    118.7411
   994.0000      0.0000    258.7282     74.1286    117.5247
   994.2500      0.0000    258.7251     74.1626    114.5110
   994.5000      0.0000    258.6939     74.1971    110.5275
   994.7500      0.0000    258.6623     74.2349    106.7940
   995.0000      0.0000    258.6602     74.2336    103.9149
   995.2500      0.0000    258.6784     74.1720    101.6905
   995.5000      0.0000    258.6892     74.1011    100.0478
   995.7500      0.0000    258.6846     74.0849     99.5527
   996.0000      0.0000    258.6745     74.1282    100.7483
   996.2500      0.0000    258.6671     74.1832    103.4424
   996.5000      0.0000    258.6602     74.1993    106.9615
   996.7500      0.0000    258.6557     74.1491    110.6872
   997.0000      0.0000    258.6639     74.0386    113.8756
   997.2500      0.0000    258.6831     73.9201    115.2599
   997.5000      0.0000    258.6931     73.8631    113.6605
   997.7500      0.0000    258.6838     73.8870    109.2758
   998.0000      0.0000    258.6723     73.9534    104.1301
   998.2500      0.0000    258.6755     74.0255    100.9633
   998.5000      0.0000    258.6833     74.0954    101.4076
   998.7500      0.0000    258.6788     74.1549    105.0667
   999.0000      0.0000    258.6648     74.1706    110.3341
   999.2500      0.0000    258.6583     74.1150    115.8935
   999.5000      0.0000    258.6683     74.0143    121.1936
   999.7500      0.0000    258.6863     73.9333    125.7919
  1000.0000      0.0000    258.6992     73.9113    128.8620
  1000.2500      0.0000    258.7040     73.9279    129.6264
  1000.5000      0.0000    258.7069     73.9366    128.1104
  1000.7500      0.0000    258.7165     73.9339    125.2426
  1001.0000      0.0000    258.7348     73.9601    122.0377
  1001.2500      0.0000    258.7472     74.0250    118.7342
  1001.5000      0.0000    258.7359     74.0882    115.0387
  1001.7500      0.0000    258.7017     74.1210    111.2241
  1002.0000      0.0000    258.6626     74.1335    108.5458
  1002.2500      0.0000    258.6407     74.1296    108.2906
  1002.5000      0.0000    258.6452     74.0865    110.5948
  1002.7500      0.0000    258.6619     74.0052    114.3427
  1003.0000      0.0000    258.6776     73.9369    117.8763
  1003.2500      0.0000    258.6918     73.9276    119.4644
  1003.5000      0.0000    258.7006     73.9749    117.6767
  1003.7500      0.0000    258.6995     74.0406    112.2977
  1004.0000      0.0000    258.6901     74.0818    104.9067
  1004.2500      0.0000    258.6716     74.0857     97.8883
  1004.5000      0.0000    258.6443     74.0690     92.5371
  1004.7500      0.0000    258.6199     74.0351     88.2572
