~Version Information
VERS.                      2.0: CWLS Log ASCII Standard - VERSION 2.0
WRAP.                       NO: One line per depth step
~Well Information Block
STRT.FT                10.0000: 
STOP.FT              1485.0000: 
STEP.FT                 0.1000: 
NULL.                -999.2500: 
COMP.          Pioneer Natural Resources: COMPANY
WELL.          Old Faithful 21-2: WELL
FLD.           Purgatorie River: FIELD
LOC.           806' FNL & 2509' FWL: LOCATION
PROV.                 Colorado: PROVINCE
CNTY.               Las Animas: COUNTRY
SRVC.                Patterson: SERVICE COMPANY
DATE.          Wed Dec 07 13:17:12 2005: LOG DATE
UWI.                          : UNIQUE WELL ID
~Curve Information Block
DEPT.FT            0 000 00 00: Depth
DCAL.in                       : CDL Caliper
RHOB.g/cc                     : CDL Bulk Density
RHOC.g/cc                     : CDL Density Correction
DPOR.pu                       : CDL Density Porosity
GR.GAPI                       : Gamma Ray
NPOR.pu                       : Neutron Porosity
~Parameter Information Block
~A  Depth       DCAL        RHOB        RHOC        DPOR         GR         NPOR    
# ...
   499.6000      8.3300      2.4160      0.0920     14.1833    126.0336     22.1042
   499.7000      8.3300      2.4355      0.0436     13.0002    130.3488     22.3519
   499.8000      8.3206      2.4506      0.1336     12.0849    136.3376     22.7148
   499.9000      8.3206      2.4626      0.1646     11.3589    138.5412     22.8035
   500.0000      8.3345      2.4644      0.0878     11.2466    134.5332     22.6766
   500.1000      8.3345      2.4592      0.0874     11.5632    128.4554     22.6503
   500.2000      8.3345      2.4483      0.0130     12.2243    124.8482     22.7455
   500.3000      8.3273      2.4354     -0.0374     13.0052    124.2133     22.8721
   500.4000      8.3273      2.4263     -0.0271     13.5567    124.6476     23.2221
   500.5000      8.3333      2.4194     -0.0149     13.9770    126.9649     23.8686
   500.6000      8.3333      2.4135     -0.0520     14.3327    131.1716     24.4100
   500.7000      8.3333      2.4132     -0.0087     14.3501    133.4560     24.3876
   500.8000      8.3426      2.4182      0.0072     14.0514    131.5402     23.8557
   500.9000      8.3426      2.4177      0.0269     14.0797    128.5726     23.2498
   501.0000      8.4276      2.4037      0.0085     14.9286    128.9853     22.8768
   501.1000      8.4276      2.3795     -0.0182     16.3958    132.5182     22.6224
   501.2000      8.4276      2.3559     -0.0360     17.8212    134.4332     22.0892
   501.3000      8.4028      2.3464     -0.0586     18.3986    130.9799     21.3604
   501.4000      8.4028      2.3574     -0.0460     17.7327    124.9799     20.9546
   501.5000      8.3774      2.3796      0.0194     16.3889    122.1784     20.8173
   501.6000      8.3774      2.4060      0.0219     14.7902    122.6111     20.5942
   501.7000      8.3774      2.4486      0.0703     12.2042    122.0701     20.2959
   501.8000      8.3588      2.5088      0.1818      8.5569    119.0593     20.1211
   501.9000      8.3588      2.5607      0.2404      5.4104    115.2105     20.1488
   502.0000      8.3557      2.5827      0.2710      4.0774    113.4743     20.2055
   502.1000      8.3557      2.5768      0.2382      4.4358    115.1206     20.1098
   502.2000      8.3557      2.5577      0.2374      5.5963    116.4784     20.0127
   502.3000      8.3580      2.5366      0.1834      6.8742    114.0156     19.9898
   502.4000      8.3580      2.5220      0.1027      7.7561    110.3682     19.9330
   502.5000      8.3608      2.5176      0.1210      8.0220    110.6476     20.0119
   502.6000      8.3608      2.5130      0.1022      8.3061    115.7421     20.3652
   502.7000      8.3608      2.5017      0.0472      8.9858    122.0667     20.6750
   502.8000      8.3869      2.4949     -0.0008      9.4006    125.1395     20.7331
   502.9000      8.3869      2.4989      0.0426      9.1559    122.8194     20.7756
   503.0000      8.3778      2.4991      0.0666      9.1446    117.4549     20.8863
   503.1000      8.3778      2.4824      0.0296     10.1604    113.6164     21.0079
   503.2000      8.3778      2.4636     -0.0125     11.2976    113.1488     21.2481
   503.3000      8.3692      2.4607      0.0327     11.4731    115.3624     21.5553
   503.4000      8.3692      2.4716     -0.0209     10.8115    119.2119     21.7000
   503.5000      8.3656      2.4903     -0.0031      9.6759    122.4057     21.6801
   503.6000      8.3656      2.5057      0.0469      8.7454    123.6721     21.7139
   503.7000      8.3656      2.5064      0.0018      8.7010    124.0389     22.0400
   503.8000      8.3651      2.4968     -0.0049      9.2846    124.8231     22.5092
   503.9000      8.3651      2.4865     -0.0050      9.9080    127.4062     22.7676
   504.0000      8.3641      2.4815      0.0255     10.2101    129.1140     22.6985
   504.1000      8.3641      2.4859      0.0033      9.9448    126.4408     22.3906
   504.2000      8.3641      2.4995      0.0281      9.1225    122.1624     22.1127
   504.3000      8.3660      2.5158      0.0386      8.1360    119.8972     22.1484
   504.4000      8.3660      2.5306      0.0238      7.2380    120.8236     22.3857
   504.5000      8.3619      2.5430      0.0455      6.4873    126.0603     22.4882
   504.6000      8.3619      2.5472      0.0474      6.2276    133.2314     22.3282
   504.7000      8.3619      2.5421      0.0296      6.5418    136.9418     22.1476
   504.8000      8.3584      2.5326      0.0136      7.1182    135.5103     22.3644
   504.9000      8.3584      2.5171      0.0666      8.0554    132.3824     22.9759
   505.0000      8.3666      2.5001     -0.0193      9.0863    131.3999     23.3325
   505.1000      8.3666      2.4973      0.0145      9.2562    132.1068     23.1187
   505.2000      8.3666      2.5034      0.0166      8.8866    133.6027     22.9218
   505.3000      8.3714      2.4968      0.0441      9.2829    135.9619     23.0471
   505.4000      8.3714      2.4750     -0.0060     10.6059    136.5493     23.0446
   505.5000      8.3612      2.4577     -0.0085     11.6546    133.8103     22.5678
   505.6000      8.3612      2.4593      0.0000     11.5582    130.3473     21.8871
   505.7000      8.3612      2.4763     -0.0136     10.5276    130.3408     21.3921
   505.8000      8.3668      2.5028      0.0369      8.9242    134.3445     21.1163
   505.9000      8.3668      2.5355      0.0762      6.9396    138.3835     21.0187
   506.0000      8.3633      2.5620      0.1354      5.3313    139.4914     21.1528
   506.1000      8.3633      2.5601      0.1322      5.4505    139.3306     21.4102
   506.2000      8.3633      2.5292      0.0363      7.3202    140.7521     21.6146
   506.3000      8.3679      2.5012      0.0468      9.0192    143.1217     21.8145
   506.4000      8.3679      2.4977      0.0336      9.2316    142.9541     21.9826
   506.5000      8.3755      2.5071      0.0745      8.6619    139.6803     21.9666
   506.6000      8.3755      2.5137      0.0194      8.2624    137.0407     21.9823
   506.7000      8.3755      2.5257      0.0384      7.5331    135.3194     22.2121
   506.8000      8.4286      2.5473      0.0912      6.2252    134.5466     22.4711
   506.9000      8.4286      2.5698      0.0823      4.8590    135.2929     22.7805
   507.0000      8.4406      2.6027      0.0273      2.8651    133.0473     23.2690
   507.1000      8.4406      2.6555      0.0622     -0.3327    127.5794     23.7449
   507.2000      8.4406      2.7079      0.1166     -3.5083    125.3415     23.9375
   507.3000      8.3317      2.7352      0.1038     -5.1636    127.3093     24.1302
   507.4000      8.3317      2.7326      0.0992     -5.0044    126.6918     24.7855
   507.5000      8.2976      2.7052      0.0767     -3.3449    121.5484     25.7428
   507.6000      8.2976      2.6631      0.0585     -0.7927    117.0637     26.6654
   507.7000      8.2976      2.6153      0.0322      2.1003    115.3768     27.4763
   507.8000      8.2973      2.5694     -0.0438      4.8820    114.9895     28.0641
   507.9000      8.2973      2.5355     -0.0743      6.9379    115.7976     28.2690
   508.0000      8.2900      2.5142     -0.0483      8.2325    116.8204     28.0180
   508.1000      8.2900      2.5095     -0.0552      8.5164    115.7272     27.2701
   508.2000      8.2900      2.5384      0.0166      6.7657    113.3956     26.2847
   508.3000      8.3115      2.5976      0.1174      3.1752    113.2062     25.5076
   508.4000      8.3115      2.6626      0.1583     -0.7607    116.0843     25.0302
   508.5000      8.2603      2.7159      0.2407     -3.9932    118.9557     24.6199
   508.6000      8.2603      2.7459      0.2728     -5.8150    120.8616     24.0917
   508.7000      8.2603      2.7463      0.2321     -5.8367    123.4848     23.6646
   508.8000      8.2481      2.7243      0.1704     -4.5036    125.4329     23.5145
   508.9000      8.2481      2.6884      0.1450     -2.3280    125.3936     23.3958
   509.0000      8.2628      2.6413      0.0577      0.5244    125.3101     23.0823
   509.1000      8.2628      2.5933     -0.0070      3.4386    126.1700     22.7731
