~Version Information
VERS.                      2.0: CWLS Log ASCII Standard - VERSION 2.0
WRAP.                       NO: One line per depth step
~Well Information Block
STRT.FT               197.7500: 
STOP.FT              1631.0000: 
STEP.FT                 0.2500: 
NULL.                -999.2500: 
COMP.          Petrogulf Corporation: COMPANY
WELL.             State 16-44R: WELL
FLD.           Purgatoire River: FIELD
LOC.           632' FSL & 223' FEL--: LOCATION
PROV.                 Colorado: PROVINCE
CNTY.               Las Animas: COUNTRY
SRVC.                Patterson: SERVICE COMPANY
DATE.          Fri Oct 21 11:31:17 2005: LOG DATE
UWI.           05 071 08457 00: UNIQUE WELL ID
~Curve Information Block
DEPT.FT            0 000 00 00: Depth
SP.mV                         : DIL Spontaneous Potential
RILD.Ohm-m                    : DIL Deep Resistivity
RILM.Ohm-m                    : DIL Medium Resistivity
RLL3.Ohm-m                    : DIL Shallow Resistivity
GR.GAPI                       : Gamma Ray
~Parameter Information Block
~A  Depth        SP         RILD        RILM        RLL3         GR     
# ...
   505.7500   2000.0000     25.7862     30.0778   2000.0000     77.6655
   506.0000   2000.0000     23.8143     28.0755   2000.0000     83.1664
   506.2500   2000.0000     21.9210     25.8128   2000.0000     85.8682
   506.5000   2000.0000     20.1730     23.4268   2000.0000     89.5777
   506.7500   2000.0000     18.5962     21.0625   2000.0000     92.5534
   507.0000   2000.0000     17.1885     18.8474   2000.0000     98.5504
   507.2500   2000.0000     15.9348     16.8703   2000.0000    103.5077
   507.5000   2000.0000     14.8160     15.1746   2000.0000    111.4149
   507.7500   2000.0000     13.8141     13.7633   2000.0000    116.3101
   508.0000   2000.0000     12.9142     12.6125   2000.0000    122.4882
   508.2500   2000.0000     12.1046     11.6837   2000.0000    125.8421
   508.5000   2000.0000     11.3764     10.9330   2000.0000    129.7230
   508.7500   2000.0000     10.7235     10.3178   2000.0000    131.4019
   509.0000   2000.0000     10.1422      9.8014   2000.0000    132.6906
   509.2500   2000.0000      9.6315      9.3559   2000.0000    133.2632
   509.5000   2000.0000      9.1915      8.9634   2000.0000    134.7126
   509.7500   2000.0000      8.8215      8.6153   2000.0000    136.1645
   510.0000   2000.0000      8.5192      8.3090   2000.0000    138.3728
   510.2500   2000.0000      8.2799      8.0458   2000.0000    139.5000
   510.5000   2000.0000      8.0979      7.8275   2000.0000    140.7725
   510.7500   2000.0000      7.9664      7.6554   2000.0000    141.5587
   511.0000   2000.0000      7.8792      7.5290   2000.0000    142.4665
   511.2500   2000.0000      7.8309      7.4461   2000.0000    142.4391
   511.5000   2000.0000      7.8171      7.4037   2000.0000    140.7784
   511.7500   2000.0000      7.8334      7.4001   2000.0000    138.6206
   512.0000   2000.0000      7.8757      7.4351   2000.0000    134.6653
   512.2500   2000.0000      7.9409      7.5101   2000.0000    132.3060
   512.5000   2000.0000      8.0274      7.6269   2000.0000    130.2758
   512.7500   2000.0000      8.1353      7.7859   2000.0000    130.0604
   513.0000   2000.0000      8.2663      7.9845   2000.0000    130.5113
   513.2500   2000.0000      8.4225      8.2167   2000.0000    130.3942
   513.5000   2000.0000      8.6061      8.4730   2000.0000    128.4076
   513.7500   2000.0000      8.8186      8.7436   2000.0000    125.8836
   514.0000   2000.0000      9.0598      9.0220   2000.0000    121.5188
   514.2500   2000.0000      9.3272      9.3087   2000.0000    119.1953
   514.5000   2000.0000      9.6166      9.6103   2000.0000    117.5230
   514.7500   2000.0000      9.9239      9.9356   2000.0000    117.4439
   515.0000   2000.0000     10.2465     10.2889   2000.0000    117.9709
   515.2500   2000.0000     10.5828     10.6668   2000.0000    118.4326
   515.5000   2000.0000     10.9307     11.0596   2000.0000    119.3836
   515.7500   2000.0000     11.2851     11.4556   2000.0000    120.2919
   516.0000   2000.0000     11.6373     11.8456   2000.0000    121.7410
   516.2500   2000.0000     11.9780     12.2252   2000.0000    122.3399
   516.5000   2000.0000     12.3015     12.5948   2000.0000    122.0996
   516.7500   2000.0000     12.6102     12.9591   2000.0000    121.1510
   517.0000   2000.0000     12.9136     13.3275   2000.0000    119.1119
   517.2500   2000.0000     13.2253     13.7119   2000.0000    117.8518
   517.5000   2000.0000     13.5572     14.1241   2000.0000    116.5425
   517.7500   2000.0000     13.9156     14.5735   2000.0000    115.7593
   518.0000   2000.0000     14.3008     15.0646   2000.0000    113.6794
   518.2500   2000.0000     14.7084     15.5959   2000.0000    111.3461
   518.5000   2000.0000     15.1308     16.1591   2000.0000    106.7298
   518.7500   2000.0000     15.5584     16.7390   2000.0000    103.3205
   519.0000   2000.0000     15.9807     17.3165   2000.0000     98.2646
   519.2500   2000.0000     16.3896     17.8731   2000.0000     95.2061
   519.5000   2000.0000     16.7823     18.3927   2000.0000     91.6406
   519.7500   2000.0000     17.1614     18.8611   2000.0000     90.2204
   520.0000   2000.0000     17.5331     19.2654   2000.0000     89.5745
   520.2500   2000.0000     17.9043     19.5973   2000.0000     89.8513
   520.5000   2000.0000     18.2790     19.8583   2000.0000    113.3202
   520.7500   2000.0000     18.6553     20.0635   2000.0000    114.1079
   521.0000   2000.0000     19.0220     20.2403   2000.0000    115.7688
   521.2500   2000.0000     19.3590     20.4206   2000.0000    117.3421
   521.5000   2000.0000     19.6442     20.6290   2000.0000    143.9552
   521.7500   2000.0000     19.8646     20.8739   2000.0000    145.7063
   522.0000   2000.0000     20.0229     21.1467   2000.0000    147.1830
   522.2500   2000.0000     20.1342     21.4264   2000.0000    147.1151
   522.5000   2000.0000     20.2164     21.6864   2000.0000    144.7376
   522.7500   2000.0000     20.2807     21.9022   2000.0000    141.4676
   523.0000   2000.0000     20.3306     22.0569   2000.0000    135.1051
   523.2500   2000.0000     20.3687     22.1449   2000.0000    131.1242
   523.5000   2000.0000     20.4035     22.1723   2000.0000    127.2219
   523.7500   2000.0000     20.4503     22.1549   2000.0000    126.1677
   524.0000   2000.0000     20.5244     22.1133   2000.0000    126.1307
   524.2500   2000.0000     20.6319     22.0666   2000.0000    126.6588
   524.5000   2000.0000     20.7682     22.0269   2000.0000    128.0520
   524.7500   2000.0000     20.9227     21.9987   2000.0000    129.4335
   525.0000   2000.0000     21.0846     21.9831   2000.0000    132.2041
   525.2500   2000.0000     21.2444     21.9826   2000.0000    134.4485
   525.5000   2000.0000     21.3905     22.0020   2000.0000    137.8576
   525.7500   2000.0000     21.5083     22.0450   2000.0000    139.4404
   526.0000   2000.0000     21.5839     22.1100   2000.0000    139.7290
   526.2500   2000.0000     21.6122     22.1895   2000.0000    138.8173
   526.5000   2000.0000     21.5999     22.2713   2000.0000    137.7780
   526.7500   2000.0000     21.5627     22.3404   2000.0000    138.2833
   527.0000   2000.0000     21.5158     22.3829   2000.0000    140.4961
   527.2500   2000.0000     21.4670     22.3910   2000.0000    141.7910
   527.5000   2000.0000     21.4183     22.3665   2000.0000    141.8079
   527.7500   2000.0000     21.3722     22.3202   2000.0000    140.4616
   528.0000   2000.0000     21.3337     22.2682   2000.0000    137.2587
   528.2500   2000.0000     21.3043     22.2260   2000.0000    134.6786
   528.5000   2000.0000     21.2756     22.2043   2000.0000    130.0273
   528.7500   2000.0000     21.2329     22.2060   2000.0000    126.3425
   529.0000   2000.0000     21.1682     22.2245   2000.0000    120.6034
   529.2500   2000.0000     21.0892     22.2456   2000.0000    117.2961
   529.5000   2000.0000     21.0132     22.2531   2000.0000    113.5157
   529.7500   2000.0000     20.9528     22.2353   2000.0000    111.3015
   530.0000   2000.0000     20.9067     22.1900   2000.0000    107.4013
   530.2500   2000.0000     20.8640     22.1246   2000.0000    104.3478
   530.5000   2000.0000     20.8159     22.0511   2000.0000     99.6910
   530.7500   2000.0000     20.7633     21.9782   2000.0000     96.7615
   531.0000   2000.0000     20.7145     21.9047   2000.0000     92.7270
   531.2500   2000.0000     20.6783     21.8206   2000.0000     90.6036
   531.5000   2000.0000     20.6571     21.7147   2000.0000     89.4608
   531.7500   2000.0000     20.6448     21.5828   2000.0000     90.6459
   532.0000   2000.0000     20.6283     21.4298   2000.0000     95.2350
   532.2500   2000.0000     20.5945     21.2654   2000.0000     99.3045
   532.5000   2000.0000     20.5385     21.1005   2000.0000    104.4192
   532.7500   2000.0000     20.4682     20.9460   2000.0000    105.7423
   533.0000   2000.0000     20.3995     20.8129   2000.0000    104.0234
   533.2500   2000.0000     20.3463     20.7091   2000.0000    101.6410
   533.5000   2000.0000     20.3126     20.6354   2000.0000     99.5546
