~Version Information
VERS.                      2.0: CWLS Log ASCII Standard - VERSION 2.0
WRAP.                       NO: One line per depth step
~Well Information Block
STRT.FT                -8.7500: 
STOP.FT              1035.7500: 
STEP.FT                 0.2500: 
NULL.                -999.2500: 
COMP.          Pioneer Natural Resources: COMPANY
WELL.                Mac 22-36: WELL
FLD.           Purgatorie River: FIELD
LOC.           2545' FNL & 1398' FWL--: LOCATION
PROV.                       CO: PROVINCE
CNTY.               Las Animas: COUNTRY
SRVC.          Patterson Wireline: SERVICE COMPANY
DATE.          Thu Dec 08 13:20:05 2005: LOG DATE
UWI.           08 071 08594 00: UNIQUE WELL ID
~Curve Information Block
DEPT.FT            0 000 00 00: Depth
CCL.                          : Casing Collar Locator
TT3.usec                      : CBL 3' Travel Time
AMP3.mV                       : CBL 3' Amplitude
GR.GAPI                       : Gamma Ray
~Parameter Information Block
~A  Depth       CCL         TT3         AMP3         GR     
# ...
   393.2500      0.0000    835.6048      9.1348     74.4129
   393.5000      0.0000    836.6909      9.1132     77.5832
   393.7500      0.0000    837.2529      9.1058     81.5401
   394.0000      0.0000    837.8058      9.1160     85.4127
   394.2500      0.0000    838.7379      9.1416     88.4097
   394.5000      0.0000    840.3976      9.1732     89.9307
   394.7500      0.0000    842.7528      9.1968     89.3530
   395.0000      0.0000    845.0029      9.2005     86.0910
   395.2500      0.0000    845.8928      9.1817     80.4205
   395.5000      0.0000    844.7614      9.1492     74.2435
   395.7500      0.0000    842.1921      9.1202     70.2901
   396.0000      0.0000    839.4379      9.1117     70.0080
   396.2500      0.0000    837.4111      9.1302     72.3951
   396.5000      0.0000    836.3749      9.1673     75.1889
   396.7500      0.0000    836.3380      9.2076     76.8957
   397.0000      0.0000    837.3541      9.2426     77.3662
   397.2500      0.0000    839.2963      9.2744     76.9370
   397.5000      0.0000    841.4426      9.3096     75.9065
   397.7500      0.0000    842.6193      9.3552     74.8286
   398.0000      0.0000    841.8933      9.4191     74.4963
   398.2500      0.0000    838.9194      9.5109     75.1542
   398.5000      0.0000    833.8596      9.6367     75.8939
   398.7500      0.0000    827.8297      9.7923     75.2067
   399.0000      0.0000    823.0690      9.9632     72.2808
   399.2500      0.0000    821.0305     10.1270     67.7989
   399.5000      0.0000    820.2888     10.2602     63.6526
   399.7500      0.0000    818.5360     10.3462     61.8267
   400.0000      0.0000    816.9274     10.3847     62.9987
   400.2500      0.0000    819.7559     10.3940     65.9211
   400.5000      0.0000    828.6494     10.4017     68.6447
   400.7500      0.0000    839.3514     10.4297     70.8159
   401.0000      0.0000    845.8525     10.4881     74.4551
   401.2500      0.0000    846.1916     10.5833     81.9955
   401.5000      0.0000    842.8915     10.7236     93.7660
   401.7500      0.0000    839.2681     10.9106    107.5271
   402.0000      0.0000    836.9559     11.1273    119.8633
   402.2500      0.0000    836.2494     11.3435    127.7608
   402.5000      0.0000    837.4072     11.5334    129.8710
   402.7500      0.0000    841.3755     11.6862    127.5296
   403.0000      0.0000    849.4651     11.8046    124.4662
   403.2500      0.0000    861.9478     11.8956    124.4654
   403.5000      0.0000    876.5594     11.9650    128.5691
   403.7500      0.0000    889.1213     12.0164    134.4164
   404.0000      0.0000    896.6844     12.0532    138.3597
   404.2500      0.0000    899.6781     12.0767    138.3617
   404.5000      0.0000    899.8670     12.0828    135.1499
   404.7500      0.0000    897.0057     12.0583    131.2030
   405.0000      0.0000    889.2897     11.9876    129.2073
   405.2500      0.0000    876.4653     11.8658    131.0880
   405.5000      0.0000    860.5907     11.7058    137.2834
   405.7500      0.0000    844.0921     11.5252    146.1928
   406.0000      0.0000    828.5844     11.3292    154.8940
   406.2500      0.0000    815.2946     11.1123    161.3496
   406.5000      0.0000    805.2501     10.8732    165.9485
   406.7500      0.0000    798.6656     10.6244    170.4171
   407.0000      0.0000    794.6116     10.3894    175.4446
   407.2500      0.0000    791.5834     10.1926    180.0116
   407.5000      0.0000    788.5384     10.0488    182.8276
   407.7500      0.0000    785.5178      9.9581    183.7014
   408.0000      0.0000    783.1025      9.9102    183.5233
   408.2500      0.0000    781.0717      9.8955    183.5235
   408.5000      0.0000    778.0485      9.9126    184.5118
   408.7500      0.0000    773.0398      9.9686    186.2150
   409.0000      0.0000    767.2542     10.0685    187.1688
   409.2500      0.0000    763.9590     10.2058    185.5906
   409.5000      0.0000    766.5023     10.3623    180.6336
   409.7500      0.0000    776.1299     10.5166    172.8770
   410.0000      0.0000    790.6591     10.6488    163.9076
   410.2500      0.0000    804.7578     10.7416    155.5930
   410.5000      0.0000    812.6808     10.7851    149.2673
   410.7500      0.0000    812.2297     10.7844    144.9461
   411.0000      0.0000    806.0705     10.7623    141.1688
   411.2500      0.0000    798.7479     10.7488    135.8712
   411.5000      0.0000    792.7803     10.7645    127.9746
   411.7500      0.0000    787.6857     10.8118    118.6410
   412.0000      0.0000    781.7602     10.8836    110.7336
   412.2500      0.0000    774.1797     10.9773    106.5970
   412.5000      0.0000    765.7850     11.0950    106.3905
   412.7500      0.0000    758.3030     11.2296    108.5216
   413.0000      0.0000    752.9679     11.3598    111.1944
   413.2500      0.0000    749.8949     11.4646    113.4654
   413.5000      0.0000    748.6158     11.5426    115.4411
   413.7500      0.0000    748.9021     11.6071    117.9275
   414.0000      0.0000    751.0001     11.6616    121.7066
   414.2500      0.0000    755.0155     11.6844    126.8169
   414.5000      0.0000    759.9374     11.6431    132.4872
   414.7500      0.0000    763.4996     11.5229    137.8160
   415.0000      0.0000    763.6381     11.3387    142.4390
   415.2500      0.0000    760.3032     11.1246    146.5868
   415.5000      0.0000    755.4707     10.9120    150.7792
   415.7500      0.0000    751.3307     10.7116    155.4902
   416.0000      0.0000    748.7850     10.5113    160.7035
   416.2500      0.0000    747.4822     10.2985    165.8259
   416.5000      0.0000    746.5910     10.0875    170.3957
   416.7500      0.0000    745.2101      9.9175    174.6877
   417.0000      0.0000    742.3847      9.8174    178.9185
   417.2500      0.0000    737.3428      9.7747    181.9572
   417.5000      0.0000    730.1517      9.7425    181.8801
   417.7500      0.0000    722.1025      9.6728    178.3914
   418.0000      0.0000    715.1302      9.5530    174.2267
   418.2500      0.0000    710.7315      9.4208    173.6214
   418.5000      0.0000    709.6024      9.3360    178.8854
   418.7500      0.0000    712.0565      9.3113    187.8325
   419.0000      0.0000    718.1737      9.2701    194.7247
   419.2500      0.0000    727.4391      9.0973    194.8495
   419.5000      0.0000    738.9836      8.7630    188.5362
   419.7500      0.0000    752.3692      8.3888    180.0502
   420.0000      0.0000    767.1022      8.1664    172.8045
   420.2500      0.0000    781.0508      8.2010    166.7845
   420.5000      0.0000    790.8460      8.4368    160.1342
   420.7500      0.0000    794.6772      8.7201    151.6331
   421.0000      2.0000    794.0528      8.9200    141.5893
   421.2500      0.0000    792.8298      8.9925    131.6411
   421.5000      0.0000    794.8030      8.9611    124.0922
   421.7500      0.0000    800.4767      8.8939    120.6661
   422.0000      0.0000    804.9400      8.9234    121.3043
   422.2500      0.0000    800.9775      9.2174    124.2479
   422.5000      0.0000    786.2458      9.8278    127.3723
   422.7500      0.0000    766.3830     10.5710    129.4473
   423.0000      0.0000    750.0735     11.1468    130.4809
   423.2500      0.0000    741.9322     11.3860    131.4406
   423.5000      0.0000    740.6277     11.3443    133.7537
   423.7500      0.0000    742.2813     11.1832    138.4691
   424.0000      0.0000    744.0792     11.0266    145.2577
   424.2500      0.0000    745.1147     10.9162    152.2621
   424.5000      0.0000    745.4736     10.8448    157.1683
   424.7500      0.0000    745.4215     10.8013    158.4023
   425.0000      0.0000    745.3149     10.7882    155.5145
   425.2500      0.0000    745.8424     10.8122    149.0602
   425.5000      0.0000    748.1405     10.8677    140.3308
   425.7500      0.0000    753.3733     10.9385    130.7796
   426.0000      0.0000    761.8643     11.0068    121.3457
   426.2500      0.0000    772.5266     11.0536    112.2914
   426.5000      0.0000    783.2880     11.0515    103.6819
