~Version Information
VERS.                      2.0: CWLS Log ASCII Standard - VERSION 2.0
WRAP.                       NO: One line per depth step
~Well Information Block
STRT.FT                -7.0000: 
STOP.FT              1239.2500: 
STEP.FT                 0.2500: 
NULL.                -999.2500: 
COMP.          Pioneer Natural Resources: COMPANY
WELL.              Julie 11-30: WELL
FLD.           Purgatorie River: FIELD
LOC.           672' FNL & 1052' FWL--: LOCATION
CNTY.               Las Animas: COUNTY
SRVC.          Patterson Wireline: SERVICE COMPANY
DATE.          Tue Apr 18 11:12:35 2006: LOG DATE
UWI.           05 071 08724 00: UNIQUE WELL ID
STAT.                       CO: STATE
~Curve Information Block
DEPT.FT            0 000 00 00: Depth
CCL.                          : Casing Collar Locator
TT3.usec                      : CBL 3' Travel Time
AMP3.mV                       : CBL 3' Amplitude
GR.GAPI                       : Gamma Ray
~Parameter Information Block
~A  Depth       CCL         TT3         AMP3         GR     
# ...
   864.0000      0.0000    700.1099      5.4280     96.5701
   864.2500      0.0000    696.9910      5.5100     96.8410
   864.5000      0.0000    698.6270      5.5909     97.0170
   864.7500      0.0000    703.8365      5.6288     96.7357
   865.0000      0.0000    710.0233      5.6088     97.0038
   865.2500      0.0000    714.4173      5.5496     99.2680
   865.5000      0.0000    715.7513      5.4850    103.8749
   865.7500      0.0000    714.9233      5.4353    109.8793
   866.0000      0.0000    713.5510      5.3958    116.1337
   866.2500      0.0000    711.6247      5.3548    121.8321
   866.5000      0.0000    706.8707      5.3177    125.9635
   866.7500      0.0000    696.5364      5.3067    127.0997
   867.0000      0.0000    680.0185      5.3404    124.4974
   867.2500      0.0000    660.1437      5.4184    119.3637
   867.5000      0.0000    641.8024      5.5224    114.4170
   867.7500      0.0000    628.5980      5.6269    112.0327
   868.0000      0.0000    620.3536      5.7104    112.9854
   868.2500      0.0000    613.8436      5.7630    116.5249
   868.5000      0.0000    606.0408      5.7841    120.8653
   868.7500      0.0000    596.6714      5.7760    123.8612
   869.0000      0.0000    587.9633      5.7418    124.2242
   869.2500      0.0000    582.5190      5.6916    122.2642
   869.5000      0.0000    581.4299      5.6450    119.1642
   869.7500      0.0000    583.5488      5.6248    115.9227
   870.0000      0.0000    585.7877      5.6444    113.2909
   870.2500      0.0000    584.6774      5.6997    111.8737
   870.5000      0.0000    578.9807      5.7732    111.5163
   870.7500      0.0000    571.4470      5.8434    111.2425
   871.0000      0.0000    567.0972      5.8945    110.5717
   871.2500      0.0000    569.0142      5.9222    110.3539
   871.5000      0.0000    576.6711      5.9326    111.6282
   871.7500      0.0000    588.7448      5.9386    114.1460
   872.0000      0.0000    605.3485      5.9528    116.5296
   872.2500      0.0000    625.8831      5.9831    117.3902
   872.5000      0.0000    646.7249      6.0295    115.9629
   872.7500      0.0000    663.2702      6.0856    112.4805
   873.0000      0.0000    673.6512      6.1427    108.4649
   873.2500      0.0000    678.9622      6.1955    106.0365
   873.5000      0.0000    679.5711      6.2419    106.2119
   873.7500      0.0000    671.7844      6.2808    107.8646
   874.0000      0.0000    649.0875      6.3101    108.7987
   874.2500      0.0000    607.6912      6.3280    108.0125
   874.5000      0.0000    551.5682      6.3337    106.5893
   874.7500      0.0000    492.2064      6.3286    106.2092
   875.0000      0.0000    442.4157      6.3154    107.2704
   875.2500      0.0000    409.1400      6.2971    108.7775
   875.5000      0.0000    391.3091      6.2757    109.4765
   875.7500      0.0000    383.3787      6.2540    108.6207
   876.0000      0.0000    379.8727      6.2383    106.2094
   876.2500      0.0000    377.4152      6.2371    103.1866
   876.5000      0.0000    374.7669      6.2547    101.1868
   876.7500      0.0000    372.3652      6.2851    101.5024
   877.0000      0.0000    371.5595      6.3132    103.9019
   877.2500      0.0000    373.3037      6.3229    106.2843
   877.5000      0.0000    377.0790      6.3048    105.7233
   877.7500      0.0000    381.0202      6.2589    100.5600
   878.0000      0.0000    383.2739      6.1922     91.8809
   878.2500      0.0000    383.5295      6.1153     82.7262
   878.5000      0.0000    383.3545      6.0409     75.5983
   878.7500      0.0000    384.8140      5.9820     70.9534
   879.0000      0.0000    388.4741      5.9473     68.0010
   879.2500      0.0000    392.6475      5.9345     66.1387
   879.5000      0.0000    394.6693      5.9303     65.2808
   879.7500      0.0000    393.0869      5.9200     65.6252
   880.0000      0.0000    388.7257      5.8974     67.4998
   880.2500      0.0000    383.7646      5.8664     70.8995
   880.5000      0.0000    379.9769      5.8357     74.9633
   880.7500      0.0000    377.8416      5.8148     78.3068
   881.0000      0.0000    376.9118      5.8133     79.8501
   881.2500      0.0000    376.5764      5.8354     79.2239
   881.5000      0.0000    376.4664      5.8726     76.8101
   881.7500      0.0000    376.4532      5.9049     73.6049
   882.0000      0.0000    376.5021      5.9133     70.6192
   882.2500      0.0000    376.5750      5.8942     68.2657
   882.5000      0.0000    376.6134      5.8623     66.5108
   882.7500      0.0000    376.5743      5.8407     65.3640
   883.0000      0.0000    376.4598      5.8458     64.9818
   883.2500      0.0000    376.3080      5.8781     65.5993
   883.5000      0.0000    376.1571      5.9258     67.3884
   883.7500      0.0000    376.0257      5.9742     70.0369
   884.0000      0.0000    375.9236      6.0135     72.5396
   884.2500      0.0000    375.8855      6.0407     73.7749
   884.5000      0.0000    376.0439      6.0571     73.2904
   884.7500      0.0000    376.9765      6.0647     71.4226
   885.0000      0.0000    380.5242      6.0627     68.7106
   885.2500      0.0000    390.8504      6.0473     65.3539
   885.5000      0.0000    414.2511      6.0153     61.3154
   885.7500      0.0000    455.6665      5.9694     56.9171
   886.0000      0.0000    512.8826      5.9173     53.1044
   886.2500      0.0000    574.4397      5.8664     50.8642
   886.5000      0.0000    625.8181      5.8182     50.3926
   886.7500      0.0000    658.8810      5.7680     51.0154
   887.0000      0.0000    675.0641      5.7115     51.8429
   887.2500      0.0000    680.7859      5.6495     52.3689
   887.5000      0.0000    681.5960      5.5885     52.6752
   887.7500      0.0000    679.6570      5.5359     53.2032
   888.0000      0.0000    673.6586      5.4956     54.1673
   888.2500      0.0000    659.5134      5.4663     55.2558
   888.5000      0.0000    632.5337      5.4437     56.0383
   888.7500      0.0000    591.8911      5.4213     56.2987
   889.0000      0.0000    544.5847      5.3885     55.6872
   889.2500      0.0000    504.6487      5.3275     53.5789
   889.5000      0.0000    487.0836      5.2167     49.8318
   889.7500      0.0000    500.2778      5.0470     45.5354
   890.0000      0.0000    540.9533      4.8419     42.6943
   890.2500      0.0000    594.9724      4.6599     43.0552
   890.5000      0.0000    645.2991      4.5660     46.9099
   890.7500      0.0000    681.5529      4.5929     52.7384
   891.0000      0.0000    702.5229      4.7218     58.1677
   891.2500      0.0000    711.0042      4.8982     61.6601
   891.5000      0.0000    708.9900      5.0632     63.4344
   891.7500      0.0000    698.4626      5.1743     64.9315
   892.0000      0.0000    684.2961      5.2063     67.6646
   892.2500      0.0000    673.0388      5.1453     72.3612
   892.5000      0.0000    667.4883      4.9929     78.5693
   892.7500      0.0000    663.6011      4.7817     84.8384
   893.0000      0.0000    654.0429      4.5774     89.5032
   893.2500      0.0000    634.9362      4.4499     91.5892
   893.5000      0.0000    609.3583      4.4312     91.2344
   893.7500      0.0000    585.2742      4.4990     89.5339
   894.0000      0.0000    570.8888      4.5986     88.0105
   894.2500      0.0000    571.6053      4.6781     87.9472
   894.5000      0.0000    588.6873      4.7122     89.8892
   894.7500      0.0000    617.6293      4.7083     93.5014
   895.0000      0.0000    647.9042      4.6954     97.6622
   895.2500      0.0000    666.6269      4.7002    100.8454
   895.5000      0.0000    664.8317      4.7299    101.8318
   895.7500      0.0000    643.4981      4.7718    100.2908
   896.0000      0.0000    615.6595      4.8056     96.7955
   896.2500      0.0000    599.8597      4.8154     92.4845
   896.5000      0.0000    606.8829      4.7958     88.5755
   896.7500      0.0000    631.4465      4.7489     85.8416
   897.0000      0.0000    657.3585      4.6783     84.5029
   897.2500      0.0000    670.1051      4.5904     84.6853
