~Version Information
VERS.                      2.0: CWLS Log ASCII Standard - VERSION 2.0
WRAP.                       NO: One line per depth step
~Well Information Block
STRT.FT               694.2000: 
STOP.FT              1498.5000: 
STEP.FT                 0.1000: 
NULL.                -999.2500: 
COMP.          Pioneer Natural Resources: COMPANY
WELL.          Pallet Ranch 34-25 Tr: WELL
FLD.           Purgatoire River: FIELD
LOC.           465' FSL & 2138' FEL: LOCATION
PROV.                 Colorado: PROVINCE
CNTY.               Las Animas: COUNTRY
SRVC.                Patterson: SERVICE COMPANY
DATE.          Thu Jan 19 06:39:54 2006: LOG DATE
UWI.           05 071 08657 00: UNIQUE WELL ID
~Curve Information Block
DEPT.FT            0 000 00 00: Depth
DCAL.in                       : CDL Caliper
RHOB.g/cc                     : CDL Bulk Density
RHOC.g/cc                     : CDL Density Correction
DPOR.pu                       : CDL Density Porosity
GR.GAPI                       : Gamma Ray
~Parameter Information Block
~A  Depth       DCAL        RHOB        RHOC        DPOR         GR     
# ...
  1231.8000      8.0690      2.6075      0.0268      2.5746     86.9890
  1231.9000      8.0690      2.6190      0.0427      1.8806     91.6463
  1232.0000      7.8992      2.6364      0.0538      0.8234     98.6951
  1232.1000      7.8992      2.6518      0.0988     -0.1119    104.6828
  1232.2000      7.8992      2.6626      0.1158     -0.7651    107.5421
  1232.3000      7.8672      2.6573      0.1821     -0.4424    110.4407
  1232.4000      7.8672      2.6303      0.0992      1.1932    113.0646
  1232.5000      7.8353      2.6015      0.0892      2.9370    108.9273
  1232.6000      7.8353      2.5852      0.0351      3.9299    103.0511
  1232.7000      7.8353      2.5722      0.0970      4.7160    102.3939
  1232.8000      7.8144      2.5546      0.0386      5.7803    103.5419
  1232.9000      7.8144      2.5474      0.0050      6.2165    105.6757
  1233.0000      7.8304      2.5632      0.0485      5.2628    107.5981
  1233.1000      7.8304      2.5885      0.0687      3.7299    105.6321
  1233.2000      7.8304      2.6046      0.0852      2.7497    102.0180
  1233.3000      7.8383      2.6058      0.0960      2.6774     99.2130
  1233.4000      7.8383      2.5950      0.1003      3.3353     98.6752
  1233.5000      7.8293      2.5791      0.0815      4.2960    103.3584
  1233.6000      7.8293      2.5632      0.0368      5.2608    108.1742
  1233.7000      7.8293      2.5478      0.0567      6.1913    108.3941
  1233.8000      7.8196      2.5419     -0.0072      6.5539    107.9492
  1233.9000      7.8196      2.5562      0.0567      5.6825    107.3141
  1234.0000      7.8382      2.5804      0.0610      4.2208    106.5204
  1234.1000      7.8382      2.5964      0.0430      3.2485    112.7098
  1234.2000      7.8382      2.5978      0.0544      3.1633    125.7639
  1234.3000      7.8554      2.5844      0.0900      3.9753    133.7417
  1234.4000      7.8554      2.5695      0.0358      4.8809    133.9610
  1234.5000      7.8808      2.5719      0.0846      4.7362    135.2830
  1234.6000      7.8808      2.5839      0.1579      4.0031    139.8630
  1234.7000      7.8808      2.5923      0.0616      3.4969    144.6594
  1234.8000      7.8818      2.6008      0.1200      2.9844    150.6892
  1234.9000      7.8818      2.6092      0.0954      2.4724    156.7820
  1235.0000      7.8226      2.6166      0.1297      2.0244    155.7385
  1235.1000      7.8226      2.6227      0.1362      1.6552    148.8935
  1235.2000      7.8226      2.6278      0.0960      1.3440    143.8041
  1235.3000      7.8238      2.6318      0.1050      1.1000    141.5850
  1235.4000      7.8238      2.6231      0.1452      1.6280    140.1642
  1235.5000      7.8458      2.5963      0.0818      3.2519    142.1265
  1235.6000      7.8458      2.5693      0.0532      4.8924    151.2617
  1235.7000      7.8458      2.5515      0.0814      5.9716    162.7784
  1235.8000      7.8747      2.5350      0.0525      6.9710    168.6137
  1235.9000      7.8747      2.5200      0.0054      7.8785    168.9207
  1236.0000      7.8908      2.5081      0.0008      8.5988    169.2180
  1236.1000      7.8908      2.5017      0.0081      8.9873    170.0057
  1236.2000      7.8908      2.5155      0.0042      8.1521    166.0815
  1236.3000      7.8924      2.5482      0.0306      6.1691    155.7173
  1236.4000      7.8924      2.5749      0.1190      4.5497    148.8938
  1236.5000      7.9002      2.5806      0.1031      4.2049    154.1101
  1236.6000      7.9002      2.5722      0.0801      4.7134    166.2668
  1236.7000      7.9002      2.5668      0.0585      5.0429    175.7307
  1236.8000      7.9129      2.5764      0.1401      4.4588    176.1374
  1236.9000      7.9129      2.5905      0.1857      3.6077    168.8749
  1237.0000      7.8585      2.5939      0.1609      3.3972    160.0493
  1237.1000      7.8585      2.5982      0.1464      3.1386    151.7458
  1237.2000      7.8585      2.6192      0.1658      1.8667    146.5815
  1237.3000      7.8411      2.6364      0.2023      0.8234    146.3288
  1237.4000      7.8411      2.6281      0.1185      1.3245    148.9099
  1237.5000      7.8623      2.6136      0.0915      2.2083    149.9087
  1237.6000      7.8623      2.6179      0.0953      1.9427    146.6674
  1237.7000      7.8623      2.6343      0.1354      0.9496    144.1337
  1237.8000      7.8714      2.6449      0.1105      0.3104    146.2364
  1237.9000      7.8714      2.6628      0.0516     -0.7743    147.3138
  1238.0000      7.8732      2.7065      0.0892     -3.4262    142.5502
  1238.1000      7.8732      2.7552      0.1478     -6.3767    133.7261
  1238.2000      7.8732      2.7922      0.0857     -8.6187    121.6431
  1238.3000      7.8871      2.8363      0.0895    -11.2882    110.3824
  1238.4000      7.8871      2.8898      0.1597    -14.5343    104.7732
  1238.5000      7.8882      2.9260      0.1787    -16.7285    101.4082
  1238.6000      7.8882      2.9353      0.1578    -17.2893     97.7150
  1238.7000      7.8882      2.9315      0.1210    -17.0606     96.8211
  1238.8000      7.8390      2.9196      0.0845    -16.3407     99.0573
  1238.9000      7.8390      2.8929      0.0214    -14.7240    100.4865
  1239.0000      7.8167      2.8502     -0.0264    -12.1332     97.7364
  1239.1000      7.8167      2.7995     -0.0144     -9.0625     93.3015
  1239.2000      7.8167      2.7532     -0.0328     -6.2539     93.3933
  1239.3000      7.8474      2.7211     -0.0269     -4.3088     94.9236
  1239.4000      7.8474      2.6932     -0.0050     -2.6168     91.5383
  1239.5000      7.8787      2.6481     -0.0801      0.1156     91.4947
  1239.6000      7.8787      2.5945     -0.0622      3.3621    102.5760
  1239.7000      7.8787      2.5709     -0.0419      4.7912    115.4482
  1239.8000      7.8783      2.5864      0.0694      3.8547    120.3367
  1239.9000      7.8783      2.5979      0.0751      3.1566    119.1571
  1240.0000      7.8728      2.5732      0.0645      4.6570    116.1863
  1240.1000      7.8728      2.5344     -0.0007      7.0045    117.0986
  1240.2000      7.8728      2.5222      0.0131      7.7431    123.0115
  1240.3000      7.8223      2.5375      0.0241      6.8164    128.0741
  1240.4000      7.8223      2.5480      0.0698      6.1813    130.0421
  1240.5000      7.8359      2.5390     -0.0075      6.7249    131.1101
  1240.6000      7.8359      2.5318      0.0290      7.1640    132.8213
  1240.7000      7.8359      2.5479      0.0512      6.1899    136.1868
  1240.8000      7.8828      2.5813      0.0897      4.1653    139.7507
  1240.9000      7.8828      2.6073      0.1099      2.5881    142.4596
  1241.0000      7.8431      2.6030      0.0998      2.8504    145.9292
  1241.1000      7.8431      2.5753      0.0386      4.5275    149.3181
  1241.2000      7.8431      2.5515      0.0202      5.9694    152.3255
  1241.3000      7.8369      2.5352      0.0655      6.9567    152.8251
  1241.4000      7.8369      2.5252      0.0136      7.5638    149.4456
  1241.5000      7.8698      2.5354      0.0120      6.9456    147.3979
  1241.6000      7.8698      2.5606      0.0373      5.4152    149.9727
  1241.7000      7.8698      2.5759      0.0464      4.4910    154.4788
  1241.8000      7.8833      2.5690      0.0853      4.9067    157.7392
  1241.9000      7.8833      2.5541      0.0307      5.8105    161.2037
  1242.0000      7.8802      2.5558      0.0154      5.7100    166.0827
  1242.1000      7.8802      2.5862      0.0428      3.8659    165.4244
  1242.2000      7.8802      2.6467      0.0386      0.2028    158.7754
  1242.3000      7.8602      2.7287      0.0476     -4.7719    157.5217
  1242.4000      7.8602      2.8060      0.1626     -9.4537    165.8648
  1242.5000      7.8737      2.8492      0.1637    -12.0751    172.3910
  1242.6000      7.8737      2.8563      0.1374    -12.5016    165.7230
  1242.7000      7.8737      2.8397      0.1309    -11.4994    154.1846
  1242.8000      7.8475      2.8082      0.0425     -9.5859    152.9017
  1242.9000      7.8475      2.7594      0.0284     -6.6290    159.5227
