~Version Information
VERS.                      2.0: CWLS Log ASCII Standard - VERSION 2.0
WRAP.                       NO: One line per depth step
~Well Information Block
STRT.FT                -6.5000: 
STOP.FT              1467.0000: 
STEP.FT                 0.2500: 
NULL.                -999.2500: 
COMP.          Pioneer Natural Resources: COMPANY
WELL.          Surtees 23-34 Tr: WELL
FLD.           Purgatorie River: FIELD
LOC.           1559' FSL & 1997' FWL--: LOCATION
PROV.                       CO: PROVINCE
CNTY.               Las Animas: COUNTRY
SRVC.          Patterson Wireline: SERVICE COMPANY
DATE.          Tue Aug 02 13:04:45 2005: LOG DATE
UWI.           05 071 08449 00: UNIQUE WELL ID
~Curve Information Block
DEPT.FT            0 000 00 00: Depth
CCL.                          : Casing Collar Locator
TT3.usec                      : CBL 3' Travel Time
AMP3.mV                       : CBL 3' Amplitude
GR.GAPI                       : Gamma Ray
~Parameter Information Block
~A  Depth       CCL         TT3         AMP3         GR     
# ...
   663.5000      0.0000    851.8696     10.7306    109.9223
   663.7500      0.0000    854.2145     10.7226    111.2193
   664.0000      0.0000    855.1677     10.6910    113.9129
   664.2500      0.0000    856.5188     10.6576    116.9588
   664.5000      0.0000    860.0144     10.6390    119.9046
   664.7500      0.0000    867.5334     10.6354    123.4928
   665.0000      0.0000    880.5089     10.6346    128.2056
   665.2500      0.0000    898.6542     10.6280    132.4725
   665.5000      0.0000    918.8961     10.6197    133.2158
   665.7500      0.0000    935.9307     10.6207    128.8526
   666.0000      0.0000    944.7350     10.6340    121.6202
   666.2500      0.0000    943.2465     10.6484    116.1831
   666.5000      0.0000    932.9576     10.6448    115.7528
   666.7500      0.0000    917.5497     10.6124    119.9185
   667.0000      0.0000    901.3724     10.5633    125.8825
   667.2500      0.0000    888.6546     10.5289    130.9112
   667.5000      0.0000    883.1149     10.5346    133.6694
   667.7500      0.0000    887.1217     10.5723    134.1207
   668.0000      0.0000    899.9424     10.6027    132.8265
   668.2500      0.0000    916.6998     10.5889    130.4883
   668.5000      0.0000    930.6258     10.5259    127.9868
   668.7500      0.0000    937.7647     10.4358    126.4684
   669.0000      0.0000    939.3898     10.3407    126.8638
   669.2500      0.0000    939.3580     10.2477    128.9847
   669.5000      0.0000    939.5233     10.1520    131.3287
   669.7500      0.0000    938.3874     10.0471    132.1368
   670.0000      0.0000    933.7629      9.9336    130.5975
   670.2500      0.0000    925.4152      9.8244    127.1728
   670.5000      0.0000    914.8594      9.7412    123.3164
   670.7500      0.0000    904.2125      9.7000    120.8527
   671.0000      0.0000    896.1885      9.6988    120.8203
   671.2500      0.0000    893.8048      9.7196    122.5260
   671.5000      0.0000    898.0807      9.7431    123.8817
   671.7500      0.0000    905.9424      9.7606    122.7105
   672.0000      0.0000    911.7886      9.7747    118.0498
   672.2500      0.0000    911.7507      9.7905    111.0661
   672.5000      0.0000    906.0664      9.8049    104.9476
   672.7500      0.0000    897.7223      9.8072    103.0657
   673.0000      0.0000    890.1047      9.7944    106.5630
   673.2500      0.0000    886.1022      9.7833    113.7859
   673.5000      0.0000    888.2682      9.8035    121.9213
   673.7500      0.0000    898.2865      9.8750    128.7551
   674.0000      0.0000    914.6848      9.9899    133.1553
   674.2500      0.0000    930.9210     10.1161    134.7933
   674.5000      0.0000    938.4352     10.2188    133.8890
   674.7500      0.0000    933.8999     10.2818    131.1717
   675.0000      0.0000    922.1658     10.3089    127.9992
   675.2500      0.0000    910.6458     10.3088    126.2262
   675.5000      0.0000    902.3527     10.2827    127.2503
   675.7500      0.0000    895.4501     10.2283    130.7444
   676.0000      0.0000    887.5803     10.1519    134.5267
   676.2500      0.0000    878.6881     10.0746    136.1691
   676.5000      0.0000    870.1896     10.0245    135.0142
   676.7500      0.0000    863.1833     10.0160    132.7805
   677.0000      0.0000    858.3521     10.0353    132.0804
   677.2500      0.0000    856.4824     10.0481    134.0212
   677.5000      0.0000    857.4536     10.0284    137.2600
   677.7500      0.0000    858.9540      9.9757    139.6044
   678.0000      0.0000    857.8541      9.9000    140.1810
   678.2500      0.0000    853.3148      9.7989    139.5665
   678.5000      0.0000    847.9308      9.6605    138.1425
   678.7500      0.0000    845.6735      9.4892    135.2574
   679.0000      0.0000    848.7648      9.3184    130.4855
   679.2500      0.0000    856.3007      9.1962    125.1235
   679.5000      0.0000    865.4558      9.1546    121.4345
   679.7500      0.0000    873.4447      9.1852    120.3206
   680.0000      0.0000    878.2213      9.2409    120.6091
   680.2500      0.0000    878.0201      9.2685    120.7768
   680.5000      0.0000    871.4742      9.2444    120.4343
   680.7500      0.0000    859.1051      9.1824    119.8000
   681.0000      0.0000    844.6216      9.1120    118.6953
   681.2500      0.0000    833.7541      9.0528    116.9708
   681.5000      0.0000    830.6863      9.0130    115.4097
   681.7500      0.0000    835.2390      9.0038    115.3167
   682.0000      0.0000    843.8748      9.0475    117.3011
   682.2500      0.0000    853.3475      9.1635    120.7806
   682.5000      0.0000    862.8192      9.3470    124.3074
   682.7500      0.0000    872.6580      9.5601    126.3356
   683.0000      0.0000    882.2707      9.7443    126.1400
   683.2500      0.0000    889.7312      9.8450    124.1207
   683.5000      0.0000    893.0414      9.8382    121.2678
   683.7500      0.0000    891.1642      9.7358    118.6508
   684.0000      0.0000    883.9167      9.5574    117.3893
   684.2500      0.0000    871.8466      9.3017    118.4898
   684.5000      0.0000    857.4680      8.9606    122.1821
   684.7500      0.0000    847.0411      8.5578    127.3826
   685.0000      0.0000    848.9122      8.1565    132.1354
   685.2500      0.0000    866.9897      7.8251    134.7746
   685.5000      0.0000    896.0155      7.5994    134.5275
   685.7500      0.0000    925.9182      7.4653    131.2813
   686.0000      0.0000    950.3778      7.3732    125.3868
   686.2500     -2.0000    968.1129      7.2779    117.8106
   686.5000      0.0000    977.7694      7.1715    110.1522
   686.7500      0.0000    977.4111      7.0758    104.2778
   687.0000      0.0000    968.5037      7.0108    101.4857
   687.2500      0.0000    954.7833      6.9866    101.4166
   687.5000      0.0000    938.1047      7.0295    101.8790
   687.7500      0.0000    920.2120      7.2007    100.6028
   688.0000      0.0000    906.0291      7.5551     97.4552
   688.2500      0.0000    899.5218      8.0672     94.4003
   688.5000      0.0000    897.9207      8.6164     93.2313
   688.7500      0.0000    894.5931      9.0686     93.8727
   689.0000      0.0000    886.9691      9.3685     94.9733
   689.2500      0.0000    879.1649      9.5478     95.7226
   689.5000      0.0000    877.4622      9.6659     96.6699
   689.7500      0.0000    884.8013      9.7592     98.6960
   690.0000      0.0000    898.9490      9.8317    101.5720
   690.2500      0.0000    914.4308      9.8698    104.0510
   690.5000      0.0000    926.0305      9.8642    105.1966
   690.7500      0.0000    930.8101      9.8271    105.1401
   691.0000      0.0000    927.5289      9.7898    104.7770
   691.2500      0.0000    916.2142      9.7807    105.1612
   691.5000      0.0000    900.2967      9.8049    106.8949
   691.7500      0.0000    888.0367      9.8408    109.5053
   692.0000      0.0000    888.1534      9.8525    111.4849
   692.2500      0.0000    902.1408      9.8057    111.4699
   692.5000      0.0000    922.0605      9.6840    109.5172
   692.7500      0.0000    936.4176      9.4984    106.9450
   693.0000      0.0000    937.7182      9.2824    104.8374
   693.2500      0.0000    925.5555      9.0766    102.9047
   693.5000      0.0000    904.8710      8.9106    100.0107
   693.7500      0.0000    882.0779      8.7938     95.8566
   694.0000      0.0000    861.9627      8.7204     91.9636
   694.2500      0.0000    847.0407      8.6831     90.7635
   694.5000      0.0000    838.5110      8.6816     93.6988
   694.7500      0.0000    836.5308      8.7195    100.2717
   695.0000      0.0000    839.5667      8.7958    108.7093
   695.2500      0.0000    844.6851      8.8983    117.1813
   695.5000      0.0000    849.2182      9.0048    124.4096
   695.7500      0.0000    852.0503      9.0948    129.5437
   696.0000      0.0000    853.4037      9.1652    132.1806
   696.2500      0.0000    853.9150      9.2330    132.8129
   696.5000      0.0000    854.0670      9.3199    132.8467
   696.7500      0.0000    854.1434      9.4335    133.6497
