~Version Information
VERS.                      2.0: CWLS Log ASCII Standard - VERSION 2.0
WRAP.                       NO: One line per depth step
~Well Information Block
STRT.FT              1186.0000: 
STOP.FT              1577.0000: 
STEP.FT                 0.2500: 
NULL.                -999.2500: 
COMP.          XTO Energy Inc.: COMPANY
WELL.          Golden Eagle 19-10: WELL
FLD.           Purgatorie River: FIELD
LOC.           2684' FSL & 1825' FEL--: LOCATION
CNTY.               Las Animas: COUNTY
SRVC.          Superior Well Services: SERVICE COMPANY
DATE.          Mon Dec 11 16:19:11 2006: LOG DATE
UWI.           05 071 08697 00: UNIQUE WELL ID
STAT.                       CO: STATE
~Curve Information Block
DEPT.FT            0 000 00 00: Depth
CCL.                          : Casing Collar Locator
TT3.usec                      : CBL 3' Travel Time
AMP3.mV                       : CBL 3' Amplitude
GR.GAPI                       : Gamma Ray
~Parameter Information Block
~A  Depth       CCL         TT3         AMP3         GR     
# ...
  1286.5000      0.0000    260.9595     72.8114    124.4648
  1286.7500      0.0000    260.9506     72.7792    122.1147
  1287.0000      0.0000    260.9502     72.7843    120.2510
  1287.2500      0.0000    260.9587     72.8607    118.7545
  1287.5000      0.0000    260.9746     73.0089    117.7759
  1287.7500      0.0000    260.9938     73.1826    117.9958
  1288.0000      0.0000    261.0112     73.3255    120.1322
  1288.2500      0.0000    261.0235     73.4201    124.4024
  1288.5000      0.0000    261.0305     73.4945    130.7388
  1288.7500      0.0000    261.0344     73.5814    139.0681
  1289.0000      0.0000    261.0372     73.6780    148.7014
  1289.2500      0.0000    261.0392     73.7480    157.5623
  1289.5000      0.0000    261.0399     73.7589    162.9259
  1289.7500      0.0000    261.0392     73.7134    163.3741
  1290.0000      0.0000    261.0401     73.6497    159.6605
  1290.2500      0.0000    261.0467     73.6167    153.7111
  1290.5000      0.0000    261.0612     73.6455    147.4202
  1290.7500      0.0000    261.0810     73.7356    142.2299
  1291.0000      0.0000    261.0992     73.8556    138.7116
  1291.2500      0.0000    261.1101     73.9592    136.1036
  1291.5000      0.0000    261.1136     74.0089    132.8544
  1291.7500      0.0000    261.1136     73.9962    128.0934
  1292.0000      0.0000    261.1139     73.9410    122.6921
  1292.2500      0.0000    261.1134     73.8704    118.8690
  1292.5000      0.0000    261.1088     73.7942    118.4812
  1292.7500      0.0000    261.0983     73.6984    121.3682
  1293.0000      0.0000    261.0842     73.5590    125.4490
  1293.2500      0.0000    261.0718     73.3657    128.6507
  1293.5000      0.0000    261.0652     73.1366    130.6955
  1293.7500      0.0000    261.0639     72.9075    132.9132
  1294.0000      0.0000    261.0633     72.7069    136.5511
  1294.2500      0.0000    261.0600     72.5396    141.5968
  1294.5000      0.0000    261.0562     72.3934    147.2042
  1294.7500      0.0000    261.0564     72.2538    152.9155
  1295.0000      0.0000    261.0614     72.1095    159.1184
  1295.2500      0.0000    261.0654     71.9517    166.3216
  1295.5000      0.0000    261.0620     71.7775    174.1674
  1295.7500      0.0000    261.0506     71.5960    180.9940
  1296.0000      0.0000    261.0362     71.4284    184.2299
  1296.2500      0.0000    261.0254     71.2995    181.7661
  1296.5000      0.0000    261.0212     71.2228    173.4716
  1296.7500      0.0000    261.0224     71.1836    161.0314
  1297.0000      0.0000    261.0259     71.1404    146.2157
  1297.2500      0.0000    261.0293     71.0549    130.0789
  1297.5000      0.0000    261.0318     70.9274    113.9091
  1297.7500      0.0000    261.0339     70.7981     99.8049
  1298.0000      0.0000    261.0365     70.7147     89.6489
  1298.2500      0.0000    261.0397     70.7024     83.8111
  1298.5000      0.0000    261.0433     70.7593     81.0878
  1298.7500      0.0000    261.0475     70.8712     79.7717
  1299.0000      0.0000    261.0529     71.0281     78.6717
  1299.2500      0.0000    261.0607     71.2242     77.3008
  1299.5000      0.0000    261.0702     71.4457     75.4906
  1299.7500      0.0000    261.0780     71.6638     73.1186
  1300.0000      0.0000    261.0789     71.8478     70.1567
  1300.2500      0.0000    261.0699     71.9813     66.8562
  1300.5000      0.0000    261.0531     72.0686     63.7605
  1300.7500      0.0000    261.0345     72.1322     61.2947
  1301.0000      0.0000    261.0197     72.2056     59.2334
  1301.2500      0.0000    261.0108     72.3176     56.7883
  1301.5000      0.0000    261.0076     72.4777     53.4286
  1301.7500      0.0000    261.0089     72.6744     49.5783
  1302.0000      0.0000    261.0135     72.8855     46.3529
  1302.2500      0.0000    261.0201     73.0857     44.5180
  1302.5000      0.0000    261.0278     73.2503     43.7085
  1302.7500      0.0000    261.0356     73.3608     42.7837
  1303.0000      0.0000    261.0412     73.4129     41.0383
  1303.2500      0.0000    261.0426     73.4194     38.9247
  1303.5000      0.0000    261.0388     73.4044     37.5294
  1303.7500      0.0000    261.0319     73.3928     37.5064
  1304.0000      0.0000    261.0267     73.4000     38.5107
  1304.2500      0.0000    261.0284     73.4317     39.5372
  1304.5000      0.0000    261.0396     73.4864     39.8392
  1304.7500      0.0000    261.0587     73.5568     39.5700
  1305.0000      0.0000    261.0813     73.6293     39.4973
  1305.2500      0.0000    261.1018     73.6911     40.1935
  1305.5000      0.0000    261.1163     73.7369     41.7376
  1305.7500      0.0000    261.1222     73.7626     44.2061
  1306.0000      0.0000    261.1187     73.7550     48.1591
  1306.2500      0.0000    261.1062     73.6941     54.4092
  1306.5000      0.0000    261.0865     73.5660     63.3677
  1306.7500      0.0000    261.0635     73.3720     74.7354
  1307.0000      0.0000    261.0445     73.1296     87.6108
  1307.2500      0.0000    261.0377     72.8665    100.3816
  1307.5000      0.0000    261.0465     72.6114    110.4771
  1307.7500      0.0000    261.0681     72.3860    115.1445
  1308.0000      0.0000    261.0965     72.2059    113.3673
  1308.2500      0.0000    261.1264     72.0823    107.0359
  1308.5000      0.0000    261.1550     72.0157     99.9996
  1308.7500      0.0000    261.1798     71.9954     96.1135
  1309.0000      0.0000    261.1979     72.0156     97.8579
  1309.2500      0.0000    261.2068     72.0856    105.6607
  1309.5000      0.0000    261.2039     72.2038    117.7694
  1309.7500      0.0000    261.1885     72.3237    131.1037
  1310.0000      0.0000    261.1630     72.3605    142.7498
  1310.2500      0.0000    261.1336     72.2352    151.0107
  1310.5000      0.0000    261.1090     71.9130    155.7194
  1310.7500      0.0000    261.0987     71.4190    157.9613
  1311.0000      0.0000    261.1091     70.8339    158.8972
  1311.2500      0.0000    261.1399     70.2630    158.2308
  1311.5000      0.0000    261.1832     69.7892    154.1313
  1311.7500      0.0000    261.2271     69.4544    145.1101
  1312.0000      0.0000    261.2621     69.2792    131.7594
  1312.2500      0.0000    261.2841     69.2712    116.4825
  1312.5000      0.0000    261.2937     69.3994    101.8644
  1312.7500      0.0000    261.2942     69.5807     89.4598
  1313.0000      0.0000    261.2886     69.7141     79.7225
  1313.2500      0.0000    261.2785     69.7323     72.5409
  1313.5000      0.0000    261.2647     69.6284     67.6210
  1313.7500      0.0000    261.2480     69.4552     64.6117
  1314.0000      0.0000    261.2289     69.2951     63.2263
  1314.2500      0.0000    261.2082     69.2021     63.2611
  1314.5000      0.0000    261.1889     69.1590     64.2810
  1314.7500      0.0000    261.1765     69.1069     65.3310
  1315.0000      0.0000    261.1749     69.0265     65.2017
  1315.2500      0.0000    261.1818     68.9735     63.1174
  1315.5000      0.0000    261.1906     69.0253     59.2257
  1315.7500      0.0000    261.1955     69.2049     54.5433
  1316.0000      0.0000    261.1950     69.4677     50.4230
  1316.2500      0.0000    261.1896     69.7576     47.8562
  1316.5000      0.0000    261.1780     70.0695     47.0274
  1316.7500      0.0000    261.1564     70.4599     47.3583
  1317.0000      0.0000    261.1208     70.9876     47.9015
  1317.2500      0.0000    261.0728     71.6305     47.8676
  1317.5000      0.0000    261.0221     72.2721     47.1279
  1317.7500      0.0000    260.9813     72.7967     46.3473
  1318.0000      0.0000    260.9573     73.1936     46.4976
  1318.2500      0.0000    260.9476     73.5438     48.0500
  1318.5000      0.0000    260.9447     73.9120     50.5859
  1318.7500      0.0000    260.9424     74.2830     53.3809
  1319.0000      0.0000    260.9380     74.6022     56.6349
  1319.2500      0.0000    260.9307     74.8498     62.0981
  1319.5000      0.0000    260.9197     75.0668     72.1913
  1319.7500      0.0000    260.9041     75.3175     88.2232
