~Version Information
VERS.                      2.0: CWLS Log ASCII Standard - VERSION 2.0
WRAP.                       NO: One line per depth step
~Well Information Block
STRT.FT               687.7500: 
STOP.FT              1252.7500: 
STEP.FT                 0.2500: 
NULL.                -999.2500: 
COMP.          Pioneer Natural Resources: COMPANY
WELL.          Rock Island 44-24 Tr: WELL
FLD.           Purgatoire River: FIELD
LOC.           814' FSL & 761' FEL--: LOCATION
CNTY.               Las Animas: COUNTY
SRVC.                Patterson: SERVICE COMPANY
DATE.          Wed Apr 19 21:31:44 2006: LOG DATE
UWI.           05 071 08680 00: UNIQUE WELL ID
STAT.                 Colorado: STATE
~Curve Information Block
DEPT.FT            0 000 00 00: Depth
DIR.Ohm-m                     : IEL Induction Resistivity
GR.GAPI                       : Gamma Ray
~Parameter Information Block
~A  Depth       DIR          GR     
# ...
  1189.5000     17.7746    105.2781
  1189.7500     17.5463    110.3096
  1190.0000     17.4913    116.8019
  1190.2500     17.5989    119.6578
  1190.5000     17.8428    120.4109
  1190.7500     18.1873    117.6837
  1191.0000     18.5954    108.1005
  1191.2500     19.0351     98.8068
  1191.5000     19.4813     83.4367
  1191.7500     19.9136     74.1309
  1192.0000     20.3113     64.1609
  1192.2500     20.6521     61.1826
  1192.5000     20.9164     63.0440
  1192.7500     21.0905     68.3262
  1193.0000     21.1665     80.6088
  1193.2500     21.1389     89.9418
  1193.5000     21.0079    102.2599
  1193.7500     20.7904    107.9993
  1194.0000     20.5301    112.5924
  1194.2500     20.2953    113.6473
  1194.5000     20.1622    113.3829
  1194.7500     20.1938    112.1672
  1195.0000     20.4243    108.5065
  1195.2500     20.8497    104.8681
  1195.5000     21.4241     98.6727
  1195.7500     22.0646     94.9510
  1196.0000     22.6696     90.7713
  1196.2500     23.1520     88.7939
  1196.5000     23.4698     86.6718
  1196.7500     23.6325     85.7824
  1197.0000     23.6790     85.1834
  1197.2500     23.6467     85.1369
  1197.5000     23.5558     85.3844
  1197.7500     23.4160     85.7171
  1198.0000     23.2439     86.4443
  1198.2500     23.0709     87.0274
  1198.5000     22.9350     87.7936
  1198.7500     22.8624     88.0196
  1199.0000     22.8551     87.5991
  1199.2500     22.8934     86.7042
  1199.5000     22.9495     84.6072
  1199.7500     23.0004     83.1060
  1200.0000     23.0317     81.6293
  1200.2500     23.0364     81.4861
  1200.5000     23.0130     82.2345
  1200.7500     22.9638     82.7336
  1201.0000     22.8880     82.3626
  1201.2500     22.7731     81.3663
  1201.5000     22.5964     80.2272
  1201.7500     22.3421     80.7626
  1202.0000     22.0233     84.1460
  1202.2500     21.6879     87.8063
  1202.5000     21.3998     94.8418
  1202.7500     21.2074    100.4923
  1203.0000     21.1202    109.9394
  1203.2500     21.1098    115.9757
  1203.5000     21.1336    122.5907
  1203.7500     21.1657    124.6337
  1204.0000     21.2122    124.0605
  1204.2500     21.2997    121.5063
  1204.5000     21.4525    115.1250
  1204.7500     21.6725    110.0348
  1205.0000     21.9358    103.1675
  1205.2500     22.2017     99.7929
  1205.5000     22.4278     95.9630
  1205.7500     22.5836     93.4180
  1206.0000     22.6571     89.2204
  1206.2500     22.6553     86.8096
  1206.5000     22.6028     85.0659
  1206.7500     22.5361     85.1865
  1207.0000     22.4953     86.1122
  1207.2500     22.5140     86.5401
  1207.5000     22.6113     86.7653
  1207.7500     22.7846     87.0500
  1208.0000     23.0072     88.2924
  1208.2500     23.2350     89.6361
  1208.5000     23.4242     91.7782
  1208.7500     23.5530     92.8135
  1209.0000     23.6299     93.2509
  1209.2500     23.6848     92.8062
  1209.5000     23.7503     91.3801
  1209.7500     23.8484     90.0167
  1210.0000     23.9874     87.1368
  1210.2500     24.1651     84.5897
  1210.5000     24.3719     80.2478
  1210.7500     24.5907     77.4447
  1211.0000     24.7987     73.9631
  1211.2500     24.9731     72.2491
  1211.5000     25.1001     70.4953
  1211.7500     25.1834     69.7044
  1212.0000     25.2446     68.7879
  1212.2500     25.3140     68.2821
  1212.5000     25.4154     67.8155
  1212.7500     25.5542     67.8660
  1213.0000     25.7145     68.7019
  1213.2500     25.8691     69.7760
  1213.5000     25.9967     71.9488
  1213.7500     26.0938     73.5223
  1214.0000     26.1700     75.4725
  1214.2500     26.2305     76.1614
  1214.5000     26.2643     76.0868
  1214.7500     26.2503     75.6002
  1215.0000     26.1744     75.3539
  1215.2500     26.0372     76.1518
  1215.5000     25.8488     78.8600
  1215.7500     25.6218     80.9686
  1216.0000     25.3743     82.9998
  1216.2500     25.1363     83.1431
  1216.5000     24.9462     81.9396
  1216.7500     24.8364     80.7706
  1217.0000     24.8147     79.3037
  1217.2500     24.8578     78.7398
  1217.5000     24.9247     78.4176
  1217.7500     24.9839     78.3186
  1218.0000     25.0338     78.0229
  1218.2500     25.0955     77.7175
  1218.5000     25.1836     77.3196
  1218.7500     25.2804     77.2729
  1219.0000     25.3333     77.7059
  1219.2500     25.2751     78.2415
  1219.5000     25.0511     78.9616
  1219.7500     24.6383     79.1289
  1220.0000     24.0483     78.8932
  1220.2500     23.3201     78.7750
  1220.5000     22.5129     79.6764
  1220.7500     21.6979     81.4286
  1221.0000     20.9487     85.7453
  1221.2500     20.3268     89.4270
  1221.5000     19.8688     95.5644
  1221.7500     19.5809     99.6001
  1222.0000     19.4431    104.1346
  1222.2500     19.4243    105.1121
  1222.5000     19.5020    102.5429
  1222.7500     19.6791     98.5319
  1223.0000     19.9862     91.2849
  1223.2500     20.4645     87.2734
  1223.5000     21.1402     84.2896
  1223.7500     21.9987     84.0066
  1224.0000     22.9699     83.2421
  1224.2500     23.9329     80.4953
  1224.5000     24.7449     71.3202
  1224.7500     25.2882     62.1570
  1225.0000     25.5104     45.6325
  1225.2500     25.4347     34.1116
  1225.5000     25.1389     18.7039
  1225.7500     24.7193     10.9875
  1226.0000     24.2598      3.9394
  1226.2500     23.8181      1.6854
  1226.5000     23.4265      0.3617
  1226.7500     23.0982      0.1076
  1227.0000     22.8297      0.0125
  1227.2500     22.6016      0.0016
  1227.5000     22.3854   -999.2500
  1227.7500     22.1582   -999.2500
  1228.0000     21.9163   -999.2500
  1228.2500     21.6780   -999.2500
  1228.5000     21.4731   -999.2500
  1228.7500     21.3261   -999.2500
  1229.0000     21.2436   -999.2500
  1229.2500     21.2103   -999.2500
  1229.5000     21.1973   -999.2500
  1229.7500     21.1762   -999.2500
  1230.0000     21.1330   -999.2500
  1230.2500     21.0734   -999.2500
  1230.5000     21.0210   -999.2500
  1230.7500     21.0131   -999.2500
  1231.0000     21.0934   -999.2500
  1231.2500     21.3008   -999.2500
  1231.5000     21.6542   -999.2500
  1231.7500     22.1411   -999.2500
  1232.0000     22.7183   -999.2500
  1232.2500     23.3307   -999.2500
  1232.5000     23.9372   -999.2500
  1232.7500     24.5325   -999.2500
  1233.0000     25.1502   -999.2500
  1233.2500     25.8501   -999.2500
  1233.5000     26.6927   -999.2500
  1233.7500     27.7077   -999.2500
  1234.0000     28.8571   -999.2500
  1234.2500     30.0100   -999.2500
  1234.5000     30.9531   -999.2500
  1234.7500     31.4638   -999.2500
  1235.0000     31.4265   -999.2500
  1235.2500     30.9090   -999.2500
  1235.5000     30.1242   -999.2500
  1235.7500     29.3122   -999.2500
  1236.0000     28.6392   -999.2500
  1236.2500     28.1629   -999.2500
  1236.5000     27.8527   -999.2500
  1236.7500     27.6303   -999.2500
  1237.0000     27.4075   -999.2500
  1237.2500     27.1084   -999.2500
  1237.5000     26.6782   -999.2500
  1237.7500     26.0910   -999.2500
  1238.0000     25.3622   -999.2500
  1238.2500     24.5519   -999.2500
  1238.5000     23.7452   -999.2500
  1238.7500     23.0176   -999.2500
  1239.0000     22.4095   -999.2500
  1239.2500     21.9225   -999.2500
  1239.5000     21.5343   -999.2500
  1239.7500     21.6315   -999.2500
  1240.0000     21.3535   -999.2500
  1240.2500     21.1079   -999.2500
  1240.5000     20.8763   -999.2500
  1240.7500     20.6456   -999.2500
  1241.0000     20.4213   -999.2500
  1241.2500     20.2385   -999.2500
  1241.5000     20.1556   -999.2500
  1241.7500     20.2423   -999.2500
  1242.0000     20.5743   -999.2500
  1242.2500     21.2584   -999.2500
  1242.5000     22.5035   -999.2500
  1242.7500     24.7594   -999.2500
  1243.0000     29.0090   -999.2500
  1243.2500     36.1881   -999.2500
  1243.5000     54.6991   -999.2500
  1243.7500    115.4640   -999.2500
  1244.0000   6643.6240   -999.2500
  1244.2500 100000.0000   -999.2500
  1244.5000 100000.0000   -999.2500
  1244.7500 100000.0000   -999.2500
  1245.0000 100000.0000   -999.2500
