~Version Information
VERS.                      2.0: CWLS Log ASCII Standard - VERSION 2.0
WRAP.                       NO: One line per depth step
~Well Information Block
STRT.FT               322.3000: 
STOP.FT              1375.0000: 
STEP.FT                 0.1000: 
NULL.                -999.2500: 
COMP.          Pioneer Natural Resources: COMPANY
WELL.          Buffet 41-36 Tr: WELL
FLD.           Purgatoire River: FIELD
LOC.           119' FNL & 271' FEL: LOCATION
PROV.                 Colorado: PROVINCE
CNTY.               Las Animas: COUNTRY
SRVC.                Patterson: SERVICE COMPANY
DATE.          Thu Dec 29 07:13:13 2005: LOG DATE
UWI.           05 071 08627 00: UNIQUE WELL ID
~Curve Information Block
DEPT.FT            0 000 00 00: Depth
DCAL.in                       : CDL Caliper
RHOB.g/cc                     : CDL Bulk Density
RHOC.g/cc                     : CDL Density Correction
DPOR.pu                       : CDL Density Porosity
GR.GAPI                       : Gamma Ray
~Parameter Information Block
~A  Depth       DCAL        RHOB        RHOC        DPOR         GR     
# ...
   747.9000      8.0552      2.5509      0.1358      6.0065    166.3871
   748.0000      8.0573      2.5628      0.1367      5.2838    166.4241
   748.1000      8.0573      2.5566      0.1834      5.6626    164.2560
   748.2000      8.0573      2.5237      0.1585      7.6526    159.5709
   748.3000      8.0597      2.4850      0.0835      9.9996    155.6741
   748.4000      8.0597      2.4584      0.0859     11.6115    152.9234
   748.5000      8.0644      2.4333      0.0718     13.1303    151.5668
   748.6000      8.0644      2.4024      0.0086     15.0033    155.5694
   748.7000      8.0644      2.3756      0.0021     16.6273    164.4608
   748.8000      8.0719      2.3507      0.0340     18.1413    171.2651
   748.9000      8.0719      2.3175      0.0104     20.1511    173.0420
   749.0000      8.0814      2.2793     -0.0150     22.4638    171.0570
   749.1000      8.0814      2.2436     -0.0092     24.6299    165.8767
   749.2000      8.0814      2.2159     -0.0644     26.3081    159.8705
   749.3000      8.0872      2.2010     -0.0332     27.2118    156.4293
   749.4000      8.0872      2.1975     -0.0131     27.4249    154.4542
   749.5000      8.0806      2.2030      0.0367     27.0905    150.0786
   749.6000      8.0806      2.2176      0.0162     26.2077    142.3419
   749.7000      8.0806      2.2398      0.0703     24.8588    134.9841
   749.8000      8.0612      2.2703      0.0415     23.0128    132.8254
   749.9000      8.0612      2.3153      0.0573     20.2869    136.2147
   750.0000      8.0438      2.3737      0.0653     16.7440    140.5975
   750.1000      8.0438      2.4319      0.1214     13.2177    139.3463
   750.2000      8.0438      2.4860      0.1016      9.9374    130.2762
   750.3000      8.0341      2.5465      0.1355      6.2742    119.1680
   750.4000      8.0341      2.6063      0.1735      2.6495    114.2390
   750.5000      8.0292      2.6410      0.1739      0.5463    116.0848
   750.6000      8.0292      2.6430      0.1384      0.4262    115.1837
   750.7000      8.0292      2.6293      0.0813      1.2564    108.1333
   750.8000      8.0281      2.6186      0.0584      1.9044    102.6517
   750.9000      8.0281      2.6147      0.0593      2.1421    100.9599
   751.0000      8.0262      2.6175      0.0373      1.9724     99.1549
   751.1000      8.0262      2.6337      0.0331      0.9854     96.5696
   751.2000      8.0262      2.6603      0.0711     -0.6235     95.2860
   751.3000      8.0208      2.6784      0.1298     -1.7225     93.3620
   751.4000      8.0208      2.6873      0.0638     -2.2614     87.4124
   751.5000      8.0167      2.6989      0.1034     -2.9628     82.2844
   751.6000      8.0167      2.7019      0.1121     -3.1472     83.9893
   751.7000      8.0167      2.6903      0.0706     -2.4431     89.5054
   751.8000      8.0162      2.6760      0.0916     -1.5752     94.2316
   751.9000      8.0162      2.6579      0.0556     -0.4769    101.5152
   752.0000      8.0196      2.6392      0.0002      0.6526    113.7199
   752.1000      8.0196      2.6427      0.0137      0.4443    123.7512
   752.2000      8.0196      2.6716      0.0627     -1.3063    123.6298
   752.3000      8.0265      2.6982      0.1109     -2.9202    116.1929
   752.4000      8.0265      2.6952      0.1074     -2.7415    113.1769
   752.5000      8.0323      2.6603      0.0783     -0.6240    119.8571
   752.6000      8.0323      2.6160      0.0215      2.0584    129.9012
   752.7000      8.0323      2.5871      0.0366      3.8145    134.3154
   752.8000      8.0388      2.5811      0.0289      4.1765    132.5785
   752.9000      8.0388      2.5844      0.0455      3.9761    129.8873
   753.0000      8.0484      2.5715      0.0220      4.7562    131.9457
   753.1000      8.0484      2.5465     -0.0280      6.2728    139.7634
   753.2000      8.0484      2.5412      0.0109      6.5944    146.7517
   753.3000      8.0562      2.5602      0.0279      5.4397    148.1613
   753.4000      8.0562      2.5846      0.0354      3.9658    144.4382
   753.5000      8.0607      2.6052      0.0298      2.7145    138.1995
   753.6000      8.0607      2.6203      0.0302      1.7999    133.9021
   753.7000      8.0607      2.6261      0.0337      1.4492    129.1459
   753.8000      8.0627      2.6180      0.0324      1.9390    120.8922
   753.9000      8.0627      2.5980     -0.0069      3.1544    116.1832
   754.0000      8.0638      2.5784     -0.0298      4.3377    123.0278
   754.1000      8.0638      2.5641      0.0008      5.2048    135.7538
   754.2000      8.0638      2.5464     -0.0234      6.2772    139.3661
   754.3000      8.0642      2.5227     -0.0033      7.7174    132.0723
   754.4000      8.0642      2.4924     -0.0016      9.5544    124.6848
   754.5000      8.0638      2.4521     -0.0247     11.9948    123.7793
   754.6000      8.0638      2.3957     -0.0226     15.4131    126.7441
   754.7000      8.0638      2.3096     -0.0108     20.6320    126.1517
   754.8000      8.0626      2.1913     -0.0555     27.8020    119.4950
   754.9000      8.0626      2.0630     -0.1045     35.5785    113.9282
   755.0000      8.0646      1.9449     -0.0876     42.7334    113.8630
   755.1000      8.0646      1.8345     -0.1110     49.4236    111.6725
   755.2000      8.0646      1.7258     -0.0903     56.0093    102.4372
   755.3000      8.0715      1.6232     -0.1282     62.2283     91.0039
   755.4000      8.0715      1.5322     -0.1066     67.7438     82.5602
   755.5000      8.0801      1.4517     -0.1168     72.6260     79.3959
   755.6000      8.0801      1.3874     -0.1296     76.5189     77.6735
   755.7000      8.0801      1.3519     -0.0786     78.6704     72.7424
   755.8000      8.0871      1.3412     -0.0278     79.3189     66.3762
   755.9000      8.0871      1.3419     -0.0247     79.2800     61.0885
   756.0000      8.0916      1.3495      0.0093     78.8177     57.4374
   756.1000      8.0916      1.3680     -0.0175     77.6960     57.1881
   756.2000      8.0916      1.4035     -0.0080     75.5480     61.5831
   756.3000      8.0932      1.4573      0.0036     72.2869     69.4470
   756.4000      8.0932      1.5259      0.0248     68.1243     78.9226
   756.5000      8.0898      1.6030      0.0678     63.4529     89.6333
   756.6000      8.0898      1.6884      0.0689     58.2801     99.1789
   756.7000      8.0898      1.7875      0.1155     52.2754    104.7039
   756.8000      8.0843      1.8900      0.1397     46.0591    109.3233
   756.9000      8.0843      1.9750      0.1668     40.9064    117.0094
   757.0000      8.0822      2.0330      0.1333     37.3931    125.7182
   757.1000      8.0822      2.0720      0.0888     35.0306    131.7592
   757.2000      8.0822      2.1045      0.0851     33.0612    133.4579
   757.3000      8.0832      2.1367      0.0603     31.1103    130.3832
   757.4000      8.0832      2.1689      0.0799     29.1586    127.3570
   757.5000      8.0841      2.1939      0.0749     27.6411    130.6007
   757.6000      8.0841      2.2033      0.0578     27.0757    137.2638
   757.7000      8.0841      2.2027     -0.0155     27.1068    140.5814
   757.8000      8.0819      2.2103      0.0036     26.6501    142.1913
   757.9000      8.0819      2.2281      0.0410     25.5687    147.3487
   758.0000      8.0794      2.2462      0.0273     24.4747    154.1630
   758.1000      8.0794      2.2589      0.0138     23.7055    156.6204
   758.2000      8.0794      2.2611      0.0167     23.5695    155.1281
   758.3000      8.0783      2.2544     -0.0475     23.9759    152.3359
   758.4000      8.0783      2.2454      0.0031     24.5223    146.6491
   758.5000      8.0758      2.2364     -0.0131     25.0680    141.8714
   758.6000      8.0758      2.2317     -0.0044     25.3500    143.0045
   758.7000      8.0758      2.2344      0.0203     25.1885    147.3286
   758.8000      8.0729      2.2408      0.0110     24.8016    152.5379
   758.9000      8.0729      2.2450      0.0221     24.5457    153.4204
   759.0000      8.0742      2.2508     -0.0072     24.1944    145.5227
