~Version Information
VERS.                      2.0: CWLS Log ASCII Standard - VERSION 2.0
WRAP.                       NO: One line per depth step
~Well Information Block
STRT.FT               830.0000: 
STOP.FT              1792.5000: 
STEP.FT                 0.1000: 
NULL.                -999.2500: 
COMP.          Pioneer Natural Resources: COMPANY
WELL.           Rolls 14-14 Tr: WELL
FLD.           Purgatoire River: FIELD
LOC.           473' FSL & 817' FWL: LOCATION
PROV.                 Colorado: PROVINCE
CNTY.               Las Animas: COUNTRY
SRVC.                Patterson: SERVICE COMPANY
DATE.          Wed Aug 03 07:11:37 2005: LOG DATE
UWI.           05 071 08454 00: UNIQUE WELL ID
~Curve Information Block
DEPT.FT            0 000 00 00: Depth
DCAL.in                       : CDL Caliper
RHOB.g/cc                     : CDL Bulk Density
RHOC.g/cc                     : CDL Density Correction
DPOR.pu                       : CDL Density Porosity
GR.GAPI                       : Gamma Ray
NPOR.pu                       : Neutron Porosity
~Parameter Information Block
~A  Depth       DCAL        RHOB        RHOC        DPOR         GR         NPOR    
# ...
  1146.8000      7.9989      2.6274      0.0906      1.3717     66.5335     19.2239
  1146.9000      7.9989      2.5803      0.0815      4.2243     69.3306     19.3961
  1147.0000      8.0021      2.5238      0.0511      7.6460     71.6591     19.4944
  1147.1000      8.0021      2.4771      0.0309     10.4767     73.8236     19.7014
  1147.2000      8.0021      2.4544      0.0028     11.8557     74.1591     20.1651
  1147.3000      7.9942      2.4617      0.0322     11.4132     71.2178     20.5019
  1147.4000      7.9942      2.5034      0.0311      8.8834     68.1810     20.3566
  1147.5000      7.9997      2.5780      0.0802      4.3628     68.4284     20.2233
  1147.6000      7.9997      2.6524      0.1449     -0.1455     69.1643     20.3594
  1147.7000      7.9997      2.6863      0.1862     -2.1999     66.0662     20.4377
  1147.8000      7.9978      2.6877      0.1337     -2.2823     61.4298     20.4112
  1147.9000      7.9978      2.6951      0.1540     -2.7332     59.2914     20.3609
  1148.0000      7.9907      2.7180      0.1677     -4.1183     57.5190     20.1277
  1148.1000      7.9907      2.7299      0.1661     -4.8426     53.7013     19.7744
  1148.2000      7.9907      2.7107      0.0727     -3.6796     50.1757     19.5247
  1148.3000      7.9897      2.6683      0.1000     -1.1078     49.6550     19.3940
  1148.4000      7.9897      2.6186      0.0253      1.9008     50.9378     19.2587
  1148.5000      7.9790      2.5781     -0.0181      4.3551     50.9857     18.6646
  1148.6000      7.9790      2.5661     -0.0840      5.0837     50.2442     17.1845
  1148.7000      7.9790      2.5872     -0.0303      3.8080     49.9156     15.4114
  1148.8000      7.9876      2.6086      0.0554      2.5063     49.7492     14.2280
  1148.9000      7.9876      2.5947      0.0069      3.3541     51.1684     14.1025
  1149.0000      8.0461      2.5525      0.0488      5.9121     54.3937     14.9909
  1149.1000      8.0461      2.5147     -0.0681      8.2007     57.0106     16.1614
  1149.2000      8.0461      2.5026     -0.0175      8.9312     59.1941     16.9438
  1149.3000      8.0812      2.5131      0.0037      8.2977     61.7860     17.4161
  1149.4000      8.0812      2.5289      0.0576      7.3407     63.7905     17.8339
  1149.5000      8.0667      2.5364      0.0248      6.8831     64.5150     18.0306
  1149.6000      8.0667      2.5377      0.0406      6.8052     64.8660     17.9575
  1149.7000      8.0667      2.5420      0.0168      6.5462     65.6080     17.8362
  1149.8000      8.1001      2.5478      0.0852      6.1949     67.0238     17.8033
  1149.9000      8.1001      2.5348      0.0980      6.9810     69.2445     17.5180
  1150.0000      8.1168      2.4982     -0.0144      9.2022     70.5385     16.2011
  1150.1000      8.1168      2.4650     -0.0245     11.2148     68.6822     13.9766
  1150.2000      8.1168      2.4551     -0.0009     11.8124     64.4297     12.4713
  1150.3000      8.1068      2.4656      0.0453     11.1733     62.3790   -141.5687
  1150.4000      8.1068      2.4862      0.0079      9.9288     64.8756   -115.3533
  1150.5000      8.1041      2.5060      0.0512      8.7257     67.7228    -97.9522
  1150.6000      8.1041      2.5165      0.0478      8.0880     66.1355    -90.7958
  1150.7000      8.1041      2.5175      0.0571      8.0318     61.8341    -89.8845
  1150.8000      8.0971      2.5148      0.0063      8.1958     59.6090    -88.5921
  1150.9000      8.0971      2.5141      0.0356      8.2379     59.9731    -76.5511
  1151.0000      8.0550      2.5145      0.0654      8.2097     61.1847    -52.2205
  1151.1000      8.0550      2.5186      0.0442      7.9643     62.4490    -21.3875
  1151.2000      8.0550      2.5286      0.0285      7.3584     63.2851      3.5586
  1151.3000      8.0375      2.5342      0.0499      7.0191     63.5047     14.7614
  1151.4000      8.0375      2.5350      0.0414      6.9707     62.0881     18.1751
  1151.5000      8.0294      2.5379      0.0151      6.7937     59.9774     17.6511
  1151.6000      8.0294      2.5430      0.0037      6.4845     60.0240      8.8071
  1151.7000      8.0294      2.5554      0.0013      5.7318     64.4273    -24.3444
  1151.8000      8.0210      2.5731      0.0920      4.6613     72.6789    -62.7363
  1151.9000      8.0210      2.5827      0.0669      4.0763     80.1681    -45.2021
  1152.0000      8.0160      2.5875      0.0380      3.7875     83.5677     -3.3529
  1152.1000      8.0160      2.5994      0.0503      3.0672     84.8771     16.1578
  1152.2000      8.0160      2.6170      0.0621      1.9975     86.3706     20.9141
  1152.3000      8.0170      2.6325      0.0944      1.0622     87.5986     19.2328
  1152.4000      8.0170      2.6408      0.0731      0.5577     87.5420     10.9865
  1152.5000      8.0193      2.6343      0.0817      0.9520     87.2738     -1.0092
  1152.6000      8.0193      2.6092      0.0319      2.4714     91.1814      3.3016
  1152.7000      8.0193      2.5835     -0.0145      4.0286    100.8294     16.4594
  1152.8000      8.0279      2.5784      0.0050      4.3372    111.4169     23.4180
  1152.9000      8.0279      2.5935      0.0576      3.4262    115.0516     27.2347
  1153.0000      8.0281      2.6110      0.0293      2.3638    110.7867     27.2758
  1153.1000      8.0281      2.6092      0.1204      2.4754    107.3990     24.5111
  1153.2000      8.0281      2.5809      0.0783      4.1870    106.8769     21.9052
  1153.3000      8.0207      2.5457     -0.0146      6.3226    105.3785     21.3944
  1153.4000      8.0207      2.5175      0.0590      8.0283    106.4667     22.8935
  1153.5000      8.0383      2.4916     -0.0026      9.6002    113.3625     25.1664
  1153.6000      8.0383      2.4691      0.0412     10.9667    118.9254     26.7671
  1153.7000      8.0383      2.4580      0.0004     11.6344    117.9709     26.0753
  1153.8000      8.0267      2.4628      0.0229     11.3477    114.7990     24.3837
  1153.9000      8.0267      2.4741      0.0360     10.6595    115.0993     22.5960
  1154.0000      8.0366      2.4805      0.0485     10.2719    121.0694     19.8302
  1154.1000      8.0366      2.4813      0.0719     10.2264    130.0310     17.6389
  1154.2000      8.0366      2.4783      0.0522     10.4071    137.1830     19.9115
  1154.3000      8.0451      2.4735      0.0372     10.6950    142.4267     24.6189
  1154.4000      8.0451      2.4722      0.0434     10.7772    145.4383     29.0718
  1154.5000      8.0544      2.4789      0.0096     10.3720    143.6822     29.4655
  1154.6000      8.0544      2.4857      0.0647      9.9570    140.1950     26.3969
  1154.7000      8.0544      2.4766      0.0261     10.5068    141.4172     24.6056
  1154.8000      8.0681      2.4577      0.0001     11.6529    145.9547     26.4015
  1154.9000      8.0681      2.4493      0.0163     12.1642    147.9978     30.9958
  1155.0000      8.0585      2.4508      0.0175     12.0719    146.8493     33.8458
  1155.1000      8.0585      2.4340      0.0799     13.0922    146.7539     30.7938
  1155.2000      8.0585      2.3728      0.0537     16.8012    148.8086     25.2585
  1155.3000      8.0482      2.2800      0.0105     22.4255    149.0430     22.1635
  1155.4000      8.0482      2.1911     -0.0202     27.8103    148.0641     23.0180
  1155.5000      8.1006      2.1232      0.0122     31.9272    150.0990     25.6002
  1155.6000      8.1006      2.0689     -0.0181     35.2198    151.2497     24.8639
  1155.7000      8.1006      2.0265     -0.0495     37.7866    145.3076     21.8727
  1155.8000      8.1341      2.0095     -0.0170     38.8188    135.6411     22.0450
  1155.9000      8.1341      2.0184      0.0232     38.2784    129.7450     26.9551
  1156.0000      8.1572      2.0395      0.0576     37.0013    130.0629     35.2044
  1156.1000      8.1572      2.0678      0.1477     35.2849    134.0268     40.2050
  1156.2000      8.1572      2.1025      0.1765     33.1812    138.0241     38.3511
  1156.3000      8.2209      2.1329      0.1925     31.3409    140.6205     34.1165
