~Version Information
VERS.                      2.0: CWLS Log ASCII Standard - VERSION 2.0
WRAP.                       NO: One line per depth step
~Well Information Block
STRT.FT                -5.7500: 
STOP.FT              2734.0000: 
STEP.FT                 0.2500: 
NULL.                -999.2500: 
COMP.          Pioneer Natural Resources: COMPANY
WELL.              Loews 41-32: WELL
FLD.           Purgatoire River: FIELD
LOC.           751' FNL & 128' FEL--: LOCATION
CNTY.               Las Animas: COUNTY
SRVC.                         : SERVICE COMPANY
DATE.          Sat Mar 04 08:20:59 2006: LOG DATE
UWI.           05 071 08693 00: UNIQUE WELL ID
STAT.                       CO: STATE
~Curve Information Block
DEPT.FT            0 000 00 00: Depth
GR.GAPI                       : Gamma Ray
CCL.                          : Casing Collar Locator
TT3.usec                      : CBL 3' Travel Time
AMP3.mV                       : CBL 3' Amplitude
~Parameter Information Block
~A  Depth        GR         CCL         TT3         AMP3    
# ...
  2540.2500     69.8435      0.0000    626.8514      5.6299
  2540.5000     81.7012      0.0000    619.0489      5.6498
  2540.7500     96.3852      0.0000    623.9535      5.6462
  2541.0000    111.1424      0.0000    640.0694      5.6125
  2541.2500    122.6389      0.0000    654.8174      5.5369
  2541.5000    128.3617      0.0000    653.7830      5.4220
  2541.7500    127.7194      0.0000    629.3657      5.2898
  2542.0000    122.3321      0.0000    584.5162      5.1682
  2542.2500    115.1342      0.0000    530.8890      5.0737
  2542.5000    108.6455      0.0000    481.9521      5.0046
  2542.7500    103.6915      0.0000    445.4711      4.9450
  2543.0000     99.5218      0.0000    421.4800      4.8807
  2543.2500     94.9422      0.0000    406.0446      4.8150
  2543.5000     89.4830      0.0000    395.2964      4.7703
  2543.7500     83.9508      0.0000    386.7108      4.7718
  2544.0000     80.0477      0.0000    379.0071      4.8268
  2544.2500     79.1986      0.0000    372.0509      4.9147
  2544.5000     81.5191      0.0000    366.3667      4.9962
  2544.7500     85.8417      0.0000    362.3327      5.0379
  2545.0000     90.6045      0.0000    359.8385      5.0300
  2545.2500     94.6400      0.0000    358.4758      4.9833
  2545.5000     97.2701      0.0000    357.8065      4.9161
  2545.7500     97.9989      0.0000    357.4585      4.8480
  2546.0000     96.5559      0.0000    357.1625      4.7990
  2546.2500     93.3549      0.0000    356.8477      4.7828
  2546.5000     89.5240      0.0000    356.9385      4.7963
  2546.7500     86.2205      0.0000    358.9942      4.8185
  2547.0000     84.0715      0.0000    366.6602      4.8203
  2547.2500     83.2166      0.0000    385.9456      4.7789
  2547.5000     83.4280      0.0000    422.7968      4.6877
  2547.7500     84.2192      0.0000    477.6397      4.5631
  2548.0000     85.3030      0.0000    541.7030      4.4440
  2548.2500     86.8183      0.0000    601.3200      4.3833
  2548.5000     88.5562      0.0000    647.8880      4.4291
  2548.7500     89.1590      0.0000    682.6270      4.6062
  2549.0000     86.9161      0.0000    710.9677      4.9027
  2549.2500     81.6122      0.0000    734.5335      5.2722
  2549.5000     75.1796      0.0000    750.3778      5.6499
  2549.7500     70.2949      0.0000    756.4929      5.9744
  2550.0000     68.4604      0.0000    755.6155      6.2011
  2550.2500     69.4431      0.0000    753.2191      6.3037
  2550.5000     72.1583      0.0000    752.7828      6.2731
  2550.7500     75.7191      0.0000    753.6663      6.1261
  2551.0000     79.7949      0.0000    752.8687      5.9110
  2551.2500     84.4097      0.0000    747.2164      5.6891
  2551.5000     89.5147      0.0000    733.2215      5.5025
  2551.7500     94.6748      0.0000    706.3805      5.3599
  2552.0000     99.1541      0.0000    663.2484      5.2486
  2552.2500    102.3586      0.0000    605.9397      5.1513
  2552.5000    104.1099      0.0000    544.1318      5.0531
  2552.7500    104.5073      0.0000    490.5545      4.9453
  2553.0000    103.7967      0.0000    453.2130      4.8312
  2553.2500    102.5131      0.0000    431.9374      4.7240
  2553.5000    101.5219      0.0000    421.5101      4.6343
  2553.7500    101.5834      0.0000    416.5641      4.5614
  2554.0000    102.6705      0.0000    413.8576      4.4980
  2554.2500    103.8880      0.0000    411.9959      4.4414
  2554.5000    104.3290      0.0000    410.4875      4.3963
  2554.7500    103.8267      0.0000    409.1496      4.3677
  2555.0000    102.5183      0.0000    407.8916      4.3551
  2555.2500    100.1066      0.0000    406.7018      4.3535
  2555.5000     96.3353      0.0000    405.6305      4.3593
  2555.7500     92.0742      0.0000    404.7553      4.3725
  2556.0000     89.1081      0.0000    404.1562      4.3935
  2556.2500     88.6114      0.0000    403.9063      4.4201
  2556.5000     90.2471      0.0000    404.0451      4.4455
  2556.7500     92.9108      0.0000    404.5403      4.4599
  2557.0000     95.9172      0.0000    405.2821      4.4570
  2557.2500     99.1795      0.0000    406.1285      4.4441
  2557.5000    102.5212      0.0000    406.9912      4.4413
  2557.7500    105.2034      0.0000    408.0998      4.4675
  2558.0000    106.2168      0.0000    410.5784      4.5265
  2558.2500    105.0727      0.0000    417.1048      4.6060
  2558.5000    102.3573      0.0000    431.4986      4.6868
  2558.7500     99.3855      0.0000    455.7335      4.7538
  2559.0000     97.1370      0.0000    485.5218      4.8037
  2559.2500     95.7080      0.0000    510.2849      4.8443
  2559.5000     94.7675      0.0000    520.7968      4.8855
  2559.7500     94.0288      0.0000    516.7858      4.9266
  2560.0000     93.1340      0.0000    504.4940      4.9524
  2560.2500     91.7057      0.0000    488.5055      4.9446
  2560.5000     89.9064      0.0000    469.9271      4.9013
  2560.7500     88.5281      0.0000    450.7129      4.8428
  2561.0000     88.1019      0.0000    434.7820      4.7934
  2561.2500     88.1123      0.0000    424.7206      4.7579
  2561.5000     87.4204      0.0000    420.0405      4.7226
  2561.7500     85.4852      0.0000    418.6820      4.6754
  2562.0000     83.0520      0.0000    419.0367      4.6166
  2562.2500     81.6128      0.0000    420.9395      4.5516
  2562.5000     82.2386      0.0000    425.9261      4.4825
  2562.7500     84.7686      0.0000    436.2459      4.4128
  2563.0000     87.9019      0.0000    451.8011      4.3553
  2563.2500     90.1891      0.0000    467.2141      4.3242
  2563.5000     91.1672      0.0000    473.9326      4.3224
  2563.7500     91.5335      0.0000    467.6011      4.3408
  2564.0000     92.1980      0.0000    452.4551      4.3676
  2564.2500     93.2710      0.0000    436.9728      4.3958
  2564.5000     94.0310      0.0000    426.5402      4.4231
  2564.7500     93.8605      0.0000    421.3469      4.4510
  2565.0000     93.1246      0.0000    419.2773      4.4855
  2565.2500     92.9150      0.0000    418.7817      4.5348
  2565.5000     93.8927      0.0000    419.4147      4.6041
  2565.7500     95.7190      0.0000    420.9234      4.6910
  2566.0000     97.6829      0.0000    422.4195      4.7852
  2566.2500     99.3277      0.0000    422.5989      4.8712
  2566.5000    100.1726      0.0000    420.9059      4.9366
  2566.7500     99.4033      0.0000    418.2336      4.9787
  2567.0000     96.4395      0.0000    416.2891      5.0024
  2567.2500     91.6543      0.0000    416.5546      5.0133
  2567.5000     86.1506      0.0000    420.3182      5.0161
  2567.7500     80.8959      0.0000    429.9995      5.0198
  2568.0000     76.4446      0.0000    449.8321      5.0391
  2568.2500     73.4397      0.0000    483.2693      5.0895
  2568.5000     72.7162      0.0000    527.4984      5.1789
  2568.7500     74.5429      0.0000    571.2473      5.2986
  2569.0000     78.1962      0.0000    601.6368      5.4200
  2569.2500     82.7502      0.0000    615.0665      5.5019
  2569.5000     88.3765      0.0000    619.2034      5.5116
  2569.7500     96.8440      0.0000    622.3964      5.4461
  2570.0000    110.5636      0.0000    623.0109      5.3350
  2570.2500    130.6084      0.0000    611.4586      5.2195
  2570.5000    155.0785      0.0000    581.9924      5.1227
  2570.7500    179.3156      0.0000    540.8030      5.0390
  2571.0000    198.1321      0.0000    502.5682      4.9529
  2571.2500    208.2797      0.0000    480.6794      4.8661
  2571.5000    209.1868      0.0000    481.1899      4.7978
  2571.7500    201.8279      0.0000    502.9454      4.7637
  2572.0000    187.2166      0.0000    539.0131      4.7655
  2572.2500    166.1306      0.0000    577.7809      4.8057
  2572.5000    140.2533      0.0000    606.1799      4.8991
  2572.7500    113.0206      0.0000    614.3333      5.0645
  2573.0000     88.6897      0.0000    599.1841      5.2999
  2573.2500     70.4281      0.0000    567.4809      5.5631
  2573.5000     59.1901      0.0000    535.5816      5.7805
