~Version Information
VERS.                      2.0: CWLS Log ASCII Standard - VERSION 2.0
WRAP.                       NO: One line per depth step
~Well Information Block
STRT.FT               245.0000: 
STOP.FT              1273.7000: 
STEP.FT                 0.1000: 
NULL.                -999.2500: 
COMP.          Pioneer Natural Resources: COMPANY
WELL.                 Ray 34-6: WELL
FLD.           Purgatoire River: FIELD
LOC.           684' FSL & 2254' FEL--: LOCATION
CNTY.               Las Animas: COUNTY
SRVC.                Patterson: SERVICE COMPANY
DATE.          Fri May 26 09:17:30 2006: LOG DATE
UWI.           05 071 08695 00: UNIQUE WELL ID
STAT.                 Colorado: STATE
~Curve Information Block
DEPT.FT            0 000 00 00: Depth
DCAL.in                       : CDL Caliper
RHOB.g/cc                     : CDL Bulk Density
RHOC.g/cc                     : CDL Density Correction
DPOR.pu                       : CDL Density Porosity
NPOR.pu                       : Neutron Porosity
GR.GAPI                       : Gamma Ray
~Parameter Information Block
~A  Depth       DCAL        RHOB        RHOC        DPOR        NPOR         GR     
# ...
  1109.0000      7.8856      2.5085     -0.0071      8.5732     24.4335    120.1493
  1109.1000      7.8856      2.5021      0.0467      8.9637     24.7786    122.7018
  1109.2000      7.8856      2.4916      0.0194      9.6030     25.1523    128.3138
  1109.3000      7.8842      2.4919     -0.0465      9.5824     25.2981    135.2764
  1109.4000      7.8842      2.5158      0.0477      8.1362     25.3594    141.7195
  1109.5000      7.8823      2.5497      0.0661      6.0770     25.6164    146.3412
  1109.6000      7.8823      2.5731      0.0774      4.6617     25.9542    148.3958
  1109.7000      7.8823      2.5700      0.0724      4.8505     25.9943    148.1858
  1109.8000      7.8838      2.5447      0.0381      6.3832     25.5162    147.8120
  1109.9000      7.8838      2.5259      0.0209      7.5192     24.8882    148.5356
  1110.0000      7.8859      2.5287      0.0438      7.3537     24.7354    149.8140
  1110.1000      7.8859      2.5405      0.0456      6.6370     25.0501    148.9246
  1110.2000      7.8859      2.5504      0.0376      6.0340     25.4293    144.4526
  1110.3000      7.8843      2.5563      0.0677      5.6783     25.7951    138.5619
  1110.4000      7.8843      2.5524      0.0633      5.9147     26.1978    134.1046
  1110.5000      7.8817      2.5368      0.0333      6.8635     26.4529    131.6326
  1110.6000      7.8817      2.5214      0.0201      7.7926     26.4951    129.1163
  1110.7000      7.8817      2.5143      0.0385      8.2241     26.5866    126.8599
  1110.8000      7.8803      2.5099      0.0062      8.4896     26.8483    127.4014
  1110.9000      7.8803      2.5115      0.0005      8.3929     27.0421    131.0082
  1111.0000      7.8814      2.5228      0.0676      7.7097     27.0747    134.1556
  1111.1000      7.8814      2.5328      0.0130      7.1022     27.1449    134.2132
  1111.2000      7.8814      2.5362      0.0553      6.8984     27.0831    135.3558
  1111.3000      7.8848      2.5361      0.0795      6.9052     26.8279    137.8936
  1111.4000      7.8848      2.5339      0.0726      7.0388     26.7054    136.9979
  1111.5000      7.8878      2.5282      0.0318      7.3793     26.8090    134.3936
  1111.6000      7.8878      2.5201      0.0303      7.8738     27.0456    132.7801
  1111.7000      7.8878      2.5109      0.0451      8.4329     27.3064    130.6618
  1111.8000      7.8889      2.5007      0.0343      9.0474     27.6448    130.0384
  1111.9000      7.8889      2.4953      0.0076      9.3757     28.0618    134.3650
  1112.0000      7.8889      2.5022      0.0045      8.9567     28.2000    137.5180
  1112.1000      7.8889      2.5153      0.0226      8.1609     27.8752    135.2293
  1112.2000      7.8889      2.5124      0.0518      8.3411     27.5396    134.1382
  1112.3000      7.8893      2.4717      0.0256     10.8053     27.5348    138.6439
  1112.4000      7.8893      2.3875      0.0237     15.9085     27.4941    142.5642
  1112.5000      7.8897      2.2682     -0.0195     23.1384     27.0536    140.2488
  1112.6000      7.8897      2.1328     -0.0731     31.3459     26.2684    132.5439
  1112.7000      7.8897      1.9995     -0.1223     39.4217     25.1053    123.0498
  1112.8000      7.8858      1.8808     -0.1574     46.6194     23.3467    116.7561
  1112.9000      7.8858      1.7820     -0.1471     52.6048     21.1242    114.8664
  1113.0000      7.8830      1.6905     -0.1186     58.1499     18.9328    112.5015
  1113.1000      7.8830      1.5916     -0.1288     64.1483     16.8510    107.7667
  1113.2000      7.8830      1.5003     -0.1567     69.6800     14.8531    103.5415
  1113.3000      7.8979      1.4539     -0.1572     72.4919     13.2569    101.0118
  1113.4000      7.8979      1.4705     -0.0111     71.4837     12.0865     97.7192
  1113.5000      7.9287      1.5275      0.0822     68.0284     11.1331     93.9370
  1113.6000      7.9287      1.5915      0.1138     64.1519     10.5170     94.5025
  1113.7000      7.9287      1.6494      0.1235     60.6413     10.3535     98.3880
  1113.8000      7.9406      1.7063      0.1224     57.1944     10.4312    100.5211
  1113.9000      7.9406      1.7699      0.1590     53.3403     10.7020    102.6194
  1114.0000      7.9205      1.8414      0.1626     49.0035     11.3158    107.1171
  1114.1000      7.9205      1.9217      0.1741     44.1394     12.1616    111.7986
  1114.2000      7.9205      2.0106      0.1705     38.7512     12.9941    114.0720
  1114.3000      7.8895      2.0973      0.1939     33.4945     13.8336    113.7932
  1114.4000      7.8895      2.1672      0.2115     29.2621     14.7387    114.3196
  1114.5000      7.8747      2.2217      0.1437     25.9587     15.5303    118.7077
  1114.6000      7.8747      2.2778      0.1673     22.5593     16.0761    124.8136
  1114.7000      7.8747      2.3413      0.1938     18.7099     16.6312    126.6531
  1114.8000      7.8746      2.4022      0.1822     15.0209     17.5143    125.0166
  1114.9000      7.8746      2.4470      0.1736     12.3027     18.7311    127.5128
  1115.0000      7.8749      2.4643      0.1601     11.2564     20.2258    136.1878
  1115.1000      7.8749      2.4583      0.0579     11.6168     21.9011    146.6651
  1115.2000      7.8749      2.4470      0.0635     12.3017     23.2724    152.4687
  1115.3000      7.8704      2.4359      0.0607     12.9744     23.9735    151.0285
  1115.4000      7.8704      2.4261      0.0449     13.5686     24.3780    147.2778
  1115.5000      7.8669      2.4288      0.0226     13.4056     24.8349    144.7733
  1115.6000      7.8669      2.4471      0.0328     12.2947     25.1908    140.4474
  1115.7000      7.8669      2.4693      0.0654     10.9519     25.4511    137.3165
  1115.8000      7.8707      2.4831      0.0377     10.1174     25.8335    141.2478
  1115.9000      7.8707      2.4710      0.1011     10.8476     26.1818    147.7816
  1116.0000      7.8781      2.4146      0.0354     14.2652     26.3146    146.6568
  1116.1000      7.8781      2.3150      0.0583     20.3017     26.2266    136.9734
  1116.2000      7.8781      2.1877     -0.0474     28.0207     25.6137    129.9775
  1116.3000      7.8816      2.0553     -0.0610     36.0429     24.3233    132.5876
  1116.4000      7.8816      1.9243     -0.0918     43.9842     22.8176    136.3800
  1116.5000      7.8789      1.7911     -0.1713     52.0575     21.3345    129.7453
  1116.6000      7.8789      1.6626     -0.1480     59.8403     19.6127    115.9853
  1116.7000      7.8789      1.5374     -0.1745     67.4305     17.6127    106.2422
  1116.8000      7.8738      1.4202     -0.2012     74.5326     15.5911     99.8263
  1116.9000      7.8738      1.3447     -0.1682     79.1099     13.5947     91.9848
  1117.0000      7.8692      1.3334     -0.0826     79.7952     11.7492     87.3317
  1117.1000      7.8692      1.3656      0.0773     77.8420     10.4004     87.2195
  1117.2000      7.8692      1.4180      0.0657     74.6676      9.6496     86.9887
  1117.3000      7.8650      1.5022      0.1294     69.5654      9.3499     88.1700
  1117.4000      7.8650      1.6257      0.2723     62.0768      9.3937     92.5865
  1117.5000      7.8622      1.7647      0.3407     53.6532      9.7000     98.2111
  1117.6000      7.8622      1.8892      0.3807     46.1090     10.0952    105.5692
  1117.7000      7.8622      1.9913      0.3095     39.9198     10.5791    115.8052
  1117.8000      7.8635      2.0931      0.2609     33.7516     11.3975    128.0583
  1117.9000      7.8635      2.2073      0.3490     26.8294     12.6276    141.5666
  1118.0000      7.8662      2.3108      0.3249     20.5606     14.0539    154.2702
  1118.1000      7.8662      2.3855      0.2889     16.0325     15.5769    162.5562
  1118.2000      7.8662      2.4394      0.2532     12.7637     17.2248    166.8892
  1118.3000      7.8635      2.4869      0.1865      9.8826     18.8824    172.2137
  1118.4000      7.8635      2.5339      0.2049      7.0341     20.6785    179.5249
  1118.5000      7.8599      2.5697      0.1898      4.8638     22.8854    185.7473
