~Version Information
VERS.                      2.0: CWLS Log ASCII Standard - VERSION 2.0
WRAP.                       NO: One line per depth step
~Well Information Block
STRT.FT                -8.5000: 
STOP.FT              1945.2500: 
STEP.FT                 0.2500: 
NULL.                -999.2500: 
COMP.          Pioneer Natural Resources: COMPANY
WELL.          Flying Horse 12-11 Tr: WELL
FLD.           Purgatorie River: FIELD
LOC.           2459' FNL & 410' FWL: LOCATION
STAT.                       CO: PROVINCE
CNTY.               Las Animas: COUNTY
CTRY.        USA : Country
SECT. 11 : Section
TOWN. 32S : Township
RANG. 66W : Range
SRVC.          Patterson Wireline: SERVICE COMPANY
DATE.          Thu Sep 08 15:44:22 2005: LOG DATE
API.           05 071 08485 00: UNIQUE WELL ID
~Curve Information Block
DEPT.FT            0 000 00 00: Depth
CCL.                          : Casing Collar Locator
TT3.usec                      : CBL 3' Travel Time
AMP3.mV                       : CBL 3' Amplitude
GR.GAPI                       : Gamma Ray
~Parameter Information Block
~A  Depth       CCL         TT3         AMP3         GR     
    -8.5000   -999.2500   -999.2500   -999.2500     82.1068
    -8.2500   -999.2500   -999.2500   -999.2500     80.9731
    -8.0000   -999.2500   -999.2500   -999.2500     80.2161
    -7.7500   -999.2500   -999.2500   -999.2500     80.5587
    -7.5000   -999.2500   -999.2500   -999.2500     82.1049
    -7.2500   -999.2500   -999.2500   -999.2500     84.1722
    -7.0000   -999.2500   -999.2500   -999.2500     85.9454
    -6.7500   -999.2500   -999.2500   -999.2500     86.9610
    -6.5000   -999.2500   -999.2500   -999.2500     86.9640
    -6.2500   -999.2500   -999.2500   -999.2500     85.8187
    -6.0000   -999.2500   -999.2500   -999.2500     83.8191
    -5.7500   -999.2500   -999.2500   -999.2500     81.7569
    -5.5000   -999.2500   -999.2500   -999.2500     80.3467
    -5.2500   -999.2500   -999.2500   -999.2500     79.6171
    -5.0000   -999.2500   -999.2500   -999.2500     78.9980
    -4.7500   -999.2500   -999.2500   -999.2500     78.0592
    -4.5000   -999.2500   -999.2500   -999.2500     77.1876
    -4.2500   -999.2500   -999.2500   -999.2500     77.3933
    -4.0000   -999.2500   -999.2500   -999.2500     79.2029
    -3.7500   -999.2500   1149.0000      0.6107     81.8695
    -3.5000   -999.2500   1149.0000      0.6138     84.0434
    -3.2500   -999.2500   1149.0000      0.6216     85.1187
    -3.0000   -999.2500   1149.0000      0.6307     85.5151
    -2.7500   -999.2500   1149.0000      0.6363     85.7490
    -2.5000   -999.2500   1149.0000      0.6351     85.5955
    -2.2500   -999.2500   1149.0000      0.6267     83.9827
    -2.0000   -999.2500   1149.0000      0.6139     79.5552
    -1.7500   -999.2500   1149.0000      0.6022     71.9462
    -1.5000   -999.2500   1149.0000      0.5959     62.7791
    -1.2500   -999.2500   1149.0000      0.5944     54.8233
    -1.0000   -999.2500   1149.0000      0.5949     49.7992
    -0.7500   -999.2500   1149.0000      0.5961     47.1998
    -0.5000   -999.2500   1149.0000      0.5997     45.2025
    -0.2500   -999.2500   1149.0000      0.6067     38.5645
     0.0000   -999.2500   1149.0000      0.6141     34.6934
     0.2500   -999.2500   1149.0000      0.6176     31.9995
     0.5000   -999.2500   1149.0000      0.6162     31.3574
     0.7500   -999.2500   1149.0000      0.6126     33.0952
     1.0000   -999.2500   1149.0000      0.6110     37.1555
     1.2500   -999.2500   1149.0000      0.6138     43.2096
     1.5000   -999.2500   1149.0000      0.6212     50.6744
     1.7500      0.0000   1149.0000      0.6314     58.7566
     2.0000      0.0000   1149.0000      0.6403     66.4479
     2.2500      0.0000   1149.0000      0.6450     72.5893
     2.5000      0.0000   1149.0000      0.6459     76.3882
     2.7500      0.0000   1149.0000      0.6448     78.1716
     3.0000      0.0000   1149.0000      0.6413     79.3569
     3.2500      0.0000   1149.0000      0.6338     81.2970
     3.5000      0.0000   1149.0000      0.6232     84.1745
     3.7500      0.0000   1149.0000      0.6138     87.1373
     4.0000      0.0000   1149.0000      0.6093     89.2877
     4.2500      0.0000   1149.0000      0.6089     90.3109
     4.5000      0.0000   1149.0000      0.6093     90.3815
     4.7500      0.0000   1149.0000      0.6085     89.8321
     5.0000      0.0000   1149.0000      0.6076     88.8072
     5.2500      0.0000   1149.0000      0.6087     87.0414
     5.5000      0.0000   1149.0000      0.6101     84.1864
     5.7500      0.0000   1149.0000      0.6066     80.4844
     6.0000      0.0000   1149.0000      0.5948     76.8988
     6.2500      0.0000   1149.0000      0.5778     74.4959
     6.5000      0.0000   1148.9407      0.5679     73.7242
     6.7500      0.0000   1148.5535      0.5906     74.2333
     7.0000      0.0000   1146.5872      0.7356     75.3495
     7.2500      0.0000   1138.8103      1.2961     76.7501
     7.5000      0.0000   1114.8560      2.9879     78.5613
     7.7500      0.0000   1057.3926      7.0056     80.7112
     8.0000      0.0000    950.0373     14.4751     82.4356
     8.2500      0.0000    793.8368     25.3175     82.6054
     8.5000      0.0000    616.8387     37.5925     80.3965
     8.7500      0.0000    460.6380     48.4278     75.7385
     9.0000      0.0000    353.2807     55.8904     69.4827
     9.2500      0.0000    295.8124     59.9131     63.1312
     9.5000      0.0000    271.8499     61.6296     58.0941
     9.7500      0.0000    264.0624     62.2337     55.0117
    10.0000      0.0000    262.0837     62.4359     53.5364
    10.2500      0.0000    261.6829     62.5246     52.5759
    10.5000      0.0000    261.6104     62.5847     51.1152
    10.7500      0.0000    261.6001     62.6351     49.3478
    11.0000      0.0000    261.5940     62.6842     48.8936
    11.2500      0.0000    261.5913     62.7392     51.3681
    11.5000      0.0000    261.5897     62.8049     56.5830
    11.7500      0.0000    261.5869     62.8791     62.3418
    12.0000      0.0000    261.5818     62.9558     66.1385
    12.2500      0.0000    261.5747     63.0317     67.1571
    12.5000      0.0000    261.5662     63.1104     66.7161
    12.7500      0.0000    261.5542     63.2008     66.7214
    13.0000      0.0000    261.5351     63.3093     67.7273
    13.2500      0.0000    261.5075     63.4322     68.7575
    13.5000      0.0000    261.4751     63.5572     69.0635
    13.7500      0.0000    261.4444     63.6697     69.5073
    14.0000      0.0000    261.4209     63.7594     71.7122
    14.2500      0.0000    261.4070     63.8223     76.1643
    14.5000      0.0000    261.4028     63.8618     81.6660
    14.7500      0.0000    261.4064     63.8863     86.4708
    15.0000      0.0000    261.4158     63.9052     89.3881
    15.2500      0.0000    261.4287     63.9245     89.9525
    15.5000      0.0000    261.4420     63.9469     88.5241
    15.7500      0.0000    261.4517     63.9730     86.4637
    16.0000      0.0000    261.4532     64.0034     85.2064
    16.2500      0.0000    261.4439     64.0413     84.5257
    16.5000      0.0000    261.4241     64.0899     82.3416
    16.7500      0.0000    261.3985     64.1424     76.9269
    17.0000      0.0000    261.3750     64.1782     69.0291
    17.2500      0.0000    261.3622     64.1729     61.3406
    17.5000      0.0000    261.3657     64.1142     56.1129
    17.7500      0.0000    261.3855     64.0114     53.6216
    18.0000      0.0000    261.4158     63.8897     52.6473
    18.2500      0.0000    261.4490     63.7759     51.8479
    18.5000      0.0000    261.4799     63.6840     50.6357
    18.7500      0.0000    261.5078     63.6108     49.3130
    19.0000      0.0000    261.5346     63.5432     48.6307
    19.2500      0.0000    261.5620     63.4726     48.9468
    19.5000      0.0000    261.5884     63.4024     49.7232
    19.7500      0.0000    261.6103     63.3419     49.9764
    20.0000      0.0000    261.6255     63.2965     49.2366
    20.2500      0.0000    261.6349     63.2631     47.9325
    20.5000      0.0000    261.6429     63.2331     46.7175
    20.7500      0.0000    261.6535     63.1980     45.6441
    21.0000      0.0000    261.6680     63.1548     44.4494
    21.2500      0.0000    261.6841     63.1068     43.4700
    21.5000      0.0000    261.6988     63.0601     43.5679
    21.7500      0.0000    261.7105     63.0222     45.0386
    22.0000      0.0000    261.7220     63.0033     47.1043
    22.2500      0.0000    261.7430     63.0151     48.6474
    22.5000      0.0000    261.7938     63.0651     49.1776
    22.7500      0.0000    261.8978     63.1505     49.0726
    23.0000      0.0000    262.0522     63.2574     49.1130
    23.2500      0.0000    262.1997     63.3661     49.9220
    23.5000      0.0000    262.2521     63.4594     51.7005
    23.7500      0.0000    262.1669     63.5297     54.1359
    24.0000      0.0000    261.9928     63.5777     56.4044
    24.2500      0.0000    261.8217     63.6064     57.6243
    24.5000      0.0000    261.7119     63.6142     57.6601
    24.7500      0.0000    261.6649     63.5987     57.2483
