~Version Information
 VERS.                                  2.0 : CWLS LAS VERSION
 WRAP.                                   NO : WRAPING MODE
 SWARE .                 MController 2.5.0N : SOFTWARE VERSION
~Well Information
 WELL.                       ALABASTER 11-8 : WELL
 COMP.    PIONEER NATURAL RESOURCES USA INC : COMPANY
 FLD.                      PURGATOIRE RIVER : FIELD
 LOC.                 NW/NW SEC 8 T33S R66W : LOCATION
 DATE.                             01/18/06 : DATE(S) LOGGED
 SRVC.       BLANCO GEOLOGICAL SERVICES LLC : SERVICE COMPANY
 STAT.                             COLORADO : STATE
 CNTY.                           LAS ANIMAS : COUNTY
 CTRY.                                  USA : COUNTRY
 API.                       05-071-08642-00 : API NUMBER
 STRT.FT                             555.00 : START DEPTH
 STOP.FT                            2045.00 : STOP DEPTH
 STEP.FT                               1.00 : DEPTH INCREMENT
 NULL.                                -9999 : NULL VALUE
~Curve information
 DEPTH.FT                                   :
 ROP.MIN/FT                                 :
 GAS.UNITS                                  :
~ASCII Log data
# ...
      1155.0         0.22         18.9 
      1156.0         0.20         15.2 
      1157.0         0.20         15.3 
      1158.0         0.23         15.6 
      1159.0         0.30         16.0 
      1160.0         0.13         16.3 
      1161.0         0.20         16.7 
      1162.0         0.30         16.7 
      1163.0         0.23         16.2 
      1164.0         0.23         15.5 
      1165.0         0.20         15.2 
      1166.0         2.28         22.5 
      1167.0         0.77          4.9 
      1168.0         0.57          5.1 
      1169.0         0.50          4.8 
      1170.0         0.32          4.8 
      1171.0         0.27          7.7 
      1172.0         0.50         10.9 
      1173.0         0.47         10.9 
      1174.0         0.33         10.8 
      1175.0         0.33         10.4 
      1176.0         0.20         10.6 
      1177.0         0.20         11.1 
      1178.0         0.17         11.3 
      1179.0         0.23         11.2 
      1180.0         0.37         12.0 
      1181.0         0.32         13.2 
      1182.0         0.33         14.1 
      1183.0         0.33         13.8 
      1184.0         0.40         14.8 
      1185.0         0.37         14.6 
      1186.0         0.30         14.3 
      1187.0         0.20         13.2 
      1188.0         0.20         13.1 
      1189.0         0.20         13.1 
      1190.0         0.23         12.3 
      1191.0         0.23         13.0 
      1192.0         0.20         13.0 
      1193.0         0.17         13.7 
      1194.0         0.15         13.8 
      1195.0         0.20         12.9 
      1196.0         3.00         19.4 
      1197.0         0.28          8.9 
      1198.0         0.20          9.5 
      1199.0         0.27         10.8 
      1200.0         0.23         12.7 
      1201.0         0.20         13.9 
      1202.0         0.23         14.0 
      1203.0         0.43         15.1 
      1204.0         0.27         14.7 
      1205.0         0.20         14.3 
      1206.0         0.23         14.4 
      1207.0         0.13         14.4 
      1208.0         0.17         14.8 
      1209.0         0.17         13.7 
      1210.0         0.23         14.2 
      1211.0         0.28         16.8 
      1212.0         0.30         16.8 
      1213.0         0.23         16.8 
      1214.0         0.20         16.3 
      1215.0         0.23         16.1 
      1216.0         0.27         15.4 
      1217.0         0.23         15.2 
      1218.0         0.30         14.4 
      1219.0         0.30         13.9 
      1220.0         0.23         13.9 
      1221.0         0.20         13.3 
      1222.0         0.23         12.8 
      1223.0         0.10         11.7 
      1224.0         0.10         11.2 
      1225.0         0.23         12.5 
      1226.0         1.55         19.2 
      1227.0         0.53          5.1 
      1228.0         0.43          4.9 
      1229.0         0.37          5.4 
      1230.0         0.20          6.7 
      1231.0         0.07          7.5 
      1232.0         0.32         12.7 
      1233.0         0.27         12.8 
      1234.0         0.20          7.8 
      1235.0         0.27          9.2 
      1236.0         0.20         10.3 
      1237.0         0.23         11.1 
      1238.0         0.23         10.5 
      1239.0         0.23         10.3 
      1240.0         0.23         10.3 
      1241.0         0.27         10.2 
      1242.0         0.23         10.4 
      1243.0         0.23         10.5 
      1244.0         0.23         10.9 
      1245.0         0.23         11.1 
      1246.0         0.28         11.9 
      1247.0         0.40         11.9 
      1248.0         0.20         11.7 
      1249.0         0.17         12.6 
      1250.0         0.27         12.5 
      1251.0         0.23         11.6 
      1252.0         0.23         12.8 
      1253.0         0.23         12.8 
      1254.0         0.27         12.6 
      1255.0         0.30         12.8 
      1256.0         2.62         17.5 
      1257.0         0.43          4.9 
      1258.0         0.30          5.1 
      1259.0         0.43          5.0 
      1260.0         0.27          5.2 
      1261.0         0.23          7.7 
      1262.0         0.25          9.1 
      1263.0         0.30         10.1 
      1264.0         0.33         11.0 
      1265.0         0.30         11.4 
      1266.0         0.33         10.6 
      1267.0         0.30         10.5 
      1268.0         0.30         10.7 
      1269.0         0.33         10.6 
      1270.0         0.30         11.2 
      1271.0         0.27         11.7 
      1272.0         0.30         12.1 
      1273.0         0.28         12.5 
      1274.0         0.27         12.5 
      1275.0         0.23         12.5 
      1276.0         0.20         12.8 
      1277.0         0.37         13.0 
      1278.0         0.30         13.1 
      1279.0         0.33         13.5 
      1280.0         0.37         13.5 
      1281.0         0.27         12.1 
      1282.0         0.30         11.8 
      1283.0         0.17         11.2 
      1284.0         0.10         10.8 
      1285.0         0.13         11.1 
      1286.0         2.22         17.9 
      1287.0         0.37          5.0 
      1288.0         0.33          5.0 
      1289.0         0.27          7.1 
      1290.0         0.32         10.1 
      1291.0         0.20         10.8 
      1292.0         0.23         13.1 
      1293.0         0.27         14.3 
      1294.0         0.30         14.9 
      1295.0         0.23         15.5 
      1296.0         0.43         16.5 
      1297.0         0.27         16.9 
      1298.0         0.20         15.7 
      1299.0         0.23         15.7 
      1300.0         0.20         15.8 
      1301.0         0.20         16.0 
      1302.0         0.20         17.2 
      1303.0         0.17         15.9 
      1304.0         0.18         15.8 
      1305.0         0.17         15.8 
      1306.0         0.17         15.4 
      1307.0         0.17         14.9 
      1308.0         0.23         14.7 
      1309.0         0.17         14.8 
      1310.0         0.20         15.0 
      1311.0         0.30         15.1 
      1312.0         0.20         14.4 
      1313.0         0.27         13.5 
      1314.0         0.30         13.1 
      1315.0         0.23         12.5 
      1316.0         1.75         19.5 
      1317.0         0.47          5.1 
      1318.0         0.43          5.0 
      1319.0         0.33          5.1 
      1320.0         0.33          7.4 
      1321.0         0.30          8.9 
      1322.0         0.27         10.7 
      1323.0         0.23         11.3 
      1324.0         0.22         10.8 
      1325.0         0.20         10.9 
      1326.0         0.20         10.2 
      1327.0         0.20         10.7 
      1328.0         0.23         10.3 
      1329.0         0.23         10.3 
      1330.0         0.20         10.3 
      1331.0         0.20         10.3 
      1332.0         0.20         10.2 
      1333.0         0.23          9.7 
      1334.0         0.23          9.8 
      1335.0         0.23          9.5 
      1336.0         0.20          9.5 
      1337.0         0.20         10.1 
      1338.0         0.20          9.9 
      1339.0         0.20          9.6 
      1340.0         0.25         10.0 
      1341.0         0.27         10.8 
      1342.0         0.27         11.6 
      1343.0         0.23         12.4 
      1344.0         0.17         12.7 
      1345.0         0.30         15.0 
      1346.0         0.77         19.3 
      1347.0         0.30          9.5 
      1348.0         0.43          5.5 
      1349.0         0.33          5.0 
      1350.0         0.35          5.1 
      1351.0         0.27          4.9 
      1352.0         0.27          8.1 
      1353.0         0.27         10.0 
      1354.0         0.27         10.9 
