~Version Information
 VERS.                                  2.0 : CWLS LAS VERSION
 WRAP.                                   NO : WRAPING MODE
 SWARE .                 MController 2.5.0N : SOFTWARE VERSION
~Well Information
 WELL.                          Yoshi 14-30 : WELL
 COMP.    Pioneer Natural Resources USA Inc : COMPANY
 FLD.                      Purgatoire River : FIELD
 LOC.                 SW/SW Sec30 T32S R65W : LOCATION
 DATE.                             02/17/06 : DATE(S) LOGGED
 SRVC.       Blanco Geological Services LLC : SERVICE COMPANY
 STAT.                             Colorado : STATE
 CNTY.                           Las Animas : COUNTY
 CTRY.                                  USA : COUNTRY
 API.                       05-071-08699-00 : API NUMBER
 STRT.FT                             350.00 : START DEPTH
 STOP.FT                            1300.00 : STOP DEPTH
 STEP.FT                               1.00 : DEPTH INCREMENT
 NULL.                                -9999 : NULL VALUE
~Curve information
 DEPTH.FT                                   :
 ROP.MIN/FT                                 :
 GAS.UNITS                                  :
~ASCII Log data
# ...
      1150.0         0.43        857.9 
      1151.0         0.40        848.2 
      1152.0         0.33        848.8 
      1153.0         0.30        850.5 
      1154.0         0.27        841.4 
      1155.0         0.27        912.9 
      1156.0         0.27        941.2 
      1157.0         0.27        908.1 
      1158.0         0.27        789.2 
      1159.0         0.30        673.3 
      1160.0         0.38        618.1 
      1161.0         2.60       2631.8 
      1162.0         0.38       1775.7 
      1163.0         0.23       1484.6 
      1164.0         0.27       1364.3 
      1165.0         0.27       1223.8 
      1166.0         0.27       1195.9 
      1167.0         0.30       1142.6 
      1168.0         0.30       1076.3 
      1169.0         0.27        986.0 
      1170.0         0.33        964.1 
      1171.0         0.33        896.7 
      1172.0         0.40        865.7 
      1173.0         0.38        829.6 
      1174.0         0.40        803.0 
      1175.0         0.37        746.1 
      1176.0         0.60        696.2 
      1177.0         0.27        650.1 
      1178.0         0.27        635.2 
      1179.0         0.27        628.5 
      1180.0         0.27        599.2 
      1181.0         0.27        588.8 
      1182.0         0.30        587.7 
      1183.0         0.27        564.8 
      1184.0         0.28        560.1 
      1185.0         0.27        547.3 
      1186.0         0.27        532.1 
      1187.0         0.27        516.0 
      1188.0         0.30        503.5 
      1189.0         0.27         94.2 
      1190.0         0.30         75.7 
      1191.0         3.28       3189.7 
      1192.0         0.47       1410.8 
      1193.0         0.50       1224.2 
      1194.0         0.37       1077.3 
      1195.0         0.35       1057.4 
      1196.0         0.37        999.1 
      1197.0         0.33        926.3 
      1198.0         0.37        870.4 
      1199.0         0.37        841.1 
      1200.0         0.37        821.9 
      1201.0         0.30        797.6 
      1202.0         0.30        761.6 
      1203.0         0.33        726.9 
      1204.0         0.30        692.5 
      1205.0         0.32        685.1 
      1206.0         0.30        658.5 
      1207.0         0.30        647.7 
      1208.0         0.30        629.9 
      1209.0         0.30        633.9 
      1210.0         0.30        638.6 
      1211.0         0.30        644.7 
      1212.0         0.33        652.4 
      1213.0         0.30        674.3 
      1214.0         0.33        679.7 
      1215.0         0.30        666.9 
      1216.0         0.35        628.2 
      1217.0         0.37        616.0 
      1218.0         0.33        582.3 
      1219.0         0.37        523.4 
      1220.0         0.37        440.0 
      1221.0         3.42        440.0 
      1222.0         0.37          9.6 
      1223.0         0.42          9.0 
      1224.0         0.50          8.4 
      1225.0         0.53          8.0 
      1226.0         0.43          8.2 
      1227.0         0.43          7.8 
      1228.0         0.47          7.9 
      1229.0         0.43          7.8 
      1230.0         0.45          7.7 
      1231.0         0.37          7.7 
      1232.0         0.37          7.6 
      1233.0         0.37          7.9 
      1234.0         0.40          7.7 
      1235.0         0.40          7.8 
      1236.0         0.40          7.9 
      1237.0         0.37          7.7 
      1238.0         0.42          7.7 
      1239.0         0.40          8.0 
      1240.0         0.40          8.2 
      1241.0         0.43         15.0 
      1242.0         0.43         15.3 
      1243.0         0.43         14.9 
      1244.0         0.43         15.0 
      1245.0         0.40         15.7 
      1246.0         0.42         15.2 
      1247.0         0.33         15.1 
      1248.0         0.27         15.5 
      1249.0         0.23         14.6 
      1250.0         0.27         14.2 
      1251.0         3.02         15.9 
      1252.0         0.57         16.1 
      1253.0         0.43         14.9 
      1254.0         0.33         14.9 
      1255.0         0.27         14.6 
      1256.0         0.30         14.8 
      1257.0         0.40         15.5 
      1258.0         0.38         14.7 
      1259.0         0.27         14.3 
      1260.0         0.27         14.9 
      1261.0         0.27         15.3 
      1262.0         0.27         14.2 
      1263.0         0.30         14.7 
      1264.0         0.40         14.9 
      1265.0         0.33         14.1 
      1266.0         0.27         15.1 
      1267.0         0.30         14.9 
      1268.0         0.27         14.3 
      1269.0         0.32         14.9 
      1270.0         0.27         14.5 
      1271.0         0.17         14.5 
      1272.0         0.27         15.2 
      1273.0         0.30         14.6 
      1274.0         0.27         14.9 
      1275.0         0.23         14.4 
      1276.0         0.27         14.4 
      1277.0         0.27         14.2 
      1278.0         0.27         14.9 
      1279.0         0.30         14.1 
      1280.0         0.27         14.3 
      1281.0         2.55         16.3 
      1282.0         0.77         16.5 
      1283.0         0.58         15.7 
      1284.0         0.47         15.3 
      1285.0         0.37         15.1 
      1286.0         0.30         14.2 
      1287.0         0.23         14.1 
      1288.0         0.23         14.4 
      1289.0         0.23         14.4 
      1290.0         0.23         15.2 
      1291.0         0.27         14.6 
      1292.0         0.20         14.9 
      1293.0         0.23         14.9 
      1294.0         0.23         14.5 
      1295.0         0.28         15.2 
      1296.0         0.23         14.9 
      1297.0         0.23         14.8 
      1298.0         0.30         14.4 
      1299.0         0.27         14.5 
      1300.0         0.27         14.1 
