~Version Information
VERS.                      2.0: CWLS Log ASCII Standard - VERSION 2.0
WRAP.                       NO: One line per depth step
~Well Information Block
STRT.FT               240.0000: 
STOP.FT              1338.7000: 
STEP.FT                 0.1000: 
NULL.                -999.2500: 
COMP.          Pioneer Natural Resources: COMPANY
WELL.            Hamburg 43-35: WELL
FLD.           Purgatoire River: FIELD
LOC.           2444' FSL & 950' FEL--: LOCATION
PROV.                 Colorado: PROVINCE
CNTY.               Las Animas: COUNTRY
SRVC.                Patterson: SERVICE COMPANY
DATE.          Sun Dec 04 11:50:58 2005: LOG DATE
UWI.           05 071 08607 00: UNIQUE WELL ID
~Curve Information Block
DEPT.FT            0 000 00 00: Depth
DCAL.in                       : CDL Caliper
RHOB.g/cc                     : CDL Bulk Density
RHOC.g/cc                     : CDL Density Correction
DPOR.pu                       : CDL Density Porosity
NPOR.pu                       : Neutron Porosity
GR.GAPI                       : Gamma Ray
~Parameter Information Block
~A  Depth       DCAL        RHOB        RHOC        DPOR        NPOR         GR     
   240.0000      8.1285      2.4288     -0.2461     13.4077     44.8842     85.9054
   240.1000      8.1285      2.4293     -0.2663     13.3748     44.1817     82.6554
   240.2000      8.1285      2.4458     -0.1959     12.3751     43.8659     77.8072
   240.3000      8.1293      2.4434     -0.1836     12.5230     44.2331     71.7177
   240.4000      8.1293      2.4125     -0.2402     14.3937     44.6439     68.8481
   240.5000      8.1281      2.3767     -0.2628     16.5612     44.7679     72.7920
   240.6000      8.1281      2.3574     -0.2925     17.7345     44.8154     79.7673
   240.7000      8.1281      2.3623     -0.2795     17.4369     44.9434     84.4987
   240.8000      8.1268      2.3881     -0.2411     15.8743     44.9460     85.7085
   240.9000      8.1268      2.4113     -0.1719     14.4641     44.6787     85.7255
   241.0000      8.1282      2.4114     -0.2105     14.4634     44.4605     85.9658
   241.1000      8.1282      2.4072     -0.2551     14.7157     44.5438     86.3817
   241.2000      8.1282      2.4297     -0.2535     13.3513     44.8257     86.1364
   241.3000      8.1308      2.4712     -0.1871     10.8353     45.2754     83.6697
   241.4000      8.1308      2.4939     -0.1329      9.4608     45.6533     78.6429
   241.5000      8.1314      2.4842     -0.1863     10.0508     45.6623     74.1883
   241.6000      8.1314      2.4679     -0.2217     11.0339     45.5368     74.8499
   241.7000      8.1314      2.4694     -0.2188     10.9441     45.4221     78.9468
   241.8000      8.1313      2.4901     -0.2155      9.6886     45.2955     80.1586
   241.9000      8.1313      2.5131     -0.1513      8.2970     45.2964     78.9294
   242.0000      8.1322      2.5202     -0.1971      7.8669     45.3298     80.2953
   242.1000      8.1322      2.5095     -0.1621      8.5163     45.1163     83.6720
   242.2000      8.1322      2.4863     -0.1957      9.9186     44.8481     85.5612
   242.3000      8.1317      2.4621     -0.2243     11.3884     44.9755     83.7411
   242.4000      8.1317      2.4462     -0.1937     12.3538     45.2289     79.6824
   242.5000      8.1296      2.4329     -0.1937     13.1587     45.0920     77.9936
   242.6000      8.1296      2.4234     -0.2375     13.7313     44.7042     79.7779
   242.7000      8.1296      2.4263     -0.2369     13.5573     44.5370     81.2720
   242.8000      8.1271      2.4287     -0.2105     13.4100     44.6643     79.7643
   242.9000      8.1271      2.4166     -0.2361     14.1445     44.7875     77.4447
   243.0000      8.1240      2.4065     -0.3045     14.7590     44.7359     78.7266
   243.1000      8.1240      2.4133     -0.2207     14.3438     44.6383     85.2614
   243.2000      8.1240      2.4211     -0.1944     13.8744     44.4852     92.7038
   243.3000      8.1234      2.4172     -0.2593     14.1121     44.2226     93.8209
   243.4000      8.1234      2.4129     -0.2227     14.3672     43.9846     89.1616
   243.5000      8.1256      2.4255     -0.3143     13.6056     44.0214     84.4636
   243.6000      8.1256      2.4562     -0.2028     11.7474     44.4286     80.5493
   243.7000      8.1256      2.4819     -0.1820     10.1908     44.9336     77.9392
   243.8000      8.1284      2.4906     -0.1902      9.6590     45.2050     78.1173
   243.9000      8.1284      2.4943     -0.2011      9.4381     45.1988     78.8111
   244.0000      8.1298      2.4956     -0.1811      9.3551     44.9148     78.9419
   244.1000      8.1298      2.4864     -0.2194      9.9177     44.3579     79.8423
   244.2000      8.1298      2.4728     -0.2330     10.7381     43.7662     80.0996
   244.3000      8.1299      2.4711     -0.2003     10.8421     43.5511     78.0216
   244.4000      8.1299      2.4858     -0.2348      9.9536     43.7990     73.6267
   244.5000      8.1300      2.5074     -0.1839      8.6397     44.1942     68.2861
   244.6000      8.1300      2.5177     -0.1905      8.0199     44.6320     65.7485
   244.7000      8.1300      2.5067     -0.1770      8.6839     45.1583     68.2446
   244.8000      8.1294      2.4900     -0.2499      9.6989     45.5048     72.2886
   244.9000      8.1294      2.4875     -0.1927      9.8500     45.6017     75.2310
   245.0000      8.1276      2.4876     -0.1653      9.8394     45.6689     79.7810
   245.1000      8.1276      2.4717     -0.1819     10.8034     45.7061     86.0578
   245.2000      8.1276      2.4506     -0.2440     12.0838     45.4956     90.4566
   245.3000      8.1279      2.4398     -0.1911     12.7378     45.1809     89.1262
   245.4000      8.1279      2.4348     -0.2124     13.0397     45.2382     80.1726
   245.5000      8.1292      2.4279     -0.2057     13.4604     45.5238     68.5242
   245.6000      8.1292      2.4217     -0.2452     13.8394     45.4472     63.7211
   245.7000      8.1292      2.4198     -0.2033     13.9489     44.9204     69.5714
   245.8000      8.1304      2.4114     -0.2266     14.4606     44.2566     78.1554
   245.9000      8.1304      2.3961     -0.2914     15.3859     43.7446     80.0018
   246.0000      8.1320      2.4012     -0.2388     15.0777     43.6319     77.2224
   246.1000      8.1320      2.4404     -0.2398     12.7042     43.8120     77.6318
   246.2000      8.1320      2.4926     -0.1795      9.5393     43.9500     82.2651
   246.3000      8.1351      2.5246     -0.1284      7.6007     44.0653     85.7382
   246.4000      8.1351      2.5236     -0.1700      7.6578     44.1665     83.2295
   246.5000      8.1391      2.5103     -0.1984      8.4683     44.0810     78.0483
   246.6000      8.1391      2.5057     -0.1601      8.7433     44.0663     77.6539
   246.7000      8.1391      2.5030     -0.1596      8.9075     44.2905     81.6522
   246.8000      8.1417      2.4952     -0.2170      9.3823     44.3706     84.1865
   246.9000      8.1417      2.5036     -0.2400      8.8734     44.2099     84.3250
   247.0000      8.1424      2.5325     -0.1272      7.1207     44.2038     85.6784
   247.1000      8.1424      2.5398     -0.1123      6.6759     44.5073     89.4642
   247.2000      8.1424      2.5006     -0.2076      9.0568     44.9593     92.8171
   247.3000      8.1424      2.4408     -0.1999     12.6795     45.5004     91.5311
   247.4000      8.1424      2.3954     -0.2945     15.4292     46.1331     88.8844
   247.5000      8.1426      2.3709     -0.2395     16.9128     46.6660     90.3258
   247.6000      8.1426      2.3521     -0.2411     18.0529     46.7584     91.7020
   247.7000      8.1426      2.3413     -0.2744     18.7113     46.5449     88.5347
   247.8000      8.1434      2.3430     -0.2320     18.6076     46.5152     83.8517
   247.9000      8.1434      2.3370     -0.2666     18.9723     46.6335     79.1799
   248.0000      8.1439      2.3155     -0.2956     20.2742     46.6035     74.8573
   248.1000      8.1439      2.2966     -0.2789     21.4158     46.5056     74.5319
   248.2000      8.1439      2.2875     -0.3380     21.9723     46.5347     77.5057
   248.3000      8.1431      2.2805     -0.3067     22.3957     46.6751     79.7040
   248.4000      8.1431      2.2749     -0.2908     22.7337     46.8346     81.5222
   248.5000      8.1444      2.2738     -0.2442     22.7997     46.9807     82.7074
   248.6000      8.1444      2.2764     -0.2728     22.6406     47.0446     79.4413
   248.7000      8.1444      2.2807     -0.2525     22.3836     46.9827     73.0056
   248.8000      8.1492      2.2773     -0.2739     22.5871     46.8956     68.8735
   248.9000      8.1492      2.2527     -0.2578     24.0812     47.0165     68.2279
   249.0000      8.1532      2.2030     -0.3070     27.0900     47.2352     67.7415
   249.1000      8.1532      2.1384     -0.3285     31.0084     47.2901     66.0543
   249.2000      8.1532      2.0721     -0.4112     35.0242     47.2629     65.5315
   249.3000      8.1538      2.0071     -0.3747     38.9625     47.2959     66.4543
   249.4000      8.1538      1.9345     -0.3958     43.3619     47.2601     67.8176
   249.5000      8.1538      1.8580     -0.4548     48.0013     47.0257     69.7830
