~Version Information
VERS.                      2.0: CWLS Log ASCII Standard - VERSION 2.0
WRAP.                       NO: One line per depth step
~Well Information Block
STRT.FT               430.0000: 
STOP.FT              2074.0000: 
STEP.FT                 0.1000: 
NULL.                -999.2500: 
COMP.          Pioneer Natural Resources: COMPANY
WELL.             Fleming 11-2: WELL
FLD.           Purgatoire River: FIELD
LOC.           534' FNL & 160' FWL: LOCATION
CNTY.               Las Animas: COUNTY
SRVC.                Patterson: SERVICE COMPANY
DATE.          Tue Jun 27 10:07:47 2006: LOG DATE
UWI.           05 071 08491 00: UNIQUE WELL ID
STAT.                 Colorado: STATE
~Curve Information Block
DEPT.FT            0 000 00 00: Depth
DCAL.in                       : CDL Caliper
RHOB.g/cc                     : CDL Bulk Density
RHOC.g/cc                     : CDL Density Correction
DPOR.pu                       : CDL Density Porosity
GR.GAPI                       : Gamma Ray
NPOR.pu                       : Neutron Porosity
~Parameter Information Block
~A  Depth       DCAL        RHOB        RHOC        DPOR         GR         NPOR    
# ...
   862.0000      7.9126      2.6725      0.0686     -1.3629     73.7652     22.2950
   862.1000      7.9126      2.6775      0.0863     -1.6674     72.0064     23.1212
   862.2000      7.9126      2.6649      0.1172     -0.9021     71.1700     23.3129
   862.3000      7.9214      2.6382      0.0572      0.7168     71.1927     22.6659
   862.4000      7.9214      2.6150      0.0383      2.1218     72.1655     21.7899
   862.5000      7.9324      2.6011      0.0291      2.9613     73.4767     21.3948
   862.6000      7.9324      2.5993     -0.0238      3.0698     73.5035     21.8276
   862.7000      7.9324      2.6147      0.0287      2.1370     72.6941     22.9688
   862.8000      7.9459      2.6380      0.0740      0.7249     76.1610     24.1737
   862.9000      7.9459      2.6514      0.0853     -0.0836     85.2938     24.9651
   863.0000      7.9686      2.6558      0.0618     -0.3530     96.9524     25.6269
   863.1000      7.9686      2.6677      0.1108     -1.0736    107.5650     26.5250
   863.2000      7.9686      2.6879      0.1401     -2.2974    113.1500     27.2610
   863.3000      7.9909      2.6964      0.1390     -2.8146    113.6582     27.4982
   863.4000      7.9909      2.6802      0.0342     -1.8311    113.6534     27.9180
   863.5000      7.9950      2.6549      0.0066     -0.2961    115.7482     29.3310
   863.6000      7.9950      2.6443      0.0018      0.3472    119.1345     31.0589
   863.7000      7.9950      2.6514      0.0159     -0.0832    123.5255     31.6173
   863.8000      7.9917      2.6684      0.0279     -1.1125    129.4425     31.0169
   863.9000      7.9917      2.6971      0.0096     -2.8516    137.2063     30.5162
   864.0000      7.9947      2.7306      0.0537     -4.8850    139.5515     30.4525
   864.1000      7.9947      2.7436      0.0986     -5.6727    129.7073     30.2579
   864.2000      7.9947      2.7274      0.0545     -4.6883    118.9074     30.0395
   864.3000      7.9980      2.7000      0.0331     -3.0285    119.0843     29.9874
   864.4000      7.9980      2.6719     -0.0180     -1.3288    123.2332     29.7982
   864.5000      7.9979      2.6381      0.0184      0.7206    120.9830     29.4330
   864.6000      7.9979      2.6081     -0.0438      2.5388    115.5262     28.9500
   864.7000      7.9979      2.6015     -0.0321      2.9370    113.3464     28.4484
   864.8000      7.9944      2.6075      0.0346      2.5786    114.2324     28.3313
   864.9000      7.9944      2.6048      0.0088      2.7402    116.5431     29.0459
   865.0000      7.9890      2.5964      0.0485      3.2495    117.4391     30.4273
   865.1000      7.9890      2.5926      0.0228      3.4771    114.8431     31.5941
   865.2000      7.9890      2.6026      0.0159      2.8708    111.4991     32.0353
   865.3000      7.9855      2.6317      0.0079      1.1116    110.4375     31.7400
   865.4000      7.9855      2.6663      0.0814     -0.9905    110.7445     30.6813
   865.5000      7.9838      2.6803      0.0852     -1.8339    110.7748     29.4081
   865.6000      7.9838      2.6643      0.0790     -0.8675    110.1795     28.8855
   865.7000      7.9838      2.6367      0.0489      0.8089    108.1086     28.8729
   865.8000      7.9836      2.6203      0.0684      1.7976    105.5352     28.5824
   865.9000      7.9836      2.6168      0.0663      2.0129    102.8567     28.0149
   866.0000      7.9855      2.6111      0.0462      2.3581     99.5249     27.4939
   866.1000      7.9855      2.5993     -0.0102      3.0702     97.2177     27.1183
   866.2000      7.9855      2.5951     -0.0216      3.3273     95.4128     26.7596
   866.3000      7.9881      2.6002      0.0013      3.0157     95.5962     26.2870
   866.4000      7.9881      2.5983      0.0352      3.1314     98.6160     25.8295
   866.5000      7.9900      2.5860      0.0494      3.8779     99.2463     25.5635
   866.6000      7.9900      2.5759      0.0285      4.4939     98.6746     25.3772
   866.7000      7.9900      2.5677      0.0375      4.9854    105.3019     24.8879
   866.8000      7.9925      2.5526      0.0219      5.9037    119.3702     24.0661
   866.9000      7.9925      2.5388     -0.0086      6.7393    130.6101     23.3105
   867.0000      7.9951      2.5433     -0.0039      6.4696    132.9876     23.2290
   867.1000      7.9951      2.5603      0.0216      5.4336    127.9496     24.2354
   867.2000      7.9951      2.5686      0.0410      4.9329    118.3736     25.5542
   867.3000      7.9970      2.5660      0.0006      5.0922    107.9523     26.3186
   867.4000      7.9970      2.5638      0.0184      5.2253    100.2743     26.9131
   867.5000      7.9972      2.5571      0.0163      5.6326     99.8881     27.6065
   867.6000      7.9972      2.5410     -0.0014      6.6042    108.0325     27.9986
   867.7000      7.9972      2.5267     -0.0117      7.4727    118.4050     27.9411
   867.8000      7.9951      2.5239     -0.0570      7.6424    127.2155     27.7585
   867.9000      7.9951      2.5338     -0.0200      7.0444    134.0379     27.8829
   868.0000      7.9925      2.5445      0.0156      6.3922    134.7390     28.3995
   868.1000      7.9925      2.5462     -0.0072      6.2892    127.3978     28.5781
   868.2000      7.9925      2.5524     -0.0378      5.9126    114.0613     28.2294
   868.3000      7.9903      2.5756      0.0369      4.5096    102.2380     28.1108
   868.4000      7.9903      2.5956      0.0779      3.2940    101.9553     28.3134
   868.5000      7.9857      2.5892      0.0284      3.6852    111.6231     28.4407
   868.6000      7.9857      2.5681      0.0054      4.9663    119.6092     28.4161
   868.7000      7.9857      2.5617      0.0074      5.3543    120.5634     28.1677
   868.8000      7.9787      2.5774      0.0286      4.4019    117.0703     28.0885
   868.9000      7.9787      2.5964      0.0504      3.2513    112.8508     28.4002
   869.0000      7.9714      2.6061      0.0120      2.6618    110.7348     28.3919
   869.1000      7.9714      2.6141      0.0373      2.1731    109.4108     27.7633
   869.2000      7.9714      2.6270      0.0920      1.3949    107.1179     27.3064
   869.3000      7.9646      2.6480      0.0177      0.1203    105.6340     27.3781
   869.4000      7.9646      2.6741      0.0773     -1.4583    107.3469     27.3613
   869.5000      7.9572      2.6810      0.0917     -1.8776    111.5806     26.8717
   869.6000      7.9572      2.6631      0.0457     -0.7969    113.5996     26.2105
   869.7000      7.9572      2.6481      0.0302      0.1179    112.9346     25.8295
   869.8000      7.9495      2.6452      0.0503      0.2910    114.8041     25.8939
   869.9000      7.9495      2.6366      0.0784      0.8118    119.1446     26.1697
   870.0000      7.9456      2.6132      0.0499      2.2318    121.3058     26.3899
   870.1000      7.9456      2.5853      0.0166      3.9199    121.0567     26.6585
   870.2000      7.9456      2.5625      0.0319      5.3042    119.6911     26.9738
   870.3000      7.9422      2.5471      0.0211      6.2371    117.7985     26.9726
   870.4000      7.9422      2.5442      0.0271      6.4145    115.3384     26.6223
   870.5000      7.9371      2.5553      0.0776      5.7418    114.2498     26.2249
   870.6000      7.9371      2.5751      0.0596      4.5367    117.6410     26.0515
   870.7000      7.9371      2.5960      0.0907      3.2704    120.3879     26.0719
   870.8000      7.9336      2.6116      0.0825      2.3300    115.7409     25.8155
   870.9000      7.9336      2.6209      0.0882      1.7636    108.1271     25.1913
   871.0000      7.9356      2.6224      0.1106      1.6699    105.2036     24.7742
   871.1000      7.9356      2.6168      0.0865      2.0107    106.0581     25.1905
   871.2000      7.9356      2.6096      0.0735      2.4508    104.9977     26.4978
   871.3000      7.9495      2.5999      0.0951      3.0381    102.9221     27.6240
   871.4000      7.9495      2.5857      0.0470      3.8956    105.9283     28.0068
   871.5000      7.9703      2.5755      0.0288      4.5180    114.8581     28.1946
