~Version Information
VERS.                      2.0: CWLS Log ASCII Standard - VERSION 2.0
WRAP.                       NO: One line per depth step
~Well Information Block
STRT.FT               340.0000: 
STOP.FT              2342.7500: 
STEP.FT                 0.2500: 
NULL.                -999.2500: 
COMP.          Pioneer Natural Resources: COMPANY
WELL.          Pinkerton 41-12: WELL
FLD.           Purgatoire River: FIELD
LOC.           1222' FNL & 670' FEL--: LOCATION
CNTY.               Las Animas: COUNTY
SRVC.                Patterson: SERVICE COMPANY
DATE.          Wed Mar 15 10:37:39 2006: LOG DATE
UWI.           05 071 08500 00: UNIQUE WELL ID
STAT.                 Colorado: STATE
~Curve Information Block
DEPT.FT            0 000 00 00: Depth
SN.Ohm-m                      : IEL Short Normal
SP.mV                         : IEL Spontaneous Potential
DIR.Ohm-m                     : IEL Induction Resistivity
GR.GAPI                       : Gamma Ray
~Parameter Information Block
~A  Depth        SN          SP         DIR          GR     
   340.0000   2000.0000   -999.2500 100000.0000    119.7382
   340.2500   2000.0000   -999.2500 100000.0000    119.9122
   340.5000   2000.0000   -999.2500 100000.0000    121.2461
   340.7500   2000.0000   -999.2500 100000.0000    123.0553
   341.0000   2000.0000   -999.2500 100000.0000    126.2067
   341.2500   2000.0000   -999.2500 100000.0000     84.9653
   341.5000   2000.0000   -999.2500 100000.0000     84.3522
   341.7500   2000.0000   -999.2500 100000.0000     82.8108
   342.0000   2000.0000   -999.2500 100000.0000     80.0041
   342.2500   2000.0000   -999.2500 100000.0000     78.5119
   342.5000   2000.0000   -999.2500 100000.0000     77.3015
   342.7500   2000.0000   -999.2500 100000.0000     77.1326
   343.0000   2000.0000   -999.2500 100000.0000     77.6702
   343.2500   2000.0000   -999.2500 100000.0000     78.4217
   343.5000   2000.0000   -999.2500 100000.0000     79.8276
   343.7500   2000.0000   -999.2500 100000.0000     80.7935
   344.0000   2000.0000   -999.2500 100000.0000     82.0661
   344.2500   2000.0000   -999.2500 100000.0000     82.6836
   344.5000   2000.0000   -999.2500 100000.0000     83.2910
   344.7500   2000.0000   -999.2500 100000.0000     83.6275
   345.0000   2000.0000   -999.2500 100000.0000     84.0193
   345.2500   2000.0000   -999.2500 100000.0000     83.8861
   345.5000   2000.0000   -999.2500 100000.0000     82.5858
   345.7500   2000.0000   -999.2500 100000.0000     81.1901
   346.0000   2000.0000   -999.2500 100000.0000     79.6091
   346.2500   2000.0000   -999.2500 100000.0000     79.7230
   346.5000   2000.0000   -999.2500 100000.0000     82.2130
   346.7500   2000.0000   -999.2500 100000.0000     85.1720
   347.0000   2000.0000   -999.2500 100000.0000     90.7809
   347.2500   2000.0000   -999.2500 100000.0000     94.9966
   347.5000   2000.0000   -999.2500 100000.0000    101.7581
   347.7500   2000.0000   -999.2500 100000.0000    106.2500
   348.0000   2000.0000   -999.2500 100000.0000    111.7842
   348.2500   2000.0000   -999.2500 100000.0000    113.8078
   348.5000   2000.0000   -999.2500 100000.0000    113.4505
   348.7500   2000.0000   -999.2500 100000.0000    111.0730
   349.0000   2000.0000   -999.2500 100000.0000    105.3274
   349.2500   2000.0000   -999.2500 100000.0000    100.8291
   349.5000   2000.0000   -999.2500 100000.0000     94.5788
   349.7500   2000.0000   -999.2500      7.1844     91.6864
   350.0000   2000.0000   -999.2500      4.4822     90.4550
   350.2500   2000.0000   -999.2500      4.4397     91.7802
   350.5000   2000.0000   -999.2500      6.0326     96.0312
   350.7500   2000.0000   -999.2500     12.0808     99.5320
   351.0000   2000.0000   -999.2500    104.4217    104.3802
   351.2500   2000.0000   -999.2500 100000.0000    106.7311
   351.5000   2000.0000   -999.2500 100000.0000    108.6345
   351.7500   2000.0000   -999.2500 100000.0000    109.1520
   352.0000   2000.0000   -999.2500 100000.0000    109.6672
   352.2500   2000.0000   -999.2500     34.6297    110.0049
   352.5000   2000.0000   -999.2500     15.1040    109.7702
   352.7500   2000.0000   -999.2500     10.7302    108.3751
   353.0000   2000.0000   -999.2500      9.3509    103.6655
   353.2500   2000.0000   -999.2500      9.1646     98.9443
   353.5000   2000.0000   -999.2500      9.6544     90.4749
   353.7500   2000.0000   -999.2500     10.6005     84.5965
   354.0000   2000.0000   -999.2500     11.8405     76.6893
   354.2500   2000.0000   -999.2500     13.1886     72.7520
   354.5000   2000.0000   -999.2500     14.4532     69.6420
   354.7500   2000.0000   -999.2500     15.5619     69.4177
   355.0000   2000.0000   -999.2500     16.7036     71.0927
   355.2500   2000.0000   -999.2500     18.3450     72.8173
   355.5000   2000.0000   -999.2500     21.1930     74.7657
   355.7500   2000.0000   -999.2500     26.2439     74.8210
   356.0000   2000.0000   -999.2500     34.7742     72.5861
   356.2500   2000.0000   -999.2500     47.2430     70.0352
   356.5000   2000.0000   -999.2500     59.4659     66.0687
   356.7500   2000.0000   -999.2500     62.5344     63.9624
   357.0000   2000.0000   -999.2500     55.9469     61.8508
   357.2500   2000.0000   -999.2500     47.3800     61.0244
   357.5000   2000.0000   -999.2500     41.0423     60.6447
   357.7500   2000.0000   -999.2500     37.4392     61.0997
   358.0000   2000.0000   -999.2500     36.1026     62.8042
   358.2500   2000.0000   -999.2500     36.5201     64.2664
   358.5000   2000.0000   -999.2500     38.2012     65.9699
   358.7500   2000.0000   -999.2500     40.5967     66.2777
   359.0000   2000.0000   -999.2500     43.1364     65.2654
   359.2500   2000.0000   -999.2500     45.4089     63.9115
   359.5000   2000.0000   -999.2500     47.2928     61.6613
   359.7500   2000.0000   -999.2500     48.8941     60.2937
   360.0000   2000.0000   -999.2500     50.3691     58.4769
   360.2500   2000.0000   -999.2500     51.8148     57.3722
   360.5000   2000.0000   -999.2500     53.2706     55.9165
   360.7500   2000.0000   -999.2500     54.7602     55.1593
   361.0000   2000.0000   -999.2500     56.3235     54.3684
   361.2500   2000.0000   -999.2500     58.0276     53.9321
   361.5000   2000.0000   -999.2500     59.9723     53.1024
   361.7500   2000.0000   -999.2500     62.2897     52.4195
   362.0000   2000.0000   -999.2500     65.1223     51.5381
   362.2500   2000.0000   -999.2500     68.5773     51.2467
   362.5000   2000.0000   -999.2500     72.6626     51.2752
   362.7500   2000.0000   -999.2500     77.1990     51.4143
   363.0000   2000.0000   -999.2500     81.7248     51.4184
   363.2500   2000.0000   -999.2500     85.4823     51.2409
   363.5000   2000.0000   -999.2500     87.6576     51.0521
   363.7500   2000.0000   -999.2500     87.8325     51.2448
   364.0000   2000.0000   -999.2500     86.2502     52.1558
   364.2500   2000.0000   -999.2500     83.5807     53.0245
   364.5000   2000.0000   -999.2500     80.4581     54.2982
   364.7500   2000.0000   -999.2500     77.2051     54.9493
   365.0000   2000.0000   -999.2500     73.8603     55.4268
   365.2500   2000.0000   -999.2500     70.3766     55.2622
   365.5000   2000.0000   -999.2500     66.8246     54.1608
   365.7500   2000.0000   -999.2500     63.4595     53.0645
   366.0000   2000.0000   -999.2500     60.6259     51.6324
   366.2500   2000.0000   -999.2500     58.6138     51.1768
   366.5000   2000.0000   -999.2500     57.5720     51.2530
   366.7500   2000.0000   -999.2500     57.4762     51.4813
   367.0000   2000.0000   -999.2500     58.1108     51.3588
   367.2500   2000.0000   -999.2500     59.0601     50.7252
   367.5000   2000.0000   -999.2500     59.7716     49.1146
   367.7500   2000.0000   -999.2500     59.7381     47.9571
   368.0000   2000.0000   -999.2500     58.7011     46.8308
   368.2500   2000.0000   -999.2500     56.6978     46.8964
   368.5000   2000.0000   -999.2500     53.9276     48.8285
   368.7500   2000.0000   -999.2500     50.6150     51.6425
   369.0000   2000.0000   -999.2500     46.9830     58.7072
   369.2500   2000.0000   -999.2500     43.2782     65.6173
   369.5000   2000.0000   -999.2500     39.7520     79.0792
   369.7500   2000.0000   -999.2500     36.5975     89.1607
   370.0000   2000.0000   -999.2500     33.9100    103.2399
   370.2500   2000.0000   -999.2500     31.6946    110.5376
   370.5000   2000.0000   -999.2500     29.9029    117.4509
   370.7500   2000.0000   -999.2500     28.4695    119.6559
   371.0000   2000.0000   -999.2500     27.3345    120.3398
   371.2500   2000.0000   -999.2500     26.4533    119.5326
   371.5000   2000.0000   -999.2500     25.7969    116.9584
   371.7500   2000.0000   -999.2500     25.3485    114.4914
   372.0000   2000.0000   -999.2500     25.0978    109.8248
   372.2500   2000.0000   -999.2500     25.0303    106.3854
   372.5000   2000.0000   -999.2500     25.1158    102.1410
   372.7500   2000.0000   -999.2500     25.3002    100.8972
   373.0000   2000.0000   -999.2500     25.5121    101.9363
   373.2500   2000.0000   -999.2500     25.6828    103.9184
