~Version Information
VERS.                      2.0: CWLS Log ASCII Standard - VERSION 2.0
WRAP.                       NO: One line per depth step
~Well Information Block
STRT.FT               262.8000: 
STOP.FT              1134.7000: 
STEP.FT                 0.1000: 
NULL.                -999.2500: 
COMP.          Pioneer Natural Resources: COMPANY
WELL.          Black Cat 13-32 Tr: WELL
FLD.           Purgatoire River: FIELD
LOC.           1679' FSL & 1150' FWL--: LOCATION
CNTY.               Las Animas: COUNTY
SRVC.                Patterson: SERVICE COMPANY
DATE.          Tue Mar 07 12:42:54 2006: LOG DATE
UWI.           05 071 08721 00: UNIQUE WELL ID
STAT.                 Colorado: STATE
~Curve Information Block
DEPT.FT            0 000 00 00: Depth
DCAL.in                       : CDL Caliper
RHOB.g/cc                     : CDL Bulk Density
RHOC.g/cc                     : CDL Density Correction
DPOR.pu                       : CDL Density Porosity
GR.GAPI                       : Gamma Ray
~Parameter Information Block
~A  Depth       DCAL        RHOB        RHOC        DPOR         GR     
# ...
   934.8000      7.8900      2.5924      0.1059      3.4885    123.9754
   934.9000      7.8900      2.5912      0.0690      3.5641    124.7185
   935.0000      7.8881      2.5877      0.0557      3.7762    120.0956
   935.1000      7.8881      2.5809      0.1006      4.1868    115.0014
   935.2000      7.8881      2.5644      0.0327      5.1854    115.9998
   935.3000      7.8878      2.5437      0.0225      6.4400    121.6154
   935.4000      7.8878      2.5296     -0.0214      7.2961    128.4047
   935.5000      7.8872      2.5244      0.0054      7.6115    135.3344
   935.6000      7.8872      2.5168      0.0480      8.0733    139.2775
   935.7000      7.8872      2.4976      0.0349      9.2357    139.1373
   935.8000      7.8869      2.4719      0.0268     10.7958    138.1917
   935.9000      7.8869      2.4437     -0.0051     12.5037    139.3394
   936.0000      7.8868      2.4117      0.0124     14.4421    142.2693
   936.1000      7.8868      2.3747      0.0098     16.6844    144.2486
   936.2000      7.8868      2.3199      0.0451     20.0074    144.7288
   936.3000      7.8852      2.2290      0.0017     25.5126    143.9358
   936.4000      7.8852      2.1092     -0.0917     32.7743    140.0732
   936.5000      7.8843      1.9859     -0.1323     40.2477    134.0423
   936.6000      7.8843      1.8783     -0.1335     46.7721    132.0308
   936.7000      7.8843      1.7955     -0.1322     51.7870    134.7765
   936.8000      7.8901      1.7357     -0.0849     55.4125    136.5281
   936.9000      7.8901      1.6930     -0.0835     58.0019    133.6567
   937.0000      7.9066      1.6727     -0.0579     59.2291    127.6335
   937.1000      7.9066      1.6786      0.0238     58.8723    122.5521
   937.2000      7.9066      1.6969      0.1041     57.7623    120.2463
   937.3000      7.9252      1.7165      0.0777     56.5773    118.5214
   937.4000      7.9252      1.7517      0.0731     54.4425    114.1894
   937.5000      7.9306      1.8260      0.1266     49.9380    108.7272
   937.6000      7.9306      1.9372      0.2355     43.2019    104.7066
   937.7000      7.9306      2.0452      0.3416     36.6522    101.2680
   937.8000      7.9224      2.1027      0.3230     33.1701    100.8049
   937.9000      7.9224      2.1012      0.2219     33.2577    105.6969
   938.0000      7.9123      2.0733      0.1276     34.9514    110.0124
   938.1000      7.9123      2.0488      0.0780     36.4391    108.6316
   938.2000      7.9123      2.0312      0.0481     37.5042    106.8340
   938.3000      7.9124      2.0110      0.0375     38.7284    108.5704
   938.4000      7.9124      1.9873     -0.0011     40.1651    109.9056
   938.5000      7.9198      1.9755     -0.0258     40.8766    109.9869
   938.6000      7.9198      1.9891      0.0063     40.0564    111.6702
   938.7000      7.9198      2.0235      0.0611     37.9670    114.4169
   938.8000      7.9224      2.0715      0.0888     35.0616    114.4226
   938.9000      7.9224      2.1356      0.1269     31.1781    111.5000
   939.0000      7.9183      2.2136      0.2003     26.4465    110.1966
   939.1000      7.9183      2.2910      0.1712     21.7564    109.7887
   939.2000      7.9183      2.3646      0.1644     17.2970    108.7373
   939.3000      7.9150      2.4370      0.2150     12.9109    111.1580
   939.4000      7.9150      2.4907      0.2316      9.6549    118.1340
   939.5000      7.9146      2.5080      0.1715      8.6043    124.3870
   939.6000      7.9146      2.4944      0.1291      9.4303    126.3337
   939.7000      7.9146      2.4729      0.0476     10.7346    125.5185
   939.8000      7.9151      2.4649      0.0548     11.2161    123.1602
   939.9000      7.9151      2.4692      0.0776     10.9565    119.4964
   940.0000      7.9163      2.4713      0.0615     10.8290    118.1086
   940.1000      7.9163      2.4683      0.0094     11.0107    120.2186
   940.2000      7.9163      2.4673      0.0557     11.0712    121.3929
   940.3000      7.9147      2.4783      0.0216     10.4080    119.9548
   940.4000      7.9147      2.4990      0.1137      9.1518    121.0891
   940.5000      7.9055      2.5066      0.1040      8.6886    126.8679
   940.6000      7.9055      2.5008      0.0474      9.0411    131.7622
   940.7000      7.9055      2.5016      0.1056      8.9959    131.9424
   940.8000      7.8917      2.5058      0.1113      8.7366    128.6026
   940.9000      7.8917      2.5043      0.1116      8.8324    124.5025
   941.0000      7.8847      2.5036      0.0898      8.8744    120.9327
   941.1000      7.8847      2.5168      0.0882      8.0756    118.4277
   941.2000      7.8847      2.5443      0.1048      6.4085    117.8801
   941.3000      7.8853      2.5675      0.0835      5.0007    116.8081
   941.4000      7.8853      2.5768      0.0588      4.4348    114.4314
   941.5000      7.8894      2.5823      0.0591      4.1002    111.4422
   941.6000      7.8894      2.5864      0.0823      3.8541    108.9486
   941.7000      7.8894      2.5797      0.0973      4.2579    112.4408
   941.8000      7.8970      2.5576      0.0585      5.6022    120.1574
   941.9000      7.8970      2.5252      0.0228      7.5662    121.9240
   942.0000      7.9008      2.5006     -0.0424      9.0557    116.8424
   942.1000      7.9008      2.5029     -0.0203      8.9129    112.9227
   942.2000      7.9008      2.5233      0.0284      7.6814    113.3021
   942.3000      7.8973      2.5333      0.0342      7.0714    113.4743
   942.4000      7.8973      2.5234      0.0076      7.6729    109.6818
   942.5000      7.8919      2.4966      0.0503      9.2944    104.6251
   942.6000      7.8919      2.4593     -0.0127     11.5553    103.2541
   942.7000      7.8919      2.4372     -0.0600     12.8991    106.8881
   942.8000      7.8885      2.4464      0.0011     12.3401    112.9129
   942.9000      7.8885      2.4648      0.0552     11.2261    116.6665
   943.0000      7.8880      2.4571      0.0487     11.6910    116.8489
   943.1000      7.8880      2.4150     -0.0137     14.2398    114.7411
   943.2000      7.8880      2.3612     -0.0462     17.5058    110.4744
   943.3000      7.8890      2.3123     -0.0144     20.4652    106.3438
   943.4000      7.8890      2.2716     -0.0217     22.9341    105.5913
   943.5000      7.8900      2.2500     -0.0174     24.2406    108.9080
   943.6000      7.8900      2.2543     -0.0014     23.9822    116.1405
   943.7000      7.8900      2.2711      0.0470     22.9635    124.3535
   943.8000      7.8924      2.2907      0.0131     21.7772    127.7377
   943.9000      7.8924      2.3171      0.0463     20.1751    124.8393
   944.0000      7.8993      2.3461      0.0899     18.4179    123.7327
   944.1000      7.8993      2.3717      0.0861     16.8687    128.6174
   944.2000      7.8993      2.4061      0.0788     14.7798    133.2118
   944.3000      7.9071      2.4555      0.1389     11.7849    134.2630
   944.4000      7.9071      2.5065      0.1293      8.6964    136.6377
   944.5000      7.9058      2.5522      0.0923      5.9283    141.5939
   944.6000      7.9058      2.5899      0.1217      3.6431    145.1597
   944.7000      7.9058      2.6066      0.1123      2.6298    145.9891
   944.8000      7.8959      2.6025      0.0533      2.8788    144.5421
   944.9000      7.8959      2.6024      0.0486      2.8830    141.6488
   945.0000      7.8884      2.6191      0.0745      1.8704    136.8671
   945.1000      7.8884      2.6371      0.0735      0.7819    127.8233
   945.2000      7.8884      2.6448      0.0670      0.3168    116.0067
   945.3000      7.8885      2.6507      0.0174     -0.0396    108.9876
   945.4000      7.8885      2.6607      0.0450     -0.6470    111.0568
   945.5000      7.8941      2.6689      0.0541     -1.1433    118.1431
   945.6000      7.8941      2.6737      0.0626     -1.4384    123.6219
   945.7000      7.8941      2.6762      0.0268     -1.5849    124.2980
   945.8000      7.9000      2.6714      0.0250     -1.2980    122.5645
   945.9000      7.9000      2.6594      0.0267     -0.5701    120.1675
