~Version Information
VERS.                      2.0: CWLS Log ASCII Standard - VERSION 2.0
WRAP.                       NO: One line per depth step
~Well Information Block
STRT.FT               459.3000: 
STOP.FT              1604.7000: 
STEP.FT                 0.1000: 
NULL.                -999.2500: 
COMP.          Pioneer Natural Resources: COMPANY
WELL.          Grand Prix 13-12 Tr: WELL
FLD.           Purgatoire River: FIELD
LOC.           2595' FSL & 1277' FWL--: LOCATION
CNTY.               Las Animas: COUNTY
SRVC.                Patterson: SERVICE COMPANY
DATE.          Tue Apr 04 07:18:28 2006: LOG DATE
UWI.           05 071 08711 00: UNIQUE WELL ID
STAT.                 Colorado: STATE
~Curve Information Block
DEPT.FT            0 000 00 00: Depth
DCAL.in                       : CDL Caliper
RHOB.g/cc                     : CDL Bulk Density
RHOC.g/cc                     : CDL Density Correction
DPOR.pu                       : CDL Density Porosity
GR.GAPI                       : Gamma Ray
~Parameter Information Block
~A  Depth       DCAL        RHOB        RHOC        DPOR         GR     
# ...
  1355.3000      7.8221      2.6004      0.0592      3.0089    107.1264
  1355.4000      7.8221      2.5921      0.0797      3.5077    102.8061
  1355.5000      7.8130      2.5853      0.1258      3.9203    107.0240
  1355.6000      7.8130      2.5766      0.0738      4.4514    112.7553
  1355.7000      7.8130      2.5694      0.0710      4.8823    113.8774
  1355.8000      7.8078      2.5711      0.0397      4.7811    113.4217
  1355.9000      7.8078      2.5804      0.0600      4.2188    113.9477
  1356.0000      7.8090      2.5820      0.0645      4.1212    114.3708
  1356.1000      7.8090      2.5657      0.0359      5.1077    112.6487
  1356.2000      7.8090      2.5529     -0.0029      5.8851    108.7151
  1356.3000      7.8133      2.5640      0.0923      5.2130    106.9260
  1356.4000      7.8133      2.5769      0.1254      4.4323    109.2060
  1356.5000      7.8149      2.5667      0.1295      5.0458    112.7379
  1356.6000      7.8149      2.5432      0.0872      6.4716    116.6813
  1356.7000      7.8149      2.5217      0.1057      7.7770    121.8749
  1356.8000      7.8145      2.4965      0.1000      9.3051    129.5469
  1356.9000      7.8145      2.4586      0.0879     11.5986    139.0185
  1357.0000      7.8112      2.4246      0.0021     13.6627    146.4496
  1357.1000      7.8112      2.4208      0.0559     13.8926    152.7298
  1357.2000      7.8112      2.4477      0.0759     12.2588    159.9598
  1357.3000      7.8088      2.4866      0.1134      9.9020    164.2867
  1357.4000      7.8088      2.5148      0.1835      8.1944    163.7827
  1357.5000      7.8157      2.5136      0.1713      8.2694    161.7801
  1357.6000      7.8157      2.4948      0.1148      9.4061    158.2664
  1357.7000      7.8157      2.4906      0.1246      9.6580    151.1127
  1357.8000      7.8284      2.5141      0.0635      8.2383    141.6266
  1357.9000      7.8284      2.5538      0.1004      5.8328    132.2779
  1358.0000      7.8375      2.5867      0.1351      3.8334    124.3614
  1358.1000      7.8375      2.5992      0.1043      3.0792    116.8078
  1358.2000      7.8375      2.5960      0.1094      3.2703    109.6153
  1358.3000      7.8428      2.5865      0.1009      3.8490    105.8554
  1358.4000      7.8428      2.5767      0.0683      4.4398    105.6656
  1358.5000      7.8432      2.5724      0.0761      4.7042    104.3649
  1358.6000      7.8432      2.5751      0.0509      4.5413     99.6483
  1358.7000      7.8432      2.5781      0.0585      4.3570     93.5573
  1358.8000      7.8389      2.5717      0.0419      4.7472     89.2321
  1358.9000      7.8389      2.5605      0.0084      5.4212     85.6207
  1359.0000      7.8353      2.5593      0.0694      5.4952     79.4502
  1359.1000      7.8353      2.5694      0.0865      4.8826     72.5891
  1359.2000      7.8353      2.5809      0.1077      4.1907     71.4877
  1359.3000      7.8327      2.5841      0.1006      3.9947     76.2804
  1359.4000      7.8327      2.5746      0.0825      4.5678     80.0695
  1359.5000      7.8321      2.5547      0.0906      5.7783     80.7063
  1359.6000      7.8321      2.5345      0.0267      6.9976     80.7367
  1359.7000      7.8321      2.5235      0.0143      7.6678     80.1746
  1359.8000      7.8308      2.5181      0.0369      7.9946     77.5788
  1359.9000      7.8308      2.5162      0.0035      8.1069     76.0718
  1360.0000      7.8289      2.5259     -0.0015      7.5185     77.3593
  1360.1000      7.8289      2.5440      0.0593      6.4247     76.9327
  1360.2000      7.8289      2.5515      0.0712      5.9680     73.3153
  1360.3000      7.8292      2.5407      0.0762      6.6216     70.0697
  1360.4000      7.8292      2.5200      0.0465      7.8784     67.7059
  1360.5000      7.8276      2.5006      0.0517      9.0535     66.0471
  1360.6000      7.8276      2.4906      0.0297      9.6631     68.7239
  1360.7000      7.8276      2.4907      0.0352      9.6520     75.9153
  1360.8000      7.8265      2.4942      0.0465      9.4413     80.7835
  1360.9000      7.8265      2.4953      0.0573      9.3744     77.2621
  1361.0000      7.8334      2.4963      0.0408      9.3146     69.3430
  1361.1000      7.8334      2.4984      0.0432      9.1872     67.5676
  1361.2000      7.8334      2.4975      0.0050      9.2444     73.6321
  1361.3000      7.8446      2.4947      0.0235      9.4136     78.0031
  1361.4000      7.8446      2.4988      0.0155      9.1631     75.4946
  1361.5000      7.8523      2.5157      0.0167      8.1399     71.5732
  1361.6000      7.8523      2.5307      0.0517      7.2291     70.3306
  1361.7000      7.8523      2.5265      0.0597      7.4872     70.9774
  1361.8000      7.8557      2.5151      0.0198      8.1763     73.3885
  1361.9000      7.8557      2.5162      0.0261      8.1086     75.7785
  1362.0000      7.8569      2.5224      0.0699      7.7353     75.6161
  1362.1000      7.8569      2.5149      0.0637      8.1860     72.3610
  1362.2000      7.8569      2.4982      0.0327      9.1974     69.1187
  1362.3000      7.8572      2.4909      0.0139      9.6412     69.5510
  1362.4000      7.8572      2.4937      0.0414      9.4755     72.2128
  1362.5000      7.8578      2.4937      0.0410      9.4736     75.2246
  1362.6000      7.8578      2.4882      0.0259      9.8087     78.4657
  1362.7000      7.8578      2.4834      0.0205     10.0942     78.9704
  1362.8000      7.8573      2.4863      0.0006      9.9241     77.2782
  1362.9000      7.8573      2.5032      0.0094      8.8977     77.0978
  1363.0000      7.8554      2.5332      0.0436      7.0771     77.2149
  1363.1000      7.8554      2.5633      0.0549      5.2535     74.3144
  1363.2000      7.8554      2.5780      0.0536      4.3626     70.3748
  1363.3000      7.8521      2.5737      0.0656      4.6240     69.8229
  1363.4000      7.8521      2.5634      0.0398      5.2505     71.3650
  1363.5000      7.8446      2.5573      0.0995      5.6160     72.3485
  1363.6000      7.8446      2.5454      0.0433      6.3390     75.7154
  1363.7000      7.8446      2.5221      0.0195      7.7499     81.5570
  1363.8000      7.8368      2.4944      0.0434      9.4312     85.9124
  1363.9000      7.8368      2.4730     -0.0129     10.7266     85.5525
  1364.0000      7.8339      2.4708     -0.0119     10.8600     80.7064
  1364.1000      7.8339      2.4807      0.0706     10.2599     76.4679
  1364.2000      7.8339      2.4886      0.0049      9.7802     74.6270
  1364.3000      7.8336      2.4977      0.0748      9.2283     72.2119
  1364.4000      7.8336      2.5071      0.1020      8.6597     70.1363
  1364.5000      7.8325      2.5104      0.0837      8.4593     69.3245
  1364.6000      7.8325      2.5083      0.0963      8.5884     68.2147
  1364.7000      7.8325      2.5024      0.0572      8.9456     66.9587
  1364.8000      7.8316      2.4916      0.0870      9.6000     67.0292
  1364.9000      7.8316      2.4789     -0.0007     10.3686     69.7120
  1365.0000      7.8325      2.4763      0.0057     10.5268     73.6519
  1365.1000      7.8325      2.4886      0.0028      9.7811     76.5940
  1365.2000      7.8325      2.5089      0.0360      8.5511     76.5657
  1365.3000      7.8334      2.5246      0.0495      7.6019     73.1450
  1365.4000      7.8334      2.5294      0.0615      7.3086     68.4943
  1365.5000      7.8336      2.5308      0.0238      7.2221     65.9754
  1365.6000      7.8336      2.5308      0.0757      7.2254     67.3816
  1365.7000      7.8336      2.5193      0.0314      7.9227     70.3021
  1365.8000      7.8344      2.4993      0.0300      9.1362     70.9179
  1365.9000      7.8344      2.4800      0.0333     10.3056     69.6609
  1366.0000      7.8390      2.4656      0.0126     11.1786     69.7240
  1366.1000      7.8390      2.4653     -0.0126     11.1965     70.4605
  1366.2000      7.8390      2.4815      0.0340     10.2127     70.6160
  1366.3000      7.8459      2.5025      0.0156      8.9387     70.9945
  1366.4000      7.8459      2.5191      0.0461      7.9352     70.3046
