~Version Information
VERS.                      2.0: CWLS Log ASCII Standard - VERSION 2.0
WRAP.                       NO: One line per depth step
~Well Information Block
STRT.FT               240.0000: 
STOP.FT              1185.5000: 
STEP.FT                 0.2500: 
NULL.                -999.2500: 
COMP.          Pioneer Natural Resources: COMPANY
WELL.          Whitecoat 14-36: WELL
FLD.           Purgatorie River: FIELD
LOC.           606' FSL & 260' FWL: LOCATION
PROV.                 Colorado: PROVINCE
CNTY.               Las Animas: COUNTRY
SRVC.                Patterson: SERVICE COMPANY
DATE.          Mon Dec 05 16:51:12 2005: LOG DATE
UWI.                          : UNIQUE WELL ID
~Curve Information Block
DEPT.FT            0 000 00 00: Depth
DIR.Ohm-m                     : IEL Induction Resistivity
GR.GAPI                       : Gamma Ray
~Parameter Information Block
~A  Depth       DIR          GR     
# ...
   295.7500     15.7904    133.7932
   296.0000     15.7116    137.2770
   296.2500     15.6258    140.6836
   296.5000     15.5643    146.3930
   296.7500     15.5563    149.8020
   297.0000     15.6277    153.4893
   297.2500     15.8053    155.0061
   297.5000     16.1144    156.3551
   297.7500     16.5665    156.8543
   298.0000     17.1450    157.0006
   298.2500     17.8018    156.6084
   298.5000     18.4731    155.2290
   298.7500     19.1086    153.7376
   299.0000     19.6890    150.4622
   299.2500     20.2229    147.5778
   299.5000     20.7356    142.6667
   299.7500     21.2677    139.5427
   300.0000     21.8759    136.1310
   300.2500     22.6146    135.0940
   300.5000     23.4946    135.0390
   300.7500     24.4405    135.1269
   301.0000     25.2867    133.6772
   301.2500     25.8445    131.2636
   301.5000     26.0198    126.6477
   301.7500     25.8910    124.2366
   302.0000     25.6730    123.3573
   302.2500     25.6108    124.7100
   302.5000     25.8949    128.3011
   302.7500     26.6354    130.3803
   303.0000     27.8702    130.6389
   303.2500     29.5681    128.1038
   303.5000     31.6117    120.6740
   303.7500     33.7642    114.4291
   304.0000     35.6757    105.2881
   304.2500     37.0004    100.1350
   304.5000     37.5962     94.0875
   304.7500     37.6222     90.8810
   305.0000     37.4060     86.5320
   305.2500     37.2181     83.6340
   305.5000     37.1602     79.4021
   305.7500     37.2113     77.0187
   306.0000     37.3458     74.7028
   306.2500     37.6031     74.1289
   306.5000     38.0375     74.4900
   306.7500     38.6037     75.2253
   307.0000     39.0939     76.5626
   307.2500     39.2216     77.4755
   307.5000     38.8356     78.7399
   307.7500     38.0767     79.3162
   308.0000     37.3082     79.3295
   308.2500     36.8847     78.6375
   308.5000     36.9770     76.6984
   308.7500     37.5217     75.0811
   309.0000     38.2706     72.8052
   309.2500     38.9212     71.6875
   309.5000     39.2864     70.7059
   309.7500     39.3877     70.3862
   310.0000     39.3975     70.2786
   310.2500     39.5157     70.5304
   310.5000     39.9016     71.6150
   310.7500     40.6723     72.8791
   311.0000     41.8919     75.4716
   311.2500     43.5047     77.4033
   311.5000     45.2687     79.8768
   311.7500     46.8153     80.8429
   312.0000     47.8737     81.0547
   312.2500     48.4538     80.5712
   312.5000     48.7618     79.4374
   312.7500     48.9430     78.6099
   313.0000     48.9616     77.4630
   313.2500     48.7064     76.9408
   313.5000     48.1678     76.8199
   313.7500     47.4701     77.1105
   314.0000     46.7746     77.5334
   314.2500     46.2125     77.5631
   314.5000     45.8901     77.4717
   314.7500     45.8940     77.6527
   315.0000     46.2346     78.3976
   315.2500     46.7854     78.9265
   315.5000     47.2919     79.2502
   315.7500     47.4707     79.0661
   316.0000     47.1470     78.3468
   316.2500     46.3503     77.7367
   316.5000     45.3099     76.9394
   316.7500     44.3394     76.6287
   317.0000     43.6872     76.6020
   317.2500     43.4307     76.8716
   317.5000     43.4602     77.5665
   317.7500     43.5508     78.0585
   318.0000     43.4943     78.5693
   318.2500     43.2176     78.7466
   318.5000     42.7914     79.0606
   318.7500     42.3290     79.5238
   319.0000     41.8496     80.7415
   319.2500     41.2223     81.7709
   319.5000     40.2399     83.1614
   319.7500     38.8080     83.6775
   320.0000     37.1009     83.4662
   320.2500     35.5099     82.6635
   320.5000     34.4294     80.9507
   320.7500     34.0816     79.9113
   321.0000     34.4680     78.9599
   321.2500     35.3966     78.6540
   321.5000     36.5445     78.3671
   321.7500     37.5572     78.3241
   322.0000     38.1756     78.9243
   322.2500     38.3254     79.9708
   322.5000     38.1276     82.4562
   322.7500     37.8494     84.5244
   323.0000     37.8052     87.7621
   323.2500     38.2178     89.6744
   323.5000     39.0677     91.7505
   323.7500     40.0019     92.6451
   324.0000     40.4184     93.7941
   324.2500     39.8418     94.7298
   324.5000     38.3416     96.4215
   324.7500     36.5136     97.5468
   325.0000     35.0496     98.8677
   325.2500     34.3901     99.3135
   325.5000     34.6610     99.0189
   325.7500     35.7270     98.1140
   326.0000     37.2481     95.9483
   326.2500     38.7605     94.2346
   326.5000     39.8538     91.6114
   326.7500     40.3880     89.9282
   327.0000     40.5496     87.6635
   327.2500     40.6621     86.4521
   327.5000     40.9281     85.1172
   327.7500     41.3083     84.3640
   328.0000     41.5936     82.9732
   328.2500     41.6117     81.7655
   328.5000     41.4046     79.8784
   328.7500     41.1999     78.9355
   329.0000     41.2138     78.2581
   329.2500     41.4630     78.0357
   329.5000     41.7378     77.3375
   329.7500     41.7411     76.5279
   330.0000     41.3009     75.3207
   330.2500     40.4665     74.8262
   330.5000     39.4248     74.4027
   330.7500     38.3488     73.9590
   331.0000     37.3192     72.5821
   331.2500     36.3595     71.1842
   331.5000     35.5288     68.5995
   331.7500     34.9747     66.6547
   332.0000     34.8964     63.4934
   332.2500     35.4531     61.3310
   332.5000     36.6821     58.3795
   332.7500     38.4486     56.8019
   333.0000     40.4391     55.0040
   333.2500     42.2393     54.0161
   333.5000     43.5117     52.7233
   333.7500     44.1789     52.1259
   334.0000     44.4274     51.9845
   334.2500     44.5070     52.4663
   334.5000     44.4968     53.8484
   334.7500     44.2310     54.9880
   335.0000     43.4563     56.6714
   335.2500     42.1077     57.6514
   335.5000     40.4562     58.9287
   335.7500     38.9661     59.7842
   336.0000     38.0274     61.2738
   336.2500     37.7876     62.4093
   336.5000     38.1133     64.3634
   336.7500     38.6322     66.0547
   337.0000     38.8592     69.6155
   337.2500     38.4099     72.5361
   337.5000     37.1819     76.6147
   337.7500     35.3534     78.3992
   338.0000     33.2244     79.1851
   338.2500     31.0560     78.6784
   338.5000     29.0009     77.1351
   338.7500     27.1110     75.9345
   339.0000     25.3730     74.1089
   339.2500     23.7497     72.9491
   339.5000     22.2079     71.6834
   339.7500     20.7345     71.4978
   340.0000     19.3368     72.6403
   340.2500     18.0366     74.5100
   340.5000     16.8639     79.4676
   340.7500     15.8478     84.6573
   341.0000     15.0065     95.6750
   341.2500     14.3388    104.7595
   341.5000     13.8238    119.1662
   341.7500     13.4287    128.0829
   342.0000     13.1219    139.1495
   342.2500     12.8849    144.8782
   342.5000     12.7174    151.5166
   342.7500     12.6327    155.0229
   343.0000     12.6486    159.2830
   343.2500     12.7776    161.4798
   343.5000     13.0213    163.6728
   343.7500     13.3677    164.3073
   344.0000     13.7890    163.9951
   344.2500     14.2424    163.0784
   344.5000     14.6767    160.9764
   344.7500     15.0446    159.1107
   345.0000     15.3143    155.1550
   345.2500     15.4711    151.4216
   345.5000     15.5116    143.9774
   345.7500     15.4375    137.7969
   346.0000     15.2518    126.5601
   346.2500     14.9604    117.7187
   346.5000     14.5770    103.2090
   346.7500     14.1294     93.8770
   347.0000     13.6553     83.1131
   347.2500     13.1870     79.4546
   347.5000     12.7361     80.1613
   347.7500     12.2942     84.3616
   348.0000     11.8470     94.5062
   348.2500     11.3893    102.5970
   348.5000     10.9292    114.8748
   348.7500     10.4818    122.4622
   349.0000     10.0635    132.4621
   349.2500      9.6888    138.1188
   349.5000      9.3693    144.9669
   349.7500      9.1122    148.4243
   350.0000      8.9171    152.1161
   350.2500      8.7758    153.7130
   350.5000      8.6746    155.0550
   350.7500      8.5991    155.4920
   351.0000      8.5390    156.0670
   351.2500      8.4890    156.6948
