~Version Information
VERS.                      2.0: CWLS Log ASCII Standard - VERSION 2.0
WRAP.                       NO: One line per depth step
~Well Information Block
STRT.FT               235.0000: 
STOP.FT              1271.0000: 
STEP.FT                 0.1000: 
NULL.                -999.2500: 
COMP.          Pioneer Natural Resources: COMPANY
WELL.              Julie 11-30: WELL
FLD.           Purgatoire River: FIELD
LOC.           672' FNL & 1052' FWL: LOCATION
CNTY.               Las Animas: COUNTY
SRVC.                Patterson: SERVICE COMPANY
DATE.          Fri Apr 14 07:21:24 2006: LOG DATE
UWI.           05 071 08724 00: UNIQUE WELL ID
STAT.                 Colorado: STATE
~Curve Information Block
DEPT.FT            0 000 00 00: Depth
DCAL.in                       : CDL Caliper
RHOB.g/cc                     : CDL Bulk Density
RHOC.g/cc                     : CDL Density Correction
DPOR.pu                       : CDL Density Porosity
GR.GAPI                       : Gamma Ray
NPOR.pu                       : Neutron Porosity
~Parameter Information Block
~A  Depth       DCAL        RHOB        RHOC        DPOR         GR         NPOR    
# ...
   705.4000      8.1047      2.5217      0.0569      7.7744     72.4817     19.8135
   705.5000      8.1036      2.5026      0.0471      8.9333     72.7252     19.3830
   705.6000      8.1036      2.5068      0.0290      8.6815     75.0209     19.5660
   705.7000      8.1036      2.5188      0.0794      7.9509     78.8991     19.6569
   705.8000      8.0948      2.5170      0.0635      8.0621     83.8375     19.1219
   705.9000      8.0948      2.5077      0.0254      8.6229     88.0107     18.6095
   706.0000      8.1036      2.5050      0.0451      8.7872     89.6822     18.6210
   706.1000      8.1036      2.4992      0.0575      9.1366     86.9119     19.0184
   706.2000      8.1036      2.4781     -0.0034     10.4159     79.5813     19.3924
   706.3000      8.1049      2.4513     -0.0039     12.0433     70.6881     19.4105
   706.4000      8.1049      2.4327      0.0006     13.1699     63.2197     19.0306
   706.5000      8.1062      2.4307     -0.0036     13.2880     60.4904     18.5744
   706.6000      8.1062      2.4473      0.0680     12.2876     64.7287     18.1946
   706.7000      8.1062      2.4682      0.0349     11.0205     71.2071     17.7319
   706.8000      8.1043      2.4718      0.0698     10.8006     73.3025     17.2193
   706.9000      8.1043      2.4474      0.0288     12.2808     72.9509     17.0425
   707.0000      8.1067      2.4201     -0.0390     13.9361     74.2678     17.4630
   707.1000      8.1067      2.4256      0.0191     13.6020     75.2457     18.3359
   707.2000      8.1067      2.4584      0.0694     11.6095     75.2312     19.2876
   707.3000      8.1020      2.4898      0.0531      9.7116     76.4483     19.7656
   707.4000      8.1020      2.5063      0.0889      8.7068     77.4812     19.5694
   707.5000      8.1041      2.5032      0.1024      8.8989     75.9822     19.2372
   707.6000      8.1041      2.4859      0.0612      9.9432     74.5261     19.2271
   707.7000      8.1041      2.4781      0.0590     10.4196     77.9961     19.3819
   707.8000      8.1062      2.4946      0.0264      9.4178     82.5164     19.5022
   707.9000      8.1062      2.5213      0.0716      7.7982     79.5064     19.7384
   708.0000      8.1059      2.5300      0.0947      7.2727     70.0325     20.2251
   708.1000      8.1059      2.5246      0.0820      7.6015     60.8688     20.4992
   708.2000      8.1059      2.5373      0.0537      6.8319     58.6157     20.3685
   708.3000      8.1044      2.5720      0.0974      4.7279     66.2386     20.4455
   708.4000      8.1044      2.5985      0.1437      3.1230     75.7668     21.0544
   708.5000      8.1036      2.6035      0.1455      2.8181     78.3565     21.9727
   708.6000      8.1036      2.5996      0.1190      3.0564     76.7003     22.6105
   708.7000      8.1036      2.5901      0.1338      3.6288     74.4642     22.6845
   708.8000      8.1015      2.5671      0.0497      5.0247     71.5114     22.7262
   708.9000      8.1015      2.5296      0.0503      7.2942     70.3988     22.9376
   709.0000      8.1035      2.4869      0.0230      9.8829     72.8370     22.9589
   709.1000      8.1035      2.4559      0.0182     11.7609     75.2046     22.5782
   709.2000      8.1035      2.4456     -0.0477     12.3908     75.8615     22.0017
   709.3000      8.1052      2.4522     -0.0236     11.9858     77.4049     21.6145
   709.4000      8.1052      2.4794     -0.0525     10.3384     82.5999     21.5959
   709.5000      8.1039      2.5224      0.0332      7.7323     92.1740     21.7380
   709.6000      8.1039      2.5534      0.0428      5.8535    100.5062     21.5820
   709.7000      8.1039      2.5608      0.0122      5.4063    103.0016     21.2240
   709.8000      8.1049      2.5588      0.0558      5.5257    105.7353     21.2231
   709.9000      8.1049      2.5562      0.0446      5.6834    112.7902     21.4436
   710.0000      8.1060      2.5504      0.0366      6.0390    119.4923     21.5081
   710.1000      8.1060      2.5413      0.0157      6.5863    122.2703     21.6804
   710.2000      8.1060      2.5335      0.0513      7.0586    123.2064     22.2442
   710.3000      8.1060      2.5340      0.0301      7.0302    127.0298     23.0219
   710.4000      8.1060      2.5529      0.0295      5.8868    134.8300     23.7768
   710.5000      8.1029      2.5812      0.1452      4.1714    142.2112     24.4756
   710.6000      8.1029      2.5849      0.1409      3.9456    145.3837     25.1786
   710.7000      8.1029      2.5504      0.0586      6.0336    147.1092     25.9214
   710.8000      8.1033      2.4968      0.0182      9.2873    152.2986     26.6716
   710.9000      8.1033      2.4483     -0.0107     12.2234    159.1814     27.3276
   711.0000      8.1053      2.4321     -0.0657     13.2042    162.9437     27.6855
   711.1000      8.1053      2.4674     -0.0052     11.0639    163.4391     27.6587
   711.2000      8.1053      2.5258      0.0586      7.5261    162.3423     27.3898
   711.3000      8.1044      2.5540      0.0848      5.8157    160.8477     26.8998
   711.4000      8.1044      2.5526      0.0251      5.9041    159.6525     26.4919
   711.5000      8.1015      2.5601      0.0561      5.4484    155.5737     26.6400
   711.6000      8.1015      2.5704      0.0824      4.8257    147.4174     27.2178
   711.7000      8.1015      2.5547      0.0770      5.7751    141.8878     27.7246
   711.8000      8.1001      2.5325      0.0212      7.1186    141.4107     27.7909
   711.9000      8.1001      2.5389      0.0342      6.7341    137.8039     27.3624
   712.0000      8.0991      2.5699      0.0574      4.8572    128.3639     26.8715
   712.1000      8.0991      2.5964      0.1343      3.2488    121.9192     26.9906
   712.2000      8.0991      2.6001      0.1022      3.0269    125.7373     27.6178
   712.3000      8.1035      2.5904      0.0665      3.6096    136.8078     28.0767
   712.4000      8.1035      2.5855      0.0829      3.9099    145.7245     28.1055
   712.5000      8.1057      2.5934      0.0716      3.4303    146.4518     27.9992
   712.6000      8.1057      2.6092      0.1455      2.4748    141.7361     28.1709
   712.7000      8.1057      2.6240      0.1556      1.5738    134.8524     28.5301
   712.8000      8.1053      2.6441      0.1748      0.3550    126.7231     28.8255
   712.9000      8.1053      2.6722      0.1639     -1.3484    121.0580     29.1739
   713.0000      8.1066      2.6965      0.1760     -2.8189    119.4613     29.6875
   713.1000      8.1066      2.7059      0.1903     -3.3864    118.6303     30.1619
   713.2000      8.1066      2.6921      0.1537     -2.5500    116.3974     30.2893
   713.3000      8.1065      2.6582      0.1102     -0.4944    114.9196     30.0923
   713.4000      8.1065      2.6272      0.0379      1.3793    116.2980     29.7433
   713.5000      8.1063      2.6198      0.0696      1.8312    117.8728     29.2528
   713.6000      8.1063      2.6364      0.0175      0.8235    118.7618     28.5397
   713.7000      8.1063      2.6509      0.0450     -0.0559    120.7436     27.9700
   713.8000      8.1052      2.6290      0.0301      1.2705    125.1198     28.2365
   713.9000      8.1052      2.5790     -0.0651      4.3043    133.2394     28.8111
   714.0000      8.1032      2.5341      0.0371      7.0249    140.0697     28.6317
   714.1000      8.1032      2.5073     -0.0165      8.6498    139.2115     28.0081
   714.2000      8.1032      2.4982     -0.0107      9.1998    133.8293     27.7052
   714.3000      8.1046      2.5038      0.0025      8.8581    131.8866     27.5147
   714.4000      8.1046      2.5277      0.0306      7.4127    135.3803     27.2655
   714.5000      8.1058      2.5703      0.0302      4.8333    140.0766     27.4044
   714.6000      8.1058      2.6031      0.1169      2.8447    142.1205     27.8064
   714.7000      8.1058      2.5999      0.0669      3.0360    143.4479     27.7959
   714.8000      8.1032      2.5826     -0.0221      4.0837    146.6148     27.4925
   714.9000      8.1032      2.5856      0.0566      3.9032    148.7971     27.4490
