~Version Information
VERS.                      2.0: CWLS Log ASCII Standard - VERSION 2.0
WRAP.                       NO: One line per depth step
~Well Information Block
STRT.FT               645.0000: 
STOP.FT              1320.0000: 
STEP.FT                 0.1000: 
NULL.                -999.2500: 
COMP.          Pioneer Natural Resources: COMPANY
WELL.          Rockfish 11-30 Tr: WELL
FLD.           Purgatoire River: FIELD
LOC.           1063' FNL & 1068' FWL: LOCATION
STAT.                 Colorado: State
CNTY.               Las Animas: COUNTY
CTRY. USA : Country
SECT. 30 : Section
TOWN. 32S : Township
RANG. 65W : Range
SRVC.                Patterson: SERVICE COMPANY
DATE.          Wed Nov 16 07:46:07 2005: LOG DATE
API.           05 071 08585 00: UNIQUE WELL ID
~Curve Information Block
DEPT.FT            0 000 00 00: Depth
DCAL.in                       : CDL Caliper
RHOB.g/cc                     : CDL Bulk Density
RHOC.g/cc                     : CDL Density Correction
DPOR.pu                       : CDL Density Porosity
GR.GAPI                       : Gamma Ray
NPOR.pu                       : Neutron Porosity
~Parameter Information Block
~A  Depth       DCAL        RHOB        RHOC        DPOR         GR         NPOR    
# ...
  1086.6000      7.9141      2.5577      0.0341      5.5919    100.9164     23.2991
  1086.7000      7.9141      2.5568      0.0697      5.6475     95.8646     23.2550
  1086.8000      7.9052      2.5418      0.0879      6.5567     92.0222     23.1722
  1086.9000      7.9052      2.5202      0.0361      7.8687     95.7035     22.9453
  1087.0000      7.8990      2.5167     -0.0103      8.0768    105.5046     22.3928
  1087.1000      7.8990      2.5421      0.0623      6.5396    111.6539     21.7393
  1087.2000      7.8990      2.5740      0.0752      4.6035    113.2725     21.3465
  1087.3000      7.9065      2.5896      0.0914      3.6636    113.5723     21.0666
  1087.4000      7.9065      2.5822      0.0833      4.1115    109.7004     20.7742
  1087.5000      7.8911      2.5638      0.0499      5.2234    101.7810     20.6869
  1087.6000      7.8911      2.5571      0.0600      5.6321     97.6144     20.7953
  1087.7000      7.8911      2.5677      0.0522      4.9905    104.2709     20.9924
  1087.8000      7.8794      2.5845      0.0561      3.9675    117.3213     21.3897
  1087.9000      7.8794      2.5993      0.0461      3.0737    126.7654     21.7792
  1088.0000      7.8952      2.6079      0.0874      2.5545    128.6040     21.7845
  1088.1000      7.8952      2.6032      0.1189      2.8355    124.2838     21.6157
  1088.2000      7.8952      2.5845      0.1192      3.9692    117.8393     21.4337
  1088.3000      7.9011      2.5630      0.0739      5.2748    112.2283     21.0092
  1088.4000      7.9011      2.5439      0.1124      6.4315    108.3297     20.4551
  1088.5000      7.8877      2.5302      0.0772      7.2608    104.9601     20.1301
  1088.6000      7.8877      2.5348      0.0809      6.9824    100.5191     20.1591
  1088.7000      7.8877      2.5525      0.1468      5.9089     95.9137     20.3955
  1088.8000      7.8942      2.5601      0.1146      5.4493     91.4498     20.3732
  1088.9000      7.8942      2.5547      0.0993      5.7775     89.3400     19.9783
  1089.0000      7.9028      2.5469      0.0742      6.2475     92.5389     19.7085
  1089.1000      7.9028      2.5374      0.0593      6.8272     96.1954     19.8831
  1089.2000      7.9028      2.5281      0.0441      7.3861     97.7396     20.2735
  1089.3000      7.9066      2.5294      0.0637      7.3115     99.9721     20.5418
  1089.4000      7.9066      2.5435      0.0685      6.4559    102.7706     20.6783
  1089.5000      7.9077      2.5669      0.0582      5.0356    104.8392     20.8325
  1089.6000      7.9077      2.5957      0.0609      3.2935    106.9999     21.0472
  1089.7000      7.9077      2.6178      0.0876      1.9530    107.5191     21.2502
  1089.8000      7.9123      2.6207      0.0714      1.7754    104.3611     21.5835
  1089.9000      7.9123      2.6032      0.1162      2.8366    100.2468     22.1750
  1090.0000      7.9076      2.5730      0.0546      4.6665     97.5669     22.8387
  1090.1000      7.9076      2.5435      0.0448      6.4526     98.0525     23.2019
  1090.2000      7.9076      2.5217      0.0469      7.7769    102.3798     22.8768
  1090.3000      7.8990      2.5090      0.0185      8.5476    107.9723     22.0769
  1090.4000      7.8990      2.5118      0.0351      8.3754    110.1601     21.3611
  1090.5000      7.9033      2.5320      0.0159      7.1510    104.6587     20.8935
  1090.6000      7.9033      2.5525      0.1092      5.9067     92.1446     20.4426
  1090.7000      7.9033      2.5477      0.1293      6.1972     78.4248     19.8195
  1090.8000      7.9100      2.5187      0.0930      7.9578     69.7616     19.1870
  1090.9000      7.9100      2.4935      0.0349      9.4878     67.2686     18.8814
  1091.0000      7.8949      2.4872      0.0427      9.8657     67.1402     18.7667
  1091.1000      7.8949      2.4933      0.0793      9.4992     67.5002     18.3847
  1091.2000      7.8949      2.5042      0.0785      8.8335     68.7303     17.8218
  1091.3000      7.8786      2.5140      0.0876      8.2419     70.7854     17.4357
  1091.4000      7.8786      2.5138      0.0894      8.2555     73.6644     17.3469
  1091.5000      7.8763      2.5084      0.0576      8.5810     77.1107     17.6501
  1091.6000      7.8763      2.5102      0.0775      8.4743     79.2557     18.0756
  1091.7000      7.8763      2.5174      0.0827      8.0369     79.6123     18.1085
  1091.8000      7.8781      2.5252      0.0547      7.5633     78.2931     17.8756
  1091.9000      7.8781      2.5306      0.0912      7.2363     74.5535     17.8360
  1092.0000      7.8873      2.5258      0.0701      7.5297     72.0504     18.0529
  1092.1000      7.8873      2.5096      0.0862      8.5064     75.9224     18.4632
  1092.2000      7.8873      2.4910      0.0311      9.6362     82.5024     18.9906
  1092.3000      7.9050      2.4811      0.0411     10.2373     82.8505     19.2612
  1092.4000      7.9050      2.4822      0.0049     10.1700     78.0405     19.0886
  1092.5000      7.9025      2.4843      0.0477     10.0445     76.7630     18.7593
  1092.6000      7.9025      2.4807      0.0397     10.2618     80.2220     18.5001
  1092.7000      7.9025      2.4820      0.0413     10.1815     82.1134     18.4632
  1092.8000      7.9112      2.4934      0.0776      9.4892     81.5563     18.7498
  1092.9000      7.9112      2.5043      0.0732      8.8281     83.1801     19.0690
  1093.0000      7.9404      2.5065      0.0684      8.6968     86.1039     19.0154
  1093.1000      7.9404      2.5017      0.0313      8.9884     86.5764     18.5443
  1093.2000      7.9404      2.4953      0.0830      9.3786     86.1679     17.9745
  1093.3000      7.9442      2.4849      0.0853     10.0069     85.0550     17.7790
  1093.4000      7.9442      2.4689      0.0564     10.9780     80.9543     17.9204
  1093.5000      7.9238      2.4537      0.0671     11.8955     75.1486     17.8798
  1093.6000      7.9238      2.4455      0.0196     12.3917     71.8760     17.6496
  1093.7000      7.9238      2.4432      0.0403     12.5325     72.8651     17.4846
  1093.8000      7.8991      2.4449      0.0222     12.4281     73.9120     17.2243
  1093.9000      7.8991      2.4481      0.0882     12.2392     72.2350     16.8067
  1094.0000      7.9016      2.4425      0.1009     12.5734     70.2562     16.4598
  1094.1000      7.9016      2.4276      0.0667     13.4798     70.1328     16.3481
  1094.2000      7.9016      2.4170      0.0143     14.1198     70.3501     16.5570
  1094.3000      7.9147      2.4145      0.0594     14.2730     66.9324     16.9323
  1094.4000      7.9147      2.4120      0.0563     14.4245     59.9256     16.8455
  1094.5000      7.9148      2.4154      0.0445     14.2205     53.5347     16.2100
  1094.6000      7.9148      2.4350      0.0939     13.0307     51.1696     15.7440
  1094.7000      7.9148      2.4680      0.0941     11.0314     53.4245     15.7347
  1094.8000      7.9184      2.5040      0.1450      8.8489     57.8733     15.8387
  1094.9000      7.9184      2.5280      0.1606      7.3928     60.7280     15.7950
  1095.0000      7.9290      2.5279      0.1826      7.4023     59.7769     15.6692
  1095.1000      7.9290      2.5084      0.1188      8.5828     56.6105     15.6208
  1095.2000      7.9290      2.4851      0.1224      9.9928     55.8716     15.6560
  1095.3000      7.9287      2.4670      0.0544     11.0914     58.3856     15.5647
  1095.4000      7.9287      2.4594      0.0903     11.5533     59.3273     15.2388
  1095.5000      7.9292      2.4595      0.1213     11.5442     57.5764     14.8965
  1095.6000      7.9292      2.4518      0.0911     12.0125     57.9174     14.7172
  1095.7000      7.9292      2.4314      0.0377     13.2473     60.2916     14.7786
  1095.8000      7.9473      2.4115      0.0508     14.4558     60.3050     15.0446
  1095.9000      7.9473      2.4007      0.0089     15.1096     57.6227     15.2857
  1096.0000      7.9461      2.3995      0.0570     15.1795     56.3153     15.3438
  1096.1000      7.9461      2.4052      0.0263     14.8356     57.8807     15.3108
