~Version Information
VERS.                      2.0: CWLS Log ASCII Standard - VERSION 2.0
WRAP.                       NO: One line per depth step
~Well Information Block
STRT.FT               875.0000: 
STOP.FT              2947.2000: 
STEP.FT                 0.1000: 
NULL.                -999.2500: 
COMP.          Pioneer Natural Resources: COMPANY
WELL.          Hanginstone 21-27: WELL
FLD.           Purgatoire River: FIELD
LOC.           1186' FNL & 1606' FWL--: LOCATION
PROV.                 Colorado: PROVINCE
CNTY.               Las Animas: COUNTRY
SRVC.                Patterson: SERVICE COMPANY
DATE.          Mon Jan 09 07:31:45 2006: LOG DATE
UWI.           05 071 08632 00: UNIQUE WELL ID
~Curve Information Block
DEPT.FT            0 000 00 00: Depth
DCAL.in                       : CDL Caliper
RHOB.g/cc                     : CDL Bulk Density
RHOC.g/cc                     : CDL Density Correction
DPOR.pu                       : CDL Density Porosity
NPOR.pu                       : Neutron Porosity
GR.GAPI                       : Gamma Ray
~Parameter Information Block
~A  Depth       DCAL        RHOB        RHOC        DPOR        NPOR         GR     
# ...
  1009.4000      8.0529      2.5972      0.0713      3.1977     17.3838     72.0641
  1009.5000      8.0524      2.6128      0.0754      2.2556     17.5433     73.9701
  1009.6000      8.0524      2.6338      0.1007      0.9848     17.0727     77.8516
  1009.7000      8.0524      2.6388      0.0836      0.6762     16.2945     79.0673
  1009.8000      8.0528      2.6343      0.0730      0.9502     16.0362     73.0398
  1009.9000      8.0528      2.6415      0.1024      0.5123     16.6013     65.7530
  1010.0000      8.0543      2.6598      0.1060     -0.5912     17.4724     63.8426
  1010.1000      8.0543      2.6711      0.1267     -1.2759     18.0283     65.7549
  1010.2000      8.0543      2.6685      0.0857     -1.1234     18.1852     68.4703
  1010.3000      8.0548      2.6644      0.0580     -0.8708     18.1983     70.7307
  1010.4000      8.0548      2.6664      0.0567     -0.9930     18.2334     71.6039
  1010.5000      8.0562      2.6672      0.0339     -1.0416     18.6142     72.3221
  1010.6000      8.0562      2.6676     -0.0103     -1.0651     19.4213     75.8544
  1010.7000      8.0562      2.6757      0.0304     -1.5587     20.2089     80.5372
  1010.8000      8.0598      2.6845      0.0304     -2.0886     20.9023     82.5568
  1010.9000      8.0598      2.6864      0.0397     -2.2082     21.7975     80.3959
  1011.0000      8.0666      2.6905      0.0627     -2.4565     22.7719     76.9229
  1011.1000      8.0666      2.6998      0.0791     -3.0199     23.6977     78.5661
  1011.2000      8.0666      2.6938      0.0751     -2.6542     24.6827     86.9249
  1011.3000      8.0742      2.6692     -0.0223     -1.1630     25.4495     97.1862
  1011.4000      8.0742      2.6527     -0.0033     -0.1643     25.4347    103.5721
  1011.5000      8.0781      2.6427      0.0141      0.4398     24.7330    106.1126
  1011.6000      8.0781      2.6183     -0.0018      1.9205     24.2537    107.4417
  1011.7000      8.0781      2.5934     -0.0331      3.4281     24.7349    109.9485
  1011.8000      8.0800      2.5911      0.0301      3.5687     25.6313    114.3900
  1011.9000      8.0800      2.5988      0.0380      3.1054     26.1348    116.3976
  1012.0000      8.0809      2.5966      0.0191      3.2393     26.6007    114.6567
  1012.1000      8.0809      2.5922      0.0355      3.5003     27.2716    111.1706
  1012.2000      8.0809      2.6007      0.0382      2.9883     27.6700    108.3105
  1012.3000      8.0805      2.6150      0.0602      2.1186     27.7822    109.0689
  1012.4000      8.0805      2.6227      0.0524      1.6533     27.7918    113.2164
  1012.5000      8.0800      2.6332      0.0480      1.0187     27.6208    119.2901
  1012.6000      8.0800      2.6502      0.1012     -0.0101     27.3768    125.6457
  1012.7000      8.0800      2.6541      0.0843     -0.2467     27.3129    130.9952
  1012.8000      8.0793      2.6379      0.0535      0.7354     27.4634    133.6604
  1012.9000      8.0793      2.6162      0.0671      2.0473     27.4962    133.9557
  1013.0000      8.0780      2.6033      0.0372      2.8278     27.1768    138.1234
  1013.1000      8.0780      2.6038      0.0458      2.8022     26.8106    145.1476
  1013.2000      8.0780      2.6081      0.0564      2.5408     26.8587    146.0380
  1013.3000      8.0779      2.6028      0.0505      2.8617     27.3830    141.4969
  1013.4000      8.0779      2.5908      0.0086      3.5875     28.0257    137.4563
  1013.5000      8.0794      2.5877      0.0170      3.7781     28.5336    131.8898
  1013.6000      8.0794      2.5937      0.0364      3.4123     28.8034    123.5181
  1013.7000      8.0794      2.5997      0.0303      3.0512     28.7903    119.6110
  1013.8000      8.0818      2.6094      0.0664      2.4576     28.8308    124.3398
  1013.9000      8.0818      2.6193      0.0966      1.8580     29.2455    131.3352
  1014.0000      8.0844      2.6083      0.0820      2.5277     29.5856    132.3587
  1014.1000      8.0844      2.5713      0.0170      4.7676     29.3497    129.2727
  1014.2000      8.0844      2.5363      0.0033      6.8922     28.8149    126.9119
  1014.3000      8.0860      2.5317      0.0161      7.1702     28.4336    126.3213
  1014.4000      8.0860      2.5452      0.1023      6.3538     28.2611    130.4709
  1014.5000      8.0865      2.5443      0.0633      6.4072     28.2453    139.4824
  1014.6000      8.0865      2.5255     -0.0010      7.5452     28.5238    148.1333
  1014.7000      8.0865      2.5039      0.0203      8.8544     28.8823    152.8669
  1014.8000      8.0873      2.4878      0.0227      9.8315     28.7643    151.9638
  1014.9000      8.0873      2.4804     -0.0016     10.2817     28.4669    148.1502
  1015.0000      8.0860      2.4778     -0.0106     10.4391     28.9082    147.1799
  1015.1000      8.0860      2.4695      0.0128     10.9385     29.9065    149.4167
  1015.2000      8.0860      2.4536      0.0413     11.9029     30.3530    150.2032
  1015.3000      8.0862      2.4433     -0.0002     12.5246     30.0846    149.1472
  1015.4000      8.0862      2.4549      0.0387     11.8232     29.6342    147.0666
  1015.5000      8.0909      2.4877      0.0594      9.8377     29.1738    142.5051
  1015.6000      8.0909      2.5285      0.0741      7.3648     28.8534    139.6779
  1015.7000      8.0909      2.5608      0.1411      5.4089     28.9873    142.5450
  1015.8000      8.0969      2.5700      0.1347      4.8503     29.5084    145.3640
  1015.9000      8.0969      2.5586      0.0694      5.5409     30.0169    142.9036
  1016.0000      8.0991      2.5361      0.0990      6.9021     30.3961    138.7993
  1016.1000      8.0991      2.5131      0.0299      8.2991     30.3913    139.9337
  1016.2000      8.0991      2.5052      0.0373      8.7753     29.8794    146.9007
  1016.3000      8.1007      2.5132      0.0883      8.2937     29.3231    151.5603
  1016.4000      8.1007      2.5201      0.0851      7.8732     29.1054    152.4551
  1016.5000      8.1034      2.5113      0.0786      8.4086     29.2561    156.5542
  1016.6000      8.1034      2.4857      0.0457      9.9586     29.5913    163.4063
  1016.7000      8.1034      2.4624     -0.0183     11.3712     29.8138    164.0677
  1016.8000      8.1053      2.4603      0.0404     11.4984     29.9085    155.3278
  1016.9000      8.1053      2.4619      0.0830     11.4018     30.1205    145.2630
  1017.0000      8.1070      2.4435      0.0198     12.5141     30.3140    141.0864
  1017.1000      8.1070      2.4133      0.0249     14.3482     30.3913    143.1848
  1017.2000      8.1070      2.3731      0.0251     16.7800     30.7068    150.7035
  1017.3000      8.1080      2.3094     -0.0035     20.6406     31.3248    159.4825
  1017.4000      8.1080      2.2293     -0.0550     25.4972     31.8846    160.8072
  1017.5000      8.1059      2.1554     -0.0897     29.9773     32.1296    152.9564
  1017.6000      8.1059      2.1019     -0.0506     33.2163     32.0255    142.2437
  1017.7000      8.1059      2.0846     -0.0898     34.2664     31.6850    133.5964
  1017.8000      8.1021      2.1127     -0.0416     32.5621     31.2831    129.8447
  1017.9000      8.1021      2.1655      0.0162     29.3624     31.0837    129.5260
  1018.0000      8.1005      2.2214      0.0525     25.9762     30.8821    127.2858
  1018.1000      8.1005      2.2833      0.1012     22.2226     30.2487    124.4725
  1018.2000      8.1005      2.3593      0.1886     17.6172     29.3274    127.0399
  1018.3000      8.1020      2.4429      0.3108     12.5519     28.4948    132.6980
  1018.4000      8.1020      2.5160      0.3733      8.1211     27.8865    133.4682
  1018.5000      8.1044      2.5686      0.3495      4.9349     27.3501    124.9915
  1018.6000      8.1044      2.6006      0.3132      2.9926     26.8354    114.5806
  1018.7000      8.1044      2.6084      0.2077      2.5221     26.3759    115.4920
  1018.8000      8.1041      2.5935      0.1031      3.4261     26.0441    124.7434
  1018.9000      8.1041      2.5786      0.0306      4.3262     25.9222    128.1758
