~Version Information
VERS.                      2.0: CWLS Log ASCII Standard - VERSION 2.0
WRAP.                       NO: One line per depth step
~Well Information Block
STRT.FT                -1.5000: 
STOP.FT              2143.7500: 
STEP.FT                 0.2500: 
NULL.                -999.2500: 
COMP.          Pioneer Natural Resources: COMPANY
WELL.              Kermit 32-7: WELL
FLD.           Purgatoire River: FIELD
LOC.           2002' FNL & 2103' FEL: LOCATION
PROV.                 Colorado: PROVINCE
CNTY.               Las Animas: COUNTRY
SRVC.                Patterson: SERVICE COMPANY
DATE.          Wed Jan 18 14:17:49 2006: LOG DATE
UWI.           05 071 08647 00: UNIQUE WELL ID
~Curve Information Block
DEPT.FT            0 000 00 00: Depth
GR.GAPI                       : Gamma Ray
CCL.                          : Casing Collar Locator
TT3.usec                      : CBL 3' Travel Time
AMP3.mV                       : CBL 3' Amplitude
~Parameter Information Block
~A  Depth        GR         CCL         TT3         AMP3    
# ...
  2109.0000     69.2668      0.0000    546.0732     10.8349
  2109.2500     70.5341      0.0000    534.7204     10.8139
  2109.5000     71.2071      0.0000    530.7454     10.7922
  2109.7500     70.9653      0.0000    533.8787     10.7700
  2110.0000     70.1118      0.0000    543.6301     10.7526
  2110.2500     69.1901      0.0000    558.5460     10.7432
  2110.5000     68.7543      0.0000    574.6301     10.7395
  2110.7500     69.1702      0.0000    585.3422     10.7356
  2111.0000     70.3052      0.0000    584.6816     10.7224
  2111.2500     71.4403      0.0000    571.6232     10.6877
  2111.5000     71.6896      0.0000    551.6252     10.6203
  2111.7500     70.7066      0.0000    532.9667     10.5178
  2112.0000     69.0643      0.0000    521.0810     10.3900
  2112.2500     67.7365      0.0000    516.1614     10.2540
  2112.5000     67.0557      0.0000    515.2894     10.1262
  2112.7500     66.4641      0.0000    515.6972     10.0170
  2113.0000     65.4431      0.0000    516.1151      9.9294
  2113.2500     64.2761      0.0000    516.3297      9.8604
  2113.5000     63.6790      0.0000    516.4336      9.8042
  2113.7500     64.0634      0.0000    516.5232      9.7578
  2114.0000     65.4387      0.0000    516.6860      9.7266
  2114.2500     67.6292      0.0000    516.9995      9.7243
  2114.5000     70.1961      0.0000    517.4592      9.7632
  2114.7500     72.4396      0.0000    517.9526      9.8420
  2115.0000     73.8969      0.0000    518.3450      9.9440
  2115.2500     74.7086      0.0000    518.5861     10.0461
  2115.5000     75.2250      0.0000    518.7297     10.1288
  2115.7500     75.3943      0.0000    518.8813     10.1813
  2116.0000     74.8046      0.0000    519.1403     10.2015
  2116.2500     73.2575      0.0000    519.5649     10.1940
  2116.5000     71.1084      0.0000    520.1535     10.1687
  2116.7500     69.0946      0.0000    520.8436     10.1403
  2117.0000     67.9790      0.0000    521.5324     10.1252
  2117.2500     68.1241      0.0000    522.0966     10.1353
  2117.5000     69.0794      0.0000    522.4051     10.1711
  2117.7500     69.7276      0.0000    522.3536     10.2212
  2118.0000     69.1863      0.0000    521.9396     10.2678
  2118.2500     67.5817      0.0000    521.3141     10.2936
  2118.5000     65.8594      0.0000    520.7421     10.2870
  2118.7500     64.9421      0.0000    520.5192     10.2455
  2119.0000     65.0895      0.0000    520.9967     10.1784
  2119.2500     65.8211      0.0000    522.6802     10.1075
  2119.5000     66.2759      0.0000    526.0693     10.0625
  2119.7500     65.8449      0.0000    530.9992     10.0662
  2120.0000     64.7166      0.0000    535.9206     10.1195
  2120.2500     63.8297      0.0000    537.8820     10.2006
  2120.5000     64.1963      0.0000    533.6048     10.2823
  2120.7500     66.2473      0.0000    521.7065     10.3497
  2121.0000     69.7083      0.0000    505.2663     10.4039
  2121.2500     73.7627      0.0000    491.7966     10.4535
  2121.5000     77.3175      0.0000    488.1965     10.5039
  2121.7500     79.4476      0.0000    494.0738     10.5536
  2122.0000     79.7594      0.0000    500.7556     10.5986
  2122.2500     78.4035      0.0000    497.9016     10.6414
  2122.5000     75.9477      0.0000    481.4251     10.6954
  2122.7500     73.1883      0.0000    455.7324     10.7800
  2123.0000     70.8197      0.0000    429.6360     10.9080
  2123.2500     69.2483      0.0000    410.9474     11.0775
  2123.5000     68.7586      0.0000    404.2736     11.2765
  2123.7500     69.5615      0.0000    411.3970     11.4901
  2124.0000     71.3871      0.0000    431.0295     11.7023
  2124.2500     73.1992      0.0000    457.5686     11.8918
  2124.5000     73.7109      0.0000    481.3537     12.0340
  2124.7500     72.3437      0.0000    491.9246     12.1115
  2125.0000     69.5829      0.0000    483.2286     12.1245
  2125.2500     66.4341      0.0000    457.9841     12.0882
  2125.5000     63.7132      0.0000    427.6198     12.0174
  2125.7500     61.8333      0.0000    405.7062     11.9171
  2126.0000     60.9514      0.0000    398.6504     11.7916
  2126.2500     61.0221      0.0000    401.7049     11.6544
  2126.5000     61.7387      0.0000    404.0087     11.5233
  2126.7500     62.6399      0.0000    397.6046     11.4054
  2127.0000     63.4137      0.0000    382.3748     11.2925
  2127.2500     64.0557      0.0000    363.9781     11.1735
  2127.5000     64.7149      0.0000    348.4893     11.0480
  2127.7500     65.5183      0.0000    338.8638     10.9256
  2128.0000     66.5868      0.0000    334.9892     10.8142
  2128.2500     67.9407      0.0000    335.5795     10.7142
  2128.5000     69.2030      0.0000    339.1331     10.6142
  2128.7500     69.6353      0.0000    342.8851     10.4642
  2129.0000     68.7801      0.0000    340.8873     10.1241
  2129.2500     67.0804      0.0000    323.9492      9.3522
  2129.5000     65.6990      0.0000    283.9524      7.9258
  2129.7500     65.5883      0.0000    221.2561      5.8675
  2130.0000     66.7107      0.0000    148.2966      3.5574
  2130.2500     68.2406      0.0000     83.2588      1.5381
  2130.5000     69.5209      0.0000     38.3785      0.1622
  2130.7500     70.5938      0.0000     14.3138     -0.5689
  2131.0000     71.7514      0.0000      4.2736     -0.8719
  2131.2500     72.9522      0.0000      1.0122     -0.9698
  2131.5000     73.9810      0.0000      0.1874     -0.9944
  2131.7500     74.7557      0.0000      0.0249     -0.9993
  2132.0000     75.0166      0.0000   -999.2500   -999.2500
  2132.2500     74.1330      0.0000   -999.2500   -999.2500
  2132.5000     71.8745      0.0000   -999.2500   -999.2500
  2132.7500     69.1173      0.0000   -999.2500   -999.2500
  2133.0000     67.2441      0.0000   -999.2500   -999.2500
  2133.2500     66.9638      0.0000   -999.2500   -999.2500
  2133.5000     68.0091      0.0000   -999.2500   -999.2500
  2133.7500     69.7647      0.0000   -999.2500   -999.2500
  2134.0000     71.8991      0.0000   -999.2500   -999.2500
  2134.2500     74.3551      0.0000   -999.2500   -999.2500
  2134.5000     76.8927      0.0000   -999.2500   -999.2500
  2134.7500     78.9357      0.0000   -999.2500   -999.2500
  2135.0000     79.9830      0.0000   -999.2500   -999.2500
  2135.2500     79.9254      0.0000   -999.2500   -999.2500
  2135.5000     78.9120      0.0000   -999.2500   -999.2500
  2135.7500     77.2697      0.0000   -999.2500   -999.2500
  2136.0000     75.6945      0.0000   -999.2500   -999.2500
  2136.2500     75.1049      0.0000   -999.2500   -999.2500
  2136.5000     76.0010      0.0000   -999.2500   -999.2500
  2136.7500     78.1232      0.0000   -999.2500   -999.2500
  2137.0000     80.7474      0.0000   -999.2500   -999.2500
  2137.2500     82.9942      0.0000   -999.2500   -999.2500
  2137.5000     83.9690   -999.2500   -999.2500   -999.2500
  2137.7500     83.2443   -999.2500   -999.2500   -999.2500
  2138.0000     81.5020   -999.2500   -999.2500   -999.2500
  2138.2500     80.3181   -999.2500   -999.2500   -999.2500
  2138.5000     80.9372   -999.2500   -999.2500   -999.2500
  2138.7500     83.1425   -999.2500   -999.2500   -999.2500
  2139.0000     85.1288   -999.2500   -999.2500   -999.2500
  2139.2500     84.2833   -999.2500   -999.2500   -999.2500
  2139.5000     78.3423   -999.2500   -999.2500   -999.2500
  2139.7500     66.5117   -999.2500   -999.2500   -999.2500
  2140.0000     50.2015   -999.2500   -999.2500   -999.2500
  2140.2500     32.7991   -999.2500   -999.2500   -999.2500
  2140.5000     18.0957   -999.2500   -999.2500   -999.2500
  2140.7500      8.2553   -999.2500   -999.2500   -999.2500
  2141.0000      3.0628   -999.2500   -999.2500   -999.2500
  2141.2500      0.9126   -999.2500   -999.2500   -999.2500
  2141.5000      0.2160   -999.2500   -999.2500   -999.2500
  2141.7500      0.0399   -999.2500   -999.2500   -999.2500
  2142.0000      0.0054   -999.2500   -999.2500   -999.2500
  2142.2500      0.0000   -999.2500   -999.2500   -999.2500
