~Version Information
VERS.                      2.0: CWLS Log ASCII Standard - VERSION 2.0
WRAP.                       NO: One line per depth step
~Well Information Block
STRT.FT                -6.7500: 
STOP.FT              1121.2500: 
STEP.FT                 0.2500: 
NULL.                -999.2500: 
COMP.          Pioneer Natural Resources: COMPANY
WELL.              Draco 31-21: WELL
FLD.           Purgatorie River: FIELD
LOC.           491' FNL & 2446' FEL--: LOCATION
CNTY.               Las Animas: COUNTY
SRVC.          Patterson Wireline: SERVICE COMPANY
DATE.          Mon Feb 06 09:50:04 2006: LOG DATE
UWI.           05 071 08672 00: UNIQUE WELL ID
STAT.                       CO: STATE
~Curve Information Block
DEPT.FT            0 000 00 00: Depth
CCL.                          : Casing Collar Locator
TT3.usec                      : CBL 3' Travel Time
AMP3.mV                       : CBL 3' Amplitude
GR.GAPI                       : Gamma Ray
~Parameter Information Block
~A  Depth       CCL         TT3         AMP3         GR     
# ...
    60.2500      0.0000    720.2963     10.4547     93.6249
    60.5000      0.0000    729.2829     10.3725     93.2855
    60.7500      0.0000    731.0164     10.2814     92.1501
    61.0000      0.0000    729.5482     10.1709     89.9654
    61.2500      0.0000    727.2802     10.0606     87.8464
    61.5000      0.0000    725.6743      9.9736     87.3792
    61.7500      0.0000    725.1561      9.9136     89.2344
    62.0000      0.0000    725.2011      9.8698     92.5322
    62.2500      0.0000    725.3473      9.8351     95.4135
    62.5000      0.0000    725.8921      9.8111     96.2727
    62.7500      0.0000    727.1605      9.7970     94.6827
    63.0000      0.0000    728.4877      9.7794     91.3547
    63.2500      0.0000    728.4752      9.7399     87.4842
    63.5000      0.0000    726.3087      9.6745     84.2404
    63.7500      0.0000    722.7957      9.6081     82.4931
    64.0000      0.0000    720.0923      9.5843     82.4259
    64.2500      0.0000    720.1057      9.6288     83.1500
    64.5000      0.0000    722.9197      9.7272     82.9486
    64.7500      0.0000    726.9065      9.8430     80.4016
    65.0000      0.0000    730.2964      9.9502     75.7614
    65.2500      0.0000    732.3790     10.0402     71.2844
    65.5000      0.0000    733.3859     10.1078     69.6734
    65.7500      0.0000    733.7882     10.1496     71.7600
    66.0000      0.0000    733.8626     10.1741     75.7586
    66.2500      0.0000    733.6144     10.2021     78.8610
    66.5000      0.0000    732.7872     10.2496     79.3052
    66.7500      0.0000    730.9427     10.3147     76.9040
    67.0000      0.0000    727.7191     10.3797     72.2567
    67.2500      0.0000    723.1807     10.4284     66.1329
    67.5000      0.0000    717.9216     10.4625     59.3986
    67.7500      0.0000    712.8602     10.4998     52.9004
    68.0000      0.0000    708.9976     10.5593     47.3180
    68.2500      0.0000    706.8312     10.6566     43.2933
    68.5000      0.0000    704.9443     10.8175     41.4720
    68.7500      0.0000    698.2940     11.0764     42.1329
    69.0000      0.0000    678.2374     11.4467     44.9933
    69.2500      0.0000    636.6384     11.8906     49.5898
    69.5000      0.0000    573.4772     12.3281     55.6358
    69.7500      0.0000    501.4439     12.6809     62.8351
    70.0000      0.0000    440.6301     12.9128     70.5943
    70.2500      0.0000    407.0546     13.0393     78.2698
    70.5000      0.0000    405.9472     13.1067     85.6831
    70.7500      0.0000    432.1990     13.1658     93.0218
    71.0000      0.0000    472.1525     13.2509    100.1091
    71.2500      0.0000    507.6931     13.3620    106.1395
    71.5000      0.0000    527.2489     13.4567    110.3060
    71.7500      0.0000    534.5279     13.4696    112.3966
    72.0000      0.0000    540.8312     13.3559    112.6634
    72.2500      0.0000    549.9379     13.1226    111.4314
    72.5000      0.0000    558.4112     12.8204    109.1078
    72.7500      0.0000    568.7491     12.5087    106.4251
    73.0000      0.0000    590.7744     12.2300    104.2310
    73.2500      0.0000    627.7468     12.0065    102.7309
    73.5000      0.0000    669.6522     11.8460    101.0451
    73.7500      0.0000    703.0853     11.7456     97.8615
    74.0000      0.0000    722.5735     11.6942     92.7723
    74.2500      0.0000    731.0148     11.6807     87.0542
    74.5000      0.0000    733.7025     11.7016     82.8795
    74.7500      0.0000    734.2564     11.7607     81.4102
    75.0000      0.0000    734.1470     11.8625     81.9323
    75.2500      0.0000    733.3466     12.0011     83.0551
    75.5000      0.0000    730.5342     12.1555     84.1670
    75.7500      0.0000    723.0284     12.2962     85.1891
    76.0000      0.0000    708.1038     12.3984     85.5291
    76.2500      0.0000    686.7646     12.4495     84.2896
    76.5000      0.0000    666.7952     12.4478     81.5318
    76.7500      0.0000    659.0822     12.4033     78.6010
    77.0000      0.0000    667.9886     12.3360     76.9916
    77.2500      0.0000    686.5936     12.2645     77.2486
    77.5000      0.0000    703.3245     12.1915     78.9095
    77.7500      0.0000    711.8647     12.1084     81.0116
    78.0000      0.0000    713.3792     12.0177     82.5173
    78.2500      0.0000    711.3146     11.9454     82.6937
    78.5000      0.0000    706.1407     11.9264     81.4009
    78.7500      0.0000    695.2655     11.9728     79.0015
    79.0000      0.0000    678.0724     12.0564     75.9663
    79.2500      0.0000    660.9337     12.1261     72.4967
    79.5000      0.0000    654.8804     12.1440     68.4510
    79.7500      0.0000    665.7155     12.1013     63.6277
    80.0000      0.0000    687.8761     12.0021     58.2542
    80.2500      0.0000    710.0243     11.8455     53.2320
    80.5000      0.0000    724.8571     11.6341     49.6828
    80.7500      0.0000    732.0861     11.3979     47.9759
    81.0000      0.0000    734.7726     11.1960     47.2513
    81.2500      0.0000    735.5953     11.0851     46.1491
    81.5000      0.0000    735.8660     11.0791     44.0754
    81.7500      0.0000    736.0068     11.1336     41.7143
    82.0000      0.0000    736.0731     11.1752     40.3597
    82.2500      0.0000    736.0539     11.1494     40.9158
    82.5000      0.0000    735.9487     11.0493     43.4252
    82.7500      0.0000    735.7941     10.9040     47.1066
    83.0000      0.0000    735.6357     10.7525     50.7168
    83.2500      0.0000    735.5065     10.6248     53.2434
    83.5000      0.0000    735.4269     10.5348     54.3784
    83.7500      0.0000    735.4072     10.4800     54.2325
    84.0000      0.0000    735.4365     10.4462     52.8554
    84.2500      0.0000    735.4451     10.4170     50.2932
    84.5000      0.0000    735.2521     10.3821     46.8732
    84.7500      0.0000    734.5345     10.3400     43.2013
    85.0000      0.0000    732.9702     10.2941     40.0276
    85.2500      0.0000    730.6439     10.2463     38.1605
    85.5000      0.0000    728.3597     10.1949     38.2997
    85.7500      0.0000    727.1669     10.1388     40.9868
    86.0000      0.0000    727.1802     10.0813     46.7740
    86.2500      0.0000    727.0460     10.0288     55.8824
    86.5000      0.0000    725.0579      9.9869     67.0617
    86.7500      0.0000    720.8652      9.9565     77.2053
    87.0000      0.0000    715.7401      9.9348     83.2131
    87.2500      0.0000    711.0830      9.9206     84.5893
    87.5000      0.0000    706.8846      9.9244     83.6337
    87.7500      0.0000    701.4920      9.9717     82.9594
    88.0000      0.0000    691.5972     10.0938     83.3886
    88.2500      0.0000    671.9446     10.3084     84.2750
    88.5000      0.0000    637.6813     10.6036     84.9576
    88.7500      0.0000    591.0046     10.9372     85.4222
    89.0000      0.0000    545.7492     11.2540     86.0303
    89.2500      0.0000    520.2611     11.5142     86.9705
    89.5000      0.0000    521.9686     11.7166     87.8875
    89.7500      0.0000    540.5347     11.8927     88.1944
    90.0000      0.0000    558.5769     12.0728     87.8701
    90.2500      0.0000    567.1347     12.2492     87.5787
    90.5000      0.0000    569.4342     12.3735     87.8150
    90.7500      0.0000    573.9858     12.3940     88.3940
    91.0000      0.0000    587.9562     12.3030     89.1055
    91.2500      0.0000    614.1367     12.1388     90.4479
    91.5000      0.0000    649.1404     11.9389     93.1788
    91.7500      0.0000    684.3730     11.7024     97.1406
    92.0000      0.0000    711.4373     11.4122    100.9158
    92.2500      0.0000    727.4001     11.0837    102.8804
    92.5000      0.0000    734.7001     10.7795    102.6106
    92.7500      0.0000    737.3740     10.5690    101.1945
    93.0000      0.0000    738.3337     10.4749    100.1384
    93.2500      0.0000    739.0698     10.4544    100.0438
    93.5000      0.0000    740.5363     10.4314    100.3869
