~Version Information
VERS.                      2.0: CWLS Log ASCII Standard - VERSION 2.0
WRAP.                       NO: One line per depth step
~Well Information Block
STRT.FT                -8.5000: 
STOP.FT              1945.2500: 
STEP.FT                 0.2500: 
NULL.                -999.2500: 
COMP.          Pioneer Natural Resources: COMPANY
WELL.          Flying Horse 12-11 Tr: WELL
FLD.           Purgatorie River: FIELD
LOC.           2459' FNL & 410' FWL: LOCATION
STAT.                       CO: PROVINCE
CNTY.               Las Animas: COUNTY
CTRY.        USA : Country
SECT. 11 : Section
TOWN. 32S : Township
RANG. 66W : Range
SRVC.          Patterson Wireline: SERVICE COMPANY
DATE.          Thu Sep 08 15:44:22 2005: LOG DATE
API.           05 071 08485 00: UNIQUE WELL ID
~Curve Information Block
DEPT.FT            0 000 00 00: Depth
CCL.                          : Casing Collar Locator
TT3.usec                      : CBL 3' Travel Time
AMP3.mV                       : CBL 3' Amplitude
GR.GAPI                       : Gamma Ray
~Parameter Information Block
~A  Depth       CCL         TT3         AMP3         GR     
# ...
  1264.5000      0.0000    758.4672     17.2278    123.9637
  1264.7500      0.0000    730.6649     17.2745    122.1285
  1265.0000      0.0000    708.4502     17.3104    120.6213
  1265.2500      0.0000    699.3143     17.3222    117.9238
  1265.5000      0.0000    702.3093     17.3068    114.0028
  1265.7500      0.0000    710.5712     17.2644    110.0070
  1266.0000      0.0000    718.2993     17.1902    106.9564
  1266.2500      0.0000    723.5438     17.0774    105.1497
  1266.5000      0.0000    725.4459     16.9304    104.6446
  1266.7500      0.0000    721.6457     16.7736    105.6516
  1267.0000      0.0000    710.2846     16.6442    107.9930
  1267.2500      0.0000    694.3405     16.5744    110.4867
  1267.5000      0.0000    680.7441     16.5823    111.6890
  1267.7500      0.0000    673.1215     16.6753    111.4464
  1268.0000      0.0000    668.3917     16.8503    110.8583
  1268.2500      0.0000    663.5953     17.0829    110.2307
  1268.5000      0.0000    662.3880     17.3219    108.0323
  1268.7500      0.0000    670.2688     17.5073    102.8118
  1269.0000      0.0000    686.0717     17.6014     95.4185
  1269.2500      0.0000    702.5943     17.6049     88.2160
  1269.5000      0.0000    714.0254     17.5476     82.6086
  1269.7500      0.0000    719.7135     17.4701     78.3992
  1270.0000      0.0000    722.1472     17.4084     75.2621
  1270.2500      0.0000    724.1298     17.3878     73.6580
  1270.5000      0.0000    727.7100     17.4203     73.9301
  1270.7500      0.0000    733.9164     17.5018     75.1654
  1271.0000      0.0000    742.3378     17.6093     75.6062
  1271.2500      0.0000    751.3097     17.7054     74.2248
  1271.5000      0.0000    759.1227     17.7509     71.6735
  1271.7500      0.0000    765.3726     17.7197     69.5910
  1272.0000      0.0000    771.0817     17.6075     69.0329
  1272.2500      0.0000    777.5388     17.4304     69.6193
  1272.5000      0.0000    785.0020     17.2136     70.1034
  1272.7500      0.0000    792.6385     16.9803     69.6847
  1273.0000      0.0000    799.6564     16.7496     68.7981
  1273.2500      0.0000    806.0789     16.5379     68.6536
  1273.5000      0.0000    812.3350     16.3529     69.9704
  1273.7500      0.0000    818.5969     16.1875     72.2253
  1274.0000      0.0000    824.6587     16.0265     74.1488
  1274.2500      0.0000    829.9948     15.8612     74.7526
  1274.5000      0.0000    833.6458     15.6999     73.8717
  1274.7500      0.0000    834.3906     15.5638     72.1160
  1275.0000      0.0000    831.4175     15.4752     70.4879
  1275.2500      0.0000    825.0135     15.4482     69.6595
  1275.5000      0.0000    816.5500     15.4894     69.4044
  1275.7500      0.0000    807.4483     15.5982     69.0815
  1276.0000      0.0000    798.0089     15.7611     68.7694
  1276.2500      0.0000    787.7352     15.9470     69.2952
  1276.5000      0.0000    777.1405     16.1157     70.8134
  1276.7500      0.0000    768.4221     16.2406     71.9308
  1277.0000      0.0000    763.1597     16.3223     70.8707
  1277.2500      0.0000    759.7546     16.3826     67.5579
  1277.5000      0.0000    754.7775     16.4458     64.2645
  1277.7500      0.0000    747.0653     16.5266     63.9247
  1278.0000      0.0000    739.2521     16.6307     67.6227
  1278.2500      0.0000    735.0291     16.7608     73.6182
  1278.5000      0.0000    735.6741     16.9163     78.7198
  1278.7500      0.0000    739.2487     17.0836     80.7585
  1279.0000      0.0000    742.6456     17.2324     80.0529
  1279.2500      0.0000    744.4445     17.3273     78.6170
  1279.5000      0.0000    745.8002     17.3505     78.0278
  1279.7500      0.0000    748.4468     17.3145     78.2277
  1280.0000      0.0000    752.2256     17.2565     78.2327
  1280.2500      0.0000    755.0582     17.2190     77.4517
  1280.5000      0.0000    755.4449     17.2286     76.0772
  1280.7500      0.0000    754.7910     17.2844     74.6275
  1281.0000      0.0000    756.8171     17.3654     73.5404
  1281.2500      0.0000    764.2189     17.4489     72.9787
  1281.5000      0.0000    775.9679     17.5234     72.6597
  1281.7500      0.0000    788.1662     17.5881     72.1946
  1282.0000      0.0000    797.3272     17.6453     72.0057
  1282.2500      0.0000    802.4759     17.6946     73.5088
  1282.5000      0.0000    804.6187     17.7323     77.5816
  1282.7500      0.0000    805.1683     17.7545     82.8156
  1283.0000      0.0000    805.0295     17.7608     85.9915
  1283.2500      0.0000    804.5076     17.7566     84.6280
  1283.5000      0.0000    803.3868     17.7501     78.9271
  1283.7500      0.0000    800.8079     17.7467     71.2809
  1284.0000      0.0000    795.2245     17.7479     64.2932
  1284.2500      0.0000    785.1555     17.7529     59.4750
  1284.5000      0.0000    770.5757     17.7610     57.3191
  1284.7500      0.0000    753.0685     17.7725     57.6926
  1285.0000      0.0000    732.9026     17.7889     59.7789
  1285.2500      0.0000    705.3610     17.8152     62.2375
  1285.5000      0.0000    662.3329     17.8619     64.1638
  1285.7500      0.0000    600.7770     17.9413     65.8641
  1286.0000      0.0000    529.6031     18.0566     68.1469
  1286.2500      0.0000    465.4328     18.1956     70.9190
  1286.5000      0.0000    420.6886     18.3357     72.9834
  1286.7500      0.0000    397.0552     18.4556     73.2796
  1287.0000      0.0000    389.6415     18.5412     71.9982
  1287.2500      0.0000    394.9031     18.5816     70.4751
  1287.5000      0.0000    414.1768     18.5593     70.2524
  1287.7500      0.0000    450.3415     18.4372     72.1116
  1288.0000      0.0000    501.5500     18.1432     75.6158
  1288.2500      0.0000    560.0274     17.5606     79.4114
  1288.5000      0.0000    618.8216     16.5709     82.1426
  1288.7500      0.0000    677.5098     15.1747     83.3832
  1289.0000      0.0000    738.3644     13.5823     83.8893
  1289.2500      0.0000    799.8911     12.1258     84.7920
  1289.5000      0.0000    857.4228     11.0459     86.2485
  1289.7500      0.0000    907.4572     10.3963     87.0140
  1290.0000      0.0000    948.7021     10.1123     85.7979
  1290.2500      0.0000    980.2613     10.0760     83.0310
  1290.5000      2.0000   1000.8195     10.1281     80.5955
  1290.7500      0.0000   1009.9966     10.1248     79.5850
  1291.0000      0.0000   1009.5273     10.0306     79.1926
  1291.2500      0.0000    999.9131      9.9684     78.2754
  1291.5000      0.0000    975.1530     10.1759     77.1151
  1291.7500      0.0000    926.7376     10.8312     77.0124
  1292.0000      0.0000    857.7902     11.8358     78.7399
  1292.2500      0.0000    788.0267     12.8408     81.7890
  1292.5000      0.0000    738.7520     13.5912     84.6810
  1292.7500      0.0000    716.4333     14.1552     85.9322
  1293.0000      0.0000    713.8160     14.7253     85.1967
  1293.2500      0.0000    721.0421     15.3319     83.5213
  1293.5000      0.0000    731.4555     15.8612     82.2785
  1293.7500      0.0000    741.2148     16.2382     82.1927
  1294.0000      0.0000    748.3691     16.4776     83.6199
  1294.2500      0.0000    752.5807     16.6082     87.0478
  1294.5000      0.0000    754.5558     16.6248     92.4747
  1294.7500      0.0000    755.2298     16.5120     98.5686
  1295.0000      0.0000    755.3194     16.2769    103.3253
  1295.2500      0.0000    755.1858     15.9485    105.7379
  1295.5000      0.0000    754.9633     15.5477    106.3601
  1295.7500      0.0000    754.6874     15.0664    106.2432
  1296.0000      0.0000    754.3804     14.4806    105.8186
  1296.2500      0.0000    754.1793     13.7857    104.9549
  1296.5000      0.0000    754.7633     13.0251    103.8884
  1296.7500      0.0000    758.3437     12.2891    103.7549
  1297.0000      0.0000    769.9923     11.6867    105.4965
  1297.2500      0.0000    797.5429     11.3045    108.0179
  1297.5000      0.0000    847.4925     11.1712    108.4467
  1297.7500      0.0000    917.5638     11.2466    104.8838
