~Version Information
VERS.                      2.0: CWLS Log ASCII Standard - VERSION 2.0
WRAP.                       NO: One line per depth step
~Well Information Block
STRT.FT                -3.2500: 
STOP.FT               989.2500: 
STEP.FT                 0.2500: 
NULL.                -999.2500: 
COMP.          Pioneer Natural Resources: COMPANY
WELL.                Doc 34-30: WELL
FLD.           Purgatoire River: FIELD
LOC.           454' FSL & 1386' FEL: LOCATION
CNTY.               Las Animas: COUNTY
SRVC.                         : SERVICE COMPANY
DATE.          Wed Mar 08 14:28:55 2006: LOG DATE
UWI.           05 071 08694 00: UNIQUE WELL ID
STAT.                       CO: STATE
~Curve Information Block
DEPT.FT            0 000 00 00: Depth
GR.GAPI                       : Gamma Ray
CCL.                          : Casing Collar Locator
TT3.usec                      : CBL 3' Travel Time
AMP3.mV                       : CBL 3' Amplitude
~Parameter Information Block
~A  Depth        GR         CCL         TT3         AMP3    
    -3.2500   -999.2500   -999.2500   -999.2500   -999.2500
    -3.0000   -999.2500   -999.2500   -999.2500   -999.2500
    -2.7500   -999.2500   -999.2500   -999.2500   -999.2500
    -2.5000   -999.2500   -999.2500   -999.2500   -999.2500
    -2.2500   -999.2500   -999.2500   -999.2500   -999.2500
    -2.0000   -999.2500   -999.2500   -999.2500   -999.2500
    -1.7500   -999.2500   -999.2500   -999.2500   -999.2500
    -1.5000   -999.2500   -999.2500   -999.2500   -999.2500
    -1.2500   -999.2500   -999.2500   -999.2500   -999.2500
    -1.0000   -999.2500   -999.2500   -999.2500   -999.2500
    -0.7500   -999.2500   -999.2500   -999.2500   -999.2500
    -0.5000   -999.2500   -999.2500   1230.0000      1.2432
    -0.2500   -999.2500   -999.2500   1230.0000      1.2494
     0.0000   -999.2500   -999.2500   1230.0000      1.2524
     0.2500   -999.2500   -999.2500   1230.0000      1.2421
     0.5000   -999.2500   -999.2500   1230.0000      1.2324
     0.7500   -999.2500   -999.2500   1230.0000      1.2218
     1.0000   -999.2500   -999.2500   1230.0000      1.2124
     1.2500   -999.2500   -999.2500   1230.0000      1.2076
     1.5000   -999.2500   -999.2500   1230.0000      1.2089
     1.7500   -999.2500   -999.2500   1230.0000      1.2142
     2.0000   -999.2500   -999.2500   1230.0000      1.2206
     2.2500   -999.2500   -999.2500   1230.0000      1.2271
     2.5000   -999.2500   -999.2500   1230.0000      1.2335
     2.7500   -999.2500   -999.2500   1229.9906      1.2368
     3.0000   -999.2500   -999.2500   1229.9285      1.2344
     3.2500   -999.2500   -999.2500   1229.6226      1.2288
     3.5000   -999.2500   -999.2500   1228.4348      1.2270
     3.7500   -999.2500   -999.2500   1224.8936      1.2331
     4.0000   -999.2500   -999.2500   1216.8389      1.2438
     4.2500   -999.2500   -999.2500   1203.0914      1.2533
     4.5000   -999.2500   -999.2500   1185.7728      1.2682
     4.7500   -999.2500      0.0000   1169.1499      1.3410
     5.0000   -999.2500      0.0000   1152.0615      1.6497
     5.2500   -999.2500      0.0000   1119.7632      2.6484
     5.5000   -999.2500      0.0000   1047.5270      5.1924
     5.7500   -999.2500      0.0000    919.4943     10.3625
     6.0000   -999.2500      0.0000    747.6009     18.7993
     6.2500   -999.2500      0.0000    569.7380     29.9621
     6.5000   -999.2500      0.0000    425.7570     42.1514
     6.7500   -999.2500      0.0000    333.8315     53.4810
     7.0000   -999.2500      0.0000    287.3915     62.8541
     7.2500   -999.2500      0.0000    268.8402     70.0555
     7.5000   -999.2500      0.0000    263.0281     75.2469
     7.7500   -999.2500      0.0000    261.6500     78.6563
     8.0000   -999.2500      0.0000    261.4437     80.6064
     8.2500   -999.2500      0.0000    261.4624     81.5128
     8.5000   -999.2500      0.0000    261.5011     81.7118
     8.7500   -999.2500      0.0000    261.5322     81.2980
     9.0000   -999.2500      0.0000    261.5719     80.1061
     9.2500   -999.2500      0.0000    261.6850     77.8357
     9.5000     86.8125      0.0000    262.0739     74.2536
     9.7500     89.1791      0.0000    263.2039     69.3708
    10.0000     88.4070      0.0000    265.8156     63.4760
    10.2500     84.8447      0.0000    270.5823     57.0028
    10.5000     79.2466      0.0000    277.4807     50.3440
    10.7500     72.4280      0.0000    285.5387     43.7576
    11.0000     65.5178      0.0000    293.5645     37.4032
    11.2500     60.0629      0.0000    301.3487     31.4257
    11.5000     57.4653      0.0000    310.0190     25.9887
    11.7500     58.2358      0.0000    321.1882     21.2467
    12.0000     61.6669      0.0000    335.8361     17.3087
    12.2500     66.0420      0.0000    353.6472     14.2236
    12.5000     69.3576      0.0000    372.6712     11.9825
    12.7500     70.3860      0.0000    389.6295     10.5200
    13.0000     69.3154      0.0000    401.4957      9.7153
    13.2500     67.2881      0.0000    407.2953      9.4016
    13.5000     65.2621      0.0000    408.0947      9.3910
    13.7500     63.4495      0.0000    405.5300      9.5123
    14.0000     61.8398      0.0000    401.0514      9.6440
    14.2500     60.8670      0.0000    396.3380      9.7311
    14.5000     61.2887      0.0000    393.1320      9.7857
    14.7500     63.5584      0.0000    392.0063      9.8584
    15.0000     67.4756      0.0000    392.0993      9.9637
    15.2500     72.2791      0.0000    392.8035     10.0106
    15.5000     76.9003      0.0000    394.9267      9.8508
    15.7500     80.2737      0.0000    399.2858      9.4299
    16.0000     81.7387      0.0000    404.7732      8.8590
    16.2500     81.3840      0.0000    408.9026      8.3112
    16.5000     80.0289      0.0000    410.1561      7.8850
    16.7500     78.6809      2.0000    409.1523      7.5843
    17.0000     77.8735      1.4819    407.6345      7.3828
    17.2500     77.5540      0.0000    406.9713      7.2718
    17.5000     77.5282      0.0000    407.6084      7.2663
    17.7500     77.8801      0.0000    409.2100      7.3802
    18.0000     78.9619      0.0000    410.8325      7.5789
    18.2500     81.0172      0.0000    411.3558      7.7588
    18.5000     83.7017      0.0000    410.3737      7.8129
    18.7500     85.9705      0.0000    408.7797      7.7282
    19.0000     86.6956      0.0000    408.3238      7.5876
    19.2500     85.4631      0.0000    410.6556      7.4702
    19.5000     82.6217      0.0000    416.8235      7.3843
    19.7500     78.8040      0.0000    427.5165      7.2952
    20.0000     74.8819      0.0000    444.0421      7.1798
    20.2500     72.1493      0.0000    469.3194      7.0416
    20.5000     71.6483      0.0000    506.7059      6.8921
    20.7500     73.0307      0.0000    555.7401      6.7349
    21.0000     74.5796      0.0000    608.9424      6.5656
    21.2500     74.6179      0.0000    654.9823      6.3827
    21.5000     72.7622      0.0000    686.1091      6.1966
    21.7500     69.9941      0.0000    701.9496      6.0298
    22.0000     67.7993      0.0000    706.8213      5.9060
    22.2500     67.1131      0.0000    705.2667      5.8372
    22.5000     67.7387      0.0000    700.1848      5.8212
    22.7500     68.6854      0.0000    693.1981      5.8494
    23.0000     69.1765      0.0000    685.3096      5.9165
    23.2500     69.3935      0.0000    677.2103      6.0219
    23.5000     70.2947      0.0000    669.1645      6.1649
    23.7500     72.8493      0.0000    660.4056      6.3380
    24.0000     77.3539      0.0000    648.7029      6.5281
    24.2500     83.0610      0.0000    631.1082      6.7232
    24.5000     88.2019      0.0000    605.4822      6.9207
    24.7500     90.6323      0.0000    571.1929      7.1262
    25.0000     88.9220      0.0000    528.7530      7.3422
    25.2500     83.0759      0.0000    480.3245      7.5560
    25.5000     74.2481      0.0000    431.3201      7.7369
    25.7500     63.8952      0.0000    389.5759      7.8507
    26.0000     53.3767      0.0000    360.8253      7.8832
    26.2500     44.1417      0.0000    345.1946      7.8521
    26.5000     37.6421      0.0000    338.5702      7.7960
    26.7500     34.6547      0.0000    336.3904      7.7535
    27.0000     34.7484      0.0000    335.8148      7.7487
    27.2500     36.5038      0.0000    335.6445      7.7865
    27.5000     38.2748      0.0000    335.5161      7.8519
    27.7500     39.0401      0.0000    335.3774      7.9181
    28.0000     38.8797      0.0000    335.2552      7.9626
    28.2500     38.6747      0.0000    335.2195      7.9824
    28.5000     39.2510      0.0000    335.4035      7.9945
    28.7500     40.8758      0.0000    336.0831      8.0185
    29.0000     43.5334      0.0000    337.7025      8.0554
    29.2500     47.3107      0.0000    340.7445      8.0788
    29.5000     52.2319      0.0000    345.5089      8.0496
    29.7500     57.9227      0.0000    351.9547      7.9452
    30.0000     63.7922      0.0000    359.4063      7.7802
