~Version Information
VERS.                      2.0: CWLS Log ASCII Standard - VERSION 2.0
WRAP.                       NO: One line per depth step
~Well Information Block
STRT.FT               686.2000: 
STOP.FT              1252.7000: 
STEP.FT                 0.1000: 
NULL.                -999.2500: 
COMP.          Pioneer Natural Resources: COMPANY
WELL.          Rock Island 44-24 Tr: WELL
FLD.           Purgatoire River: FIELD
LOC.           814' FSL & 761' FEL--: LOCATION
CNTY.               Las Animas: COUNTY
SRVC.                Patterson: SERVICE COMPANY
DATE.          Thu Apr 20 08:34:45 2006: LOG DATE
UWI.           05 071 08680 00: UNIQUE WELL ID
STAT.                 Colorado: STATE
~Curve Information Block
DEPT.FT            0 000 00 00: Depth
DCAL.in                       : CDL Caliper
RHOB.g/cc                     : CDL Bulk Density
RHOC.g/cc                     : CDL Density Correction
DPOR.pu                       : CDL Density Porosity
GR.GAPI                       : Gamma Ray
~Parameter Information Block
~A  Depth       DCAL        RHOB        RHOC        DPOR         GR     
# ...
   876.6000      7.9767      2.4335      0.0165     13.1201    148.5207
   876.7000      7.9767      2.4337      0.0405     13.1082    150.8614
   876.8000      7.9755      2.4414      0.0176     12.6413    147.4195
   876.9000      7.9755      2.4597      0.0736     11.5341    139.3097
   877.0000      7.9754      2.4730      0.0953     10.7274    133.4919
   877.1000      7.9754      2.4621      0.0787     11.3877    132.3926
   877.2000      7.9754      2.4368      0.0449     12.9200    132.5808
   877.3000      7.9766      2.4218      0.0246     13.8304    130.6860
   877.4000      7.9766      2.4164      0.0639     14.1566    127.4791
   877.5000      7.9784      2.4080      0.0148     14.6641    127.5537
   877.6000      7.9784      2.4057      0.0103     14.8042    130.9919
   877.7000      7.9784      2.4166      0.0467     14.1446    130.2979
   877.8000      7.9806      2.4287      0.0424     13.4117    123.3530
   877.9000      7.9806      2.4332      0.0358     13.1364    116.0761
   878.0000      7.9834      2.4297      0.0555     13.3506    112.2857
   878.1000      7.9834      2.4218      0.0214     13.8323    111.2387
   878.2000      7.9834      2.4202      0.0478     13.9271    113.8059
   878.3000      7.9869      2.4349     -0.0083     13.0387    122.8360
   878.4000      7.9869      2.4612      0.0575     11.4442    133.2663
   878.5000      7.9885      2.4817      0.0702     10.2007    137.2321
   878.6000      7.9885      2.4937      0.0484      9.4733    136.8181
   878.7000      7.9885      2.5050      0.0384      8.7907    137.0939
   878.8000      7.9888      2.5118      0.0723      8.3770    136.2574
   878.9000      7.9888      2.5152      0.0520      8.1719    133.0944
   879.0000      7.9888      2.5259      0.0908      7.5211    131.1067
   879.1000      7.9888      2.5346      0.1081      6.9912    130.6043
   879.2000      7.9888      2.5176      0.0947      8.0247    129.4229
   879.3000      7.9877      2.4852     -0.0010      9.9867    127.9225
   879.4000      7.9877      2.4767      0.0600     10.5035    125.7488
   879.5000      7.9860      2.5024      0.0576      8.9485    121.7590
   879.6000      7.9860      2.5413      0.0804      6.5887    114.5268
   879.7000      7.9860      2.5681      0.1278      4.9627    105.7461
   879.8000      7.9855      2.5675      0.1206      5.0021    101.3880
   879.9000      7.9855      2.5468      0.0870      6.2545    100.4852
   880.0000      7.9847      2.5277      0.0504      7.4132     95.8685
   880.1000      7.9847      2.5251      0.0418      7.5700     85.7871
   880.2000      7.9847      2.5335      0.0554      7.0578     76.2191
   880.3000      7.9831      2.5342      0.0537      7.0164     74.9243
   880.4000      7.9831      2.5195      0.0419      7.9117     83.1204
   880.5000      7.9803      2.4933      0.0619      9.4941     93.6669
   880.6000      7.9803      2.4630      0.0311     11.3354     99.9258
   880.7000      7.9803      2.4498     -0.0016     12.1356    103.4727
   880.8000      7.9745      2.4729      0.0506     10.7336    108.6708
   880.9000      7.9745      2.5140      0.1174      8.2447    115.9668
   881.0000      7.9648      2.5384      0.1067      6.7654    124.6196
   881.1000      7.9648      2.5429      0.0703      6.4915    131.5306
   881.2000      7.9648      2.5472      0.0680      6.2321    128.9862
   881.3000      7.9564      2.5547      0.1083      5.7763    116.2023
   881.4000      7.9564      2.5492      0.1010      6.1075    102.1339
   881.5000      7.9494      2.5269      0.0854      7.4624     93.9044
   881.6000      7.9494      2.5005      0.0965      9.0608     89.1785
   881.7000      7.9494      2.4706      0.0623     10.8702     83.0924
   881.8000      7.9459      2.4206      0.0301     13.9019     77.2431
   881.9000      7.9459      2.3450     -0.0037     18.4824     72.3613
   882.0000      7.9514      2.2600     -0.0385     23.6373     66.5674
   882.1000      7.9514      2.1782     -0.0350     28.5957     61.4246
   882.2000      7.9514      2.1115     -0.0772     32.6344     58.9169
   882.3000      7.9586      2.0817     -0.0594     34.4398     59.3718
   882.4000      7.9586      2.0943     -0.0214     33.6815     61.3118
   882.5000      7.9693      2.1301      0.0160     31.5069     61.9080
   882.6000      7.9693      2.1586      0.0663     29.7830     60.2272
   882.7000      7.9693      2.1504      0.0446     30.2760     58.7040
   882.8000      7.9881      2.0976      0.0041     33.4784     57.8270
   882.9000      7.9881      2.0223     -0.0430     38.0427     56.0269
   883.0000      8.0050      1.9602     -0.0297     41.8066     56.0788
   883.1000      8.0050      1.9225     -0.0051     44.0893     60.8517
   883.2000      8.0050      1.8851      0.0321     46.3581     66.8504
   883.3000      8.0109      1.8239     -0.0310     50.0696     69.5674
   883.4000      8.0109      1.7496     -0.0812     54.5720     71.3767
   883.5000      8.0115      1.6992     -0.0991     57.6213     76.8498
   883.6000      8.0115      1.6997     -0.0099     57.5911     82.4461
   883.7000      8.0115      1.7448      0.0264     54.8608     84.3845
   883.8000      8.0122      1.8127      0.0882     50.7451     86.2699
   883.9000      8.0122      1.8845      0.1732     46.3947     88.8533
   884.0000      8.0121      1.9457      0.2218     42.6825     86.9072
   884.1000      8.0121      1.9927      0.2744     39.8367     80.3532
   884.2000      8.0121      2.0415      0.2546     36.8818     76.7961
   884.3000      8.0125      2.1177      0.2499     32.2591     77.2210
   884.4000      8.0125      2.2172      0.2989     26.2291     76.2655
   884.5000      8.0062      2.3004      0.3069     21.1894     71.4404
   884.6000      8.0062      2.3435      0.2210     18.5740     64.0243
   884.7000      8.0062      2.3650      0.2030     17.2709     60.0925
   884.8000      7.9901      2.3944      0.2099     15.4891     61.5539
   884.9000      7.9901      2.4412      0.2335     12.6541     62.1771
   885.0000      7.9796      2.4951      0.2150      9.3865     58.7290
   885.1000      7.9796      2.5442      0.2077      6.4105     54.3173
   885.2000      7.9796      2.5888      0.1597      3.7104     51.0360
   885.3000      7.9794      2.6277      0.1459      1.3506     48.0621
   885.4000      7.9794      2.6467      0.0929      0.2010     45.5811
   885.5000      7.9814      2.6429      0.0571      0.4297     44.1799
   885.6000      7.9814      2.6347      0.0619      0.9281     44.3904
   885.7000      7.9814      2.6444      0.0069      0.3374     46.1362
   885.8000      7.9860      2.6770      0.0523     -1.6384     48.2208
   885.9000      7.9860      2.7083      0.0907     -3.5330     49.1438
   886.0000      7.9914      2.7153      0.0556     -3.9588     48.3155
   886.1000      7.9914      2.7028      0.0113     -3.1971     47.4094
   886.2000      7.9914      2.6769      0.0776     -1.6325     48.0517
   886.3000      7.9941      2.6266      0.0403      1.4170     49.8460
   886.4000      7.9941      2.5577     -0.0527      5.5929     51.1225
   886.5000      7.9961      2.4974     -0.0386      9.2486     50.9173
   886.6000      7.9961      2.4634     -0.1107     11.3118     51.5196
   886.7000      7.9961      2.4459      0.0027     12.3693     53.9171
   886.8000      7.9973      2.4136     -0.0008     14.3267     56.0813
   886.9000      7.9973      2.3616     -0.0481     17.4770     56.2387
   887.0000      7.9956      2.3161     -0.0408     20.2390     53.4501
   887.1000      7.9956      2.2854     -0.0160     22.0950     48.6264
   887.2000      7.9956      2.2514      0.0110     24.1548     45.4718
   887.3000      7.9924      2.2070     -0.0298     26.8502     45.9650
   887.4000      7.9924      2.1724     -0.0268     28.9450     48.2301
   887.5000      7.9965      2.1585      0.0167     29.7879     49.8772
   887.6000      7.9965      2.1537      0.0457     30.0785     50.2472
   887.7000      7.9965      2.1504      0.0307     30.2792     50.9040
