~Version Information
VERS.                      2.0: CWLS Log ASCII Standard - VERSION 2.0
WRAP.                       NO: One line per depth step
~Well Information Block
STRT.FT               520.0000: 
STOP.FT              1373.0000: 
STEP.FT                 0.1000: 
NULL.                -999.2500: 
COMP.          Pioneer Natural Resources: COMPANY
WELL.            Gamma 13-3 Tr: WELL
FLD.           Purgatoire River: FIELD
LOC.           2127' FSL & 738' FWL: LOCATION
STAT.                 Colorado: State
CNTY.               Las Animas: COUNTY
CTRY.                      USA: Country
SECT.                        3: Section
TOWN.                       33S: Township
RANG.                       67W: Range
SRVC.                Patterson: SERVICE COMPANY
DATE.          Mon Sep 19 09:58:04 2005: LOG DATE
API.           05 071 08524 00: API
~Curve Information Block
DEPT.FT            0 000 00 00: Depth
DPOR.pu                       : CDL Density Porosity
GR.GAPI                       : Gamma Ray
NPOR.pu                       : Neutron Porosity
RHOB.g/cc                     : CDL Bulk Density
RHOC.g/cc                     : CDL Density Correction
DCAL.in                       : CDL Caliper
~Parameter Information Block
~A  Depth       DPOR         GR         NPOR        RHOB        RHOC        DCAL    
# ...
   635.2000      2.6648    143.0961     24.6072      2.6060      0.0123      8.1025
   635.3000      1.4304    138.3369     24.6842      2.6264      0.0681      8.1004
   635.4000      1.3008    140.9376     24.8598      2.6285      0.0593      8.1004
   635.5000      3.1183    146.3786     24.9379      2.5985      0.0959      8.0960
   635.6000      5.8712    149.1033     24.7000      2.5531      0.0104      8.0960
   635.7000      7.3219    149.3859     24.0452      2.5292      0.0412      8.0960
   635.8000      7.5647    146.0931     23.4003      2.5252      0.1148      8.0959
   635.9000      8.0627    142.2936     23.0643      2.5170      0.0349      8.0959
   636.0000      8.8611    141.0969     22.9076      2.5038      0.0258      8.1008
   636.1000     10.0166    140.9989     22.9878      2.4847     -0.0026      8.1008
   636.2000     11.8536    143.0798     23.0742      2.4544     -0.0107      8.1008
   636.3000     13.8790    147.3839     22.6778      2.4210      0.0197      8.1034
   636.4000     15.4696    150.0998     21.9884      2.3948     -0.0039      8.1034
   636.5000     16.5677    150.6422     21.4989      2.3766     -0.0092      8.1017
   636.6000     17.4291    149.3911     21.2743      2.3624      0.0028      8.1017
   636.7000     18.1584    144.4544     21.1740      2.3504     -0.0051      8.1017
   636.8000     19.3628    139.1040     21.2931      2.3305      0.0705      8.1115
   636.9000     22.0498    139.5500     21.7326      2.2862      0.0433      8.1115
   637.0000     25.6217    142.5160     22.3300      2.2272     -0.0117      8.1360
   637.1000     28.3387    140.9903     22.7354      2.1824     -0.0588      8.1360
   637.2000     29.2868    137.0671     22.9110      2.1668     -0.0549      8.1360
   637.3000     28.6428    134.2974     23.1810      2.1774     -0.0128      8.1323
   637.4000     27.1723    132.0539     23.7617      2.2017      0.0172      8.1323
   637.5000     25.3150    128.8486     24.6006      2.2323      0.0494      8.1051
   637.6000     22.7748    127.1075     25.4598      2.2742      0.0752      8.1051
   637.7000     19.1733    130.9369     26.1165      2.3336      0.1429      8.1051
   637.8000     14.6240    138.1328     26.4645      2.4087      0.1590      8.0944
   637.9000     10.0657    140.1586     26.2764      2.4839      0.1919      8.0944
   638.0000      7.1774    135.0426     25.7864      2.5316      0.1822      8.1010
   638.1000      6.8440    131.9977     25.6341      2.5371      0.1532      8.1010
   638.2000      8.0898    136.2968     25.5518      2.5165      0.1108      8.1010
   638.3000      9.1521    140.9483     24.9338      2.4990      0.1085      8.1080
   638.4000      9.5693    143.3055     23.8351      2.4921      0.1064      8.1080
   638.5000     10.2953    150.5457     22.5069      2.4801      0.0987      8.1064
   638.6000     11.8005    161.3516     21.2166      2.4553      0.0759      8.1064
   638.7000     12.9936    164.9621     20.1565      2.4356      0.0055      8.1064
   638.8000     12.8517    156.6579     19.3479      2.4379      0.0720      8.1043
   638.9000     12.3480    146.9619     19.0351      2.4463      0.1143      8.1043
   639.0000     13.1883    145.4054     19.5533      2.4324      0.1028      8.1207
   639.1000     16.0055    148.4800     20.6007      2.3859      0.0914      8.1207
   639.2000     20.7971    150.8712     21.3068      2.3068      0.0973      8.1207
   639.3000     27.0563    148.9859     21.5083      2.2036      0.0641      8.1364
   639.4000     32.9842    140.5178     22.0247      2.1058     -0.0378      8.1364
   639.5000     36.8392    131.5645     23.1732      2.0422     -0.0019      8.1322
   639.6000     38.6809    129.0151     24.2391      2.0118      0.0064      8.1322
   639.7000     39.0931    127.9663     24.8256      2.0050      0.0287      8.1322
   639.8000     37.5303    122.5657     25.3163      2.0308     -0.0160      8.1345
   639.9000     33.1376    117.0703     26.0734      2.1032      0.0336      8.1345
   640.0000     26.9727    115.2524     26.9398      2.2050      0.1519      8.1568
   640.1000     21.1217    110.7087     27.2514      2.3015      0.1901      8.1568
   640.2000     16.2819    101.6835     26.6259      2.3813      0.1542      8.1568
   640.3000     12.2270     96.4925     25.3833      2.4483      0.1597      8.1848
   640.4000      9.0888     99.2880     24.2098      2.5000      0.1521      8.1848
   640.5000      7.1064    103.8977     23.5441      2.5327      0.1240      8.1682
   640.6000      6.2242    102.5115     23.2042      2.5473      0.0943      8.1682
   640.7000      6.2668     95.5651     22.9088      2.5466      0.0603      8.1682
   640.8000      6.7104     88.5711     22.7778      2.5393      0.0457      8.0920
   640.9000      6.5275     84.3353     22.9185      2.5423      0.0326      8.0920
   641.0000      4.9448     80.0109     22.9480      2.5684      0.0449      8.0293
   641.1000      2.5553     75.7320     22.6102      2.6078      0.1291      8.0293
   641.2000      0.7408     75.0211     22.1693      2.6378      0.1226      8.0293
   641.3000     -0.2929     74.7455     21.9032      2.6548      0.1284      8.0073
   641.4000     -0.9062     72.6517     21.7717      2.6650      0.1535      8.0073
   641.5000     -0.4631     71.7208     21.4966      2.6576      0.1468      7.9998
   641.6000      1.3075     72.0659     21.1811      2.6284      0.1139      7.9998
   641.7000      3.0452     73.7076     21.3387      2.5998      0.0234      7.9998
   641.8000      3.7477     77.5338     21.8970      2.5882      0.0736      7.9961
   641.9000      3.9449     81.6579     22.1209      2.5849      0.0510      7.9961
   642.0000      3.7545     82.9969     21.9433      2.5881      0.0143      7.9998
   642.1000      2.8347     81.7827     21.9351      2.6032      0.0491      7.9998
   642.2000      1.9614     80.9580     22.1600      2.6176      0.0918      7.9998
   642.3000      2.2810     80.3468     22.2205      2.6124      0.0529      8.0126
   642.4000      3.6413     79.6201     22.0424      2.5899      0.0652      8.0126
   642.5000      5.0597     79.9935     21.8443      2.5665      0.0592      8.0198
   642.6000      5.7258     79.1986     21.7286      2.5555     -0.0022      8.0198
   642.7000      5.0953     74.3675     21.7465      2.5659      0.0297      8.0198
   642.8000      3.5667     66.5652     21.8374      2.5911      0.0270      8.0205
   642.9000      2.6447     60.1137     21.7239      2.6064      0.0529      8.0205
   643.0000      3.1697     58.7380     21.2375      2.5977      0.0276      8.0310
   643.1000      4.0881     61.5369     20.5380      2.5825      0.0358      8.0310
   643.2000      4.0595     65.3701     19.8672      2.5830      0.0220      8.0310
   643.3000      3.5387     68.9179     19.2140      2.5916      0.0720      8.0443
   643.4000      3.4523     70.4873     18.4652      2.5930     -0.0626      8.0443
   643.5000      3.6027     69.4238     17.7973      2.5906      0.0246      8.0553
   643.6000      4.0260     68.4669     17.6077      2.5836      0.0465      8.0553
   643.7000      4.9101     70.3683     17.9253      2.5690      0.0149      8.0553
   643.8000      5.9951     73.7722     18.3378      2.5511      0.0158      8.0618
   643.9000      7.1367     77.6122     18.6917      2.5322      0.0432      8.0618
   644.0000      8.1902     85.1093     19.1293      2.5149      0.0069      8.0514
   644.1000      8.8526     96.3754     19.6452      2.5039      0.0142      8.0514
   644.2000      9.4010    106.7419     20.1693      2.4949      0.0526      8.0514
   644.3000     10.2040    113.4542     20.6898      2.4816      0.0186      8.0343
   644.4000     10.5599    117.3131     21.3270      2.4758      0.0085      8.0343
   644.5000     10.1625    122.1741     22.2552      2.4823      0.0598      8.0324
   644.6000      9.9782    129.8812     23.3664      2.4854      0.0580      8.0324
   644.7000     10.0804    136.4117     24.3595      2.4837      0.0239      8.0324
