~Version Information
VERS.                      2.0: CWLS Log ASCII Standard - VERSION 2.0
WRAP.                       NO: One line per depth step
~Well Information Block
STRT.FT               840.0000: 
STOP.FT              1912.0000: 
STEP.FT                 0.1000: 
NULL.                -999.2500: 
COMP.          Petrogulf Corporation: COMPANY
WELL.             Kraft 17-23R: WELL
FLD.           Purgatorie River: FIELD
LOC.           1509' FSL & 1673' FWL: LOCATION
PROV.                 Colorado: PROVINCE
CNTY.               Las Animas: COUNTRY
SRVC.                Patterson: SERVICE COMPANY
DATE.          Wed Oct 12 07:01:14 2005: LOG DATE
UWI.                          : UNIQUE WELL ID
~Curve Information Block
DEPT.FT            0 000 00 00: Depth
DCAL.in                       : CDL Caliper
RHOB.g/cc                     : CDL Bulk Density
RHOC.g/cc                     : CDL Density Correction
DPOR.pu                       : CDL Density Porosity
GR.GAPI                       : Gamma Ray
NPOR.pu                       : Neutron Porosity
~Parameter Information Block
~A  Depth       DCAL        RHOB        RHOC        DPOR         GR         NPOR    
# ...
  1684.8000      7.6853      2.6509      0.1493     -0.0518    111.2563     22.0675
  1684.9000      7.6853      2.6319      0.0619      1.0979    109.4988     22.1067
  1685.0000      7.7734      2.6303      0.0927      1.1957    106.9192     22.2852
  1685.1000      7.7734      2.6382      0.1043      0.7162    107.4204     22.6734
  1685.2000      7.7734      2.6345      0.1211      0.9368    112.6865     23.2984
  1685.3000      7.7868      2.6128      0.1073      2.2534    118.6189     24.1300
  1685.4000      7.7868      2.5841      0.0685      3.9941    119.7665     24.9860
  1685.5000      7.8002      2.5654      0.0416      5.1243    117.9974     25.5968
  1685.6000      7.8002      2.5626      0.0333      5.2991    119.2260     25.8009
  1685.7000      7.8002      2.5673      0.0012      5.0097    123.7727     25.7835
  1685.8000      7.8173      2.5668      0.0643      5.0436    130.0926     25.8864
  1685.9000      7.8173      2.5516      0.0346      5.9628    138.0371     25.9068
  1686.0000      7.8302      2.5334      0.0051      7.0683    143.4471     25.4960
  1686.1000      7.8302      2.5339      0.0035      7.0369    143.7648     25.1433
  1686.2000      7.8302      2.5502      0.0558      6.0470    143.7098     25.3590
  1686.3000      7.8521      2.5586      0.0354      5.5382    145.9459     25.8858
  1686.4000      7.8521      2.5471      0.0689      6.2382    147.9806     26.2714
  1686.5000      7.8626      2.5235      0.0104      7.6693    147.0075     26.2700
  1686.6000      7.8626      2.5086     -0.0096      8.5711    142.9000     26.1066
  1686.7000      7.8626      2.5208     -0.0072      7.8277    140.2979     26.1114
  1686.8000      7.8613      2.5535      0.0924      5.8509    142.6516     26.2693
  1686.9000      7.8613      2.5774      0.0914      4.3972    147.5785     26.4746
  1687.0000      7.8594      2.5785      0.0752      4.3340    150.4549     26.8046
  1687.1000      7.8594      2.5696      0.0626      4.8747    149.8513     27.1557
  1687.2000      7.8594      2.5679      0.0926      4.9766    148.6973     27.1895
  1687.3000      7.8103      2.5734      0.0998      4.6405    149.5056     26.8075
  1687.4000      7.8103      2.5733      0.0928      4.6509    150.3275     26.2587
  1687.5000      7.8039      2.5635      0.0840      5.2412    150.1245     25.9307
  1687.6000      7.8039      2.5543      0.0404      5.7974    150.7578     26.0349
  1687.7000      7.8039      2.5400      0.0911      6.6653    152.3627     26.4601
  1687.8000      7.8171      2.5044      0.0512      8.8228    153.5868     27.0101
  1687.9000      7.8171      2.4645     -0.0140     11.2440    154.6441     27.4969
  1688.0000      7.8444      2.4460      0.0518     12.3630    155.4250     27.7780
  1688.1000      7.8444      2.4421      0.0294     12.6013    154.4415     28.0230
  1688.2000      7.8444      2.4412      0.0071     12.6530    153.4203     28.4052
  1688.3000      7.8761      2.4520     -0.0360     11.9990    155.4245     28.6829
  1688.4000      7.8761      2.4759      0.0767     10.5508    159.3473     28.7700
  1688.5000      7.8584      2.4931      0.0569      9.5117    161.8457     28.8527
  1688.6000      7.8584      2.4934      0.1046      9.4923    162.9280     28.8718
  1688.7000      7.8584      2.4868      0.0783      9.8900    164.8452     28.6651
  1688.8000      7.8110      2.4815      0.1691     10.2120    164.9184     28.2797
  1688.9000      7.8110      2.4782      0.1323     10.4119    160.9066     28.0915
  1689.0000      7.7631      2.4912      0.0989      9.6230    155.8665     28.5001
  1689.1000      7.7631      2.5339      0.1442      7.0351    151.8740     29.1826
  1689.2000      7.7631      2.5963      0.1419      3.2519    149.0747     29.5056
  1689.3000      7.7638      2.6533      0.2020     -0.2002    148.8398     29.2798
  1689.4000      7.7638      2.6752      0.2398     -1.5273    150.2172     28.7676
  1689.5000      7.7672      2.6562      0.1791     -0.3733    148.7513     28.3293
  1689.6000      7.7672      2.6177      0.1875      1.9599    144.4509     28.0498
  1689.7000      7.7672      2.5744      0.1077      4.5831    140.8489     27.8256
  1689.8000      7.7656      2.5348      0.0571      6.9844    138.2906     27.8322
  1689.9000      7.7656      2.5080      0.0408      8.6059    135.9097     28.2987
  1690.0000      7.7847      2.4952      0.0133      9.3848    134.6672     28.9263
  1690.1000      7.7847      2.4964      0.0087      9.3094    133.0431     29.3383
  1690.2000      7.7847      2.5106      0.0967      8.4500    129.7434     29.5081
  1690.3000      7.8169      2.5250      0.0981      7.5730    128.3011     29.4810
  1690.4000      7.8169      2.5317      0.1132      7.1697    130.7643     29.2875
  1690.5000      7.8133      2.5335      0.0915      7.0612    134.8818     29.0862
  1690.6000      7.8133      2.5388      0.0931      6.7398    137.1731     29.2957
  1690.7000      7.8133      2.5539      0.1327      5.8254    138.2427     30.0010
  1690.8000      7.8099      2.5687      0.1764      4.9256    141.4158     30.5183
  1690.9000      7.8099      2.5637      0.1725      5.2289    144.2756     30.4587
  1691.0000      7.8338      2.5376      0.1003      6.8134    143.3298     30.2749
  1691.1000      7.8338      2.5091      0.1192      8.5370    141.0612     30.2498
  1691.2000      7.8338      2.4958      0.0568      9.3431    139.7245     30.2338
  1691.3000      7.9260      2.5048      0.0654      8.8026    139.0220     30.2924
  1691.4000      7.9260      2.5313      0.0939      7.1920    140.1082     30.3926
  1691.5000      7.9447      2.5647      0.1151      5.1720    142.9518     30.2592
  1691.6000      7.9447      2.5852      0.2056      3.9255    143.1486     29.7554
  1691.7000      7.9447      2.5839      0.1416      4.0042    139.0856     29.2414
  1691.8000      7.8983      2.5850      0.0962      3.9381    135.6415     29.1459
  1691.9000      7.8983      2.6032      0.1721      2.8352    135.4641     29.0568
  1692.0000      7.7937      2.6194      0.1470      1.8561    135.9617     28.4689
  1692.1000      7.7937      2.6224      0.1619      1.6715    135.5920     27.7953
  1692.2000      7.7937      2.6225      0.1228      1.6641    135.1499     27.6024
  1692.3000      7.7986      2.6255      0.1587      1.4819    135.4095     27.8652
  1692.4000      7.7986      2.6209      0.1208      1.7656    136.5175     28.1436
  1692.5000      7.8085      2.5953      0.1134      3.3170    136.9022     27.9844
  1692.6000      7.8085      2.5524      0.0563      5.9135    135.3584     27.4353
  1692.7000      7.8085      2.5167      0.0564      8.0801    133.9347     26.8143
  1692.8000      7.7925      2.5016      0.0471      8.9917    135.3661     26.4410
  1692.9000      7.7925      2.4998     -0.0004      9.1035    138.2129     26.3973
  1693.0000      7.7618      2.5128      0.0060      8.3158    138.5613     26.3572
  1693.1000      7.7618      2.5511      0.0244      5.9930    136.2316     26.1509
  1693.2000      7.7618      2.6036      0.1030      2.8136    134.9405     25.8209
  1693.3000      7.7474      2.6415      0.1528      0.5132    135.9971     25.4435
  1693.4000      7.7474      2.6534      0.1567     -0.2051    137.1153     25.2710
  1693.5000      7.7202      2.6479      0.1357      0.1286    136.2730     25.5149
  1693.6000      7.7202      2.6288      0.1411      1.2841    134.9620     25.9580
  1693.7000      7.7202      2.5977      0.0947      3.1700    137.1674     26.1708
  1693.8000      7.7117      2.5695      0.0621      4.8785    141.5311     26.1916
  1693.9000      7.7117      2.5596      0.0273      5.4797    143.7416     26.3673
  1694.0000      7.7567      2.5647      0.0243      5.1684    143.4591     26.5533
  1694.1000      7.7567      2.5664      0.0811      5.0644    141.5132     26.4382
  1694.2000      7.7567      2.5535      0.0245      5.8495    137.4511     26.2958
  1694.3000      7.8188      2.5373      0.0497      6.8298    133.2055     26.4011
