~Version Information
VERS.                      2.0: CWLS Log ASCII Standard - VERSION 2.0
WRAP.                       NO: One line per depth step
~Well Information Block
STRT.FT               694.2000: 
STOP.FT              1498.5000: 
STEP.FT                 0.1000: 
NULL.                -999.2500: 
COMP.          Pioneer Natural Resources: COMPANY
WELL.          Pallet Ranch 34-25 Tr: WELL
FLD.           Purgatoire River: FIELD
LOC.           465' FSL & 2138' FEL: LOCATION
PROV.                 Colorado: PROVINCE
CNTY.               Las Animas: COUNTRY
SRVC.                Patterson: SERVICE COMPANY
DATE.          Thu Jan 19 06:39:54 2006: LOG DATE
UWI.           05 071 08657 00: UNIQUE WELL ID
~Curve Information Block
DEPT.FT            0 000 00 00: Depth
DCAL.in                       : CDL Caliper
RHOB.g/cc                     : CDL Bulk Density
RHOC.g/cc                     : CDL Density Correction
DPOR.pu                       : CDL Density Porosity
GR.GAPI                       : Gamma Ray
~Parameter Information Block
~A  Depth       DCAL        RHOB        RHOC        DPOR         GR     
# ...
   705.4000      8.1159      2.0674     -0.4441     35.3077     90.5057
   705.5000      8.1172      2.0613     -0.4551     35.6773     88.0378
   705.6000      8.1172      2.0451     -0.4754     36.6627     85.8154
   705.7000      8.1172      2.0367     -0.5118     37.1712     82.5111
   705.8000      8.1200      2.0526     -0.4672     36.2070     79.1318
   705.9000      8.1200      2.0917     -0.4804     33.8336     78.2281
   706.0000      8.1259      2.1309     -0.3954     31.4627     79.9880
   706.1000      8.1259      2.1466     -0.4268     30.5072     81.5507
   706.2000      8.1259      2.1386     -0.3714     30.9911     79.1864
   706.3000      8.1224      2.1178     -0.4708     32.2527     75.5951
   706.4000      8.1224      2.0989     -0.4943     33.3979     74.4929
   706.5000      8.1193      2.0852     -0.4776     34.2331     72.2989
   706.6000      8.1193      2.0661     -0.5104     35.3874     67.4204
   706.7000      8.1193      2.0529     -0.5391     36.1901     62.7619
   706.8000      8.1203      2.0679     -0.4662     35.2767     61.7828
   706.9000      8.1203      2.1055     -0.4578     33.0011     68.4067
   707.0000      8.1236      2.1379     -0.4394     31.0362     79.7180
   707.1000      8.1236      2.1502     -0.4257     30.2879     86.4393
   707.2000      8.1236      2.1508     -0.3722     30.2517     86.0715
   707.3000      8.1245      2.1477     -0.4346     30.4420     84.0391
   707.4000      8.1245      2.1274     -0.3698     31.6735     83.3907
   707.5000      8.1216      2.0750     -0.5242     34.8485     83.9387
   707.6000      8.1216      2.0132     -0.5458     38.5918     85.7243
   707.7000      8.1216      1.9748     -0.5539     40.9222     87.7733
   707.8000      8.1218      1.9527     -0.4839     42.2597     89.4052
   707.9000      8.1218      1.9312     -0.6201     43.5626     90.2763
   708.0000      8.1196      1.9169     -0.4975     44.4285     90.4537
   708.1000      8.1196      1.9123     -0.5129     44.7110     91.5849
   708.2000      8.1196      1.9180     -0.5305     44.3613     91.4335
   708.3000      8.1188      1.9331     -0.5032     43.4503     90.5905
   708.4000      8.1188      1.9458     -0.4923     42.6770     96.2045
   708.5000      8.1180      1.9598     -0.5030     41.8286    104.9066
   708.6000      8.1180      1.9884     -0.4023     40.0980    105.0186
   708.7000      8.1180      2.0233     -0.4248     37.9819     99.1078
   708.8000      8.1193      2.0513     -0.4077     36.2856     96.0631
   708.9000      8.1193      2.0728     -0.4580     34.9834     94.3998
   709.0000      8.1235      2.0912     -0.4331     33.8643     91.1447
   709.1000      8.1235      2.1044     -0.4568     33.0652     87.9632
   709.2000      8.1235      2.1112     -0.4939     32.6543     86.1797
   709.3000      8.1213      2.1139     -0.4611     32.4881     88.0575
   709.4000      8.1213      2.1112     -0.4362     32.6562     94.2286
   709.5000      8.1195      2.1075     -0.4808     32.8768    100.4225
   709.6000      8.1195      2.1093     -0.3729     32.7714    100.4782
   709.7000      8.1195      2.1109     -0.4521     32.6707     94.6856
   709.8000      8.1197      2.1153     -0.4120     32.4088     91.5230
   709.9000      8.1197      2.1305     -0.4913     31.4837     93.8998
   710.0000      8.1248      2.1424     -0.3947     30.7630     95.7847
   710.1000      8.1248      2.1224     -0.3734     31.9745     94.4179
   710.2000      8.1248      2.0848     -0.5605     34.2523     92.2020
   710.3000      8.1177      2.0609     -0.4232     35.7053     90.3595
   710.4000      8.1177      2.0409     -0.4898     36.9170     90.8854
   710.5000      8.1193      2.0214     -0.5285     38.0999     93.4939
   710.6000      8.1193      2.0253     -0.5289     37.8585     94.9080
   710.7000      8.1193      2.0592     -0.4680     35.8059     93.4462
   710.8000      8.1364      2.1027     -0.3916     33.1700     88.1453
   710.9000      8.1364      2.1382     -0.3902     31.0180     83.4506
   711.0000      8.1181      2.1660     -0.3920     29.3352     86.6060
   711.1000      8.1181      2.1805     -0.3470     28.4549     94.0173
   711.2000      8.1181      2.1622     -0.4080     29.5613     94.1263
   711.3000      8.1137      2.1218     -0.4700     32.0147     83.6586
   711.4000      8.1137      2.1033     -0.5282     33.1357     73.4322
   711.5000      8.1128      2.1150     -0.3955     32.4259     71.3412
   711.6000      8.1128      2.1213     -0.4303     32.0397     72.4326
   711.7000      8.1128      2.1064     -0.3725     32.9472     70.8145
   711.8000      8.1216      2.0843     -0.4650     34.2860     68.4269
   711.9000      8.1216      2.0709     -0.4349     35.0993     68.4234
   712.0000      8.1095      2.0555     -0.4233     36.0302     70.5036
   712.1000      8.1095      2.0216     -0.4508     38.0878     73.4105
   712.2000      8.1095      1.9831     -0.5518     40.4157     74.9624
   712.3000      8.1119      1.9663     -0.5323     41.4374     72.4083
   712.4000      8.1119      1.9802     -0.4778     40.5959     67.1366
   712.5000      8.1146      2.0156     -0.4883     38.4468     65.6760
   712.6000      8.1146      2.0469     -0.4224     36.5511     69.8624
   712.7000      8.1146      2.0581     -0.4969     35.8737     77.3712
   712.8000      8.1151      2.0663     -0.4679     35.3743     84.1676
   712.9000      8.1151      2.0902     -0.4368     33.9259     83.8664
   713.0000      8.1159      2.1222     -0.3853     31.9858     77.2358
   713.1000      8.1159      2.1416     -0.3353     30.8131     72.4418
   713.2000      8.1159      2.1349     -0.3616     31.2175     73.5672
   713.3000      8.1123      2.1108     -0.4198     32.6785     76.1952
   713.4000      8.1123      2.0895     -0.4447     33.9711     77.2827
   713.5000      8.1141      2.0853     -0.4585     34.2214     77.1319
   713.6000      8.1141      2.0986     -0.4563     33.4211     75.6734
   713.7000      8.1141      2.1152     -0.4522     32.4140     73.7839
   713.8000      8.1177      2.1247     -0.4071     31.8351     69.1300
   713.9000      8.1177      2.1308     -0.4742     31.4637     60.5227
   714.0000      8.1141      2.1407     -0.4634     30.8695     54.0593
   714.1000      8.1141      2.1521     -0.4321     30.1757     54.7067
   714.2000      8.1141      2.1602     -0.3902     29.6870     59.0466
   714.3000      8.1152      2.1630     -0.3933     29.5173     63.2560
   714.4000      8.1152      2.1621     -0.4161     29.5700     68.0260
   714.5000      8.1153      2.1548     -0.3599     30.0121     71.3732
   714.6000      8.1153      2.1334     -0.3633     31.3100     67.2140
   714.7000      8.1153      2.1074     -0.4991     32.8838     57.2092
   714.8000      8.1138      2.0950     -0.4616     33.6347     54.3199
   714.9000      8.1138      2.0863     -0.4452     34.1644     63.5118
   715.0000      8.1131      2.0593     -0.4425     35.8028     74.1374
   715.1000      8.1131      2.0200     -0.4964     38.1790     77.2439
   715.2000      8.1131      1.9999     -0.5438     39.4023     72.7904
   715.3000      8.1152      2.0114     -0.4840     38.7060     67.0054
   715.4000      8.1152      2.0385     -0.4822     37.0632     65.8497
   715.5000      8.1153      2.0544     -0.3853     36.0995     69.4891
   715.6000      8.1153      2.0457     -0.4817     36.6218     74.0194
   715.7000      8.1153      2.0366     -0.5023     37.1737     76.3077
   715.8000      8.1140      2.0466     -0.4885     36.5692     78.1996
   715.9000      8.1140      2.0665     -0.4280     35.3654     81.2626
   716.0000      8.1148      2.0918     -0.5170     33.8300     85.0305
   716.1000      8.1148      2.1298     -0.4709     31.5244     88.0527
   716.2000      8.1148      2.1694     -0.3520     29.1282     88.2276
   716.3000      8.1188      2.1837     -0.3421     28.2584     84.9223
   716.4000      8.1188      2.1640     -0.3588     29.4528     80.4297
   716.5000      8.1222      2.1264     -0.4849     31.7319     80.1746
