~Version Information
VERS.                      2.0: CWLS Log ASCII Standard - VERSION 2.0
WRAP.                       NO: One line per depth step
~Well Information Block
STRT.FT               575.0000: 
STOP.FT              1557.5000: 
STEP.FT                 0.1000: 
NULL.                -999.2500: 
COMP.          Pioneer Natural Resources: COMPANY
WELL.          McClaren 13-34 Tr: WELL
FLD.           Purgatoire River: FIELD
LOC.           1934' FSL & 826' FWL: LOCATION
PROV.                 Colorado: PROVINCE
CNTY.               Las Animas: COUNTRY
SRVC.                Patterson: SERVICE COMPANY
DATE.          Tue Jul 12 07:15:27 2005: LOG DATE
UWI.           05 071 08437 00: UNIQUE WELL ID
~Curve Information Block
DEPT.FT            0 000 00 00: Depth
DCAL.in                       : CDL Caliper
RHOB.g/cc                     : CDL Bulk Density
RHOC.g/cc                     : CDL Density Correction
DPOR.pu                       : CDL Density Porosity
GR.GAPI                       : Gamma Ray
NPOR.pu                       : Neutron Porosity
~Parameter Information Block
~A  Depth       DCAL        RHOB        RHOC        DPOR         GR         NPOR    
# ...
  1352.6000      7.8870      2.5578      0.0047      5.5888     42.4788     13.5027
  1352.7000      7.8870      2.5589     -0.0049      5.5192     44.1898     12.7360
  1352.8000      7.8872      2.5696      0.0002      4.8714     44.1703     12.9995
  1352.9000      7.8872      2.5826      0.0058      4.0860     41.8803     13.9348
  1353.0000      7.8857      2.5903      0.0135      3.6179     39.3006     14.7355
  1353.1000      7.8857      2.5961      0.0200      3.2646     38.4626     15.2501
  1353.2000      7.8857      2.6017      0.0829      2.9274     39.3288     16.1085
  1353.3000      7.8846      2.5922      0.0809      3.5048     40.7292     17.0050
  1353.4000      7.8846      2.5624      0.0434      5.3098     43.1499     17.2624
  1353.5000      7.8851      2.5327      0.0114      7.1063     48.0035     17.5039
  1353.6000      7.8851      2.5229      0.0270      7.7015     54.8996     18.1969
  1353.7000      7.8851      2.5271      0.0518      7.4470     62.8306     18.8384
  1353.8000      7.8845      2.5256      0.0572      7.5371     69.5013     19.4170
  1353.9000      7.8845      2.5191      0.0122      7.9343     72.8001     20.0329
  1354.0000      7.8732      2.5299      0.0591      7.2808     75.4939     20.4132
  1354.1000      7.8732      2.5621      0.0730      5.3280     81.7491     20.8646
  1354.2000      7.8732      2.5900      0.1544      3.6389     91.9426     21.8048
  1354.3000      7.8610      2.5932      0.0998      3.4428    104.0211     22.9632
  1354.4000      7.8610      2.5838      0.1066      4.0131    116.7953     23.8074
  1354.5000      7.8897      2.5853      0.0913      3.9193    129.8833     24.0507
  1354.6000      7.8897      2.5988      0.1429      3.1057    138.8180     24.1638
  1354.7000      7.8897      2.6094      0.0729      2.4596    139.1600     24.8639
  1354.8000      7.9499      2.6156      0.0780      2.0852    135.9148     25.5256
  1354.9000      7.9499      2.6201      0.1037      1.8105    136.8230     25.1917
  1355.0000      7.9654      2.6198      0.1055      1.8319    139.9462     24.2557
  1355.1000      7.9654      2.6125      0.1006      2.2741    139.8336     23.7100
  1355.2000      7.9654      2.5971      0.0811      3.2033    136.9072     23.9712
  1355.3000      7.9360      2.5710      0.0637      4.7885    133.5140     24.6828
  1355.4000      7.9360      2.5375      0.0205      6.8172    132.0144     25.0915
  1355.5000      7.9083      2.5137     -0.0023      8.2630    132.3436     24.9806
  1355.6000      7.9083      2.5164      0.0092      8.0984    131.7823     24.8574
  1355.7000      7.9083      2.5375      0.0485      6.8171    128.4543     24.8020
  1355.8000      7.8884      2.5512      0.0673      5.9884    122.8956     24.7952
  1355.9000      7.8884      2.5546      0.0561      5.7800    117.1942     25.1851
  1356.0000      7.8674      2.5696      0.0795      4.8710    113.2696     25.6236
  1356.1000      7.8674      2.6002      0.1177      3.0189    113.6818     25.2963
  1356.2000      7.8674      2.6247      0.1747      1.5348    118.6442     24.0920
  1356.3000      7.8546      2.6263      0.1736      1.4368    124.5575     22.8272
  1356.4000      7.8546      2.6083      0.1590      2.5287    126.7282     22.3133
  1356.5000      7.8634      2.5852      0.1118      3.9281    125.1460     22.4779
  1356.6000      7.8634      2.5739      0.0566      4.6141    122.9685     22.6751
  1356.7000      7.8634      2.5790      0.0696      4.3016    118.7765     22.3619
  1356.8000      7.8838      2.5896      0.0492      3.6579    113.3744     21.7299
  1356.9000      7.8838      2.6004      0.0566      3.0090    112.7399     21.3368
  1357.0000      7.8977      2.6112      0.0533      2.3491    117.1881     21.2218
  1357.1000      7.8977      2.6115      0.1026      2.3348    121.1443     21.6729
  1357.2000      7.8977      2.5902      0.0593      3.6256    121.5467     23.0685
  1357.3000      7.8992      2.5546      0.0617      5.7788    121.1358     24.6225
  1357.4000      7.8992      2.5159      0.0467      8.1249    122.1762     25.1906
  1357.5000      7.8900      2.4841     -0.0145     10.0529    122.5076     25.1598
  1357.6000      7.8900      2.4730      0.0086     10.7279    122.8973     25.4284
  1357.7000      7.8900      2.4860      0.0013      9.9392    126.1200     25.6168
  1357.8000      7.8765      2.5200      0.0292      7.8810    131.7075     25.2342
  1357.9000      7.8765      2.5639      0.1019      5.2167    137.5349     24.5848
  1358.0000      7.8655      2.5946      0.1388      3.3556    141.8087     24.1032
  1358.1000      7.8655      2.6051      0.1191      2.7203    142.9206     24.1760
  1358.2000      7.8655      2.6091      0.1357      2.4811    140.7786     24.7983
  1358.3000      7.8683      2.6124      0.1309      2.2775    137.5699     25.0691
  1358.4000      7.8683      2.6137      0.1169      2.1987    135.6599     24.8358
  1358.5000      7.8947      2.6124      0.1225      2.2788    135.3524     24.9948
  1358.6000      7.8947      2.6031      0.1128      2.8406    137.9687     25.6502
  1358.7000      7.8947      2.5841      0.0752      3.9930    143.6319     25.9186
  1358.8000      7.9351      2.5710      0.0379      4.7882    144.7761     25.7510
  1358.9000      7.9351      2.5778      0.0518      4.3777    139.2535     25.7903
  1359.0000      7.9510      2.5979      0.0468      3.1576    132.7327     25.9564
  1359.1000      7.9510      2.6177      0.0732      1.9561    127.3563     25.7116
  1359.2000      7.9510      2.6259      0.0686      1.4618    127.2497     25.5423
  1359.3000      7.9355      2.6209      0.0327      1.7644    135.1921     26.3458
  1359.4000      7.9355      2.6098      0.0737      2.4348    145.1672     27.1873
  1359.5000      7.9231      2.5998     -0.0023      3.0451    150.0182     27.0414
  1359.6000      7.9231      2.5913      0.0566      3.5602    151.3832     27.1465
  1359.7000      7.9231      2.5778      0.0162      4.3773    154.6858     27.8805
  1359.8000      7.9209      2.5623      0.0132      5.3125    158.6075     27.9815
  1359.9000      7.9209      2.5485      0.0299      6.1522    159.9312     27.1066
  1360.0000      7.9177      2.5382      0.0097      6.7773    160.2842     26.0551
  1360.1000      7.9177      2.5423     -0.0060      6.5268    162.8095     25.5255
  1360.2000      7.9177      2.5569      0.0328      5.6403    164.2972     25.3334
  1360.3000      7.9113      2.5610      0.0801      5.3910    161.6083     25.1977
  1360.4000      7.9113      2.5492      0.0269      6.1074    159.5032     25.7243
  1360.5000      7.9039      2.5359      0.0399      6.9175    160.3623     26.8056
  1360.6000      7.9039      2.5311      0.0481      7.2082    159.6648     27.4309
  1360.7000      7.9039      2.5318      0.0793      7.1646    156.8842     26.9782
  1360.8000      7.9001      2.5361      0.0413      6.9021    157.7142     25.6815
  1360.9000      7.9001      2.5488      0.0639      6.1322    161.2678     24.5388
  1361.0000      7.9042      2.5668      0.0661      5.0406    158.9077     24.1804
  1361.1000      7.9042      2.5871      0.0175      3.8092    150.8945     24.6787
  1361.2000      7.9042      2.6079      0.0537      2.5502    143.4121     25.8165
  1361.3000      7.9108      2.6166      0.0912      2.0216    136.2501     26.5626
  1361.4000      7.9108      2.6096      0.0593      2.4484    130.2527     25.8728
  1361.5000      7.9055      2.6018      0.0223      2.9200    127.8851     24.1237
  1361.6000      7.9055      2.6043      0.0732      2.7705    125.0688     22.7342
  1361.7000      7.9055      2.6084      0.1131      2.5234    117.8091     22.2204
  1361.8000      7.8931      2.6029      0.0828      2.8555    108.7265     21.3530
  1361.9000      7.8931      2.5926      0.0927      3.4768    101.3195     19.7321
  1362.0000      7.8918      2.5896      0.0675      3.6578     99.3645     18.9810
  1362.1000      7.8918      2.6016      0.0759      2.9351    104.1073     19.9116
