~Version Information
VERS.                      2.0: CWLS Log ASCII Standard - VERSION 2.0
WRAP.                       NO: One line per depth step
~Well Information Block
STRT.FT                -8.0000: 
STOP.FT               918.7500: 
STEP.FT                 0.2500: 
NULL.                -999.2500: 
COMP.          Pioneer Natural Resources: COMPANY
WELL.          Sculpin 32-30 Tr: WELL
FLD.           Purgatorie River: FIELD
LOC.           1600' FNL & 1857' FEL--: LOCATION
CNTY.               Las Animas: COUNTY
SRVC.          Patterson Wireline: SERVICE COMPANY
DATE.          Thu Aug 03 08:40:45 2006: LOG DATE
UWI.           05 071 08706 00: UNIQUE WELL ID
STAT.                       CO: STATE
~Curve Information Block
DEPT.FT            0 000 00 00: Depth
CCL.                          : Casing Collar Locator
TT3.usec                      : CBL 3' Travel Time
AMP3.mV                       : CBL 3' Amplitude
GR.GAPI                       : Gamma Ray
~Parameter Information Block
~A  Depth       CCL         TT3         AMP3         GR     
# ...
    59.0000      0.0000    453.8132      2.9206    123.4952
    59.2500      0.0000    422.9260      3.0503    119.8262
    59.5000      0.0000    398.2286      3.1135    114.1214
    59.7500      0.0000    383.6575      3.0976    108.9922
    60.0000      0.0000    377.6596      3.0148    105.7656
    60.2500      0.0000    377.0754      2.8875    104.3030
    60.5000      0.0000    379.6859      2.7408    103.5285
    60.7500      0.0000    384.2738      2.5984    102.1414
    61.0000      0.0000    389.9294      2.4773     99.5289
    61.2500      0.0000    395.8821      2.3843     96.5230
    61.5000      0.0000    401.5011      2.3156     95.0313
    61.7500      0.0000    406.4128      2.2615     96.4066
    62.0000      0.0000    410.9203      2.2098    100.0779
    62.2500      0.0000    416.5797      2.1500    103.9706
    62.5000      0.0000    425.9003      2.0774    106.3092
    62.7500      0.0000    440.7285      1.9993    106.9289
    63.0000      0.0000    460.7988      1.9374    106.9731
    63.2500      0.0000    484.9745      1.9227    107.5736
    63.5000      0.0000    513.9404      1.9798    108.7198
    63.7500      0.0000    548.9249      2.1093    109.2010
    64.0000      0.0000    586.2533      2.2839    107.7226
    64.2500      0.0000    616.6283      2.4659    104.1781
    64.5000      0.0000    633.3354      2.6295     99.6357
    64.7500      0.0000    639.7263      2.7664     95.2231
    65.0000      0.0000    646.3271      2.8752     91.5747
    65.2500      0.0000    661.4504      2.9528     89.2603
    65.5000      0.0000    685.1608      2.9978     88.7898
    65.7500      0.0000    710.6422      3.0191     89.7863
    66.0000      0.0000    730.1805      3.0356     90.8553
    66.2500      0.0000    740.1635      3.0667     90.9089
    66.5000      0.0000    740.5922      3.1181     90.3341
    66.7500      0.0000    730.6534      3.1812     90.3725
    67.0000      0.0000    707.2145      3.2465     91.4956
    67.2500      0.0000    669.6595      3.3168     92.6722
    67.5000      0.0000    624.9498      3.4028     92.2684
    67.7500      0.0000    585.0421      3.5157     89.7782
    68.0000      0.0000    558.5967      3.6649     86.6238
    68.2500      0.0000    546.3325      3.8535     84.8922
    68.5000      0.0000    543.9529      4.0626     85.2498
    68.7500      0.0000    547.5190      4.2511     86.5061
    69.0000      0.0000    555.6582      4.3823     87.0897
    69.2500      0.0000    568.1385      4.4537     86.4230
    69.5000      0.0000    583.3502      4.5022     85.0971
    69.7500      0.0000    597.3162      4.5825     84.3417
    70.0000      0.0000    605.5320      4.7341     85.0924
    70.2500      0.0000    606.3376      4.9574     86.9846
    70.5000      0.0000    602.2702      5.2138     88.4032
    70.7500      0.0000    597.9383      5.4494     87.9836
    71.0000      0.0000    596.9282      5.6234     85.9264
    71.2500      0.0000    600.4943      5.7259     83.5083
    71.5000      0.0000    607.9765      5.7778     81.5953
    71.7500      0.0000    617.8031      5.8152     80.1740
    72.0000      0.0000    628.4119      5.8674     79.1802
    72.2500      0.0000    638.5863      5.9446     79.2297
    72.5000      0.0000    647.3814      6.0422     81.3005
    72.7500      0.0000    654.3702      6.1467     85.7914
    73.0000      0.0000    660.0442      6.2379     91.7353
    73.2500      0.0000    665.2672      6.2935     96.8630
    73.5000      0.0000    669.9443      6.3001     98.8812
    73.7500      0.0000    672.4364      6.2622     97.0645
    74.0000      0.0000    670.7137      6.2038     92.6610
    74.2500      0.0000    664.3577      6.1605     87.8306
    74.5000      0.0000    655.0539      6.1665     84.1969
    74.7500      0.0000    644.6360      6.2420     82.1499
    75.0000      0.0000    632.8241      6.3825     81.1963
    75.2500      0.0000    617.8937      6.5557     80.6617
    75.5000      0.0000    599.9576      6.7147     79.8774
    75.7500      0.0000    583.2483      6.8262     78.0779
    76.0000      0.0000    575.0641      6.8887     74.8838
    76.2500      0.0000    581.4097      6.9206     71.0867
    76.5000      0.0000    601.7719      6.9342     68.3545
    76.7500      0.0000    628.3547      6.9277     67.7643
    77.0000      0.0000    651.9014      6.8982     68.8405
    77.2500      0.0000    668.0433      6.8496     70.1259
    77.5000      0.0000    677.7896      6.7849     70.3779
    77.7500      0.0000    683.7894      6.6975     69.1704
    78.0000      0.0000    687.7591      6.5736     66.7856
    78.2500      0.0000    690.4812      6.4013     63.7756
    78.5000      0.0000    692.3887      6.1796     60.5988
    78.7500      0.0000    693.7264      5.9226     57.5898
    79.0000      0.0000    694.5579      5.6584     55.1659
    79.2500      0.0000    694.9020      5.4185     53.8297
    79.5000      0.0000    694.8561      5.2230     53.8013
    79.7500      0.0000    694.5926      5.0729     54.6717
    80.0000      0.0000    694.2856      4.9564     55.6933
    80.2500      0.0000    694.0541      4.8620     56.5592
    80.5000      0.0000    693.9587      4.7877     57.6748
    80.7500      0.0000    694.0120      4.7395     59.4421
    81.0000      0.0000    694.1790      4.7231     61.4920
    81.2500      0.0000    694.3861      4.7379     62.9138
    81.5000      0.0000    694.5624      4.7765     63.2226
    81.7500      0.0000    694.6865      4.8275     62.9096
    82.0000      0.0000    694.7856      4.8790     63.0642
    82.2500      0.0000    694.8871      4.9188     64.5984
    82.5000      0.0000    694.9774      4.9345     67.6448
    82.7500      0.0000    695.0124      4.9161     71.1763
    83.0000      0.0000    694.9603      4.8616     73.2893
    83.2500      0.0000    694.8290      4.7790     72.5968
    83.5000      0.0000    694.6589      4.6826     69.5479
    83.7500      0.0000    694.4988      4.5852     65.9732
    84.0000      0.0000    694.3834      4.4918     63.4438
    84.2500      0.0000    694.3174      4.4020     62.4725
    84.5000      0.0000    694.2808      4.3150     62.9054
    84.7500      0.0000    694.2518      4.2333     64.1794
    85.0000      0.0000    694.2236      4.1632     65.1461
    85.2500      0.0000    694.1951      4.1122     64.5014
    85.5000      0.0000    694.1576      4.0847     61.8399
    85.7500      0.0000    694.1027      4.0774     58.0067
    86.0000      0.0000    694.0410      4.0808     54.4318
    86.2500      0.0000    694.0015      4.0844     52.4802
    86.5000      0.0000    694.0091      4.0837     53.1128
    86.7500      0.0000    694.0653      4.0807     56.2873
    87.0000      0.0000    694.1493      4.0795     60.5541
    87.2500      0.0000    694.2275      4.0834     63.9007
    87.5000      0.0000    694.2640      4.0932     65.3921
    87.7500      0.0000    694.2342      4.1095     65.8053
    88.0000      0.0000    694.1356      4.1338     66.4441
    88.2500      0.0000    693.9841      4.1663     67.4515
    88.5000      0.0000    693.8055      4.2039     67.6293
    88.7500      0.0000    693.6119      4.2415     66.0396
    89.0000      0.0000    693.4050      4.2810     63.4254
    89.2500      0.0000    693.2374      4.3369     61.5991
    89.5000      0.0000    693.4341      4.4292     61.4973
    89.7500      0.0000    694.7590      4.5647     62.2434
    90.0000      0.0000    697.9105      4.7251     62.4260
    90.2500      0.0000    702.2916      4.8760     62.0815
    90.5000      0.0000    705.6194      4.9917     62.8401
    90.7500      0.0000    705.5237      5.0721     66.0905
    91.0000      0.0000    701.2881      5.1343     71.6969
    91.2500      0.0000    693.3988      5.1941     78.7255
    91.5000      0.0000    682.0709      5.2573     86.5625
    91.7500      0.0000    666.8949      5.3188     94.4963
    92.0000      0.0000    647.3406      5.3619    100.6975
    92.2500      0.0000    623.7876      5.3618    102.9104
