~Version Information
VERS.                      2.0: CWLS Log ASCII Standard - VERSION 2.0
WRAP.                       NO: One line per depth step
~Well Information Block
STRT.FT               520.0000: 
STOP.FT              2555.2000: 
STEP.FT                 0.1000: 
NULL.                -999.2500: 
COMP.          Pioneer Natural Resources: COMPANY
WELL.          Horsefeathers 24-34: WELL
FLD.           Purgatoire River: FIELD
LOC.           183' FSL & 1570' FWL--: LOCATION
CNTY.               Las Animas: COUNTY
SRVC.                Patterson: SERVICE COMPANY
DATE.          Mon Feb 06 08:03:40 2006: LOG DATE
UWI.           05 071 08675 00: UNIQUE WELL ID
STAT.                 Colorado: STATE
~Curve Information Block
DEPT.FT            0 000 00 00: Depth
DCAL.in                       : CDL Caliper
RHOB.g/cc                     : CDL Bulk Density
RHOC.g/cc                     : CDL Density Correction
DPOR.pu                       : CDL Density Porosity
NPOR.pu                       : Neutron Porosity
GR.GAPI                       : Gamma Ray
~Parameter Information Block
~A  Depth       DCAL        RHOB        RHOC        DPOR        NPOR         GR     
   520.0000      8.1108      2.5138     -0.1981      8.2550     39.0715     48.6056
   520.1000      8.1108      2.5186     -0.2002      7.9643     39.1324     47.5693
   520.2000      8.1108      2.5126     -0.2015      8.3247     39.2090     45.7565
   520.3000      8.1109      2.4996     -0.2023      9.1181     39.1223     43.2339
   520.4000      8.1109      2.4925     -0.1940      9.5475     39.0805     39.9229
   520.5000      8.1117      2.5043     -0.1871      8.8307     39.2538     37.5465
   520.6000      8.1117      2.5286     -0.1960      7.3601     39.4044     36.5694
   520.7000      8.1117      2.5398     -0.1735      6.6780     39.3142     36.2850
   520.8000      8.1124      2.5237     -0.1928      7.6556     38.9357     36.8717
   520.9000      8.1124      2.4988     -0.2490      9.1634     38.5221     37.4932
   521.0000      8.1118      2.4937     -0.2533      9.4730     38.5287     35.6960
   521.1000      8.1118      2.5121     -0.1961      8.3561     38.8214     32.5973
   521.2000      8.1118      2.5282     -0.1969      7.3800     38.7638     32.4983
   521.3000      8.1097      2.5188     -0.2289      7.9496     38.5123     37.4733
   521.4000      8.1097      2.4896     -0.2014      9.7236     38.7300     44.5201
   521.5000      8.1063      2.4699     -0.3104     10.9138     39.5833     49.2341
   521.6000      8.1063      2.4889     -0.2462      9.7608     40.5710     50.4978
   521.7000      8.1063      2.5391     -0.2210      6.7218     40.9903     49.5637
   521.8000      8.1046      2.5808     -0.1510      4.1937     40.6953     48.6823
   521.9000      8.1046      2.5878     -0.1455      3.7698     40.0660     49.0810
   522.0000      8.1071      2.5779     -0.2329      4.3672     39.5099     49.4602
   522.1000      8.1071      2.5801     -0.1995      4.2369     39.4789     49.5985
   522.2000      8.1071      2.5845     -0.1401      3.9718     40.1695     51.4804
   522.3000      8.1099      2.5740     -0.2157      4.6055     41.1083     54.6665
   522.4000      8.1099      2.5659     -0.2165      5.0988     41.7586     55.7084
   522.5000      8.1103      2.5764     -0.2162      4.4589     42.1607     53.4872
   522.6000      8.1103      2.5924     -0.2023      3.4890     42.6258     50.7999
   522.7000      8.1103      2.5966     -0.1736      3.2365     43.0610     48.6238
   522.8000      8.1104      2.5956     -0.1948      3.2959     43.3083     47.2237
   522.9000      8.1104      2.6067     -0.2425      2.6217     43.5987     48.2570
   523.0000      8.1116      2.6210     -0.1800      1.7586     43.8361     49.9051
   523.1000      8.1116      2.6132     -0.1869      2.2307     43.6467     50.0229
   523.2000      8.1116      2.5822     -0.1822      4.1063     43.3847     49.1357
   523.3000      8.1112      2.5524     -0.2728      5.9129     43.3587     49.9045
   523.4000      8.1112      2.5440     -0.2435      6.4253     43.1221     53.6248
   523.5000      8.1094      2.5455     -0.1921      6.3346     42.5476     58.4882
   523.6000      8.1094      2.5320     -0.1727      7.1521     42.1040     61.9923
   523.7000      8.1094      2.5054     -0.2629      8.7666     42.1557     65.3371
   523.8000      8.1089      2.4854     -0.2005      9.9741     42.6816     71.2424
   523.9000      8.1089      2.4756     -0.2154     10.5715     43.1608     76.7315
   524.0000      8.1117      2.4770     -0.2597     10.4838     43.1277     78.9871
   524.1000      8.1117      2.4950     -0.2210      9.3958     42.8500     81.4970
   524.2000      8.1117      2.5185     -0.2047      7.9707     42.7851     83.2496
   524.3000      8.1168      2.5295     -0.1628      7.3041     42.9923     78.5644
   524.4000      8.1168      2.5281     -0.2518      7.3895     43.2101     72.1049
   524.5000      8.1186      2.5336     -0.1861      7.0542     43.3148     72.3846
   524.6000      8.1186      2.5507     -0.1623      6.0160     43.3226     76.4045
   524.7000      8.1186      2.5618     -0.1402      5.3437     43.2284     75.7868
   524.8000      8.1141      2.5477     -0.2079      6.2027     43.1056     71.1226
   524.9000      8.1141      2.5103     -0.1747      8.4675     42.9792     68.6743
   525.0000      8.1106      2.4816     -0.2511     10.2052     42.9298     71.9331
   525.1000      8.1106      2.4806     -0.2214     10.2653     43.2319     78.2047
   525.2000      8.1106      2.4863     -0.1994      9.9221     43.6019     81.2688
   525.3000      8.1118      2.4949     -0.2474      9.3979     43.5829     79.3253
   525.4000      8.1118      2.5227     -0.1733      7.7135     43.4676     75.4100
   525.5000      8.1147      2.5537     -0.1498      5.8363     43.5749     73.3634
   525.6000      8.1147      2.5578     -0.1712      5.5903     43.8302     76.3617
   525.7000      8.1147      2.5279     -0.1518      7.4010     44.1628     81.9168
   525.8000      8.1178      2.4779     -0.1868     10.4331     44.5766     84.7835
   525.9000      8.1178      2.4250     -0.2219     13.6368     44.8599     84.7911
   526.0000      8.1201      2.3814     -0.2761     16.2786     44.8592     85.3900
   526.1000      8.1201      2.3568     -0.2744     17.7724     44.7023     88.9992
   526.2000      8.1201      2.3540     -0.3095     17.9396     44.4136     93.2210
   526.3000      8.1216      2.3667     -0.2390     17.1701     44.1221     90.9325
   526.4000      8.1216      2.3896     -0.2057     15.7818     44.2154     80.6801
   526.5000      8.1238      2.4162     -0.1620     14.1725     44.5603     73.6743
   526.6000      8.1238      2.4379     -0.1846     12.8523     44.5321     77.7493
   526.7000      8.1238      2.4530     -0.1557     11.9396     43.9944     85.5012
   526.8000      8.1241      2.4573     -0.1594     11.6817     43.4665     87.2390
   526.9000      8.1241      2.4479     -0.2005     12.2506     43.4132     81.9141
   527.0000      8.1226      2.4245     -0.1311     13.6669     43.8508     75.3425
   527.1000      8.1226      2.3932     -0.2126     15.5655     44.2603     72.3583
   527.2000      8.1226      2.3807     -0.2521     16.3185     44.2311     73.4604
   527.3000      8.1230      2.4018     -0.1494     15.0450     44.0452     76.2148
   527.4000      8.1230      2.4267     -0.1221     13.5316     44.2514     78.4923
   527.5000      8.1238      2.4221     -0.1737     13.8125     44.8741     79.7536
   527.6000      8.1238      2.3895     -0.1845     15.7871     45.5620     79.5265
   527.7000      8.1238      2.3501     -0.1945     18.1772     46.1201     80.0320
   527.8000      8.1218      2.3264     -0.2443     19.6104     46.5337     81.6405
   527.9000      8.1218      2.3262     -0.1701     19.6225     46.7547     82.8851
   528.0000      8.1194      2.3285     -0.1642     19.4866     46.8107     83.9657
   528.1000      8.1194      2.3166     -0.1923     20.2042     47.0173     82.8166
   528.2000      8.1194      2.2963     -0.1719     21.4387     47.6115     79.4923
   528.3000      8.1196      2.2741     -0.2045     22.7847     48.2117     78.9470
   528.4000      8.1196      2.2481     -0.1613     24.3558     48.3299     81.7561
   528.5000      8.1207      2.2113     -0.1856     26.5890     48.0499     82.8762
   528.6000      8.1207      2.1657     -0.2502     29.3518     47.6123     81.1709
   528.7000      8.1207      2.1254     -0.2738     31.7948     47.2217     78.6560
   528.8000      8.1205      2.0973     -0.2742     33.4977     46.9741     76.6764
   528.9000      8.1205      2.0754     -0.2710     34.8269     46.8745     76.7485
   529.0000      8.1202      2.0593     -0.3293     35.7996     46.9692     78.8271
   529.1000      8.1202      2.0594     -0.2849     35.7924     47.2822     80.2982
   529.2000      8.1202      2.0760     -0.2813     34.7860     47.6723     81.0527
   529.3000      8.1205      2.0948     -0.2324     33.6515     47.7126     84.0358
   529.4000      8.1205      2.1106     -0.3175     32.6925     47.2038     87.7613
   529.5000      8.1204      2.1329     -0.2646     31.3390     46.7216     88.3062
