~Version Information
VERS.                      2.0: CWLS Log ASCII Standard - VERSION 2.0
WRAP.                       NO: One line per depth step
~Well Information Block
STRT.FT               645.0000: 
STOP.FT              2133.5000: 
STEP.FT                 0.2500: 
NULL.                -999.2500: 
COMP.          Pioneer Natural Resources: COMPANY
WELL.          Gunslinger 13-24: WELL
FLD.           Purgatoire River: FIELD
LOC.           1968' FSL & 633' FWL: LOCATION
PROV.                 Colorado: PROVINCE
CNTY.               Las Animas: COUNTRY
SRVC.                Patterson: SERVICE COMPANY
DATE.          Fri Jul 29 15:04:35 2005: LOG DATE
UWI.           05 071 08442 00: UNIQUE WELL ID
~Curve Information Block
DEPT.FT            0 000 00 00: Depth
SN.Ohm-m                      : IEL Short Normal
SP.mV                         : IEL Spontaneous Potential
DIR.Ohm-m                     : IEL Induction Resistivity
GR.GAPI                       : Gamma Ray
~Parameter Information Block
~A  Depth        SN          SP         DIR          GR     
# ...
   745.5000   2000.0000   2000.0000     25.7110     92.0175
   745.7500   2000.0000   2000.0000     24.0248    100.4410
   746.0000   2000.0000   2000.0000     22.4847    112.2713
   746.2500   2000.0000   2000.0000     21.0804    119.4481
   746.5000   2000.0000   2000.0000     19.8292    128.5205
   746.7500   2000.0000   2000.0000     18.7519    132.9013
   747.0000   2000.0000   2000.0000     17.8495    136.0990
   747.2500   2000.0000   2000.0000     17.0987    135.9976
   747.5000   2000.0000   2000.0000     16.4652    134.0932
   747.7500   2000.0000   2000.0000     15.9243    133.0849
   748.0000   2000.0000   2000.0000     15.4715    133.4961
   748.2500   2000.0000   2000.0000     15.1139    134.8834
   748.5000   2000.0000   2000.0000     14.8529    137.2469
   748.7500   2000.0000   2000.0000     14.6735    138.3916
   749.0000   2000.0000   2000.0000     14.5459    139.4893
   749.2500   2000.0000   2000.0000     14.4374    140.1371
   749.5000   2000.0000   2000.0000     14.3222    140.9868
   749.7500   2000.0000   2000.0000     14.1864    141.0499
   750.0000   2000.0000   2000.0000     14.0271    139.9633
   750.2500   2000.0000   2000.0000     13.8483    138.9003
   750.5000   2000.0000   2000.0000     13.6597    138.3331
   750.7500   2000.0000   2000.0000     13.4759    139.2281
   751.0000   2000.0000   2000.0000     13.3140    142.1438
   751.2500   2000.0000   2000.0000     13.1877    144.4033
   751.5000   2000.0000   2000.0000     13.1020    147.2213
   751.7500   2000.0000   2000.0000     13.0519    148.6839
   752.0000   2000.0000   2000.0000     13.0242    150.8278
   752.2500   2000.0000   2000.0000     13.0006    152.1915
   752.5000   2000.0000   2000.0000     12.9604    152.8668
   752.7500   2000.0000   2000.0000     12.8876    151.7428
   753.0000   2000.0000   2000.0000     12.7817    148.4955
   753.2500   2000.0000   2000.0000     12.6642    146.6247
   753.5000   2000.0000   2000.0000     12.5690    145.7356
   753.7500   2000.0000   2000.0000     12.5251    146.1379
   754.0000   2000.0000   2000.0000     12.5429    146.7758
   754.2500   2000.0000   2000.0000     12.6159    146.6432
   754.5000   2000.0000   2000.0000     12.7309    145.4817
   754.7500   2000.0000   2000.0000     12.8769    144.2423
   755.0000   2000.0000   2000.0000     13.0471    142.1140
   755.2500   2000.0000   2000.0000     13.2347    140.8012
   755.5000   2000.0000   2000.0000     13.4270    139.2440
   755.7500   2000.0000   2000.0000     13.6022    138.3926
   756.0000   2000.0000   2000.0000     13.7331    137.2764
   756.2500   2000.0000   2000.0000     13.7972    136.9202
   756.5000   2000.0000   2000.0000     13.7880    137.8281
   756.7500   2000.0000   2000.0000     13.7193    139.5501
   757.0000   2000.0000   2000.0000     13.6202    142.7829
   757.2500   2000.0000   2000.0000     13.5243    144.3374
   757.5000   2000.0000   2000.0000     13.4577    144.6089
   757.7500   2000.0000   2000.0000     13.4311    143.5530
   758.0000   2000.0000   2000.0000     13.4401    141.4095
   758.2500   2000.0000   2000.0000     13.4728    140.4184
   758.5000   2000.0000   2000.0000     13.5227    140.1091
   758.7500   2000.0000   2000.0000     13.5950    140.3826
   759.0000   2000.0000   2000.0000     13.7019    140.7314
   759.2500   2000.0000   2000.0000     13.8496    140.8040
   759.5000   2000.0000   2000.0000     14.0276    140.8799
   759.7500   2000.0000   2000.0000     14.2106    140.7565
   760.0000   2000.0000   2000.0000     14.3730    139.3533
   760.2500   2000.0000   2000.0000     14.5056    137.1296
   760.5000   2000.0000   2000.0000     14.6249    132.0679
   760.7500   2000.0000   2000.0000     14.7703    128.2327
   761.0000   2000.0000   2000.0000     14.9917    123.2971
   761.2500   2000.0000   2000.0000     15.3341    121.2694
   761.5000   2000.0000   2000.0000     15.8253    120.5288
   761.7500   2000.0000   2000.0000     16.4715    121.1351
   762.0000   2000.0000   2000.0000     17.2617    122.0539
   762.2500   2000.0000   2000.0000     18.1772    121.6676
   762.5000   2000.0000   2000.0000     19.1996    118.6120
   762.7500   2000.0000   2000.0000     20.3160    114.8667
   763.0000   2000.0000   2000.0000     21.5212    107.1418
   763.2500   2000.0000   2000.0000     22.8191    101.0696
   763.5000   2000.0000   2000.0000     24.2196     91.7555
   763.7500   2000.0000   2000.0000     25.7352     86.1519
   764.0000   2000.0000   2000.0000     27.3822     79.3479
   764.2500   2000.0000   2000.0000     29.1840     75.6295
   764.5000   2000.0000   2000.0000     31.1635     70.0004
   764.7500   2000.0000   2000.0000     33.3160     65.6438
   765.0000   2000.0000   2000.0000     35.5738     58.6500
   765.2500   2000.0000   2000.0000     37.7834     54.6019
   765.5000   2000.0000   2000.0000     39.7094     50.6552
   765.7500   2000.0000   2000.0000     41.0619     49.3617
   766.0000   2000.0000   2000.0000     41.5429     48.3739
   766.2500   2000.0000   2000.0000     40.9293     47.8197
   766.5000   2000.0000   2000.0000     39.1953     47.0930
   766.7500   2000.0000   2000.0000     36.5866     47.1721
   767.0000   2000.0000   2000.0000     33.5448     49.5087
   767.2500   2000.0000   2000.0000     30.5149     53.3422
   767.5000   2000.0000   2000.0000     27.7950     63.2267
   767.7500   2000.0000   2000.0000     25.5079     72.3990
   768.0000   2000.0000   2000.0000     23.6504     88.8665
   768.2500   2000.0000   2000.0000     22.1567    100.7952
   768.5000   2000.0000   2000.0000     20.9473    118.6402
   768.7500   2000.0000   2000.0000     19.9573    129.4463
   769.0000   2000.0000   2000.0000     19.1458    141.8089
   769.2500   2000.0000   2000.0000     18.4873    146.5189
   769.5000   2000.0000   2000.0000     17.9589    148.4298
   769.7500   2000.0000   2000.0000     17.5361    147.4483
   770.0000   2000.0000   2000.0000     17.2009    145.1399
   770.2500   2000.0000   2000.0000     16.9522    143.8648
   770.5000   2000.0000   2000.0000     16.8082    141.8378
   770.7500   2000.0000   2000.0000     16.7992    139.4736
   771.0000   2000.0000   2000.0000     16.9605    133.2458
   771.2500   2000.0000   2000.0000     17.3270    127.2298
   771.5000   2000.0000   2000.0000     17.9278    115.9332
   771.7500   2000.0000   2000.0000     18.7756    107.3424
   772.0000   2000.0000   2000.0000     19.8577     93.9050
   772.2500   2000.0000   2000.0000     21.1363     85.3467
   772.5000   2000.0000   2000.0000     22.5655     74.3845
   772.7500   2000.0000   2000.0000     24.1117     68.7878
   773.0000   2000.0000   2000.0000     25.7518     63.0607
   773.2500   2000.0000   2000.0000     27.4439     60.8202
   773.5000   2000.0000   2000.0000     29.0863     59.5172
   773.7500   2000.0000   2000.0000     30.5064     59.9990
   774.0000   2000.0000   2000.0000     31.5022     62.8687
   774.2500   2000.0000   2000.0000     31.9199     66.1568
   774.5000   2000.0000   2000.0000     31.7116     72.3898
   774.7500   2000.0000   2000.0000     30.9388     76.5439
   775.0000   2000.0000   2000.0000     29.7326     81.2417
   775.2500   2000.0000   2000.0000     28.2512     83.0601
   775.5000   2000.0000   2000.0000     26.6475     84.9188
   775.7500   2000.0000   2000.0000     25.0465     86.8438
   776.0000   2000.0000   2000.0000     23.5324     92.6741
   776.2500   2000.0000   2000.0000     22.1479     98.8452
   776.5000   2000.0000   2000.0000     20.9063    110.3383
   776.7500   2000.0000   2000.0000     19.8072    118.1730
   777.0000   2000.0000   2000.0000     18.8460    128.2139
   777.2500   2000.0000   2000.0000     18.0148    133.2953
   777.5000   2000.0000   2000.0000     17.3000    138.7313
   777.7500   2000.0000   2000.0000     16.6838    141.2801
   778.0000   2000.0000   2000.0000     16.1505    144.2922
   778.2500   2000.0000   2000.0000     15.6945    146.3527
   778.5000   2000.0000   2000.0000     15.3230    150.2624
   778.7500   2000.0000   2000.0000     15.0520    153.0869
