~Version Information
VERS.                      2.0: CWLS Log ASCII Standard - VERSION 2.0
WRAP.                       NO: One line per depth step
~Well Information Block
STRT.FT               525.0000: 
STOP.FT              2377.2500: 
STEP.FT                 0.2500: 
NULL.                -999.2500: 
COMP.          Pioneer Natural Resources: COMPANY
WELL.          Sparrowhawk 22-12: WELL
FLD.           Purgatoire River: FIELD
LOC.           2049' FNL & 2060' FWL--: LOCATION
CNTY.               Las Animas: COUNTY
SRVC.                Patterson: SERVICE COMPANY
DATE.          Thu Mar 23 10:52:44 2006: LOG DATE
UWI.           05 071 08484 00: UNIQUE WELL ID
STAT.                 Colorado: STATE
~Curve Information Block
DEPT.FT            0 000 00 00: Depth
SN.Ohm-m                      : IEL Short Normal
SP.mV                         : IEL Spontaneous Potential
DIR.Ohm-m                     : IEL Induction Resistivity
GR.GAPI                       : Gamma Ray
~Parameter Information Block
~A  Depth        SN          SP         DIR          GR     
# ...
  2099.5000     32.5036    163.7393     25.3105     75.5866
  2099.7500     33.9217    163.4233     25.6419     82.0911
  2100.0000     34.8821    162.9648     25.8453     92.8296
  2100.2500     35.2989    162.4527     25.8448     98.7852
  2100.5000     35.3258    161.9704     25.6117    103.7454
  2100.7500     35.2101    161.5750     25.1855    104.4205
  2101.0000     35.1487    161.2821     24.6580    103.4910
  2101.2500     35.2307    161.0622     24.1346    102.9078
  2101.5000     35.4602    160.8500     23.7014    102.8660
  2101.7500     35.8010    160.5650     23.4107    102.9783
  2102.0000     36.2097    160.1367     23.2874    102.6629
  2102.2500     36.6585    159.5268     23.3447    102.1788
  2102.5000     37.1508    158.7410     23.5973    101.1239
  2102.7500     37.7198    157.8265     24.0631     99.8068
  2103.0000     38.4072    156.8592     24.7530     96.0054
  2103.2500     39.2408    155.9238     25.6563     92.1131
  2103.5000     40.2317    155.0962     26.7287     84.6614
  2103.7500     41.3951    154.4311     27.8924     78.8989
  2104.0000     42.7746    153.9590     29.0573     69.4264
  2104.2500     44.4492    153.6886     30.1608     62.9558
  2104.5000     46.5086    153.6132     31.1981     54.3314
  2104.7500     48.9852    153.7161     32.2163     50.2520
  2105.0000     51.7612    153.9729     33.2703     47.8307
  2105.2500     54.5128    154.3524     34.3713     48.7869
  2105.5000     56.7579    154.8148     35.4550     53.1698
  2105.7500     58.0053    155.3120     36.3808     57.1196
  2106.0000     57.9340    155.7892     36.9665     62.7535
  2106.2500     56.5177    156.1910     37.0492     65.3250
  2106.5000     54.0393    156.4678     36.5506     66.4683
  2106.7500     50.9714    156.5840     35.5071     65.7245
  2107.0000     47.7653    156.5243     34.0467     64.3907
  2107.2500     44.6747    156.2961     32.3263     64.8611
  2107.5000     41.7309    155.9288     30.4756     69.2492
  2107.7500     38.8587    155.4684     28.5786     74.5956
  2108.0000     36.0107    154.9681     26.6941     84.8068
  2108.2500     33.2274    154.4797     24.8812     92.0088
  2108.5000     30.6209    154.0447     23.2039    102.3232
  2108.7500     28.3296    153.6888     21.7137    108.8719
  2109.0000     26.4722    153.4198     20.4314    118.5028
  2109.2500     25.1121    153.2289     19.3462    124.5604
  2109.5000     24.2383    153.0943     18.4287    131.7599
  2109.7500     23.7692    152.9874     17.6472    134.4064
  2110.0000     23.5787    152.8794     16.9825    134.6158
  2110.2500     23.5322    152.7482     16.4333    132.9293
  2110.5000     23.5174    152.5862     16.0130    130.0390
  2110.7500     23.4569    152.4053     15.7385    129.1191
  2111.0000     23.3067    152.2395     15.6179    130.0357
  2111.2500     23.0424    152.1397     15.6417    132.0108
  2111.5000     22.6440    152.1616     15.7803    136.4957
  2111.7500     22.0896    152.3480     15.9864    140.1097
  2112.0000     21.3651    152.7097     16.2030    145.3667
  2112.2500     20.4858    153.2133     16.3749    148.1144
  2112.5000     19.5068    153.7811     16.4609    150.7329
  2112.7500     18.5106    154.3062     16.4386    151.5944
  2113.0000     17.5816    154.6784     16.3009    151.3493
  2113.2500     16.7880    154.8129     16.0489    149.6915
  2113.5000     16.1746    154.6717     15.6894    144.6236
  2113.7500     15.7546    154.2700     15.2377    139.9971
  2114.0000     15.5004    153.6671     14.7208    132.5560
  2114.2500     15.3550    152.9459     14.1756    127.9179
  2114.5000     15.2673    152.1889     13.6417    122.2227
  2114.7500     15.2241    151.4594     13.1550    119.5618
  2115.0000     15.2482    150.7919     12.7423    117.2035
  2115.2500     15.3650    150.1919     12.4202    116.3437
  2115.5000     15.5688    149.6453     12.1963    115.6054
  2115.7500     15.8224    149.1317     12.0724    115.5236
  2116.0000     16.0869    148.6395     12.0487    116.1579
  2116.2500     16.3517    148.1785     12.1254    116.7202
  2116.5000     16.6384    147.7874     12.3017    116.3146
  2116.7500     16.9808    147.5326     12.5751    114.3354
  2117.0000     17.4065    147.4977     12.9420    108.3308
  2117.2500     17.9324    147.7617     13.4025    103.0119
  2117.5000     18.5712    148.3745     13.9635     95.5990
  2117.7500     19.3331    149.3333     14.6372     92.3760
  2118.0000     20.2158    150.5705     15.4335     90.4779
  2118.2500     21.1941    151.9605     16.3499     90.2569
  2118.5000     22.2227    153.3447     17.3679     89.4345
  2118.7500     23.2550    154.5691     18.4570     87.7526
  2119.0000     24.2612    155.5235     19.5832     83.1978
  2119.2500     25.2296    156.1670     20.7162     79.0929
  2119.5000     26.1506    156.5317     21.8297     72.1387
  2119.7500     27.0012    156.7015     22.8960     67.4418
  2120.0000     27.7474    156.7762     23.8784     61.1223
  2120.2500     28.3615    156.8336     24.7299     57.9503
  2120.5000     28.8344    156.9047     25.4026     55.7410
  2120.7500     29.1702    156.9714     25.8630     56.3298
  2121.0000     29.3719    156.9836     26.1009     60.0776
  2121.2500     29.4320    156.8871     26.1269     63.8910
  2121.5000     29.3390    156.6494     25.9681     70.5443
  2121.7500     29.0914    156.2740     25.6661     75.2774
  2122.0000     28.7098    155.7982     25.2756     82.3298
  2122.2500     28.2377    155.2810     24.8572     86.4199
  2122.5000     27.7309    154.7845     24.4666     90.2865
  2122.7500     27.2445    154.3598     24.1434     90.7339
  2123.0000     26.8220    154.0367     23.9050     88.1722
  2123.2500     26.4925    153.8216     23.7499     85.0358
  2123.5000     26.2769    153.6994     23.6668     80.0114
  2123.7500     26.1956    153.6378     23.6443     77.1586
  2124.0000     26.2645    153.5923     23.6738     73.7562
  2124.2500     26.4748    153.5131     23.7461     71.8519
  2124.5000     26.7719    153.3513     23.8432     69.2413
  2124.7500     27.0539    153.0655     23.9317     67.5607
  2125.0000     27.1990    152.6277     23.9615     65.0774
  2125.2500     27.1101    152.0262     23.8737     63.6097
  2125.5000     26.7531    151.2659     23.6162     62.4477
  2125.7500     26.1637    150.3642     23.1620     63.0195
  2126.0000     25.4174    149.3457     22.5211     67.0014
  2126.2500     24.5837    148.2367     21.7349     72.0584
  2126.5000     23.7021    147.0594     20.8553     82.7062
  2126.7500     22.7892    145.8313     19.9251     90.9262
  2127.0000     21.8584    144.5665     18.9715    102.9888
  2127.2500     20.9311    143.2798     18.0143    109.8763
  2127.5000     20.0386    141.9915     17.0767    117.4537
  2127.7500     19.2196    140.7303     16.1899    120.5887
  2128.0000     18.5146    139.5334     15.3906    123.1468
  2128.2500     17.9550    138.4443     14.7132    123.9880
  2128.5000     17.5497    137.5081     14.1837    124.3287
  2128.7500     17.2793    136.7655     13.8154    123.7876
  2129.0000     17.1019    136.2479     13.6103    121.6690
  2129.2500     16.9717    135.9726     13.5618    119.6524
  2129.5000     16.8635    135.9401     13.6579    116.3358
  2129.7500     16.7890    136.1331     13.8833    113.9349
  2130.0000     16.7935    136.5173     14.2192    109.3869
  2130.2500     16.9336    137.0438     14.6439    105.4647
  2130.5000     17.2488    137.6540     15.1325     98.9771
  2130.7500     17.7411    138.2839     15.6566     95.2773
  2131.0000     18.3709    138.8700     16.1816     92.2412
  2131.2500     19.0633    139.3546     16.6607     92.0796
  2131.5000     19.7151    139.6914     17.0298     93.7301
  2131.7500     20.2029    139.8494     17.2114     95.4375
  2132.0000     20.4047    139.8169     17.1340     98.3806
  2132.2500     20.2392    139.6030     16.7656    100.6200
  2132.5000     19.7052    139.2366     16.1398    104.6132
  2132.7500     18.8893    138.7634     15.3514    107.7839
