~Version Information
VERS.                      2.0: CWLS Log ASCII Standard - VERSION 2.0
WRAP.                       NO: One line per depth step
~Well Information Block
STRT.FT               240.0000: 
STOP.FT              1159.2000: 
STEP.FT                 0.1000: 
NULL.                -999.2500: 
COMP.          Pioneer Natural Resources: COMPANY
WELL.               Ryan 41-17: WELL
FLD.           Purgatoire River: FIELD
LOC.           822' FNL & 532' FEL--: LOCATION
CNTY.               Las Animas: COUNTY
SRVC.                Patterson: SERVICE COMPANY
DATE.          Fri Mar 17 07:19:36 2006: LOG DATE
UWI.           05 071 08719 00: UNIQUE WELL ID
STAT.                 Colorado: STATE
~Curve Information Block
DEPT.FT            0 000 00 00: Depth
DCAL.in                       : CDL Caliper
RHOB.g/cc                     : CDL Bulk Density
RHOC.g/cc                     : CDL Density Correction
DPOR.pu                       : CDL Density Porosity
NPOR.pu                       : Neutron Porosity
GR.GAPI                       : Gamma Ray
~Parameter Information Block
~A  Depth       DCAL        RHOB        RHOC        DPOR        NPOR         GR     
# ...
   595.2000      7.8316      2.5652      0.0429      5.1407     22.0034    116.9840
   595.3000      7.8244      2.5792      0.0786      4.2928     21.5047    124.5474
   595.4000      7.8244      2.5725      0.0416      4.6943     21.2131    124.8066
   595.5000      7.8283      2.5566      0.0205      5.6630     21.4223    121.6546
   595.6000      7.8283      2.5440      0.0206      6.4216     21.7823    119.9457
   595.7000      7.8283      2.5437      0.0252      6.4434     22.0785    118.5446
   595.8000      7.8315      2.5643     -0.0033      5.1909     22.4973    115.2798
   595.9000      7.8315      2.5899      0.0709      3.6398     22.8912    115.1405
   596.0000      7.8303      2.5863      0.0439      3.8618     22.8829    121.4193
   596.1000      7.8303      2.5544      0.0063      5.7936     22.5814    127.6742
   596.2000      7.8303      2.5265      0.0002      7.4862     22.4793    128.1860
   596.3000      7.8273      2.5184     -0.0028      7.9732     22.6542    125.5490
   596.4000      7.8273      2.5259     -0.0394      7.5215     22.7081    124.6343
   596.5000      7.8255      2.5432     -0.0226      6.4720     22.5540    124.4608
   596.6000      7.8255      2.5659      0.0311      5.0994     22.2916    124.2253
   596.7000      7.8255      2.5878      0.0295      3.7675     21.8534    125.6972
   596.8000      7.8249      2.6036      0.0560      2.8147     21.4584    126.7435
   596.9000      7.8249      2.6082      0.0589      2.5322     21.4189    126.4257
   597.0000      7.8255      2.5984      0.0710      3.1302     21.4627    123.0029
   597.1000      7.8255      2.5698      0.0696      4.8588     21.0783    114.1167
   597.2000      7.8255      2.5275      0.0387      7.4245     20.5341    105.9033
   597.3000      7.8250      2.4979     -0.0387      9.2189     20.4891    104.3854
   597.4000      7.8250      2.5033     -0.0466      8.8933     20.9167    104.3246
   597.5000      7.8192      2.5276      0.0565      7.4168     21.1692    100.8151
   597.6000      7.8192      2.5424      0.0419      6.5186     20.9721     95.5789
   597.7000      7.8192      2.5452      0.0321      6.3529     20.7387     92.5922
   597.8000      7.8118      2.5478      0.0019      6.1931     20.7448     94.5043
   597.9000      7.8118      2.5530      0.0466      5.8770     20.9317     98.6803
   598.0000      7.8082      2.5494      0.0440      6.0951     21.2558    101.2918
   598.1000      7.8082      2.5364     -0.0133      6.8832     21.2232    102.9850
   598.2000      7.8082      2.5361     -0.0016      6.9006     20.5013    103.4762
   598.3000      7.8067      2.5525      0.0782      5.9062     19.7872    100.5296
   598.4000      7.8067      2.5647      0.0099      5.1712     19.7116     97.2774
   598.5000      7.8068      2.5614      0.0624      5.3673     19.8367     94.9160
   598.6000      7.8068      2.5444      0.0222      6.3974     19.6665     90.6361
   598.7000      7.8068      2.5281      0.0105      7.3896     19.5020     86.5954
   598.8000      7.8075      2.5268      0.0317      7.4686     19.7590     85.7311
   598.9000      7.8075      2.5289      0.0523      7.3365     20.3120     85.1290
   599.0000      7.8085      2.5145      0.0401      8.2110     20.6618     83.7732
   599.1000      7.8085      2.4875     -0.0089      9.8465     20.4602     84.5580
   599.2000      7.8085      2.4688     -0.0028     10.9796     19.8594     85.2606
   599.3000      7.8095      2.4707      0.0016     10.8646     19.4031     82.8357
   599.4000      7.8095      2.4851      0.0354      9.9968     19.3415     78.1648
   599.5000      7.8131      2.4946      0.0509      9.4168     19.3125     72.9681
   599.6000      7.8131      2.4980      0.0384      9.2132     18.9190     69.5035
   599.7000      7.8131      2.5048      0.0904      8.8009     18.3263     69.6366
   599.8000      7.8148      2.5128      0.1133      8.3128     17.9220     72.6888
   599.9000      7.8148      2.5155      0.1133      8.1536     17.7066     76.4709
   600.0000      7.8090      2.5147      0.0782      8.2018     17.5055     78.4292
   600.1000      7.8090      2.5150      0.1261      8.1806     17.1813     78.4887
   600.2000      7.8090      2.5163      0.1043      8.1010     16.8453     78.9352
   600.3000      7.8031      2.5163      0.0854      8.1053     16.7412     79.4811
   600.4000      7.8031      2.5074      0.0784      8.6432     16.7848     78.0297
   600.5000      7.8006      2.4829      0.0742     10.1245     16.7273     75.9279
   600.6000      7.8006      2.4527      0.0121     11.9547     16.4378     76.7070
   600.7000      7.8006      2.4350      0.0323     13.0299     16.1633     78.7201
   600.8000      7.8007      2.4370      0.0057     12.9072     16.2548     77.4766
   600.9000      7.8007      2.4556      0.0279     11.7803     16.6474     74.8697
   601.0000      7.8057      2.4765      0.0650     10.5130     16.9280     75.1148
   601.1000      7.8057      2.4871      0.0279      9.8721     16.9074     77.1369
   601.2000      7.8057      2.4863      0.0690      9.9227     16.7885     76.7516
   601.3000      7.8128      2.4830      0.0237     10.1194     16.8081     73.7905
   601.4000      7.8128      2.4899      0.0453      9.7016     17.1644     72.3247
   601.5000      7.8162      2.5019      0.0647      8.9758     17.8050     71.5302
   601.6000      7.8162      2.5114      0.0253      8.4008     18.4545     69.1244
   601.7000      7.8162      2.5217      0.0557      7.7749     18.9940     68.7495
   601.8000      7.8146      2.5300      0.0227      7.2724     19.4287     73.8255
   601.9000      7.8146      2.5337      0.0203      7.0495     19.8451     82.1218
   602.0000      7.8128      2.5395      0.0368      6.6946     20.3703     90.6873
   602.1000      7.8128      2.5563      0.0497      5.6814     21.0871     98.0695
   602.2000      7.8128      2.5789      0.1024      4.3105     21.8970    101.9618
   602.3000      7.8145      2.5881      0.0980      3.7537     22.4420    104.0469
   602.4000      7.8145      2.5753      0.0416      4.5301     22.3966    108.9111
   602.5000      7.8167      2.5481      0.0308      6.1766     21.8898    115.2620
   602.6000      7.8167      2.5193      0.0195      7.9200     21.6458    119.1669
   602.7000      7.8167      2.5081     -0.0192      8.6004     21.9820    121.0306
   602.8000      7.8173      2.5224      0.0577      7.7346     22.4136    124.0519
   602.9000      7.8173      2.5432      0.0572      6.4750     22.6909    130.0449
   603.0000      7.8175      2.5445      0.1053      6.3910     22.8894    137.2028
   603.1000      7.8175      2.5246      0.0121      7.6014     22.9101    143.2229
   603.2000      7.8175      2.5127      0.0414      8.3234     22.6819    145.0066
   603.3000      7.8194      2.5237      0.0530      7.6542     22.4480    142.2307
   603.4000      7.8194      2.5374      0.0646      6.8262     22.3422    140.0835
   603.5000      7.8246      2.5314      0.0577      7.1877     22.3516    140.6339
   603.6000      7.8246      2.5134      0.0156      8.2798     22.5884    143.0962
   603.7000      7.8246      2.5081     -0.0058      8.6024     22.9420    148.9141
   603.8000      7.8284      2.5208      0.0237      7.8288     23.0954    155.4523
   603.9000      7.8284      2.5390      0.0560      6.7244     23.1134    157.0522
   604.0000      7.8298      2.5489      0.0298      6.1246     23.2708    152.3385
   604.1000      7.8298      2.5445      0.0076      6.3948     23.3340    145.7989
   604.2000      7.8298      2.5369      0.0110      6.8556     23.1265    139.8272
   604.3000      7.8304      2.5380      0.0230      6.7871     23.0077    131.9698
   604.4000      7.8304      2.5400      0.0319      6.6649     23.1588    124.4333
   604.5000      7.8299      2.5352      0.0031      6.9563     23.3126    119.7777
   604.6000      7.8299      2.5346      0.0313      6.9968     23.1852    114.6148
   604.7000      7.8299      2.5460      0.0126      6.3059     22.8676    107.5216
