~Version Information
VERS.                      2.0: CWLS Log ASCII Standard - VERSION 2.0
WRAP.                       NO: One line per depth step
~Well Information Block
STRT.FT               230.0000: 
STOP.FT               707.5000: 
STEP.FT                 0.2500: 
NULL.                -999.2500: 
COMP.          Pioneer Natural Resources: COMPANY
WELL.          Razor Clam 23-27: WELL
FLD.           Purgatoire River: FIELD
LOC.           2499' FSL & 2636' FWL: LOCATION
CNTY.               Las Animas: COUNTY
SRVC.                Patterson: SERVICE COMPANY
DATE.          Sun Feb 12 15:35:16 2006: LOG DATE
UWI.           05 071 08667 00: UNIQUE WELL ID
STAT.                 Colorado: STATE
~Curve Information Block
DEPT.FT            0 000 00 00: Depth
SN.Ohm-m                      : IEL Short Normal
SP.mV                         : IEL Spontaneous Potential
DIR.Ohm-m                     : IEL Induction Resistivity
GR.GAPI                       : Gamma Ray
~Parameter Information Block
~A  Depth        SN          SP         DIR          GR     
# ...
   263.5000   2000.0000   2000.0000     30.9462     64.3207
   263.7500   2000.0000   2000.0000     29.7295     67.3969
   264.0000   2000.0000   2000.0000     27.7833     70.9841
   264.2500   2000.0000   2000.0000     25.7072     72.3520
   264.5000   2000.0000   2000.0000     23.7616     72.7209
   264.7500   2000.0000   2000.0000     22.0286     71.9630
   265.0000   2000.0000   2000.0000     20.5495     70.0015
   265.2500   2000.0000   2000.0000     19.3564     68.9511
   265.5000   2000.0000   2000.0000     18.4487     69.5848
   265.7500   2000.0000   2000.0000     17.7787     72.3743
   266.0000   2000.0000   2000.0000     17.2679     80.7532
   266.2500   2000.0000   2000.0000     16.8436     88.9945
   266.5000   2000.0000   2000.0000     16.4678    104.4241
   266.7500   2000.0000   2000.0000     16.1380    115.8080
   267.0000   2000.0000   2000.0000     15.8659    132.1073
   267.2500   2000.0000   2000.0000     15.6545    140.8632
   267.5000   2000.0000   2000.0000     15.4892    148.9305
   267.7500   2000.0000   2000.0000     15.3439    150.7160
   268.0000   2000.0000   2000.0000     15.1948    148.8452
   268.2500   2000.0000   2000.0000     15.0345    145.3959
   268.5000   2000.0000   2000.0000     14.8796    138.6198
   268.7500   2000.0000   2000.0000     14.7628    134.1130
   269.0000   2000.0000   2000.0000     14.7187    128.9010
   269.2500   2000.0000   2000.0000     14.7710    126.8669
   269.5000   2000.0000   2000.0000     14.9305    125.7452
   269.7500   2000.0000   2000.0000     15.2013    125.8083
   270.0000   2000.0000   2000.0000     15.5858    125.9486
   270.2500   2000.0000   2000.0000     16.0804    125.0972
   270.5000   2000.0000   2000.0000     16.6653    120.5415
   270.7500   2000.0000   2000.0000     17.2958    114.8632
   271.0000   2000.0000   2000.0000     17.9098    103.8192
   271.2500   2000.0000   2000.0000     18.4514     96.5371
   271.5000   2000.0000   2000.0000     18.8959     88.3606
   271.7500   2000.0000   2000.0000     19.2552     85.2309
   272.0000   2000.0000   2000.0000     19.5601     83.0745
   272.2500   2000.0000   2000.0000     19.8378     82.3426
   272.5000   2000.0000   2000.0000     20.1017     81.2203
   272.7500   2000.0000   2000.0000     20.3519     80.5368
   273.0000   2000.0000   2000.0000     20.5780     80.4406
   273.2500   2000.0000   2000.0000     20.7588     81.2756
   273.5000   2000.0000   2000.0000     20.8614     83.5714
   273.7500   2000.0000   2000.0000     20.8491     85.4509
   274.0000   2000.0000   2000.0000     20.7000     88.3326
   274.2500   2000.0000   2000.0000     20.4261     89.9719
   274.5000   2000.0000   2000.0000     20.0773     91.2731
   274.7500   2000.0000   2000.0000     19.7195     91.1242
   275.0000   2000.0000   2000.0000     19.4058     89.5394
   275.2500   2000.0000   2000.0000     19.1626     87.7873
   275.5000   2000.0000   2000.0000     18.9952     84.4748
   275.7500   2000.0000   2000.0000     18.9015     82.1865
   276.0000   2000.0000   2000.0000     18.8795     79.5009
   276.2500   2000.0000   2000.0000     18.9236     78.4145
   276.5000   2000.0000   2000.0000     19.0171     77.2440
   276.7500   2000.0000   2000.0000     19.1286     76.1996
   277.0000   2000.0000   2000.0000     19.2197     73.8770
   277.2500   2000.0000   2000.0000     19.2616     72.1617
   277.5000   2000.0000   2000.0000     19.2522     70.3331
   277.7500   2000.0000   2000.0000     19.2171     70.0180
   278.0000   2000.0000   2000.0000     19.1927     70.9362
   278.2500   2000.0000   2000.0000     19.2036     72.2137
   278.5000   2000.0000   2000.0000     19.2531     74.5488
   278.7500   2000.0000   2000.0000     19.3309     76.0485
   279.0000   2000.0000   2000.0000     19.4276     77.6977
   279.2500   2000.0000   2000.0000     19.5445     78.2541
   279.5000   2000.0000   2000.0000     19.6913     78.4548
   279.7500   2000.0000   2000.0000     19.8766     78.3746
   280.0000   2000.0000   2000.0000     20.1002     77.9774
   280.2500   2000.0000   2000.0000     20.3498     77.3010
   280.5000   2000.0000   2000.0000     20.6032     75.2991
   280.7500   2000.0000   2000.0000     20.8325     73.4148
   281.0000   2000.0000   2000.0000     21.0116     70.5299
   281.2500   2000.0000   2000.0000     21.1229     69.0426
   281.5000   2000.0000   2000.0000     21.1602     67.8325
   281.7500   2000.0000   2000.0000     21.1266     67.6581
   282.0000   2000.0000   2000.0000     21.0298     67.9769
   282.2500   2000.0000   2000.0000     20.8821     68.2679
   282.5000   2000.0000   2000.0000     20.7020     68.4365
   282.7500   2000.0000   2000.0000     20.5112     68.5220
   283.0000   2000.0000   2000.0000     20.3242     69.5801
   283.2500   2000.0000   2000.0000     20.1412     71.4169
   283.5000   2000.0000   2000.0000     19.9507     75.6069
   283.7500   2000.0000   2000.0000     19.7410     78.5066
   284.0000   2000.0000   2000.0000     19.5104     81.3559
   284.2500   2000.0000   2000.0000     19.2685     81.7088
   284.5000   2000.0000   2000.0000     19.0337     80.0679
   284.7500   2000.0000   2000.0000     18.8308     78.0903
   285.0000   2000.0000   2000.0000     18.6897     74.9103
   285.2500   2000.0000   2000.0000     18.6401     73.1334
   285.5000   2000.0000   2000.0000     18.7012     71.6302
   285.7500   2000.0000   2000.0000     18.8684     71.7245
   286.0000   2000.0000   2000.0000     19.1068     73.5704
   286.2500   2000.0000   2000.0000     19.3564     75.4405
   286.5000   2000.0000   2000.0000     19.5523     77.5132
   286.7500   2000.0000   2000.0000     19.6497     77.3280
   287.0000   2000.0000   2000.0000     19.6403     74.0116
   287.2500   2000.0000   2000.0000     19.5495     70.6081
   287.5000   2000.0000   2000.0000     19.4196     66.5957
   287.7500   2000.0000   2000.0000     19.2928     65.9380
   288.0000   2000.0000   2000.0000     19.2022     67.7375
   288.2500   2000.0000   2000.0000     19.1702     69.4968
   288.5000   2000.0000   2000.0000     19.2121     70.8297
   288.7500   2000.0000   2000.0000     19.3403     70.4546
   289.0000   2000.0000   2000.0000     19.5627     68.6409
   289.2500   2000.0000   2000.0000     19.8695     67.2256
   289.5000   2000.0000   2000.0000     20.2180     65.7042
   289.7500   2000.0000   2000.0000     20.5314     65.4657
   290.0000   2000.0000   2000.0000     20.7241     66.6673
   290.2500   2000.0000   2000.0000     20.7414     68.6207
   290.5000   2000.0000   2000.0000     20.5861     73.3188
   290.7500   2000.0000   2000.0000     20.3127     77.5889
   291.0000   2000.0000   2000.0000     19.9975     85.5476
   291.2500   2000.0000   2000.0000     19.7053     91.7011
   291.5000   2000.0000   2000.0000     19.4667    101.5165
   291.7500   2000.0000   2000.0000     19.2686    107.7791
   292.0000   2000.0000   2000.0000     19.0626    115.5039
   292.2500   2000.0000   2000.0000     18.7862    119.1656
   292.5000   2000.0000   2000.0000     18.3931    122.8003
   292.7500   2000.0000   2000.0000     17.8776    124.5649
   293.0000   2000.0000   2000.0000     17.2801    127.0536
   293.2500   2000.0000   2000.0000     16.6686    128.8046
   293.5000   2000.0000   2000.0000     16.1093    131.5885
   293.7500   2000.0000   2000.0000     15.6450    133.6111
   294.0000   2000.0000   2000.0000     15.2910    137.2191
   294.2500   2000.0000   2000.0000     15.0437    140.0386
   294.5000   2000.0000   2000.0000     14.8885    144.1621
   294.7500   2000.0000   2000.0000     14.8016    146.1719
   295.0000   2000.0000   2000.0000     14.7486    147.3265
   295.2500   2000.0000   2000.0000     14.6889    146.6823
   295.5000   2000.0000   2000.0000     14.5894    143.3270
   295.7500   2000.0000   2000.0000     14.4389    139.4846
   296.0000   2000.0000   2000.0000     14.2485    132.1670
   296.2500   2000.0000   2000.0000     14.0412    127.2843
   296.5000   2000.0000   2000.0000     13.8410    121.9213
   296.7500   2000.0000   2000.0000     13.6684    120.4638
