~Version Information
VERS.                      2.0: CWLS Log ASCII Standard - VERSION 2.0
WRAP.                       NO: One line per depth step
~Well Information Block
STRT.FT               370.0000: 
STOP.FT              2832.5000: 
STEP.FT                 0.1000: 
NULL.                -999.2500: 
COMP.          Pioneer Natural Resources: COMPANY
WELL.          Black Cat 13-32: WELL
FLD.           Purgatoire River: FIELD
LOC.           1865' FSL & 1120' FWL--: LOCATION
PROV.                 Colorado: PROVINCE
CNTY.               Las Animas: COUNTRY
SRVC.                Patterson: SERVICE COMPANY
DATE.          Sun Jul 31 08:38:44 2005: LOG DATE
UWI.           05 071 08450 00: UNIQUE WELL ID
~Curve Information Block
DEPT.FT            0 000 00 00: Depth
DCAL.in                       : CDL Caliper
DPOR.pu                       : CDL Density Porosity
NPOR.pu                       : Neutron Porosity
RHOB.g/cc                     : CDL Bulk Density
RHOC.g/cc                     : CDL Density Correction
GR.GAPI                       : Gamma Ray
~Parameter Information Block
~A  Depth       DCAL        DPOR        NPOR        RHOB        RHOC         GR     
# ...
  1291.6000      8.0474      2.5192     25.3643      2.6084      0.0566    133.7618
  1291.7000      8.0474      2.2461     25.9586      2.6129      0.0722    129.2563
  1291.8000      8.0498      2.3960     26.9078      2.6105      0.0403    125.5296
  1291.9000      8.0498      2.4918     27.7755      2.6089      0.0671    128.1171
  1292.0000      8.0562      2.9199     28.2438      2.6018      0.0641    134.5746
  1292.1000      8.0562      4.3577     28.4623      2.5781      0.0337    136.7946
  1292.2000      8.0562      6.3914     28.5668      2.5445      0.0353    135.2468
  1292.3000      8.0648      7.9988     28.8227      2.5180      0.0101    137.0011
  1292.4000      8.0648      8.8371     29.4877      2.5042      0.0098    145.5514
  1292.5000      8.0697     10.0858     30.3570      2.4836      0.0306    156.2968
  1292.6000      8.0697     13.2650     31.1817      2.4311      0.0257    161.7763
  1292.7000      8.0697     18.4929     31.8470      2.3449     -0.0056    159.3403
  1292.8000      8.0711     24.8533     32.5781      2.2399     -0.0537    152.2236
  1292.9000      8.0711     31.8422     33.5886      2.1246     -0.0679    147.4580
  1293.0000      8.0746     39.4088     34.3932      1.9998     -0.0867    150.3212
  1293.1000      8.0746     47.0155     34.4381      1.8742     -0.1554    155.2950
  1293.2000      8.0746     53.8369     34.1346      1.7617     -0.1612    149.6537
  1293.3000      8.0831     59.8244     34.1671      1.6629     -0.1564    132.7981
  1293.4000      8.0831     65.4439     34.3840      1.5702     -0.1505    115.6670
  1293.5000      8.0934     70.5972     34.4183      1.4851     -0.1419    104.6656
  1293.6000      8.0934     74.4660     34.4189      1.4213     -0.1495     98.8119
  1293.7000      8.0934     76.3241     34.6291      1.3907     -0.0918     93.9476
  1293.8000      8.0998     76.4026     34.9440      1.3894     -0.0102     85.1108
  1293.9000      8.0998     75.6546     35.2302      1.4017      0.0370     76.4553
  1294.0000      8.1043     75.1081     35.5935      1.4107      0.0697     73.5124
  1294.1000      8.1043     75.5504     36.0038      1.4034      0.0645     71.0179
  1294.2000      8.1043     76.9348     36.2650      1.3806      0.0261     66.0250
  1294.3000      8.1077     78.1929     36.1352      1.3598     -0.0115     60.3848
  1294.4000      8.1077     78.5261     35.7792      1.3543      0.0290     53.5588
  1294.5000      8.1098     78.2694     35.8919      1.3586      0.0372     48.1597
  1294.6000      8.1098     77.7460     36.4914      1.3672      0.0451     46.8243
  1294.7000      8.1098     76.3114     36.7468      1.3909      0.0271     48.1699
  1294.8000      8.1130     73.1835     36.4225      1.4425      0.0574     49.9228
  1294.9000      8.1130     68.8216     36.1834      1.5144      0.0954     49.0342
  1295.0000      8.1102     64.6560     36.3123      1.5832      0.1339     45.3073
  1295.1000      8.1102     61.6460     36.3674      1.6328      0.1443     41.0497
  1295.2000      8.1102     59.8522     36.0675      1.6624      0.1591     38.7857
  1295.3000      8.1012     59.1775     35.7875      1.6736      0.1712     39.5252
  1295.4000      8.1012     59.5184     35.7141      1.6679      0.1397     42.6452
  1295.5000      8.0962     60.2047     35.6360      1.6566      0.0872     46.8223
  1295.6000      8.0962     60.7304     35.6224      1.6479      0.0880     50.8849
  1295.7000      8.0962     61.7823     35.6169      1.6306      0.0665     54.5468
  1295.8000      8.0939     64.3681     35.5350      1.5879     -0.0035     57.3972
  1295.9000      8.0939     68.1874     35.6497      1.5249     -0.0742     58.4724
  1296.0000      8.0901     71.5146     35.8608      1.4700     -0.0725     57.6781
  1296.1000      8.0901     72.7374     35.6604      1.4498     -0.0247     56.4511
  1296.2000      8.0901     71.2623     35.2269      1.4742      0.0340     55.5164
  1296.3000      8.0910     67.0646     35.1872      1.5434      0.0706     53.7848
  1296.4000      8.0910     60.3607     35.4597      1.6540      0.1211     52.0017
  1296.5000      8.1001     52.1813     35.3890      1.7890      0.1779     53.1164
  1296.6000      8.1001     44.1255     34.5918      1.9219      0.2121     57.9596
  1296.7000      8.1001     36.8154     33.0074      2.0425      0.2205     63.7409
  1296.8000      8.1143     29.7342     31.0362      2.1594      0.2623     67.2459
  1296.9000      8.1143     22.7078     29.1517      2.2753      0.2983     69.2234
  1297.0000      8.1248     16.3562     27.7646      2.3801      0.3215     74.1534
  1297.1000      8.1248     11.0477     27.2358      2.4677      0.2864     84.1512
  1297.2000      8.1248      6.7768     27.2842      2.5382      0.2307     96.7174
  1297.3000      8.1276      4.0723     27.3580      2.5828      0.2011    106.9947
  1297.4000      8.1276      3.0613     27.3449      2.5995      0.1005    111.0150
  1297.5000      8.1265      2.7087     27.3218      2.6053      0.0698    109.9271
  1297.6000      8.1265      2.7484     27.0470      2.6047      0.1163    108.9656
  1297.7000      8.1265      3.8207     26.2966      2.5870      0.0681    113.4282
  1297.8000      8.1219      5.5269     25.3753      2.5588      0.0645    120.4608
  1297.9000      8.1219      6.6833     24.8168      2.5397      0.0092    121.3072
  1298.0000      8.1128      6.7477     24.5657      2.5387      0.0538    114.2105
  1298.1000      8.1128      6.1531     24.4243      2.5485      0.0582    109.0320
  1298.2000      8.1128      5.3476     24.6055      2.5618      0.0614    110.8542
  1298.3000      8.1043      4.3716     25.0603      2.5779      0.0531    111.8231
  1298.4000      8.1043      3.3439     25.4610      2.5948      0.0626    110.0465
  1298.5000      8.0998      2.8285     25.6813      2.6033      0.0976    108.1061
  1298.6000      8.0998      3.2153     25.8880      2.5969      0.0789    105.1202
  1298.7000      8.0998      3.7530     25.9402      2.5881      0.0220    105.8586
  1298.8000      8.0947      3.8456     25.5591      2.5865      0.0519    113.8327
  1298.9000      8.0947      4.2030     25.0740      2.5806      0.0363    121.9221
  1299.0000      8.0858      5.1722     25.1223      2.5647      0.0463    126.6959
  1299.1000      8.0858      5.7656     25.7618      2.5549     -0.0146    128.7082
  1299.2000      8.0858      5.2976     26.4191      2.5626      0.0354    125.6409
  1299.3000      8.0776      4.4881     26.6387      2.5759      0.0535    118.0549
  1299.4000      8.0776      4.4001     26.8105      2.5774      0.0654    111.4906
  1299.5000      8.0733      5.2608     27.3073      2.5632      0.0610    109.5977
  1299.6000      8.0733      6.1478     27.4339      2.5486      0.0423    112.7304
  1299.7000      8.0733      6.1960     26.7965      2.5478      0.0462    121.4958
  1299.8000      8.0722      5.3011     26.1849      2.5625      0.0382    130.0478
  1299.9000      8.0722      3.6034     26.1807      2.5905      0.0790    129.5881
  1300.0000      8.0719      1.5336     26.3871      2.6247      0.0867    121.5762
  1300.1000      8.0719     -0.1389     26.4930      2.6523      0.0968    117.5450
  1300.2000      8.0719     -0.5139     26.5853      2.6585      0.1371    122.8264
  1300.3000      8.0730      0.5837     26.4934      2.6404      0.0706    129.2142
  1300.4000      8.0730      2.2213     25.9309      2.6133      0.0569    130.6646
  1300.5000      8.0753      3.5392     25.3025      2.5916      0.0517    131.9943
  1300.6000      8.0753      4.0285     25.1799      2.5835      0.0189    135.0246
  1300.7000      8.0753      3.4839     25.1579      2.5925      0.0303    132.2665
  1300.8000      8.0762      2.5244     24.7194      2.6083      0.0399    120.6934
  1300.9000      8.0762      1.8073     24.0735      2.6202      0.0699    105.8541
  1301.0000      8.0731      1.2269     23.4295      2.6298      0.0555     95.2278
  1301.1000      8.0731      0.4588     22.6927      2.6424      0.0442     91.8914
