~Version Information
VERS.                      2.0: CWLS Log ASCII Standard - VERSION 2.0
WRAP.                       NO: One line per depth step
~Well Information Block
STRT.FT               -10.0000: 
STOP.FT              2073.0000: 
STEP.FT                 0.2500: 
NULL.                -999.2500: 
COMP.          Pioneer Natural Resources: COMPANY
WELL.              Joplin 44-5: WELL
FLD.           Purgatorie River: FIELD
LOC.           262' FSL & 418' FEL--: LOCATION
PROV.                       CO: PROVINCE
CNTY.               Las Animas: COUNTRY
SRVC.          Patterson Wireline: SERVICE COMPANY
DATE.          Mon Dec 19 09:21:33 2005: LOG DATE
UWI.           05 071 08623 00: UNIQUE WELL ID
~Curve Information Block
DEPT.FT            0 000 00 00: Depth
CCL.                          : Casing Collar Locator
TT3.usec                      : CBL 3' Travel Time
AMP3.mV                       : CBL 3' Amplitude
GR.GAPI                       : Gamma Ray
~Parameter Information Block
~A  Depth       CCL         TT3         AMP3         GR     
# ...
  1765.5000      0.0000    695.1509      5.1563     78.5902
  1765.7500      0.0000    698.2823      5.1123     83.6682
  1766.0000      0.0000    703.4840      5.0494     87.0918
  1766.2500      0.0000    710.1313      4.9870     90.2386
  1766.5000      0.0000    716.0386      4.9360     94.1045
  1766.7500      0.0000    718.5322      4.9047     98.0397
  1767.0000      0.0000    716.4279      4.9008    100.7873
  1767.2500      0.0000    710.9882      4.9215    102.0875
  1767.5000      0.0000    704.8192      4.9487    102.7837
  1767.7500      0.0000    699.9332      4.9619    103.7428
  1768.0000      0.0000    696.8608      4.9554    105.1795
  1768.2500      0.0000    695.1396      4.9395    106.6904
  1768.5000      0.0000    694.1398      4.9258    107.3288
  1768.7500      0.0000    693.4559      4.9148    106.0533
  1769.0000      0.0000    692.9227      4.8960    102.9716
  1769.2500      0.0000    692.5223      4.8582     99.9532
  1769.5000      0.0000    692.2842      4.7977     99.1445
  1769.7500      0.0000    692.1948      4.7229    100.9081
  1770.0000      0.0000    692.1743      4.6531    103.9498
  1770.2500      0.0000    692.1216      4.6098    107.3437
  1770.5000      0.0000    691.9772      4.6022    111.4194
  1770.7500      0.0000    691.7407      4.6203    116.2906
  1771.0000      0.0000    691.4730      4.6471    120.3648
  1771.2500      0.0000    691.1419      4.6790    121.2709
  1771.5000      0.0000    690.2565      4.7293    118.1301
  1771.7500      0.0000    687.3369      4.8141    112.1566
  1772.0000      0.0000    680.1625      4.9370    105.0641
  1772.2500      0.0000    668.0792      5.0872     97.7839
  1772.5000      0.0000    654.8903      5.2464     90.9932
  1772.7500      0.0000    647.2625      5.3957     85.8284
  1773.0000      0.0000    646.8629      5.5212     83.0061
  1773.2500      0.0000    644.6772      5.6166     81.5509
  1773.5000      0.0000    627.3066      5.6826     79.4253
  1773.7500      0.0000    591.7651      5.7207     75.8341
  1774.0000      0.0000    553.0819      5.7260     72.2862
  1774.2500      0.0000    534.1531      5.6881     70.9492
  1774.5000      0.0000    545.8184      5.6024     72.3709
  1774.7500      0.0000    577.4875      5.4808     75.1355
  1775.0000      0.0000    608.4197      5.3518     77.4115
  1775.2500      0.0000    626.8234      5.2485     78.6240
  1775.5000      0.0000    636.4135      5.1925     79.7912
  1775.7500      0.0000    646.7254      5.1823     82.3133
  1776.0000      0.0000    661.7315      5.1968     86.4160
  1776.2500      0.0000    678.5054      5.2114     90.7069
  1776.5000      0.0000    692.7608      5.2137     93.0614
  1776.7500      0.0000    702.7364      5.2063     92.1066
  1777.0000      0.0000    709.1113      5.1970     88.4048
  1777.2500      0.0000    713.5776      5.1887     84.2042
  1777.5000      0.0000    717.6492      5.1773     81.7715
  1777.7500      0.0000    721.9227      5.1599     82.0727
  1778.0000      0.0000    725.9951      5.1446     84.7817
  1778.2500      0.0000    729.1544      5.1453     88.8306
  1778.5000      0.0000    731.0917      5.1664     92.8429
  1778.7500      0.0000    732.0200      5.1950     95.7355
  1779.0000      0.0000    732.3544      5.2129     97.4718
  1779.2500      0.0000    732.4186      5.2126     99.1689
  1779.5000      0.0000    732.2711      5.2012    102.0590
  1779.7500      0.0000    731.5684      5.1909    106.1039
  1780.0000      0.0000    729.5646      5.1874    109.8564
  1780.2500      0.0000    725.5293      5.1858    112.0797
  1780.5000      0.0000    719.4910      5.1772    113.4239
  1780.7500      0.0000    712.6062      5.1590    115.8288
  1781.0000      0.0000    706.5145      5.1384    119.9402
  1781.2500      0.0000    702.1880      5.1229    123.6661
  1781.5000      0.0000    699.4886      5.1114    123.8858
  1781.7500      0.0000    697.7347      5.0965    119.3711
  1782.0000      0.0000    696.4196      5.0716    111.7418
  1782.2500      0.0000    695.3633      5.0358    103.9417
  1782.5000      0.0000    694.4581      4.9936     98.3226
  1782.7500      0.0000    693.2886      4.9512     95.9139
  1783.0000      0.0000    690.5449      4.9128     96.5735
  1783.2500      0.0000    683.1141      4.8800     99.2701
  1783.5000      0.0000    665.7872      4.8559    102.5653
  1783.7500      0.0000    633.4659      4.8497    105.4311
  1784.0000      0.0000    585.8613      4.8716    107.6733
  1784.2500      0.0000    530.3192      4.9203    109.2818
  1784.5000      0.0000    478.3131      4.9782    109.5904
  1784.7500      0.0000    438.2733      5.0226    107.7347
  1785.0000      0.0000    412.0627      5.0422    104.0005
  1785.2500      0.0000    397.2530      5.0424    100.1230
  1785.5000      0.0000    390.9482      5.0335     97.8470
  1785.7500      0.0000    391.5021      5.0187     97.2911
  1786.0000      0.0000    397.9016      4.9940     97.0603
  1786.2500      0.0000    408.1346      4.9577     95.9576
  1786.5000      0.0000    418.5160      4.9170     94.0839
  1786.7500      0.0000    425.5370      4.8830     92.1647
  1787.0000      0.0000    429.0269      4.8627     90.5520
  1787.2500      0.0000    433.5323      4.8559     89.3179
  1787.5000      0.0000    446.6252      4.8574     88.8088
  1787.7500      0.0000    474.8752      4.8593     89.6032
  1788.0000      0.0000    518.9084      4.8537     91.9256
  1788.2500      0.0000    570.7904      4.8368     95.1376
  1788.5000      0.0000    617.5773      4.8110     97.6614
  1788.7500      0.0000    649.1996      4.7809     97.5030
  1789.0000      0.0000    662.9489      4.7493     93.4475
  1789.2500      0.0000    660.2511      4.7180     86.3951
  1789.5000      0.0000    640.8923      4.6893     79.4017
  1789.7500      0.0000    602.9613      4.6658     75.6475
  1790.0000      0.0000    549.1070      4.6497     75.9996
  1790.2500      0.0000    490.3694      4.6416     78.7497
  1790.5000      0.0000    440.8654      4.6383     81.5614
  1790.7500      0.0000    408.5689      4.6325     83.1992
  1791.0000      0.0000    392.2010      4.6194     83.7552
  1791.2500      0.0000    385.6912      4.6031     84.1860
  1791.5000      0.0000    383.6068      4.5907     85.5350
  1791.7500      0.0000    383.0707      4.5823     87.6255
  1792.0000      0.0000    383.0707      4.5710     88.5486
  1792.2500      0.0000    383.4101      4.5533     86.4174
  1792.5000      0.0000    384.3285      4.5335     81.6159
  1792.7500      0.0000    386.7765      4.5218     76.5424
  1793.0000      0.0000    393.1267      4.5358     73.1905
  1793.2500      0.0000    407.2502      4.6017     71.6595
  1793.5000      0.0000    432.1453      4.7376     70.8788
  1793.7500      0.0000    464.9438      4.9214     70.0371
  1794.0000      0.0000    494.0020      5.0974     69.0396
  1794.2500      0.0000    504.1411      5.2397     67.8543
  1794.5000      0.0000    488.0859      5.3913     65.9288
  1794.7500      0.0000    453.4278      5.6047     62.6194
  1795.0000      0.0000    418.0132      5.8585     58.1150
  1795.2500      0.0000    399.1905      6.0645     53.6126
  1795.5000      2.0000    406.8664      6.1457     50.4547
  1795.7500      0.0000    442.4430      6.0808     49.2195
  1796.0000      0.0000    499.1856      5.8883     49.7305
  1796.2500      0.0000    563.3524      5.6033     51.7962
  1796.5000      0.0000    619.5157      5.2724     55.6428
  1796.7500      0.0000    658.3171      4.9483     61.4177
  1797.0000      0.0000    679.6412      4.6776     68.3197
  1797.2500      0.0000    688.9835      4.4898     74.6172
  1797.5000      0.0000    692.1552      4.3859     78.9301
  1797.7500      0.0000    692.8545      4.3394     81.5127
  1798.0000      0.0000    692.8837      4.3241     83.9856
  1798.2500      0.0000    692.9744      4.3384     87.7356
  1798.5000      0.0000    693.3365      4.3936     92.7937
  1798.7500      0.0000    694.0685      4.4829     98.2044
