~Version Information
 VERS.                                  2.0 : CWLS LAS VERSION
 WRAP.                                   NO : WRAPING MODE
 SWARE .                 MController 2.5.0J : SOFTWARE VERSION
~Well Information
 WELL.                         Joplin 44-05 : WELL
 COMP.    Pioneer Natural Resources USA Inc : COMPANY
 FLD.                      Purgatoire River : FIELD
 LOC.                  SE/SE SEC5 T33S R66W : LOCATION
 DATE.                             12/12/05 : DATE(S) LOGGED
 SRVC.       Blanco Geological Services LLC : SERVICE COMPANY
 STAT.                             Colorado : STATE
 CNTY.                           Las Animas : COUNTY
 CTRY.                                  USA : COUNTRY
 API.                       05-071-08623-05 : API NUMBER
 STRT.FT                             686.00 : START DEPTH
 STOP.FT                            2105.00 : STOP DEPTH
 STEP.FT                               1.00 : DEPTH INCREMENT
 NULL.                                -9999 : NULL VALUE
~Curve information
 DEPTH.FT                                   :
 ROP.MIN/FT                                 :
 GAS.UNITS                                  :
~ASCII Log data
# ...
      1286.0         1.62          6.4 
      1287.0         0.30          5.7 
      1288.0         0.30          5.8 
      1289.0         0.20          5.7 
      1290.0         0.23          5.4 
      1291.0         0.20          5.6 
      1292.0         0.20          5.3 
      1293.0         0.20          5.3 
      1294.0         0.27          5.7 
      1295.0         0.30          5.5 
      1296.0         0.23          5.9 
      1297.0         0.27          5.0 
      1298.0         0.23          4.9 
      1299.0         0.23          4.3 
      1300.0         0.25          4.2 
      1301.0         0.27          4.9 
      1302.0         0.27          4.6 
      1303.0         0.23         14.6 
      1304.0         0.27         95.3 
      1305.0         0.20        120.7 
      1306.0         0.20        126.0 
      1307.0         0.20        150.9 
      1308.0         0.17        187.1 
      1309.0         0.20        218.7 
      1310.0         0.20        331.8 
      1311.0         0.17        482.3 
      1312.0         0.20       1086.2 
      1313.0         0.17       1151.6 
      1314.0         0.20       1292.9 
      1315.0         0.30       1423.9 
      1316.0         1.48       1241.8 
      1317.0         0.37        765.0 
      1318.0         0.23        753.0 
      1319.0         0.20        728.9 
      1320.0         0.23        718.1 
      1321.0         0.27        713.0 
      1322.0         0.30        708.6 
      1323.0         0.28        698.4 
      1324.0         0.20        698.4 
      1325.0         0.23        695.9 
      1326.0         0.23        696.2 
      1327.0         0.20        691.4 
      1328.0         0.20        691.4 
      1329.0         0.23        697.1 
      1330.0         0.23        691.4 
      1331.0         0.23        681.3 
      1332.0         0.23        687.6 
      1333.0         0.27        685.7 
      1334.0         0.23        682.5 
      1335.0         0.27        673.3 
      1336.0         0.23        430.8 
      1337.0         0.27        400.0 
      1338.0         0.22        449.6 
      1339.0         0.17        478.1 
      1340.0         0.27        622.5 
      1341.0         0.20        779.6 
      1342.0         0.23       1052.9 
      1343.0         0.23       1075.8 
      1344.0         0.27       1172.9 
      1345.0         0.27       1227.8 
      1346.0         1.68       1208.1 
      1347.0         0.50        698.1 
      1348.0         0.47        657.1 
      1349.0         0.30        683.5 
      1350.0         0.33        710.1 
      1351.0         0.30        708.6 
      1352.0         0.27        692.0 
      1353.0         0.27        679.7 
      1354.0         0.23        672.1 
      1355.0         0.30        605.1 
      1356.0         0.20        584.1 
      1357.0         0.32        575.6 
      1358.0         0.37        422.9 
      1359.0         0.23         94.8 
      1360.0         0.27         58.5 
      1361.0         0.30         41.5 
      1362.0         0.20         32.9 
      1363.0         0.23         29.2 
      1364.0         0.23         25.3 
      1365.0         0.23         24.9 
      1366.0         0.27         23.5 
      1367.0         0.23         26.7 
      1368.0         0.23         29.3 
      1369.0         0.28         23.4 
      1370.0         0.23         16.0 
      1371.0         0.27         15.6 
      1372.0         0.27         10.2 
      1373.0         0.27          7.6 
      1374.0         0.27          7.7 
      1375.0         0.27          6.7 
      1376.0         1.78         17.0 
      1377.0         0.47         20.9 
      1378.0         0.37         23.8 
      1379.0         0.33         23.6 
      1380.0         0.30         22.2 
      1381.0         0.30         22.6 
      1382.0         0.27         21.5 
      1383.0         0.23         21.1 
      1384.0         0.27         22.2 
      1385.0         0.27         22.5 
      1386.0         0.13         22.4 
      1387.0         0.17         21.6 
      1388.0         0.17         21.6 
      1389.0         0.18         23.6 
      1390.0         0.20         23.9 
      1391.0         0.17         22.0 
      1392.0         0.20         20.5 
      1393.0         0.17         19.9 
      1394.0         0.17         20.1 
      1395.0         0.20         23.5 
      1396.0         0.20         23.4 
      1397.0         0.17         20.2 
      1398.0         0.17         16.2 
      1399.0         0.13         14.5 
      1400.0         0.17         10.4 
      1401.0         0.13         10.0 
      1402.0         0.20          8.0 
      1403.0         0.17          7.3 
      1404.0         0.20          7.0 
      1405.0         0.20          6.2 
      1406.0         1.62         10.0 
      1407.0         0.33         10.2 
      1408.0         0.30         11.0 
      1409.0         0.37          9.8 
      1410.0         0.33          8.4 
      1411.0         0.33          7.4 
      1412.0         0.37          6.5 
      1413.0         0.35          6.4 
      1414.0         0.27          9.3 
      1415.0         0.23         19.8 
      1416.0         0.20         27.5 
      1417.0         0.20         28.7 
      1418.0         0.20         24.1 
      1419.0         0.23         22.9 
      1420.0         0.23         15.8 
      1421.0         0.20        125.6 
      1422.0         0.20        299.2 
      1423.0         0.23        312.6 
      1424.0         0.20        269.0 
      1425.0         0.20        156.6 
      1426.0         0.20        134.6 
      1427.0         0.17         57.9 
      1428.0         0.22         41.5 
      1429.0         0.20         67.7 
      1430.0         0.20        145.2 
      1431.0         0.20        252.2 
      1432.0         0.20        252.2 
      1433.0         0.17        402.5 
      1434.0         0.13        402.5 
      1435.0         0.17        941.2 
      1436.0         2.12       1165.9 
      1437.0         0.33        724.7 
      1438.0         0.27        717.8 
      1439.0         0.23        700.3 
      1440.0         0.20        689.8 
      1441.0         0.17        685.7 
      1442.0         0.20        684.4 
      1443.0         0.17        684.4 
      1444.0         0.13        685.7 
      1445.0         0.17        690.1 
      1446.0         0.27        678.4 
      1447.0         0.20        674.6 
      1448.0         0.27        666.3 
      1449.0         0.23        668.6 
      1450.0         0.30        671.7 
      1451.0         0.35        675.5 
      1452.0         0.23        673.0 
      1453.0         0.17        642.2 
      1454.0         0.33        588.6 
      1455.0         0.30        576.2 
      1456.0         0.27        154.4 
      1457.0         0.30        102.8 
      1458.0         0.20         94.7 
      1459.0         0.17         24.8 
      1460.0         0.20         24.8 
      1461.0         0.20         21.0 
      1462.0         0.23          9.7 
      1463.0         0.33         18.1 
      1464.0         0.12        190.5 
      1465.0         0.27        890.7 
      1466.0         2.27        884.7 
      1467.0         0.33        608.9 
      1468.0         0.17        609.8 
      1469.0         0.17        606.7 
      1470.0         0.22        604.1 
      1471.0         0.17        617.5 
      1472.0         0.23        617.8 
      1473.0         0.20        611.4 
      1474.0         0.17        603.8 
      1475.0         0.27        601.9 
      1476.0         0.40        587.3 
      1477.0         0.43        588.3 
      1478.0         0.30        595.9 
      1479.0         0.20        562.6 
      1480.0         0.17        562.6 
      1481.0         0.20        400.0 
      1482.0         0.17        400.0 
      1483.0         0.13        400.0 
      1484.0         0.25        162.1 
      1485.0         0.17        138.4 
