~Version Information
VERS.                      2.0: CWLS Log ASCII Standard - VERSION 2.0
WRAP.                       NO: One line per depth step
~Well Information Block
STRT.FT                -4.7500: 
STOP.FT              2723.2500: 
STEP.FT                 0.2500: 
NULL.                -999.2500: 
COMP.          Pioneer Natural Resources: COMPANY
WELL.           Dolzanie 34-12: WELL
FLD.           Purgatorie River: FIELD
LOC.           1001' FSL & 1750' FEL: LOCATION
PROV.                 Colorado: PROVINCE
CNTY.               Las Animas: COUNTRY
SRVC.                Patterson: SERVICE COMPANY
DATE.          Wed Jul 27 14:23:29 2005: LOG DATE
UWI.                          : UNIQUE WELL ID
~Curve Information Block
DEPT.FT            0 000 00 00: Depth
GR.GAPI                       : Gamma Ray
CCL.                          : Casing Collar Locator
TT3.usec                      : CBL 3' Travel Time
AMP3.mV                       : CBL 3' Amplitude
~Parameter Information Block
~A  Depth        GR         CCL         TT3         AMP3    
# ...
   531.2500     91.9686      0.0000    816.6506     10.6695
   531.5000     90.3820      0.0000    813.5476     10.7993
   531.7500     86.9808      0.0000    809.1718     10.8464
   532.0000     82.6525      0.0000    806.9109     10.7800
   532.2500     78.0602      0.0000    808.9913     10.6205
   532.5000     73.6726      0.0000    812.7878     10.4158
   532.7500     70.1374      0.0000    813.9780     10.2138
   533.0000     68.2224      0.0000    809.7753     10.0479
   533.2500     68.3904      0.0000    798.9984      9.9289
   533.5000     70.4676      0.0000    784.0013      9.8643
   533.7500     73.5331      0.0000    770.7462      9.8710
   534.0000     76.1688      0.0000    762.9876      9.9600
   534.2500     77.2934      0.0000    759.0538     10.1171
   534.5000     76.9029      0.0000    755.2327     10.2937
   534.7500     75.7449      0.0000    750.0945     10.4213
   535.0000     74.3796      0.0000    746.3124     10.4589
   535.2500     72.9461      0.0000    748.5182     10.4172
   535.5000     71.5631      0.0000    759.5836     10.3344
   535.7500     70.3407      0.0000    777.7438     10.2530
   536.0000     69.0176      0.0000    796.3927     10.2066
   536.2500     67.0255      0.0000    809.2244     10.2066
   536.5000     63.9979      0.0000    815.0705     10.2594
   536.7500     60.1516      0.0000    815.8304     10.3834
   537.0000     56.3251      0.0000    812.2205     10.5690
   537.2500     53.7777      0.0000    804.1837     10.7576
   537.5000     53.7340      0.0000    794.3390     10.9088
   537.7500     56.7580      0.0000    787.6929     11.0489
   538.0000     62.2651      0.0000    786.9335     11.2136
   538.2500     68.5341      0.0000    788.7525     11.3209
   538.5000     73.4026      0.0000    784.8059     11.1726
   538.7500     75.4460      0.0000    772.9623     10.6653
   539.0000     74.8544      0.0000    768.2540      9.8306
   539.2500     73.0913      0.0000    783.3001      8.7378
   539.5000     71.5323      0.0000    802.5231      7.6829
   539.7500     70.5439      0.0000    805.5715      7.1006
   540.0000     69.7955      0.0000    799.4282      7.0392
   540.2500     68.9629      0.0000    800.8438      7.1783
   540.5000     67.9641      0.0000    811.4825      7.2798
   540.7500     66.8798     -2.0000    823.1191      7.3076
   541.0000     65.7707      0.0000    830.8185      7.3304
   541.2500     64.4106      0.0000    837.0975      7.5611
   541.5000     62.3201      0.0000    846.0255      8.3530
   541.7500     59.2491      0.0000    855.3797      9.7098
   542.0000     55.4229      0.0000    856.0007     10.8721
   542.2500     51.3255      0.0000    841.8696     11.1224
   542.5000     47.5741      0.0000    819.8105     10.6889
   542.7500     44.9711      0.0000    802.4290     10.1749
   543.0000     44.4315      0.0000    795.2297      9.8207
   543.2500     46.8822      0.0000    794.1375      9.6186
   543.5000     53.1281      0.0000    792.2211      9.5199
   543.7500     63.2409      0.0000    787.4257      9.4591
   544.0000     75.7861      0.0000    784.6985      9.4028
   544.2500     88.0799      0.0000    789.6304      9.3673
   544.5000     97.8215      0.0000    799.3463      9.3651
   544.7500    104.6175      0.0000    804.6925      9.3791
   545.0000    109.6930      0.0000    800.9144      9.3931
   545.2500    114.1470      0.0000    791.5374      9.4075
   545.5000    117.8454      0.0000    783.0958      9.4326
   545.7500    120.0283      0.0000    778.9290      9.4862
   546.0000    120.4146      0.0000    778.7969      9.5719
   546.2500    119.3250      0.0000    781.8435      9.6539
   546.5000    117.0776      0.0000    786.6968      9.6804
   546.7500    113.7974      0.0000    790.5848      9.6236
   547.0000    109.7729      0.0000    792.5731      9.4992
   547.2500    105.5990      0.0000    794.4700      9.3651
   547.5000    101.9196      0.0000    794.2610      9.2715
   547.7500     99.1672      0.0000    786.1141      9.2191
   548.0000     97.5214      0.0000    770.6698      9.1806
   548.2500     97.0881      0.0000    756.3060      9.1322
   548.5000     98.0670      0.0000    749.2860      9.0760
   548.7500    100.4327      0.0000    750.2409      9.0492
   549.0000    103.4741      0.0000    757.3719      9.0855
   549.2500    106.1711      0.0000    766.8831      9.1651
   549.5000    108.1389      0.0000    773.4083      9.2289
   549.7500    109.8271      0.0000    773.6138      9.2545
   550.0000    111.7899      0.0000    768.5729      9.2747
   550.2500    114.1822      0.0000    763.3519      9.3026
   550.5000    116.9243      0.0000    763.3250      9.3073
   550.7500    119.9387      0.0000    768.8099      9.2718
   551.0000    123.1454      0.0000    776.0853      9.2058
   551.2500    126.3361      0.0000    783.5926      9.1216
   551.5000    129.0672      0.0000    791.9971      9.0434
   551.7500    130.7730      0.0000    798.6693      9.0134
   552.0000    131.1600      0.0000    798.6303      9.0632
   552.2500    130.3700      0.0000    792.0729      9.1795
   552.5000    128.5379      0.0000    784.9531      9.3194
   552.7500    125.4481      0.0000    782.1234      9.4626
   553.0000    121.0942      0.0000    784.8425      9.6250
   553.2500    116.4039      0.0000    792.0782      9.8215
   553.5000    112.8693      0.0000    799.7588     10.0158
   553.7500    111.5222      0.0000    802.9177     10.1400
   554.0000    112.8125      0.0000    800.8221     10.1717
   554.2500    117.1600      0.0000    795.7296     10.1411
   554.5000    124.5227      0.0000    789.2748     10.0846
   554.7500    133.1888      0.0000    783.3976     10.0296
   555.0000    139.9939      0.0000    779.8917      9.9824
   555.2500    142.4850      0.0000    778.5465      9.9108
   555.5000    140.7347      0.0000    778.1476      9.7818
   555.7500    136.9673      0.0000    777.9812      9.6240
   556.0000    133.6982      0.0000    777.9218      9.5127
   556.2500    132.0499      0.0000    778.0114      9.4809
   556.5000    131.3358      0.0000    778.3922      9.4736
   556.7500    130.1796      0.0000    779.7142      9.4210
   557.0000    128.1784      0.0000    783.0074      9.3334
   557.2500    126.2604      0.0000    787.8339      9.2803
   557.5000    125.1222      0.0000    791.4108      9.2860
   557.7500    123.6980      0.0000    792.3503      9.2949
   558.0000    120.1048      0.0000    792.3243      9.2438
   558.2500    114.3263      0.0000    791.2286      9.1359
   558.5000    109.1001      0.0000    786.9968      9.0406
   558.7500    107.4453      0.0000    780.3427      9.0340
   559.0000    109.7227      0.0000    774.2889      9.1305
   559.2500    113.6656      0.0000    771.5363      9.2616
   559.5000    116.8939      0.0000    772.7377      9.3307
   559.7500    118.7355      0.0000    775.5746      9.3106
   560.0000    119.8313      0.0000    777.4465      9.2642
   560.2500    120.8673      0.0000    778.0238      9.2604
   560.5000    122.0421      0.0000    778.1499      9.3066
   560.7500    123.1821      0.0000    778.2838      9.3597
   561.0000    123.7705      0.0000    778.4749      9.3725
   561.2500    123.1031      0.0000    778.7109      9.3298
   561.5000    120.9927      0.0000    778.9791      9.2625
   561.7500    118.3720      0.0000    779.4843      9.2204
   562.0000    116.8218      0.0000    781.1223      9.2068
   562.2500    117.3892      0.0000    785.6243      9.1712
   562.5000    119.9598      0.0000    793.9360      9.0926
   562.7500    123.5109      0.0000    803.1921      9.0153
   563.0000    126.6246      0.0000    807.3876      8.9793
   563.2500    128.1937      0.0000    803.1672      8.9791
   563.5000    128.2874      0.0000    792.9707      8.9895
   563.7500    128.2496      0.0000    780.0296      8.9739
   564.0000    129.3728      0.0000    762.1221      8.9081
   564.2500    131.2867      0.0000    737.2426      8.8310
   564.5000    131.9352      0.0000    716.2540      8.8135
