~Version Information
 VERS.                                  2.0 : CWLS LAS VERSION
 WRAP.                                   NO : WRAPING MODE
 SWARE .                 MController 2.5.0J : SOFTWARE VERSION
~Well Information
 WELL.                     Montoya 18-11V B : WELL
 COMP.                 Petrogulf Corporation: COMPANY
 FLD.                      Purgatoire River : FIELD
 LOC.                NW/NW Sec 18 T33S R67W : LOCATION
 DATE.                            10/3-4/05 : DATE(S) LOGGED
 SRVC.       BLANCO Geological Services LLC : SERVICE COMPANY
 STAT.                                   CO : STATE
 CNTY.                           Las Animas : COUNTY
 CTRY.                                  USA : COUNTRY
 API.                       05-071-08539-00 : API NUMBER
 STRT.FT                              86.00 : START DEPTH
 STOP.FT                            2495.00 : STOP DEPTH
 STEP.FT                               1.00 : DEPTH INCREMENT
 NULL.                                9999 : NULL VALUE
~Curve information
 DEPTH.FT                                   :
 ROP.MIN/FT                                 :
 GAS.UNITS                                  :
~ASCII Log data 
# ...
      1886.0         0.43         19.6 
      1887.0         2.47         32.8 
      1888.0         0.45         36.2 
      1889.0         0.33         33.6 
      1890.0         0.30         27.2 
      1891.0         0.27         24.2 
      1892.0         5.73         66.1 
      1893.0         1.07         25.7 
      1894.0         0.90         22.8 
      1895.0         0.58         23.5 
      1896.0         0.77         23.6 
      1897.0         0.60         23.7 
      1898.0         0.80         23.6 
      1899.0         0.68         23.1 
      1900.0         0.73         22.3 
      1901.0         0.67         22.7 
      1902.0         0.60         23.7 
      1903.0         0.47         23.5 
      1904.0         0.43         22.9 
      1905.0         0.48         21.2 
      1906.0         0.50         20.2 
      1907.0         0.47         19.7 
      1908.0         0.50         19.8 
      1909.0         0.47         22.6 
      1910.0         0.50         26.5 
      1911.0         0.43         25.4 
      1912.0         0.48         21.7 
      1913.0         0.47         19.9 
      1914.0         0.43         19.1 
      1915.0         0.43         18.8 
      1916.0         0.43         18.9 
      1917.0         0.40         18.8 
      1918.0         0.47         17.8 
      1919.0         0.55         16.5 
      1920.0         0.53         13.1 
      1921.0         0.47         26.6 
      1922.0         3.02         60.8 
      1923.0         0.73         41.7 
      1924.0         0.90         38.3 
      1925.0         1.08         30.4 
      1926.0         1.13         26.1 
      1927.0         0.43         24.0 
      1928.0         0.40         23.9 
      1929.0         0.50         23.3 
      1930.0         0.52         22.7 
      1931.0         0.40         20.6 
      1932.0         0.40         19.8 
      1933.0         0.40         19.0 
      1934.0         0.47         18.7 
      1935.0         0.47         18.7 
      1936.0         0.47         19.3 
      1937.0         0.43         18.6 
      1938.0         0.38         18.6 
      1939.0         0.40         19.2 
      1940.0         0.37         19.5 
      1941.0         0.33         19.5 
      1942.0         0.33         19.9 
      1943.0         0.33         19.8 
      1944.0         0.40         19.0 
      1945.0         0.37         19.2 
      1946.0         0.47         19.4 
      1947.0         0.45         18.8 
      1948.0         0.50         18.4 
      1949.0         0.57         17.5 
      1950.0         0.53         14.3 
      1951.0         0.40         20.9 
      1952.0         2.82         56.3 
      1953.0         0.53         40.7 
      1954.0         0.57         35.3 
      1955.0         0.32         35.0 
      1956.0         0.43         34.3 
      1957.0         0.57         30.7 
      1958.0         0.57         27.4 
      1959.0         0.53         24.4 
      1960.0         0.43         25.2 
      1961.0         0.37         25.3 
      1962.0         0.42         25.2 
      1963.0         0.20         24.1 
      1964.0         0.13         23.5 
      1965.0         0.27         23.4 
      1966.0         0.40         22.8 
      1967.0         0.43         22.0 
      1968.0         0.40         21.6 
      1969.0         0.37         21.6 
      1970.0         0.38         22.8 
      1971.0         0.43         23.3 
      1972.0         0.37         23.9 
      1973.0         0.37         24.8 
      1974.0         0.33         24.9 
      1975.0         0.33         24.8 
      1976.0         0.33         24.8 
      1977.0         0.40         24.0 
      1978.0         0.38         21.8 
      1979.0         0.37         16.0 
      1980.0         0.47         17.5 
      1981.0         0.37         23.3 
      1982.0         2.98         63.0 
      1983.0         0.60         41.2 
      1984.0         0.53         38.2 
      1985.0         0.33         36.4 
      1986.0         0.33         33.6 
      1987.0         0.68         31.1 
      1988.0         0.43         27.0 
      1989.0         0.37         25.2 
      1990.0         0.40         23.2 
      1991.0         0.47         22.0 
      1992.0         0.43         20.8 
      1993.0         0.37         20.5 
      1994.0         0.45         28.6 
      1995.0         0.37         31.4 
      1996.0         0.40         30.8 
      1997.0         0.27         27.7 
      1998.0         0.17         26.8 
      1999.0         0.30         26.5 
      2000.0         0.43         25.6 
      2001.0         0.50         27.6 
      2002.0         0.43         27.6 
      2003.0         0.27         26.6 
      2004.0         0.22         25.9 
      2005.0         0.20         25.4 
      2006.0         0.33         25.3 
      2007.0         0.33         24.1 
      2008.0         0.40         24.0 
      2009.0         0.30         20.6 
      2010.0         0.30         19.8 
      2011.0         0.50         24.5 
      2012.0         3.18         62.5 
      2013.0         0.47         39.3 
      2014.0         0.30         35.6 
      2015.0         0.28         38.1 
      2016.0         0.23         38.7 
      2017.0         0.20         38.6 
      2018.0         0.27         37.7 
      2019.0         0.37         35.2 
      2020.0         0.37         32.2 
      2021.0         0.33         29.0 
      2022.0         0.30         27.1 
      2023.0         0.43         26.3 
      2024.0         0.37         25.5 
      2025.0         0.42         24.6 
      2026.0         0.30         23.8 
      2027.0         0.33         24.5 
      2028.0         0.37         25.1 
      2029.0         0.37         25.0 
      2030.0         0.37         25.8 
      2031.0         0.40         26.4 
      2032.0         0.43         33.8 
      2033.0         0.33         34.7 
      2034.0         0.42         33.2 
      2035.0         0.37         28.9 
      2036.0         0.33         26.8 
      2037.0         0.43         25.6 
      2038.0         0.33         19.7 
      2039.0         0.30         19.4 
      2040.0         0.40         25.2 
      2041.0         0.53         46.9 
      2042.0         2.42         72.5 
      2043.0         0.40         45.3 
      2044.0         0.43         40.9 
      2045.0         0.42         40.1 
      2046.0         0.47         37.5 
      2047.0         0.67         34.1 
      2048.0         0.60         28.9 
      2049.0         0.53         26.0 
      2050.0         0.27         23.4 
      2051.0         0.33         23.1 
      2052.0         0.35         22.1 
      2053.0         0.37         22.6 
      2054.0         0.63         22.6 
      2055.0         0.47         22.5 
      2056.0         0.33         22.1 
      2057.0         0.33         22.9 
      2058.0         0.43         22.9 
      2059.0         0.37         22.2 
      2060.0         0.52         25.1 
      2061.0         0.37         25.1 
      2062.0         0.37         25.7 
      2063.0         0.63         26.2 
      2064.0         0.33         25.2 
      2065.0         0.33         25.4 
      2066.0         0.37         26.2 
      2067.0         0.33         26.1 
      2068.0         0.32         25.9 
      2069.0         0.37         25.4 
      2070.0         0.37         24.0 
      2071.0         0.30         20.7 
      2072.0         0.40         21.9 
      2073.0         0.47         30.0 
      2074.0         2.62         44.7 
      2075.0         0.50         41.0 
      2076.0         0.50         38.6 
      2077.0         0.40         38.0 
      2078.0         0.63         35.5 
      2079.0         0.58         31.6 
      2080.0         0.50         28.1 
      2081.0         0.53         26.1 
      2082.0         0.50         24.9 
      2083.0         0.53         23.8 
      2084.0         0.43         22.8 
      2085.0         0.55         22.0 
