~Version Information
VERS.                      2.0: CWLS Log ASCII Standard - VERSION 2.0
WRAP.                       NO: One line per depth step
~Well Information Block
STRT.FT               440.0000: 
STOP.FT              1702.7500: 
STEP.FT                 0.2500: 
NULL.                -999.2500: 
COMP.          Pioneer Natural Resources: COMPANY
WELL.          Culver 14-12 Tr: WELL
FLD.           Purgatoire River: FIELD
LOC.           915' FSL & 1048' FWL--: LOCATION
STAT.                 Colorado: State
CNTY.               Las Animas: COUNTY
CTRY. USA : Country
SECT. 12 : Section
TOWN. 32S : Township
RANG. 66W : Range
SRVC.                Patterson: SERVICE COMPANY
DATE.          Tue Sep 27 23:38:23 2005: LOG DATE
API.           05 071 08520 00: UNIQUE WELL ID
~Curve Information Block
DEPT.FT            0 000 00 00: Depth
SN.Ohm-m                      : IEL Short Normal
SP.mV                         : IEL Spontaneous Potential
DIR.Ohm-m                     : IEL Induction Resistivity
GR.GAPI                       : Gamma Ray
~Parameter Information Block
~A  Depth        SN          SP         DIR          GR     
# ...
  1445.0000      9.8148     55.9260     11.5082    115.1809
  1445.2500      9.0906     56.8113     10.8106    116.4391
  1445.5000      8.4971     57.7415     10.1575    116.3786
  1445.7500      8.0447     58.6691      9.5651    115.2952
  1446.0000      7.7259     59.5516      9.0388    112.9709
  1446.2500      7.5153     60.3555      8.5775    111.5217
  1446.5000      7.3729     61.0584      8.1766    110.3256
  1446.7500      7.2537     61.6502      7.8308    110.4736
  1447.0000      7.1208     62.1313      7.5355    112.1826
  1447.2500      6.9567     62.5111      7.2864    114.1865
  1447.5000      6.7673     62.8045      7.0800    118.2603
  1447.7500      6.5733     63.0289      6.9123    121.4955
  1448.0000      6.3971     63.2014      6.7791    126.3841
  1448.2500      6.2550     63.3360      6.6770    129.0540
  1448.5000      6.1567     63.4433      6.6033    131.3227
  1448.7500      6.1056     63.5303      6.5561    131.5543
  1449.0000      6.0984     63.6018      6.5342    130.6701
  1449.2500      6.1267     63.6617      6.5362    130.0964
  1449.5000      6.1770     63.7140      6.5598    130.4307
  1449.7500      6.2302     63.7636      6.6004    131.2600
  1450.0000      6.2636     63.8158      6.6519    131.4640
  1450.2500      6.2598     63.8757      6.7067    129.7443
  1450.5000      6.2172     63.9470      6.7588    124.2856
  1450.7500      6.1537     64.0312      6.8056    119.8881
  1451.0000      6.1001     64.1273      6.8478    114.6857
  1451.2500      6.0868     64.2316      6.8883    113.0790
  1451.5000      6.1303     64.3383      6.9282    113.5866
  1451.7500      6.2252     64.4400      6.9656    115.2574
  1452.0000      6.3446     64.5279      6.9946    118.2174
  1452.2500      6.4504     64.5923      7.0071    119.7269
  1452.5000      6.5123     64.6225      6.9965    120.8701
  1452.7500      6.5246     64.6066      6.9608    121.2714
  1453.0000      6.5061     64.5324      6.9056    122.5643
  1453.2500      6.4819     64.3876      6.8414    124.3797
  1453.5000      6.4654     64.1617      6.7799    128.2890
  1453.7500      6.4544     63.8467      6.7297    131.0637
  1454.0000      6.4425     63.4394      6.6958    134.4993
  1454.2500      6.4289     62.9421      6.6803    136.0645
  1454.5000      6.4201     62.3632      6.6842    137.1271
  1454.7500      6.4229     61.7170      6.7078    136.7485
  1455.0000      6.4372     61.0215      6.7500    134.3917
  1455.2500      6.4578     60.2969      6.8074    132.1134
  1455.5000      6.4806     59.5631      6.8748    129.1451
  1455.7500      6.5066     58.8370      6.9467    127.9472
  1456.0000      6.5384     58.1314      7.0190    126.8865
  1456.2500      6.5757     57.4536      7.0902    126.3585
  1456.5000      6.6137     56.8057      7.1610    126.2900
  1456.7500      6.6468     56.1854      7.2322    127.0937
  1457.0000      6.6727     55.5864      7.3039    128.8279
  1457.2500      6.6963     55.0001      7.3761    129.1582
  1457.5000      6.7302     54.4179      7.4501    126.9593
  1457.7500      6.7916     53.8333      7.5310    123.9862
  1458.0000      6.8988     53.2439      7.6273    119.3201
  1458.2500      7.0677     52.6543      7.7501    117.1891
  1458.5000      7.3093     52.0775      7.9123    115.8510
  1458.7500      7.6320     51.5346      8.1277    115.6391
  1459.0000      8.0477     51.0521      8.4107    115.1113
  1459.2500      8.5807     50.6554      8.7750    114.0626
  1459.5000      9.2691     50.3595      9.2327    110.6426
  1459.7500     10.1611     50.1594      9.7955    106.7147
  1460.0000     11.3141     50.0226     10.4780     98.0879
  1460.2500     12.7980     49.8891     11.3007     90.8448
  1460.5000     14.6977     49.6801     12.2907     79.1770
  1460.7500     17.1080     49.3137     13.4789     71.8982
  1461.0000     20.1093     48.7253     14.8958     62.9063
  1461.2500     23.7152     47.8846     16.5647     58.2805
  1461.5000     27.8219     46.8046     18.4953     52.9695
  1461.7500     32.2118     45.5406     20.6726     50.2862
  1462.0000     36.6207     44.1784     23.0447     47.2003
  1462.2500     40.8239     42.8164     25.5135     45.4278
  1462.5000     44.6894     41.5463     27.9410     42.5155
  1462.7500     48.1891     40.4356     30.1809     40.2593
  1463.0000     51.3804     39.5169     32.1275     36.8800
  1463.2500     54.3716     38.7863     33.7510     35.1337
  1463.5000     57.2758     38.2101     35.0993     33.8923
  1463.7500     60.1666     37.7405     36.2707     34.0121
  1464.0000     63.0427     37.3352     37.3826     35.0372
  1464.2500     65.8077     36.9748     38.5450     35.6512
  1464.5000     68.2827     36.6738     39.8320     35.3359
  1464.7500     70.2534     36.4805     41.2452     34.0300
  1465.0000     71.5097     36.4690     42.6765     31.0691
  1465.2500     71.8462     36.7236     43.8946     29.1899
  1465.5000     71.0553     37.3231     44.5835     27.4899
  1465.7500     68.9616     38.3282     44.4348     27.1749
  1466.0000     65.4890     39.7728     43.2509     27.5031
  1466.2500     60.7252     41.6601     41.0133     28.0586
  1466.5000     54.9771     43.9595     37.9095     29.6167
  1466.7500     48.7853     46.6072     34.3072     31.6272
  1467.0000     42.8139     49.5094     30.6503     37.4102
  1467.2500     37.6183     52.5483     27.3161     43.9451
  1467.5000     33.4538     55.5941     24.5256     58.4771
  1467.7500     30.2700     58.5178     22.3423     70.7403
  1468.0000     27.8507     61.2069     20.7230     89.9836
  1468.2500     25.9646     63.5756     19.5736    100.9469
  1468.5000     24.4475     65.5723     18.7905    110.9416
  1468.7500     23.2198     67.1798     18.2872    112.2721
  1469.0000     22.2797     68.4120     18.0088    106.9822
  1469.2500     21.6913     69.3066     17.9376    100.2119
  1469.5000     21.5598     69.9162     18.0903     88.7204
  1469.7500     21.9823     70.2995     18.5071     81.8665
  1470.0000     22.9910     70.5139     19.2360     74.1440
  1470.2500     24.5193     70.6096     20.3101     70.6038
  1470.5000     26.4104     70.6269     21.7191     66.8336
  1470.7500     28.4589     70.5960     23.3792     64.8793
  1471.0000     30.4591     70.5381     25.1189     62.3307
  1471.2500     32.2481     70.4683     26.7089     60.7263
  1471.5000     33.7362     70.3981     27.9439     58.1917
  1471.7500     34.9151     70.3381     28.7251     56.3383
  1472.0000     35.8335     70.2991     29.0797     53.5484
  1472.2500     36.5453     70.2935     29.1167     51.9740
  1472.5000     37.0634     70.3357     28.9678     50.4124
  1472.7500     37.3439     70.4426     28.7464     49.8973
  1473.0000     37.2988     70.6332     28.5208     49.5394
  1473.2500     36.8175     70.9277     28.2923     49.2554
  1473.5000     35.7863     71.3457     27.9814     48.4001
  1473.7500     34.1229     71.9033     27.4408     47.6302
  1474.0000     31.8349     72.6091     26.5125     46.8378
  1474.2500     29.0724     73.4607     25.1185     47.1022
  1474.5000     26.1188     74.4415     23.3247     49.7498
  1474.7500     23.2938     75.5192     21.3153     53.6054
  1475.0000     20.8271     76.6465     19.2998     62.9796
  1475.2500     18.7955     77.7651     17.4331     71.2560
  1475.5000     17.1594     78.8115     15.7924     84.9217
  1475.7500     15.8433     79.7249     14.3928     93.3667
  1476.0000     14.7880     80.4547     13.2134    102.3302
  1476.2500     13.9532     80.9665     12.2193    104.7719
  1476.5000     13.3029     81.2459     11.3784    103.4785
  1476.7500     12.8014     81.2987     10.6705    100.8941
  1477.0000     12.4201     81.1476     10.0878     97.9277
  1477.2500     12.1393     80.8278      9.6291     97.9661
  1477.5000     11.9448     80.3806      9.2947    101.5842
  1477.7500     11.8259     79.8480      9.0841    105.7777
  1478.0000     11.7765     79.2682      8.9976    112.9855
  1478.2500     11.7973     78.6732      9.0373    117.5185
