~Version Information
VERS.                      2.0: CWLS Log ASCII Standard - VERSION 2.0
WRAP.                       NO: One line per depth step
~Well Information Block
STRT.FT                 0.0000: 
STOP.FT              2086.0000: 
STEP.FT                 0.2500: 
NULL.                -999.2500: 
COMP.          Petrogulf Corporation: COMPANY
WELL.               YWAM 7-32R: WELL
FLD.           Purgatorie River: FIELD
LOC.           2355' FNL & 2376' FEL: LOCATION
STAT.                 Colorado: State
CNTY.               Las Animas: COUNTY
CTRY. USA : Country
SECT. 7 : Section
TOWN. 33S : Township
RANG. 67W : Range
SRVC.                Patterson: SERVICE COMPANY
DATE.          Wed Nov 09 16:33:59 2005: LOG DATE
API. 05-071-08518                         : UNIQUE WELL ID
~Curve Information Block
DEPT.FT            0 000 00 00: Depth
CCL.                          : Casing Collar Locator
TT3.usec                      : CBL 3' Travel Time
AMP3.mV                       : CBL 3' Amplitude
GR.GAPI                       : Gamma Ray
~Parameter Information Block
~A  Depth       CCL         TT3         AMP3         GR     
# ...
  1641.5000      0.0000    658.5366      1.9595    121.1411
  1641.7500      0.0000    644.8806      1.9321    121.5226
  1642.0000      0.0000    633.6553      1.8931    121.8516
  1642.2500      0.0000    627.6434      1.8496    121.9677
  1642.5000      0.0000    625.4976      1.8035    121.7712
  1642.7500      0.0000    624.9745      1.7599    121.4327
  1643.0000      0.0000    624.8783      1.7231    121.5064
  1643.2500      0.0000    624.7852      1.6857    122.5849
  1643.5000      0.0000    624.4924      1.6382    124.8763
  1643.7500      0.0000    624.2924      1.5701    128.1188
  1644.0000      0.0000    625.9136      1.4748    131.6615
  1644.2500      0.0000    632.9465      1.3931    134.7619
  1644.5000      0.0000    648.7125      1.4064    137.1230
  1644.7500      0.0000    671.2335      1.5447    139.0066
  1645.0000      0.0000    691.9999      1.7556    140.5706
  1645.2500      0.0000    703.7603      1.9877    141.3437
  1645.5000      0.0000    706.7062      2.2383    140.7157
  1645.7500      0.0000    704.1129      2.5110    138.8253
  1646.0000      0.0000    697.7499      2.8150    136.5172
  1646.2500      0.0000    688.4897      3.1852    134.3756
  1646.5000      0.0000    677.6857      3.6172    132.1230
  1646.7500      0.0000    668.5468      4.0455    129.2411
  1647.0000      0.0000    663.6935      4.4110    126.0337
  1647.2500      0.0000    662.2960      4.6798    123.7094
  1647.5000      0.0000    662.1202      4.8241    123.3148
  1647.7500      0.0000    661.9100      4.8269    124.7657
  1648.0000      0.0000    661.4063      4.6891    126.9822
  1648.2500      0.0000    660.7542      4.4439    128.9123
  1648.5000      0.0000    660.1205      4.1557    130.3583
  1648.7500      0.0000    659.5193      3.8818    131.8322
  1649.0000      0.0000    658.8771      3.6365    133.7276
  1649.2500      0.0000    658.3467      3.4011    135.8010
  1649.5000      0.0000    658.5999      3.1576    137.4181
  1649.7500      0.0000    660.5174      2.8924    138.0258
  1650.0000      0.0000    664.1935      2.5977    137.2077
  1650.2500      0.0000    669.1269      2.3024    134.5062
  1650.5000      0.0000    676.0776      2.0684    129.5979
  1650.7500      0.0000    685.5023      1.9364    122.8731
  1651.0000      0.0000    693.4421      1.9033    115.6173
  1651.2500      0.0000    694.5071      1.9496    109.2628
  1651.5000      0.0000    688.4503      2.0530    104.5473
  1651.7500      0.0000    678.8672      2.1901    101.6725
  1652.0000      0.0000    667.7150      2.3379    100.9778
  1652.2500      0.0000    655.9067      2.4500    102.8364
  1652.5000      0.0000    646.4003      2.4497    106.8915
  1652.7500      0.0000    641.4858      2.2983    111.9293
  1653.0000      0.0000    640.1306      2.0652    116.6555
  1653.2500      0.0000    640.2381      1.8815    120.3891
  1653.5000      0.0000    640.6179      1.8090    123.0990
  1653.7500      0.0000    640.7594      1.8085    125.1662
  1654.0000      0.0000    640.4571      1.8368    127.1083
  1654.2500      0.0000    639.8433      1.8941    129.0953
  1654.5000      0.0000    639.2873      1.9782    130.5397
  1654.7500      0.0000    639.0624      2.0591    130.5818
  1655.0000      0.0000    639.1965      2.0942    129.3603
  1655.2500      0.0000    639.5844      2.0601    128.4788
  1655.5000      0.0000    640.1284      1.9663    129.8051
  1655.7500      0.0000    640.7927      1.8578    133.8031
  1656.0000      0.0000    641.5975      1.7928    139.1878
  1656.2500      0.0000    642.6181      1.7801    144.0161
  1656.5000      0.0000    644.1197      1.7753    146.8281
  1656.7500      0.0000    646.8389      1.7688    146.9953
  1657.0000      0.0000    651.5859      1.8111    144.6826
  1657.2500      0.0000    657.4526      1.9234    140.7686
  1657.5000      0.0000    663.3442      2.0699    136.4657
  1657.7500      0.0000    675.0358      2.2260    132.6857
  1658.0000      0.0000    699.3907      2.3897    129.8044
  1658.2500      0.0000    724.0674      2.5469    128.0138
  1658.5000      0.0000    725.6321      2.6937    127.7120
  1658.7500      0.0000    703.2272      2.8489    129.4249
  1659.0000      0.0000    678.4315      3.0022    133.4715
  1659.2500      0.0000    666.4745      3.1162    139.6831
  1659.5000      0.0000    667.2525      3.1881    147.0479
  1659.7500      0.0000    673.6099      3.2609    153.4270
  1660.0000      0.0000    676.8902      3.3489    156.2492
  1660.2500      0.0000    673.8056      3.3903    154.0693
  1660.5000      0.0000    670.7442      3.3842    147.3491
  1660.7500      0.0000    675.2794      3.4707    137.8575
  1661.0000      0.0000    687.8239      3.7091    127.9418
  1661.2500     -2.0000    705.6517      3.9637    120.2123
  1661.5000      0.0000    728.6695      4.1096    116.7226
  1661.7500      2.0000    753.9078      4.1610    117.7109
  1662.0000      0.0000    768.1407      4.1591    121.4246
  1662.2500      0.0000    760.1393      4.0764    125.4937
  1662.5000      0.0000    739.2057      3.8988    128.5580
  1662.7500      0.0000    723.1386      3.6855    130.8501
  1663.0000      0.0000    713.4565      3.4746    133.5665
  1663.2500      0.0000    702.2506      3.3000    137.5022
  1663.5000      0.0000    691.0945      3.2292    141.9681
  1663.7500      0.0000    685.4976      3.2027    145.0353
  1664.0000      0.0000    684.1223      3.0660    145.0363
  1664.2500      0.0000    682.8116      2.8060    141.9140
  1664.5000      0.0000    681.2643      2.5531    137.1756
  1664.7500      0.0000    681.8278      2.3892    132.6747
  1665.0000      0.0000    685.4946      2.2991    129.4320
  1665.2500      0.0000    693.0831      2.2642    127.3915
  1665.5000      0.0000    705.9908      2.2830    125.9867
  1665.7500      0.0000    720.6126      2.3242    124.7982
  1666.0000      0.0000    726.8533      2.3380    123.8103
  1666.2500      0.0000    718.6796      2.3014    123.3630
  1666.5000      0.0000    702.8638      2.2224    123.9651
  1666.7500      0.0000    692.8093      2.1200    125.9786
  1667.0000      0.0000    697.9328      2.0336    129.4013
  1667.2500      0.0000    718.7482      2.0200    133.9666
  1667.5000      0.0000    745.5908      2.1072    139.1961
  1667.7500      0.0000    763.7686      2.2881    144.1573
  1668.0000      0.0000    762.5432      2.5528    147.5851
  1668.2500      0.0000    740.8606      2.8700    148.6193
  1668.5000      0.0000    708.3060      3.1845    147.2441
  1668.7500      0.0000    677.1061      3.4643    144.0249
  1669.0000      0.0000    654.0410      3.6963    139.9290
  1669.2500      0.0000    641.0677      3.8579    136.4332
  1669.5000      0.0000    637.0919      3.9397    134.9872
  1669.7500      0.0000    638.5042      3.9632    135.8459
  1670.0000      0.0000    641.8187      3.9606    137.9067
  1670.2500      0.0000    647.8268      3.9587    140.1451
  1670.5000      0.0000    661.4147      3.9750    142.7382
  1670.7500      0.0000    683.7712      4.0183    146.1338
  1671.0000      0.0000    707.9598      4.0910    149.3496
  1671.2500      0.0000    725.6453      4.1837    150.1727
  1671.5000      0.0000    733.9488      4.2717    147.3480
  1671.7500      0.0000    733.7011      4.3219    142.0945
  1672.0000      0.0000    726.6072      4.3052    137.2582
  1672.2500      0.0000    717.1681      4.2256    135.2335
  1672.5000      0.0000    712.4813      4.1308    136.7797
  1672.7500      0.0000    716.2844      4.0697    141.2267
  1673.0000      0.0000    725.3138      4.0461    146.9498
  1673.2500      0.0000    733.3561      4.0320    151.6142
  1673.5000      0.0000    736.8693      4.0151    152.9193
  1673.7500      0.0000    734.8727      3.9988    150.0396
  1674.0000      0.0000    726.3240      3.9594    144.5342
  1674.2500      0.0000    710.9966      3.8543    139.4433
  1674.5000      0.0000    691.6451      3.6848    137.1500
  1674.7500      0.0000    673.1950      3.5012    137.9181
