~Version Information
VERS.                      2.0: CWLS Log ASCII Standard - VERSION 2.0
WRAP.                       NO: One line per depth step
~Well Information Block
STRT.FT                -8.2500: 
STOP.FT              1118.7500: 
STEP.FT                 0.2500: 
NULL.                -999.2500: 
COMP.          Pioneer Natural Resources: COMPANY
WELL.             Croc 42-9 Tr: WELL
FLD.           Purgatorie River: FIELD
LOC.           --2429' FNL & 315' FEL------: LOCATION
STAT.                       CO: State
CNTY.               Las Animas: COUNTY
CTRY. USA : Country
SECT. 9 : Section
TOWN. 32S : Township
RANG. 66W : Range
SRVC.          Patterson Wireline: SERVICE COMPANY
DATE.          Tue Oct 18 14:14:43 2005: LOG DATE
API.           05 071 08550 00: UNIQUE WELL ID
~Curve Information Block
DEPT.FT            0 000 00 00: Depth
CCL.                          : Casing Collar Locator
TT3.usec                      : CBL 3' Travel Time
AMP3.mV                       : CBL 3' Amplitude
GR.GAPI                       : Gamma Ray
~Parameter Information Block
~A  Depth       CCL         TT3         AMP3         GR     
# ...
  1030.2500      0.0000    737.1914     10.5461    131.0784
  1030.5000      0.0000    737.6878     10.3683    132.2224
  1030.7500      0.0000    737.8058     10.2442    133.2805
  1031.0000      0.0000    737.8062     10.2433    134.7610
  1031.2500      0.0000    737.7451     10.4106    135.9433
  1031.5000      0.0000    737.6557     10.7593    135.1216
  1031.7500      0.0000    737.5961     11.2874    131.0756
  1032.0000      0.0000    737.6227     11.9874    123.8670
  1032.2500      0.0000    737.7665     12.8304    114.6032
  1032.5000      0.0000    738.0339     13.7478    105.2998
  1032.7500      0.0000    738.4225     14.6401     98.6911
  1033.0000      0.0000    738.9212     15.4071     97.0807
  1033.2500      0.0000    739.4573     15.9722    100.7365
  1033.5000      0.0000    739.7980     16.3002    107.5054
  1033.7500      0.0000    739.4412     16.4122    114.3960
  1034.0000      0.0000    737.6269     16.3842    119.6093
  1034.2500      0.0000    733.6832     16.3052    122.9768
  1034.5000      0.0000    727.6788     16.2232    124.8247
  1034.7500      0.0000    720.7793     16.1336    124.8842
  1035.0000      0.0000    714.6636     16.0193    122.4348
  1035.2500      0.0000    710.4018     15.8928    117.3700
  1035.5000      0.0000    707.9689     15.7924    110.8020
  1035.7500      0.0000    706.9229     15.7408    104.3861
  1036.0000      0.0000    707.5526     15.7273     99.3179
  1036.2500      0.0000    711.1616     15.7338     96.1403
  1036.5000      0.0000    718.6794     15.7587     94.9884
  1036.7500      0.0000    728.7535     15.7985     95.7035
  1037.0000      0.0000    737.8880     15.8226     98.1561
  1037.2500      0.0000    743.0721     15.7866    102.7028
  1037.5000      0.0000    743.8890     15.6694    109.8852
  1037.7500      0.0000    741.9115     15.4869    119.5167
  1038.0000      0.0000    738.9547     15.2737    130.3759
  1038.2500      0.0000    736.3753     15.0565    140.8028
  1038.5000      0.0000    735.1403     14.8357    149.3445
  1038.7500      0.0000    735.5714     14.5904    155.1331
  1039.0000      0.0000    737.0886     14.3084    158.2405
  1039.2500      0.0000    738.7007     14.0080    159.3642
  1039.5000      0.0000    739.7878     13.7198    158.7834
  1039.7500      0.0000    740.3207     13.4558    156.1606
  1040.0000      0.0000    740.5301     13.2157    151.8345
  1040.2500      0.0000    740.5842     13.0156    147.7621
  1040.5000      0.0000    740.5416     12.8883    146.4723
  1040.7500      0.0000    740.4410     12.8489    148.7772
  1041.0000      0.0000    740.3441     12.8737    152.6399
  1041.2500      0.0000    740.3058     12.9150    154.7898
  1041.5000      0.0000    740.3326     12.9300    153.5788
  1041.7500      0.0000    740.3922     12.8986    149.9101
  1042.0000      0.0000    740.4502     12.8273    145.5558
  1042.2500      0.0000    740.4994     12.7425    141.3407
  1042.5000      0.0000    740.5645     12.6727    136.9876
  1042.7500      0.0000    740.6852     12.6314    132.0824
  1043.0000      0.0000    740.8834     12.6130    126.9421
  1043.2500      0.0000    741.1374     12.6011    122.4571
  1043.5000      0.0000    741.3859     12.5807    118.9809
  1043.7500      0.0000    741.5540     12.5493    115.8738
  1044.0000      0.0000    741.5903     12.5173    112.7503
  1044.2500      0.0000    741.4930     12.5002    110.6966
  1044.5000      0.0000    741.3017     12.5101    111.4242
  1044.7500      0.0000    741.0582     12.5495    115.4146
  1045.0000      0.0000    740.7838     12.6089    121.4986
  1045.2500      0.0000    740.4916     12.6701    127.9185
  1045.5000      0.0000    740.2078     12.7178    133.0096
  1045.7500      0.0000    739.9738     12.7456    135.1535
  1046.0000      0.0000    739.8394     12.7500    133.2208
  1046.2500      0.0000    739.8557     12.7259    127.4463
  1046.5000      0.0000    740.0568     12.6755    119.2663
  1046.7500      0.0000    740.4345     12.6161    110.1500
  1047.0000      0.0000    740.9294     12.5704    101.1128
  1047.2500      0.0000    741.4835     12.5460     93.2509
  1047.5000      0.0000    742.1003     12.5258     87.8235
  1047.7500      0.0000    742.8886     12.4807     85.3279
  1048.0000      0.0000    744.0093     12.3984     84.8778
  1048.2500      0.0000    745.6627     12.3046     84.9552
  1048.5000      0.0000    748.5095     12.2295     84.6568
  1048.7500      0.0000    754.5407     12.1349     83.7901
  1049.0000      0.0000    767.0339     11.9195     81.9701
  1049.2500      0.0000    788.2535     11.5640     78.4673
  1049.5000      0.0000    815.9088     11.2479     73.2327
  1049.7500      0.0000    841.9034     11.2400     67.5361
  1050.0000      0.0000    855.3896     11.6632     63.2433
  1050.2500     -2.0000    848.5743     12.4063     61.6435
  1050.5000      0.0000    821.2572     13.2427     62.9857
  1050.7500      0.0000    780.7853     13.9861     66.6110
  1051.0000      0.0000    736.1744     14.6051     71.0991
  1051.2500      0.0000    689.6248     15.2919     74.5352
  1051.5000      0.0000    634.4387     16.3646     75.3407
  1051.7500      0.0000    564.6878     17.9416     73.4551
  1052.0000      0.0000    486.5134     19.7077     70.8338
  1052.2500      0.0000    416.1704     21.1325     70.2958
  1052.5000      0.0000    366.8200     21.9191     73.3767
  1052.7500      0.0000    339.9496     22.1487     79.2012
  1053.0000      0.0000    328.5634     22.0468     85.4910
  1053.2500      0.0000    324.7965     21.7558     90.5551
  1053.5000      0.0000    323.8242     21.3333     94.2075
  1053.7500      0.0000    323.6476     20.8366     96.9890
  1054.0000      0.0000    323.6492     20.3350     98.9234
  1054.2500      0.0000    323.6952     19.8723     99.2672
  1054.5000      0.0000    323.7670     19.4567     97.4104
  1054.7500      0.0000    323.8812     19.0783     93.8399
  1055.0000      0.0000    324.0548     18.7248     90.0721
  1055.2500      0.0000    324.3026     18.3867     87.5428
  1055.5000      0.0000    324.6335     18.0611     86.6655
  1055.7500      0.0000    325.0812     17.7496     86.8974
  1056.0000      0.0000    325.8000     17.4554     87.2960
  1056.2500      0.0000    327.2101     17.1830     86.9345
  1056.5000      0.0000    330.0319     16.9398     85.2170
  1056.7500      0.0000    334.9709     16.7310     82.0059
  1057.0000      0.0000    342.0603     16.5524     77.5902
  1057.2500      0.0000    350.5290     16.3911     72.7117
  1057.5000      0.0000    359.8927     16.2340     68.4023
  1057.7500      0.0000    371.5758     16.0767     65.3811
  1058.0000      0.0000    388.4721     15.9247     63.6594
  1058.2500      0.0000    410.8293     15.7921     62.8216
  1058.5000      0.0000    431.9429     15.7008     62.4466
  1058.7500      0.0000    440.7841     15.6786     62.3062
  1059.0000      0.0000    431.8120     15.7483     62.4880
  1059.2500      0.0000    410.8801     15.9104     63.1440
  1059.5000      0.0000    389.5024     16.1393     63.8704
  1059.7500      0.0000    375.0858     16.3995     63.7227
  1060.0000      0.0000    367.9705     16.6641     62.2455
  1060.2500      0.0000    365.0126     16.9161     60.2777
  1060.5000      0.0000    363.2475     17.1396     59.4554
  1060.7500      0.0000    360.9964     17.3182     60.9142
  1061.0000      0.0000    358.1527     17.4432     64.3843
  1061.2500      0.0000    357.2203     17.5175     68.3850
  1061.5000      0.0000    364.4516     17.5508     71.3298
  1061.7500      0.0000    388.8910     17.5491     72.5210
  1062.0000      0.0000    437.4312     17.5074     72.3104
  1062.2500      0.0000    507.8408     17.4098     71.6663
  1062.5000      0.0000    586.3552     17.2414     71.5777
  1062.7500      0.0000    654.8035     17.0030     72.4044
  1063.0000      0.0000    702.1604     16.7150     73.5746
  1063.2500      0.0000    729.4692     16.4054     74.2046
  1063.5000      0.0000    744.8670     16.0953     74.1269
