~Version Information
VERS.                      2.0: CWLS Log ASCII Standard - VERSION 2.0
WRAP.                       NO: One line per depth step
~Well Information Block
STRT.FT               875.0000: 
STOP.FT              2053.0000: 
STEP.FT                 0.1000: 
NULL.                -999.2500: 
COMP.          Pioneer Natural Resources: COMPANY
WELL.          Woodstock 43-19: WELL
FLD.           Purgatoire River: FIELD
LOC.           2195' FSL & 250' FEL: LOCATION
CNTY.               Las Animas: COUNTY
SRVC.                Patterson: SERVICE COMPANY
DATE.          Thu Feb 02 12:45:04 2006: LOG DATE
UWI.           05 071 08677 00: UNIQUE WELL ID
STAT.                 Colorado: STATE
~Curve Information Block
DEPT.FT            0 000 00 00: Depth
DCAL.in                       : CDL Caliper
RHOB.g/cc                     : CDL Bulk Density
RHOC.g/cc                     : CDL Density Correction
DPOR.pu                       : CDL Density Porosity
GR.GAPI                       : Gamma Ray
NPOR.pu                       : Neutron Porosity
~Parameter Information Block
~A  Depth       DCAL        RHOB        RHOC        DPOR         GR         NPOR    
# ...
  1883.0000      7.8529      2.5713      0.0676      4.7704     90.3778     18.0858
  1883.1000      7.8529      2.5536      0.0337      5.8405     98.3132     18.0787
  1883.2000      7.8529      2.5497     -0.0309      6.0816    101.1007     18.0977
  1883.3000      7.8704      2.5703      0.0715      4.8331     98.1489     17.7310
  1883.4000      7.8704      2.5962      0.0301      3.2632     95.6299     16.8048
  1883.5000      7.8556      2.6080      0.0699      2.5473     97.2676     15.7969
  1883.6000      7.8556      2.6111      0.0181      2.3559    103.1310     15.7505
  1883.7000      7.8556      2.6141      0.0800      2.1742    111.7820     16.9306
  1883.8000      7.8513      2.6093      0.0866      2.4696    116.5939     18.2341
  1883.9000      7.8513      2.5995      0.0472      3.0614    113.6466     18.5281
  1884.0000      7.8632      2.6042      0.0583      2.7768    108.4566     17.7720
  1884.1000      7.8632      2.6278      0.0922      1.3462    103.3950     16.5092
  1884.2000      7.8632      2.6518      0.0799     -0.1113     97.5066     15.6473
  1884.3000      7.8757      2.6549      0.1209     -0.2957     93.4628     15.6489
  1884.4000      7.8757      2.6362      0.0554      0.8352     89.5314     16.0784
  1884.5000      7.8864      2.6156      0.0704      2.0836     81.5018     16.3498
  1884.6000      7.8864      2.6065      0.0900      2.6347     72.3230     16.1989
  1884.7000      7.8864      2.6043      0.0751      2.7695     70.6107     15.6033
  1884.8000      7.8839      2.5952      0.0837      3.3217     77.1100     14.8197
  1884.9000      7.8839      2.5764      0.0130      4.4616     80.7151     14.2626
  1885.0000      7.8543      2.5663     -0.0125      5.0751     75.5208     14.1707
  1885.1000      7.8543      2.5697      0.0892      4.8648     68.9464     14.5333
  1885.2000      7.8543      2.5737      0.0014      4.6238     70.0195     14.7390
  1885.3000      7.8574      2.5802      0.0288      4.2291     73.9803     14.2220
  1885.4000      7.8574      2.5911      0.0499      3.5703     70.1108     13.4109
  1885.5000      7.8621      2.6013      0.0405      2.9533     63.0662     13.0511
  1885.6000      7.8621      2.6070      0.1282      2.6070     61.8151     13.4231
  1885.7000      7.8621      2.6054      0.0624      2.7024     63.6998     14.0439
  1885.8000      7.8372      2.5992      0.0510      3.0774     64.5329     14.3457
  1885.9000      7.8372      2.5936      0.0564      3.4207     64.8656     14.4992
  1886.0000      7.8424      2.5878      0.0838      3.7670     65.6615     14.5307
  1886.1000      7.8424      2.5820      0.0324      4.1210     65.7902     14.0547
  1886.2000      7.8424      2.5837      0.0615      4.0195     62.0241     13.6622
  1886.3000      7.8502      2.6028     -0.0074      2.8582     54.4851     14.0195
  1886.4000      7.8502      2.6381      0.1112      0.7228     49.6733     14.6239
  1886.5000      7.8519      2.6603      0.1293     -0.6243     53.8647     14.8647
  1886.6000      7.8519      2.6481      0.0996      0.1133     64.7275     14.6761
  1886.7000      7.8519      2.6179      0.0758      1.9452     73.6123     14.2037
  1886.8000      7.8534      2.5985      0.0637      3.1226     77.5531     13.9142
  1886.9000      7.8534      2.5990      0.0891      3.0897     78.9263     14.2153
  1887.0000      7.8638      2.6015      0.0856      2.9365     78.1411     14.8015
  1887.1000      7.8638      2.5888      0.0459      3.7100     74.2200     14.9169
  1887.2000      7.8638      2.5651      0.0073      5.1448     68.3639     14.2284
  1887.3000      7.8462      2.5421     -0.0116      6.5382     64.0128     13.4772
  1887.4000      7.8462      2.5292     -0.0379      7.3238     64.4608     13.3632
  1887.5000      7.8570      2.5321      0.0067      7.1459     68.7684     13.5049
  1887.6000      7.8570      2.5504     -0.0140      6.0379     73.7040     13.4278
  1887.7000      7.8570      2.5747      0.0526      4.5631     78.9939     13.4997
  1887.8000      7.8580      2.5871      0.0762      3.8104     83.6484     13.8803
  1887.9000      7.8580      2.5838      0.0412      4.0096     85.7500     14.2280
  1888.0000      7.8508      2.5781      0.0507      4.3551     83.9299     14.6124
  1888.1000      7.8508      2.5808      0.0351      4.1969     77.9665     15.3150
  1888.2000      7.8508      2.5920      0.0605      3.5128     71.8765     15.8837
  1888.3000      7.8432      2.6043      0.0817      2.7690     70.5814     15.2207
  1888.4000      7.8432      2.6124      0.0377      2.2804     74.3136     14.0172
  1888.5000      7.8482      2.6120      0.1004      2.3013     78.9140     13.9600
  1888.6000      7.8482      2.5999      0.0706      3.0334     79.4589     14.8876
  1888.7000      7.8482      2.5859      0.0439      3.8849     75.5048     15.6540
  1888.8000      7.8569      2.5807      0.0103      4.1973     72.2782     16.0872
  1888.9000      7.8569      2.5843      0.0011      3.9817     71.7533     16.0671
  1889.0000      7.8807      2.5858      0.0428      3.8908     72.8353     15.5257
  1889.1000      7.8807      2.5747      0.0504      4.5662     75.2086     15.2194
  1889.2000      7.8807      2.5611     -0.0062      5.3872     75.6497     15.3537
  1889.3000      7.9055      2.5655      0.0335      5.1198     71.9756     15.5737
  1889.4000      7.9055      2.5880      0.0478      3.7555     67.2004     15.5725
  1889.5000      7.8989      2.6059      0.0995      2.6704     64.0501     15.0717
  1889.6000      7.8989      2.6014      0.0570      2.9452     62.3687     14.6885
  1889.7000      7.8989      2.5880      0.0074      3.7589     64.4557     14.8745
  1889.8000      7.8989      2.5826      0.0067      4.0822     71.7527     15.0231
  1889.9000      7.8989      2.5771      0.0287      4.4177     77.5693     15.0017
  1890.0000      7.8945      2.5631      0.0613      5.2679     75.4406     15.1924
  1890.1000      7.8945      2.5475      0.0014      6.2096     70.7085     15.4278
  1890.2000      7.8945      2.5385     -0.0038      6.7593     69.3038     15.2814
  1890.3000      7.9289      2.5319      0.0064      7.1547     69.5573     14.7954
  1890.4000      7.9289      2.5268      0.0284      7.4689     67.3973     14.3798
  1890.5000      7.9239      2.5311     -0.0502      7.2065     61.5679     14.3248
  1890.6000      7.9239      2.5420     -0.0020      6.5450     57.7775     14.6731
  1890.7000      7.9239      2.5465      0.0079      6.2731     59.2734     14.9755
  1890.8000      7.9287      2.5514     -0.0020      5.9758     63.1676     14.7765
  1890.9000      7.9287      2.5759      0.0106      4.4893     68.3514     14.6607
  1891.0000      7.9360      2.6147      0.0582      2.1416     70.9650     15.0254
  1891.1000      7.9360      2.6353      0.0776      0.8905     67.6040     15.0706
  1891.2000      7.9360      2.6230      0.0814      1.6362     61.7542     14.5196
  1891.3000      7.8930      2.5985      0.0585      3.1191     56.6527     14.1014
  1891.4000      7.8930      2.5852     -0.0036      3.9303     53.7949     14.2150
  1891.5000      7.8858      2.5861      0.0378      3.8700     54.8926     14.6812
  1891.6000      7.8858      2.5920      0.0742      3.5151     59.9814     15.1845
  1891.7000      7.8858      2.5956      0.0419      3.2962     65.7986     15.4541
  1891.8000      7.8511      2.5950      0.0593      3.3318     65.7283     15.2787
  1891.9000      7.8511      2.5945      0.0562      3.3623     58.4265     14.8546
  1892.0000      7.8408      2.5997      0.0560      3.0496     52.2169     14.7684
  1892.1000      7.8408      2.6052      0.0135      2.7128     52.9104     15.1940
  1892.2000      7.8408      2.6067      0.0545      2.6219     57.7331     15.5314
  1892.3000      7.8357      2.6034      0.0550      2.8222     61.1202     15.4021
  1892.4000      7.8357      2.5989      0.0054      3.0999     60.9128     15.2855
  1892.5000      7.8461      2.6001      0.0905      3.0220     58.5318     15.6041
