~Version Information
VERS.                      2.0: CWLS Log ASCII Standard - VERSION 2.0
WRAP.                       NO: One line per depth step
~Well Information Block
STRT.FT              1585.0000: 
STOP.FT              2353.0000: 
STEP.FT                 0.2500: 
NULL.                -999.2500: 
COMP.          XTO Energy Inc.: COMPANY
WELL.          Hill Ranch 15-11: WELL
FLD.           Purgatrorie River: FIELD
LOC.           1862' FSL & 1801' FWL: LOCATION
STAT.                       CO: State
CNTY.               Las Animas: COUNTY
CTRY. USA : Country
SECT. 15 : Section
TOWN. 35S : Township
RANG. 67W : Range
SRVC.          Patterson Wireline: SERVICE COMPANY
DATE.          Thu Dec 08 10:20:02 2005: LOG DATE
API.              05 071 08472: UNIQUE WELL ID
~Curve Information Block
DEPT.FT            0 000 00 00: Depth
CCL.                          : Casing Collar Locator
TT3.usec                      : CBL 3' Travel Time
AMP3.mV                       : CBL 3' Amplitude
BONDIX.                       : CBL Bond Index
GR.GAPI                       : Gamma Ray
~Parameter Information Block
~A  Depth       CCL         TT3         AMP3       BONDIX        GR     
# ...
  1781.0000      0.0000    722.6854      6.0727      0.6037    155.6545
  1781.2500      0.0000    726.2902      6.4945      0.5890    158.9819
  1781.5000      0.0000    733.8677      6.8203      0.5782    162.4241
  1781.7500      0.0000    743.8698      7.0640      0.5705    164.7618
  1782.0000      0.0000    752.3589      7.2079      0.5661    165.6723
  1782.2500      0.0000    755.3501      7.2106      0.5660    165.8054
  1782.5000      0.0000    752.9045      7.0682      0.5704    166.3468
  1782.7500      0.0000    749.3511      6.8613      0.5769    168.3580
  1783.0000      0.0000    748.4601      6.7243      0.5813    172.0671
  1783.2500      0.0000    749.7251      6.7653      0.5800    176.2535
  1783.5000      0.0000    750.5692      7.0125      0.5721    178.5202
  1783.7500      0.0000    750.9297      7.4253      0.5595    176.9287
  1784.0000      0.0000    753.4892      7.9342      0.5450    171.4383
  1784.2500      0.0000    759.3840      8.4655      0.5307    163.5934
  1784.5000      0.0000    765.6602      8.9326      0.5189    155.3331
  1784.7500      0.0000    768.1461      9.2299      0.5118    148.5912
  1785.0000      0.0000    765.9686      9.2720      0.5108    145.3053
  1785.2500      0.0000    762.0692      9.0552      0.5160    146.6127
  1785.5000      0.0000    759.6916      8.6694      0.5255    151.6922
  1785.7500      0.0000    759.5076      8.2336      0.5368    157.7816
  1786.0000      0.0000    760.1602      7.8227      0.5481    161.6575
  1786.2500      0.0000    760.6038      7.4500      0.5588    161.5057
  1786.5000      0.0000    761.1089      7.1023      0.5693    157.9516
  1786.7500      0.0000    762.1292      6.7741      0.5797    153.3200
  1787.0000      0.0000    763.1445      6.4747      0.5896    149.6087
  1787.2500      0.0000    763.2798      6.2214      0.5984    147.3228
  1787.5000      0.0000    762.6998      6.0378      0.6050    146.2429
  1787.7500      0.0000    762.6701      5.9501      0.6082    146.4863
  1788.0000      0.0000    764.1346      5.9702      0.6075    148.1945
  1788.2500      0.0000    766.6983      6.0766      0.6036    150.7896
  1788.5000      0.0000    769.1282      6.2128      0.5987    153.2449
  1788.7500      0.0000    770.4462      6.3091      0.5953    154.8725
  1789.0000      0.0000    770.2966      6.3165      0.5951    155.3679
  1789.2500      0.0000    768.7043      6.2276      0.5982    154.3526
  1789.5000      0.0000    766.0479      6.0673      0.6039    151.4549
  1789.7500      0.0000    763.2998      5.8639      0.6114    147.0106
  1790.0000      0.0000    761.7397      5.6319      0.6203    142.4384
  1790.2500      0.0000    761.9838      5.3788      0.6304    139.7902
  1790.5000      0.0000    763.3967      5.1180      0.6413    140.6544
  1790.7500      0.0000    764.6126      4.8735      0.6521    144.8234
  1791.0000      0.0000    764.3881      4.6713      0.6614    149.9674
  1791.2500      0.0000    761.8725      4.5260      0.6683    153.4539
  1791.5000      0.0000    756.6423      4.4294      0.6730    154.9001
  1791.7500      0.0000    749.0952      4.3559      0.6767    156.3228
  1792.0000      0.0000    740.7227      4.2813      0.6805    159.4384
  1792.2500      0.0000    733.4891      4.1946      0.6850    163.4849
  1792.5000      0.0000    728.7451      4.0911      0.6905    166.1851
  1792.7500      0.0000    726.8754      3.9630      0.6975    166.2678
  1793.0000      0.0000    727.7728      3.8077      0.7063    164.2474
  1793.2500      0.0000    730.9844      3.6402      0.7161    160.9761
  1793.5000      0.0000    735.0402      3.4905      0.7254    156.5181
  1793.7500      0.0000    737.2183      3.3840      0.7322    150.7154
  1794.0000      0.0000    735.0129      3.3287      0.7358    144.0347
  1794.2500      0.0000    728.3162      3.3186      0.7365    137.3271
  1794.5000      0.0000    719.9321      3.3426      0.7349    131.1049
  1794.7500      0.0000    713.6919      3.3877      0.7319    125.5636
  1795.0000      0.0000    711.8427      3.4382      0.7287    121.3510
  1795.2500      0.0000    713.8591      3.4805      0.7260    119.8687
  1795.5000      0.0000    717.4135      3.5117      0.7240    122.1164
  1795.7500      0.0000    720.4086      3.5385      0.7224    127.1242
  1796.0000      0.0000    722.3184      3.5672      0.7206    132.2694
  1796.2500      0.0000    724.2661      3.5958      0.7188    135.5831
  1796.5000      0.0000    728.3123      3.6142      0.7177    137.3872
  1796.7500      0.0000    736.1727      3.6076      0.7181    139.3390
  1797.0000      0.0000    747.3821      3.5604      0.7210    142.1026
  1797.2500      0.0000    758.1605      3.4618      0.7272    144.4386
  1797.5000      0.0000    762.9533      3.3124      0.7369    144.7425
  1797.7500      0.0000    758.3786      3.1287      0.7494    142.8480
  1798.0000      0.0000    746.0854      2.9393      0.7631    139.8247
  1798.2500      0.0000    731.4597      2.7727      0.7760    136.7404
  1798.5000      0.0000    719.5916      2.6468      0.7862    134.5879
  1798.7500      0.0000    712.6788      2.5649      0.7931    134.8053
  1799.0000      0.0000    710.7199      2.5212      0.7968    138.5939
  1799.2500      0.0000    713.4760      2.5063      0.7981    145.4544
  1799.5000      0.0000    721.2634      2.5093      0.7979    152.7571
  1799.7500      0.0000    734.2013      2.5183      0.7971    157.1131
  1800.0000      0.0000    750.9671      2.5230      0.7967    156.6965
  1800.2500      0.0000    768.4081      2.5175      0.7972    152.5225
  1800.5000      0.0000    782.7652      2.5033      0.7984    147.1923
  1800.7500      0.0000    792.0397      2.4868      0.7999    142.4092
  1801.0000      0.0000    796.8974      2.4742      0.8010    138.2379
  1801.2500      0.0000    798.2004      2.4671      0.8016    134.7596
  1801.5000      0.0000    793.8492      2.4610      0.8022    133.4416
  1801.7500      0.0000    780.0179      2.4471      0.8034    135.8531
  1802.0000      0.0000    756.6813      2.4161      0.8062    141.0860
  1802.2500      0.0000    730.6807      2.3667      0.8107    145.5012
  1802.5000      0.0000    711.5950      2.3110      0.8160    145.7985
  1802.7500      0.0000    704.3733      2.2718      0.8197    142.0468
  1803.0000      0.0000    706.0516      2.2715      0.8198    137.0336
  1803.2500      0.0000    709.0236      2.3224      0.8149    132.7971
  1803.5000      0.0000    707.6510      2.4266      0.8052    128.5880
  1803.7500      0.0000    702.4391      2.5793      0.7918    122.2703
  1804.0000      0.0000    698.2155      2.7687      0.7763    112.9479
  1804.2500      0.0000    698.6890      2.9718      0.7607    101.9698
  1804.5000      0.0000    703.0687      3.1550      0.7476     91.9600
  1804.7500      0.0000    707.5272      3.2867      0.7386     85.2082
  1805.0000      0.0000    709.0886      3.3546      0.7341     82.6907
  1805.2500      0.0000    707.8326      3.3705      0.7331     83.9738
  1805.5000      0.0000    705.9756      3.3573      0.7339     87.5104
  1805.7500      0.0000    705.6301      3.3294      0.7358     91.2087
  1806.0000      0.0000    707.3348      3.2865      0.7386     93.2930
  1806.2500      0.0000    709.8459      3.2235      0.7429     93.0869
  1806.5000      0.0000    710.8901      3.1458      0.7482     91.3044
  1806.7500      0.0000    708.4796      3.0712      0.7535     89.6180
  1807.0000      0.0000    702.0436      3.0194      0.7572     89.5472
  1807.2500      0.0000    692.6972      2.9983      0.7588     91.2953
  1807.5000      0.0000    682.3964      3.0007      0.7586     93.5738
  1807.7500      0.0000    672.4952      3.0108      0.7579     94.6699
  1808.0000      0.0000    663.1809      3.0127      0.7577     93.6976
  1808.2500      0.0000    654.4919      2.9957      0.7590     90.8650
  1808.5000      0.0000    647.3297      2.9574      0.7618     86.8460
  1808.7500      0.0000    642.7601      2.9046      0.7657     82.2223
