~Version Information
VERS.                      2.0: CWLS Log ASCII Standard - VERSION 2.0
WRAP.                       NO: One line per depth step
~Well Information Block
STRT.FT                -6.5000: 
STOP.FT              1758.0000: 
STEP.FT                 0.2500: 
NULL.                -999.2500: 
COMP.          Pioneer Natural Resources: COMPANY
WELL.           Rolls 14-14 Tr: WELL
FLD.           Purgatorie River: FIELD
LOC.           473' FSL & 817' FWL--: LOCATION
PROV.                       CO: PROVINCE
CNTY.               Las Animas: COUNTRY
SRVC.          Patterson Wireline: SERVICE COMPANY
DATE.          Mon Aug 08 11:51:25 2005: LOG DATE
UWI.           05 071 08454 00: UNIQUE WELL ID
~Curve Information Block
DEPT.FT            0 000 00 00: Depth
CCL.                          : Casing Collar Locator
TT3.usec                      : CBL 3' Travel Time
AMP3.mV                       : CBL 3' Amplitude
GR.GAPI                       : Gamma Ray
~Parameter Information Block
~A  Depth       CCL         TT3         AMP3         GR     
# ...
  1166.0000      0.0000    835.2817      5.1625    126.4685
  1166.2500      0.0000    831.6184      5.1457    127.3704
  1166.5000      0.0000    826.9157      5.1407    130.2332
  1166.7500      0.0000    822.7465      5.1391    134.1334
  1167.0000      0.0000    820.2876      5.1219    137.9304
  1167.2500      0.0000    818.7352      5.0734    141.5748
  1167.5000      0.0000    816.3006      4.9905    145.4969
  1167.7500      0.0000    812.8882      4.8833    149.1922
  1168.0000      0.0000    810.8969      4.7721    151.1228
  1168.2500      0.0000    812.5350      4.6760    150.0449
  1168.5000      0.0000    816.9986      4.5981    146.1907
  1168.7500      0.0000    821.4305      4.5247    141.0280
  1169.0000      0.0000    824.0262      4.4424    135.9976
  1169.2500      0.0000    824.9565      4.3515    131.8290
  1169.5000      0.0000    824.9901      4.2594    129.0068
  1169.7500      0.0000    824.6589      4.1640    128.0970
  1170.0000      0.0000    824.5101      4.0541    129.1934
  1170.2500      0.0000    825.1074      3.9289    131.4749
  1170.5000      0.0000    826.5543      3.8129    133.7202
  1170.7500      0.0000    828.2750      3.7423    135.1604
  1171.0000      0.0000    829.5590      3.7365    135.7542
  1171.2500      0.0000    830.4954      3.7854    135.8690
  1171.5000      0.0000    832.0471      3.8661    135.8044
  1171.7500      0.0000    834.7833      3.9674    135.6332
  1172.0000      0.0000    837.9099      4.0931    135.6143
  1172.2500      0.0000    840.2047      4.2449    136.6470
  1172.5000      0.0000    841.5605      4.4092    139.7170
  1172.7500      0.0000    842.7662      4.5659    144.5684
  1173.0000      0.0000    843.9080      4.7069    149.3535
  1173.2500      0.0000    844.0006      4.8367    151.9001
  1173.5000      0.0000    842.4792      4.9595    151.0997
  1173.7500      0.0000    840.3021      5.0719    147.2290
  1174.0000      0.0000    839.0762      5.1653    141.7889
  1174.2500      0.0000    839.3770      5.2294    137.2410
  1174.5000      0.0000    840.1975      5.2540    136.0616
  1174.7500      0.0000    839.8087      5.2359    139.2280
  1175.0000      0.0000    837.1233      5.1878    145.3955
  1175.2500      0.0000    832.5907      5.1363    151.8062
  1175.5000      0.0000    827.8731      5.1068    156.1711
  1175.7500      0.0000    824.5132      5.1086    157.6890
  1176.0000      0.0000    822.9288      5.1311    156.7955
  1176.2500      0.0000    822.5718      5.1509    154.7264
  1176.5000      0.0000    822.6856      5.1500    152.9708
  1176.7500      0.0000    822.7800      5.1301    152.1868
  1177.0000      0.0000    822.6724      5.1072    151.7133
  1177.2500      0.0000    822.3814      5.0971    150.6598
  1177.5000      0.0000    822.0204      5.1087    149.1753
  1177.7500      0.0000    821.7112      5.1450    148.1504
  1178.0000      0.0000    821.5256      5.2014    148.0341
  1178.2500      0.0000    821.4728      5.2641    148.4626
  1178.5000      0.0000    821.5170      5.3170    148.8230
  1178.7500      0.0000    821.6024      5.3525    148.4371
  1179.0000      0.0000    821.6733      5.3707    146.1864
  1179.2500      0.0000    821.6859      5.3722    141.1143
  1179.5000      0.0000    821.6241      5.3587    134.1234
  1179.7500      0.0000    821.5310      5.3395    128.3283
  1180.0000      0.0000    821.5150      5.3315    126.7794
  1180.2500      0.0000    821.6774      5.3474    129.8625
  1180.5000      0.0000    821.9991      5.3826    135.0864
  1180.7500      0.0000    822.2854      5.4175    139.1920
  1181.0000      0.0000    822.2153      5.4325    140.6076
  1181.2500      0.0000    821.4294      5.4212    140.3203
  1181.5000      0.0000    819.6858      5.3878    140.5287
  1181.7500      0.0000    817.1882      5.3382    142.6298
  1182.0000      0.0000    814.8480      5.2782    146.5375
  1182.2500      0.0000    813.8818      5.2204    151.1115
  1182.5000      0.0000    814.7939      5.1844    154.5121
  1182.7500      0.0000    816.8651      5.1842    154.7026
  1183.0000      0.0000    818.8372      5.2131    150.6787
  1183.2500      0.0000    819.9488      5.2466    143.6468
  1183.5000      0.0000    820.2301      5.2652    136.7555
  1183.7500      0.0000    820.0990      5.2716    133.1267
  1184.0000      0.0000    819.9174      5.2832    133.7141
  1184.2500      0.0000    819.8214      5.3119    137.0292
  1184.5000      0.0000    819.7532      5.3544    140.8368
  1184.7500      0.0000    819.5019      5.3941    143.8123
  1185.0000      0.0000    818.6006      5.4030    145.5871
  1185.2500      0.0000    816.0751      5.3455    145.9109
  1185.5000      0.0000    810.5112      5.2002    144.5882
  1185.7500      0.0000    801.2503      4.9941    142.1420
  1186.0000      0.0000    790.3688      4.8046    139.7442
  1186.2500      0.0000    782.8967      4.7018    138.2248
  1186.5000      0.0000    783.3716      4.6873    137.5016
  1186.7500      0.0000    791.5754      4.7107    136.9997
  1187.0000      0.0000    802.4643      4.7349    136.2697
  1187.2500      0.0000    810.3603      4.7565    135.2209
  1187.5000      2.0000    812.7328      4.7782    134.0455
  1187.7500      2.0000    810.7310      4.7910    132.9873
  1188.0000      0.0000    807.4630      4.7834    132.2215
  1188.2500      0.0000    805.5972      4.7587    132.2102
  1188.5000      0.0000    805.4912      4.7417    133.9503
  1188.7500      0.0000    805.2150      4.7610    138.1569
  1189.0000      0.0000    802.6578      4.8152    143.9544
  1189.2500      0.0000    797.7310      4.8613    148.8069
  1189.5000      0.0000    792.4500      4.8536    150.2793
  1189.7500      0.0000    789.1863      4.7833    148.0917
  1190.0000      0.0000    789.2843      4.6687    144.4644
  1190.2500      0.0000    792.9658      4.5211    142.1596
  1190.5000      0.0000    799.5125      4.3399    141.8536
  1190.7500      0.0000    807.2852      4.1317    141.6020
  1191.0000      0.0000    814.2421      3.9182    139.1893
  1191.2500      0.0000    818.9621      3.7290    134.5778
  1191.5000      0.0000    821.1776      3.5876    129.5596
  1191.7500      0.0000    821.4857      3.5025    125.5749
  1192.0000      0.0000    820.9435      3.4686    122.7543
  1192.2500      0.0000    820.8024      3.4791    120.8760
  1192.5000      0.0000    821.9382      3.5315    120.1359
  1192.7500      0.0000    824.1995      3.6248    120.7976
  1193.0000      0.0000    826.6139      3.7551    122.8802
  1193.2500      0.0000    828.2011      3.9180    126.3212
  1193.5000      0.0000    828.0905      4.1116    130.8087
  1193.7500      0.0000    825.0984      4.3339    135.5163
  1194.0000      0.0000    818.1262      4.5753    139.6152
  1194.2500      0.0000    807.2290      4.8129    142.9813
  1194.5000      0.0000    793.8661      5.0148    145.9645
  1194.7500      0.0000    780.0430      5.1545    148.5619
  1195.0000      0.0000    767.5893      5.2255    150.3337
  1195.2500      0.0000    758.0733      5.2433    151.3636
  1195.5000      0.0000    752.4167      5.2346    152.7820
  1195.7500      0.0000    750.1146      5.2247    155.8054
  1196.0000      0.0000    749.5210      5.2299    160.4529
  1196.2500      0.0000    749.6896      5.2564    165.4042
  1196.5000      0.0000    751.6663      5.2998    168.7705
  1196.7500      0.0000    757.1407      5.3449    168.9577
  1197.0000      0.0000    765.4553      5.3695    165.2659
  1197.2500      0.0000    772.3776      5.3556    158.1729
  1197.5000      0.0000    772.7529      5.3022    149.3710
  1197.7500      0.0000    764.9745      5.2304    141.4435
  1198.0000      0.0000    752.6979      5.1708    136.6504
  1198.2500      0.0000    741.8622      5.1440    135.3044
  1198.5000      0.0000    736.1161      5.1497    135.6588
  1198.7500      0.0000    735.0622      5.1751    135.8678
  1199.0000      0.0000    736.1366      5.2075    135.6732
  1199.2500      0.0000    737.2431      5.2386    135.7612
