~Version Information
VERS.                      2.0: CWLS Log ASCII Standard - VERSION 2.0
WRAP.                       NO: One line per depth step
~Well Information Block
STRT.FT                 0.0000: 
STOP.FT              1906.7500: 
STEP.FT                 0.2500: 
NULL.                -999.2500: 
COMP.          Petrogulf Corporation: COMPANY
WELL.             Kraft 17-23R: WELL
FLD.           Purgatorie River: FIELD
LOC.           1509' FSL & 1673' FWL: LOCATION
STAT.                 Colorado: State
CNTY.               Las Animas: COUNTY
CTRY. USA : Country
SECT. 17 : Section
TOWN. 33S : Township
RANG. 67W : Range
SRVC.                Patterson: SERVICE COMPANY
DATE.          Fri Jan 06 08:59:54 2006: LOG DATE
API. 05-071-08560                         : UNIQUE WELL ID
~Curve Information Block
DEPT.FT            0 000 00 00: Depth
CCL.                          : Casing Collar Locator
TT3.usec                      : CBL 3' Travel Time
AMP3.mV                       : CBL 3' Amplitude
AMP3.mV                       : CBL 3' Amplitude
GR.GAPI                       : Gamma Ray
AMP3.mV                       : CBL 3' Amplitude
~Parameter Information Block
~A  Depth       CCL         TT3         AMP3        AMP3         GR        .AMP3    
# ...
   744.0000      0.0000    344.0397      8.3156      8.3156     65.6005      8.3156
   744.2500      2.0000    343.1253      8.3963      8.3963     62.0072      8.3963
   744.5000     -2.0000    343.5565      8.3849      8.3849     60.2821      8.3849
   744.7500      0.0000    345.8189      8.4060      8.4060     59.9415      8.4060
   745.0000      0.0000    350.7519      8.3975      8.3975     59.8789      8.3975
   745.2500      0.0000    357.5559      8.2893      8.2893     59.4863      8.2893
   745.5000      0.0000    362.9141      8.1006      8.1006     59.3523      8.1006
   745.7500      0.0000    363.9760      7.7506      7.7506     60.6007      7.7506
   746.0000      0.0000    360.6227      7.2219      7.2219     63.5546      7.2219
   746.2500      0.0000    354.6753      6.8124      6.8124     67.1675      6.8124
   746.5000      0.0000    349.0667      6.6863      6.6863     69.9146      6.6863
   746.7500      0.0000    345.8403      6.6483      6.6483     71.3378      6.6483
   747.0000      0.0000    344.7551      6.5748      6.5748     72.5915      6.5748
   747.2500      0.0000    345.1996      6.5445      6.5445     75.2060      6.5445
   747.5000      0.0000    348.7092      6.6047      6.6047     79.3435      6.6047
   747.7500      0.0000    359.3675      6.7217      6.7217     83.5104      6.7217
   748.0000      0.0000    379.7569      6.8665      6.8665     86.0084      6.8665
   748.2500      0.0000    404.7753      7.0145      7.0145     86.3781      7.0145
   748.5000      0.0000    423.6036      7.1531      7.1531     85.4203      7.1531
   748.7500      0.0000    428.6391      7.2992      7.2992     84.2613      7.2992
   749.0000      0.0000    418.3125      7.4617      7.4617     83.5409      7.4617
   749.2500      0.0000    396.0568      7.6516      7.6516     83.0662      7.6516
   749.5000      0.0000    371.1982      7.8836      7.8836     82.0571      7.8836
   749.7500      0.0000    354.8992      8.1217      8.1217     79.9484      8.1217
   750.0000      0.0000    352.8367      8.3150      8.3150     77.0189      8.3150
   750.2500      0.0000    363.0402      8.4662      8.4662     74.1942      8.4662
   750.5000      0.0000    377.4152      8.6051      8.6051     72.3927      8.6051
   750.7500      0.0000    387.5458      8.7319      8.7319     72.0823      8.7319
   751.0000      0.0000    392.3547      8.8217      8.8217     73.1007      8.8217
   751.2500      0.0000    395.1192      8.8631      8.8631     74.6615      8.8631
   751.5000      0.0000    395.2223      8.8682      8.8682     75.7943      8.8682
   751.7500      0.0000    390.0051      8.8569      8.8569     76.0080      8.8569
   752.0000      0.0000    380.8810      8.8488      8.8488     75.4407      8.8488
   752.2500      0.0000    371.8189      8.8517      8.8517     74.5175      8.8517
   752.5000      0.0000    363.8905      8.8499      8.8499     73.7725      8.8499
   752.7500      0.0000    355.4470      8.8231      8.8231     73.7218      8.8231
   753.0000      0.0000    346.5862      8.7751      8.7751     74.3453      8.7751
   753.2500      0.0000    339.6577      8.7398      8.7398     74.8873      8.7398
   753.5000      0.0000    335.8475      8.7487      8.7487     74.8251      8.7487
   753.7500      0.0000    334.1980      8.7898      8.7898     74.8208      8.7898
   754.0000      0.0000    333.4008      8.8304      8.8304     75.8820      8.8304
   754.2500      0.0000    332.8422      8.8571      8.8571     77.6470      8.8571
   754.5000      0.0000    332.3838      8.8649      8.8649     78.4072      8.8649
   754.7500      0.0000    331.9779      8.8502      8.8502     77.1764      8.8502
   755.0000      0.0000    331.5987      8.8260      8.8260     75.0243      8.8260
   755.2500      0.0000    331.2928      8.8132      8.8132     73.9139      8.8132
   755.5000      0.0000    331.1107      8.8136      8.8136     74.7778      8.8136
   755.7500      0.0000    331.0609      8.7937      8.7937     77.0689      8.7937
   756.0000      0.0000    331.1704      8.7029      8.7029     79.6539      8.7029
   756.2500      0.0000    331.4913      8.5174      8.5174     81.7495      8.5174
   756.5000      0.0000    332.0821      8.2585      8.2585     83.1694      8.2585
   756.7500      0.0000    333.2485      7.9765      7.9765     83.9545      7.9765
   757.0000      0.0000    336.7004      7.7123      7.7123     83.9574      7.7123
   757.2500      0.0000    347.9597      7.4630      7.4630     82.9536      7.4630
   757.5000      0.0000    376.4057      7.2055      7.2055     81.1561      7.2055
   757.7500      0.0000    426.3024      6.9461      6.9461     79.2851      6.9461
   758.0000      0.0000    485.4066      6.7197      6.7197     77.8095      6.7197
   758.2500      0.0000    532.7423      6.5391      6.5391     76.2119      6.5391
   758.5000      0.0000    560.1919      6.3765      6.3765     73.4055      6.3765
   758.7500      0.0000    574.5817      6.2138      6.2138     69.1683      6.2138
   759.0000      0.0000    582.4773      6.0766      6.0766     64.9404      6.0766
   759.2500      0.0000    584.8408      5.9928      5.9928     62.8954      5.9928
   759.5000      0.0000    579.4329      5.9495      5.9495     64.1936      5.9495
   759.7500      0.0000    561.0214      5.9122      5.9122     68.1146      5.9122
   760.0000      0.0000    528.5739      5.8563      5.8563     72.6144      5.8563
   760.2500      0.0000    498.2766      5.7834      5.7834     75.6788      5.7834
   760.5000      0.0000    494.5717      5.7225      5.7225     76.5023      5.7225
   760.7500      0.0000    520.4185      5.6913      5.6913     75.7659      5.6913
   761.0000      0.0000    553.9498      5.6690      5.6690     74.9192      5.6690
   761.2500      0.0000    576.7092      5.6364      5.6364     75.0485      5.6364
   761.5000      0.0000    588.9903      5.6049      5.6049     76.0973      5.6049
   761.7500      0.0000    600.5985      5.5948      5.5948     76.9325      5.5948
   762.0000      0.0000    616.9775      5.6227      5.6227     76.1992      5.6227
   762.2500      0.0000    632.5626      5.6982      5.6982     73.3406      5.6982
   762.5000      0.0000    637.0055      5.8201      5.8201     69.0610      5.8201
   762.7500      0.0000    624.7093      5.9762      5.9762     64.9799      5.9762
   763.0000      0.0000    591.0344      6.1301      6.1301     62.7602      6.1301
   763.2500      0.0000    534.0981      6.2242      6.2242     63.3074      6.2242
   763.5000      0.0000    473.2776      6.2207      6.2207     66.4392      6.2207
   763.7500      0.0000    444.2628      6.1380      6.1380     71.0479      6.1380
   764.0000      0.0000    463.7612      6.0377      6.0377     75.6521      6.0377
   764.2500      0.0000    512.1953      5.9719      5.9719     79.1885      5.9719
   764.5000      0.0000    556.1626      5.9479      5.9479     81.4348      5.9479
   764.7500      0.0000    579.7512      5.9425      5.9425     82.6539      5.9425
   765.0000      0.0000    587.7719      5.9408      5.9408     83.0277      5.9408
   765.2500      0.0000    589.3875      5.9323      5.9323     82.6743      5.9323
   765.5000      0.0000    589.3139      5.8934      5.8934     81.9535      5.8934
   765.7500      0.0000    588.9449      5.8156      5.8156     81.4083      5.8156
   766.0000      0.0000    588.6453      5.7229      5.7229     81.4916      5.7229
   766.2500      0.0000    588.6429      5.6473      5.6473     82.5188      5.6473
   766.5000      0.0000    589.4194      5.6078      5.6078     84.6082      5.6078
   766.7500      0.0000    592.2348      5.6076      5.6076     87.4419      5.6076
   767.0000      0.0000    598.8201      5.6282      5.6282     90.2683      5.6282
   767.2500      0.0000    608.2474      5.6419      5.6419     92.1739      5.6419
   767.5000      0.0000    615.6146      5.6464      5.6464     92.2518      5.6464
   767.7500      0.0000    620.0071      5.6628      5.6628     89.8599      5.6628
