~Version Information
VERS.                      2.0: CWLS Log ASCII Standard - VERSION 2.0
WRAP.                       NO: One line per depth step
~Well Information Block
STRT.FT               625.0000: 
STOP.FT              2053.7500: 
STEP.FT                 0.2500: 
NULL.                -999.2500: 
COMP.          Pioneer Natural Resources: COMPANY
WELL.            Zink 44-10 Tr: WELL
FLD.           Purgatoire River: FIELD
LOC.           486' FSL & 554' FEL--: LOCATION
PROV.                 Colorado: PROVINCE
CNTY.               Las Animas: COUNTRY
SRVC.                Patterson: SERVICE COMPANY
DATE.          Sun Jul 24 06:18:01 2005: LOG DATE
UWI.           05 071 08446 00: UNIQUE WELL ID
~Curve Information Block
DEPT.FT            0 000 00 00: Depth
SN.Ohm-m                      : IEL Short Normal
SP.mV                         : IEL Spontaneous Potential
DIR.Ohm-m                     : IEL Induction Resistivity
GR.GAPI                       : Gamma Ray
~Parameter Information Block
~A  Depth        SN          SP         DIR          GR     
# ...
   993.5000   2000.0000   1979.0000     54.9136     61.1252
   993.7500   2000.0000   1979.0000     55.0603     61.5136
   994.0000   2000.0000   1979.0000     55.0347     61.9811
   994.2500   2000.0000   1979.0000     54.7127     62.4870
   994.5000   2000.0000   1979.0000     54.0469     64.0784
   994.7500   2000.0000   1979.0000     53.1053     65.7876
   995.0000   2000.0000   1979.0000     52.0477     68.9420
   995.2500   2000.0000   1979.0000     51.0606     71.0412
   995.5000   2000.0000   1979.0000     50.2952     73.6381
   995.7500   2000.0000   1979.0000     49.8300     74.9966
   996.0000   2000.0000   1979.0000     49.6531     77.0640
   996.2500   2000.0000   1979.0000     49.6640     78.7705
   996.5000   2000.0000   1979.0000     49.7125     81.4842
   996.7500   2000.0000   1979.0000     49.6731     82.7765
   997.0000   2000.0000   1979.0000     49.5071     83.1010
   997.2500   2000.0000   1979.0000     49.2631     82.2732
   997.5000   2000.0000   1979.0000     49.0227     80.4480
   997.7500   2000.0000   1979.0000     48.8563     79.6671
   998.0000   2000.0000   1979.0000     48.8120     80.0551
   998.2500   2000.0000   1979.0000     48.9110     81.1300
   998.5000   2000.0000   1979.0000     49.1317     82.3729
   998.7500   2000.0000   1979.0000     49.3989     81.9006
   999.0000   2000.0000   1979.0000     49.6053     78.4564
   999.2500   2000.0000   1979.0000     49.6591     74.6909
   999.5000   2000.0000   1979.0000     49.5222     68.2679
   999.7500   2000.0000   1979.0000     49.2085     64.3258
  1000.0000   2000.0000   1979.0000     48.7493     59.9820
  1000.2500   2000.0000   1979.0000     48.1575     58.4883
  1000.5000   2000.0000   1979.0000     47.4249     58.4766
  1000.7500   2000.0000   1979.0000     46.5504     59.6576
  1001.0000   2000.0000   1979.0000     45.5650     62.1051
  1001.2500   2000.0000   1979.0000     44.5146     63.4824
  1001.5000   2000.0000   1979.0000     43.4051     64.5548
  1001.7500   2000.0000   1979.0000     42.1614     64.6600
  1002.0000   2000.0000   1979.0000     40.6445     64.1356
  1002.2500   2000.0000   1979.0000     38.7187     63.2905
  1002.5000   2000.0000   1979.0000     36.3251     61.0853
  1002.7500   2000.0000   1979.0000     33.5200     59.0688
  1003.0000   2000.0000   1979.0000     30.4650     55.9510
  1003.2500   2000.0000   1979.0000     27.3763     54.6170
  1003.5000   2000.0000   1979.0000     24.4551     55.5582
  1003.7500   2000.0000   1979.0000     21.8369     58.9887
  1004.0000   2000.0000   1979.0000     19.5775     68.2780
  1004.2500   2000.0000   1979.0000     17.6692     76.2853
  1004.5000   2000.0000   1979.0000     16.0666     89.1147
  1004.7500   2000.0000   1979.0000     14.7124     97.6064
  1005.0000   2000.0000   1979.0000     13.5587    109.9391
  1005.2500   2000.0000   1979.0000     12.5772    117.5504
  1005.5000   2000.0000   1979.0000     11.7596    126.6894
  1005.7500   2000.0000   1979.0000     11.1086    130.3992
  1006.0000   2000.0000   1979.0000     10.6289    131.8876
  1006.2500   2000.0000   1979.0000     10.3218    130.5930
  1006.5000   2000.0000   1979.0000     10.1833    126.4324
  1006.7500   2000.0000   1979.0000     10.2041    122.6667
  1007.0000   2000.0000   1979.0000     10.3700    115.7359
  1007.2500   2000.0000   1979.0000     10.6632    110.1752
  1007.5000   2000.0000   1979.0000     11.0646    100.3866
  1007.7500   2000.0000   1979.0000     11.5583     93.2799
  1008.0000   2000.0000   1979.0000     12.1383     83.6905
  1008.2500   2000.0000   1979.0000     12.8123     79.7178
  1008.5000   2000.0000   1979.0000     13.6008     79.6566
  1008.7500   2000.0000   1979.0000     14.5268     83.5057
  1009.0000   2000.0000   1979.0000     15.6008     92.5087
  1009.2500   2000.0000   1979.0000     16.8058     98.5556
  1009.5000   2000.0000   1979.0000     18.0902    105.0529
  1009.7500   2000.0000   1979.0000     19.3773    107.1698
  1010.0000   2000.0000   1979.0000     20.5908    107.5691
  1010.2500   2000.0000   1979.0000     21.6879    106.5658
  1010.5000   2000.0000   1979.0000     22.6790    103.8301
  1010.7500   2000.0000   1979.0000     23.6245    101.4021
  1011.0000   2000.0000   1979.0000     24.6146     97.4295
  1011.2500   2000.0000   1979.0000     25.7459     95.1004
  1011.5000   2000.0000   1979.0000     27.1011     92.7569
  1011.7500   2000.0000   1979.0000     28.7300     91.7759
  1012.0000   2000.0000   1979.0000     30.6271     89.9053
  1012.2500   2000.0000   1979.0000     32.7081     87.7255
  1012.5000   2000.0000   1979.0000     34.8009     83.2243
  1012.7500   2000.0000   1979.0000     36.6781     80.1535
  1013.0000   2000.0000   1979.0000     38.1410     76.5434
  1013.2500   2000.0000   1979.0000     39.1132     74.9063
  1013.5000   2000.0000   1979.0000     39.6698     73.2744
  1013.7500   2000.0000   1979.0000     39.9819     72.6007
  1014.0000   2000.0000   1979.0000     40.2332     72.0445
  1014.2500   2000.0000   1979.0000     40.5665     71.7401
  1014.5000   2000.0000   1979.0000     41.0679     70.9178
  1014.7500   2000.0000   1979.0000     41.7599     70.0984
  1015.0000   2000.0000   1979.0000     42.5958     68.8957
  1015.2500   2000.0000   1979.0000     43.4726     68.3319
  1015.5000   2000.0000   1979.0000     44.2780     67.6285
  1015.7500   2000.0000   1979.0000     44.9439     66.8772
  1016.0000   2000.0000   1979.0000     45.4616     65.0196
  1016.2500   2000.0000   1979.0000     45.8515     63.6020
  1016.5000   2000.0000   1979.0000     46.1292     62.1790
  1016.7500   2000.0000   1979.0000     46.3012     62.0424
  1017.0000   2000.0000   1979.0000     46.3749     62.9188
  1017.2500   2000.0000   1979.0000     46.3556     63.9852
  1017.5000   2000.0000   1979.0000     46.2351     66.1076
  1017.7500   2000.0000   1979.0000     45.9954     67.7946
  1018.0000   2000.0000   1979.0000     45.6328     70.3007
  1018.2500   2000.0000   1979.0000     45.1778     71.5879
  1018.5000   2000.0000   1979.0000     44.6856     72.5851
  1018.7500   2000.0000   1979.0000     44.2067     72.6874
  1019.0000   2000.0000   1979.0000     43.7671     72.2588
  1019.2500   2000.0000   1979.0000     43.3772     71.6460
  1019.5000   2000.0000   1979.0000     43.0531     70.2517
  1019.7500   2000.0000   1979.0000     42.8237     69.1021
  1020.0000   2000.0000   1979.0000     42.7119     67.2981
  1020.2500   2000.0000   1979.0000     42.7081     66.0681
  1020.5000   2000.0000   1979.0000     42.7584     64.0473
  1020.7500   2000.0000   1979.0000     42.7807     62.6403
  1021.0000   2000.0000   1979.0000     42.6981     61.0647
  1021.2500   2000.0000   1979.0000     42.4709     60.8897
  1021.5000   2000.0000   1979.0000     42.1054     62.4721
  1021.7500   2000.0000   1979.0000     41.6355     64.6350
  1022.0000   2000.0000   1979.0000     41.0962     68.7186
  1022.2500   2000.0000   1979.0000     40.5141     71.4270
  1022.5000   2000.0000   1979.0000     39.9201     74.7313
  1022.7500   2000.0000   1979.0000     39.3632     76.1489
  1023.0000   2000.0000   1979.0000     38.9053     76.7957
  1023.2500   2000.0000   1979.0000     38.5958     76.2853
  1023.5000   2000.0000   1979.0000     38.4414     74.8025
  1023.7500   2000.0000   1979.0000     38.3920     73.8409
  1024.0000   2000.0000   1979.0000     38.3518     72.5135
  1024.2500   2000.0000   1979.0000     38.2171     71.2030
  1024.5000   2000.0000   1979.0000     37.9172     67.9042
  1024.7500   2000.0000   1979.0000     37.4301     65.1430
  1025.0000   2000.0000   1979.0000     36.7629     61.9453
  1025.2500   2000.0000   1979.0000     35.9272     61.5900
  1025.5000   2000.0000   1979.0000     34.9383     64.6972
  1025.7500   2000.0000   1979.0000     33.8323     69.0014
  1026.0000   2000.0000   1979.0000     32.6723     77.7330
  1026.2500   2000.0000   1979.0000     31.5278     84.3701
  1026.5000   2000.0000   1979.0000     30.4477     94.2169
  1026.7500   2000.0000   1979.0000     29.4519     99.6791
