~Version Information
VERS.                      2.0: CWLS Log ASCII Standard - VERSION 2.0
WRAP.                       NO: One line per depth step
~Well Information Block
STRT.FT                10.0000: 
STOP.FT              1187.0000: 
STEP.FT                 0.1000: 
NULL.                -999.2500: 
COMP.          Pioneer Natural Resources: COMPANY
WELL.          Whitecoat 14-36: WELL
FLD.           Purgatorie River: FIELD
LOC.           606' FSL & 260' FWL: LOCATION
PROV.                 Colorado: PROVINCE
CNTY.               Las Animas: COUNTRY
SRVC.                Patterson: SERVICE COMPANY
DATE.          Tue Dec 06 07:14:37 2005: LOG DATE
UWI.                          : UNIQUE WELL ID
~Curve Information Block
DEPT.FT            0 000 00 00: Depth
DCAL.in                       : CDL Caliper
RHOB.g/cc                     : CDL Bulk Density
RHOC.g/cc                     : CDL Density Correction
DPOR.pu                       : CDL Density Porosity
GR.GAPI                       : Gamma Ray
NPOR.pu                       : Neutron Porosity
~Parameter Information Block
~A  Depth       DCAL        RHOB        RHOC        DPOR         GR         NPOR    
# ...
  1171.6000      7.8773      2.5319      0.0268      7.1592    127.8975   -999.2500
  1171.7000      7.8773      2.5240      0.0265      7.6348    131.5612   -999.2500
  1171.8000      7.8601      2.5205      0.0138      7.8481    131.3889   -999.2500
  1171.9000      7.8601      2.5318      0.0034      7.1646    127.6930   -999.2500
  1172.0000      7.8793      2.5583      0.0433      5.5586    122.6510   -999.2500
  1172.1000      7.8793      2.5849      0.0775      3.9481    118.3753   -999.2500
  1172.2000      7.8793      2.5981      0.0713      3.1450    115.2364   -999.2500
  1172.3000      7.8468      2.5994      0.0432      3.0648    111.2487   -999.2500
  1172.4000      7.8468      2.5944      0.1030      3.3725    105.3203   -999.2500
  1172.5000      7.8289      2.5777      0.0796      4.3815    100.5103   -999.2500
  1172.6000      7.8289      2.5511      0.0118      5.9930     99.9559   -999.2500
  1172.7000      7.8289      2.5265      0.0045      7.4822    101.4798   -999.2500
  1172.8000      7.8223      2.5059      0.0078      8.7311    101.5996   -999.2500
  1172.9000      7.8223      2.4894     -0.0299      9.7334    101.3348   -999.2500
  1173.0000      7.8507      2.4871     -0.0143      9.8749    100.1449   -999.2500
  1173.1000      7.8507      2.4958      0.0475      9.3459     91.1982   -999.2500
  1173.2000      7.8507      2.4973      0.0443      9.2550     67.5727   -999.2500
  1173.3000      7.8405      2.4879      0.0262      9.8233     35.1056   -999.2500
  1173.4000      7.8405      2.4801      0.0258     10.2954     11.2972   -999.2500
  1173.5000      7.8499      2.4837      0.0203     10.0817      2.0852   -999.2500
  1173.6000      7.8499      2.4931      0.0346      9.5094      0.2116   -999.2500
  1173.7000      7.8499      2.4907      0.0557      9.6520      0.0113   -999.2500
  1173.8000      7.8555      2.4637      0.0734     11.2924      0.0000   -999.2500
  1173.9000      7.8555      2.4218     -0.0285     13.8313   -999.2500   -999.2500
  1174.0000      7.8385      2.3950     -0.0218     15.4529   -999.2500   -999.2500
  1174.1000      7.8385      2.3990      0.0036     15.2136   -999.2500   -999.2500
  1174.2000      7.8385      2.4219      0.0392     13.8262   -999.2500   -999.2500
  1174.3000      7.8438      2.4481      0.0625     12.2360   -999.2500   -999.2500
  1174.4000      7.8438      2.4733      0.0648     10.7068   -999.2500   -999.2500
  1174.5000      7.8695      2.5009      0.0785      9.0375   -999.2500   -999.2500
  1174.6000      7.8695      2.5259      0.1695      7.5229   -999.2500   -999.2500
  1174.7000      7.8695      2.5391      0.1593      6.7206   -999.2500   -999.2500
  1174.8000      7.8952      2.5534      0.1174      5.8539   -999.2500   -999.2500
  1174.9000      7.8952      2.5804      0.2145      4.2180   -999.2500   -999.2500
  1175.0000      7.7117      2.6007      0.2378      2.9883   -999.2500   -999.2500
  1175.1000      7.7117      2.5954      0.2018      3.3112   -999.2500   -999.2500
  1175.2000      7.7117      2.5693      0.1735      4.8930   -999.2500   -999.2500
  1175.3000      7.6276      2.5453      0.1044      6.3477   -999.2500   -999.2500
  1175.4000      7.6276      2.5499      0.0892      6.0683   -999.2500   -999.2500
  1175.5000      7.6298      2.5858      0.1093      3.8919   -999.2500   -999.2500
  1175.6000      7.6298      2.6267      0.1475      1.4124   -999.2500   -999.2500
  1175.7000      7.6298      2.6440      0.1849      0.3658   -999.2500   -999.2500
  1175.8000      7.7065      2.6367      0.1074      0.8082   -999.2500   -999.2500
  1175.9000      7.7065      2.6259      0.1102      1.4601   -999.2500   -999.2500
  1176.0000      7.7862      2.6155      0.1300      2.0928   -999.2500   -999.2500
  1176.1000      7.7862      2.5915      0.1069      3.5445   -999.2500   -999.2500
  1176.2000      7.7862      2.5561      0.0443      5.6917   -999.2500   -999.2500
  1176.3000      7.7634      2.5277      0.0212      7.4148   -999.2500   -999.2500
  1176.4000      7.7634      2.5139      0.0142      8.2496   -999.2500   -999.2500
  1176.5000      7.7895      2.5129      0.0197      8.3071   -999.2500   -999.2500
  1176.6000      7.7895      2.5226      0.0410      7.7222   -999.2500   -999.2500
  1176.7000      7.7895      2.5329      0.0413      7.0982   -999.2500   -999.2500
  1176.8000      7.8028      2.5410      0.0291      6.6034   -999.2500   -999.2500
  1176.9000      7.8028      2.5565      0.0531      5.6639   -999.2500   -999.2500
  1177.0000      7.8482      2.5721      0.1045      4.7184   -999.2500   -999.2500
  1177.1000      7.8482      2.5685      0.0723      4.9370   -999.2500   -999.2500
  1177.2000      7.8482      2.5514      0.0675      5.9731   -999.2500   -999.2500
  1177.3000      7.8988      2.5436      0.0204      6.4462   -999.2500   -999.2500
  1177.4000      7.8988      2.5538      0.0494      5.8278   -999.2500   -999.2500
  1177.5000      7.8949      2.5719      0.0802      4.7315   -999.2500   -999.2500
  1177.6000      7.8949      2.5802      0.0868      4.2290   -999.2500   -999.2500
  1177.7000      7.8949      2.5696      0.0603      4.8709   -999.2500   -999.2500
  1177.8000      7.8779      2.5500      0.0172      6.0585   -999.2500   -999.2500
  1177.9000      7.8779      2.5393     -0.0343      6.7069   -999.2500   -999.2500
  1178.0000      7.8767      2.5411      0.0378      6.6014   -999.2500   -999.2500
  1178.1000      7.8767      2.5447      0.0547      6.3794   -999.2500   -999.2500
  1178.2000      7.8767      2.5468     -0.0003      6.2536   -999.2500   -999.2500
  1178.3000      7.8849      2.5535      0.0320      5.8484   -999.2500   -999.2500
  1178.4000      7.8849      2.5709      0.0192      4.7964   -999.2500   -999.2500
  1178.5000      7.8963      2.5963      0.0600      3.2542   -999.2500   -999.2500
  1178.6000      7.8963      2.6159      0.1007      2.0679   -999.2500   -999.2500
  1178.7000      7.8963      2.6173      0.0536      1.9826   -999.2500   -999.2500
  1178.8000      7.8866      2.5990      0.0634      3.0900   -999.2500   -999.2500
  1178.9000      7.8866      2.5717      0.0120      4.7480   -999.2500   -999.2500
  1179.0000      7.8768      2.5518      0.0126      5.9529   -999.2500   -999.2500
  1179.1000      7.8768      2.5466     -0.0109      6.2681   -999.2500   -999.2500
  1179.2000      7.8768      2.5494      0.0100      6.1000   -999.2500   -999.2500
  1179.3000      7.8483      2.5470      0.0175      6.2419   -999.2500   -999.2500
  1179.4000      7.8483      2.5401      0.0238      6.6622   -999.2500   -999.2500
  1179.5000      7.8091      2.5484      0.0063      6.1577   -999.2500   -999.2500
  1179.6000      7.8091      2.5766      0.0837      4.4478   -999.2500   -999.2500
  1179.7000      7.8091      2.5975      0.1330      3.1802   -999.2500   -999.2500
  1179.8000      7.8171      2.5929      0.0905      3.4580   -999.2500   -999.2500
  1179.9000      7.8171      2.5779      0.0804      4.3681   -999.2500   -999.2500
  1180.0000      7.7869      2.5706      0.0718      4.8142   -999.2500   -999.2500
  1180.1000      7.7869      2.5704      0.0815      4.8247   -999.2500   -999.2500
  1180.2000      7.7869      2.5663      0.0779      5.0718   -999.2500   -999.2500
  1180.3000      7.7584      2.5566      0.0448      5.6608   -999.2500   -999.2500
  1180.4000      7.7584      2.5485      0.0759      6.1512   -999.2500   -999.2500
  1180.5000      7.7623      2.5415      0.0488      6.5752   -999.2500   -999.2500
  1180.6000      7.7623      2.5334      0.0288      7.0657   -999.2500   -999.2500
  1180.7000      7.7623      2.5277      0.0461      7.4105   -999.2500   -999.2500
  1180.8000      7.7749      2.5229      0.0850      7.7050   -999.2500   -999.2500
  1180.9000      7.7749      2.5194      0.0336      7.9153   -999.2500   -999.2500
  1181.0000      7.7643      2.5245      0.0591      7.6055   -999.2500   -999.2500
  1181.1000      7.7643      2.5325      0.0662      7.1207   -999.2500   -999.2500
