~Version Information
VERS.                      2.0: CWLS Log ASCII Standard - VERSION 2.0
WRAP.                       NO: One line per depth step
~Well Information Block
STRT.FT                 0.0000: 
STOP.FT              1507.7500: 
STEP.FT                 0.2500: 
NULL.                -999.2500: 
COMP.          Pioneer Natural Resources: COMPANY
WELL.          Pioneer 34-27 Tr: WELL
FLD.           Purgatorie River: FIELD
LOC.           243' FSL & 1593' FEL: LOCATION
STAT.                 Colorado: State
CNTY.               Las Animas: COUNTY
CTRY. USA : Country
SECT. 27 : Section
TOWN. 32S : Township
RANG. 67W : Range
SRVC.                Patterson: SERVICE COMPANY
DATE.          Wed Oct 12 09:30:25 2005: LOG DATE
API.                          : UNIQUE WELL ID
~Curve Information Block
DEPT.FT            0 000 00 00: Depth
GR.GAPI                       : Gamma Ray
CCL.                          : Casing Collar Locator
TT3.usec                      : CBL 3' Travel Time
AMP3.mV                       : CBL 3' Amplitude
~Parameter Information Block
~A  Depth        GR         CCL         TT3         AMP3    
# ...
   502.5000    104.9574      0.0000    727.8664     16.7155
   502.7500    102.1227      0.0000    732.4801     16.7586
   503.0000    101.5563      0.0000    733.6994     16.8186
   503.2500    102.9437      0.0000    732.5526     16.8278
   503.5000    105.1247      0.0000    728.0262     16.7463
   503.7500    107.5156      0.0000    719.0267     16.6030
   504.0000    110.3686      0.0000    707.6373     16.4635
   504.2500    113.9460      0.0000    698.0169     16.3907
   504.5000    118.0608      0.0000    691.0772     16.3951
   504.7500    122.3621      0.0000    681.2576     16.4285
   505.0000    126.4784      0.0000    657.8788     16.4507
   505.2500    129.9061      0.0000    614.9717     16.4454
   505.5000    132.1959      0.0000    566.0948     16.3993
   505.7500    133.1163      0.0000    537.6552     16.3249
   506.0000    132.3233      0.0000    536.8896     16.2643
   506.2500    129.3893      0.0000    542.0359     16.2577
   506.5000    124.8029      0.0000    537.8124     16.3318
   506.7500    120.5851      0.0000    540.7824     16.4968
   507.0000    119.1662      0.0000    566.5902     16.7271
   507.2500    121.4711      0.0000    589.9091     16.9598
   507.5000    126.1583      0.0000    570.3463     17.1300
   507.7500    130.7222      0.0000    515.2319     17.2243
   508.0000    133.3992      0.0000    477.7227     17.2958
   508.2500    134.0755      0.0000    487.6440     17.3898
   508.5000    133.4949      0.0000    524.2501     17.4910
   508.7500    132.1001      0.0000    562.6315     17.5850
   509.0000    129.9970      0.0000    601.8412     17.7159
   509.2500    127.5145      0.0000    640.8581     17.9153
   509.5000    124.9523      0.0000    670.7369     18.0967
   509.7500    121.7763      0.0000    687.5517     18.1321
   510.0000    116.7909      0.0000    690.7803     18.0311
   510.2500    109.6050      0.0000    677.1805     17.9143
   510.5000    101.7567      0.0000    651.3030     17.8413
   510.7500     96.0390      0.0000    638.8083     17.7699
   511.0000     94.7087      0.0000    659.4241     17.6630
   511.2500     98.2621      0.0000    695.9378     17.5624
   511.5000    105.3065      0.0000    721.2475     17.5445
   511.7500    113.1606      0.0000    729.6842     17.6480
   512.0000    119.1182      0.0000    727.4321     17.8278
   512.2500    121.8797      0.0000    719.0494     17.9507
   512.5000    121.8892      0.0000    709.0598     17.9075
   512.7500    120.3676      0.0000    703.2292     17.7246
   513.0000    118.3369      0.0000    703.3176     17.5030
   513.2500    116.4083      0.0000    705.1895     17.3226
   513.5000    114.8887      0.0000    704.9425     17.2238
   513.7500    113.9872      0.0000    702.1860     17.2072
   514.0000    114.2656      0.0000    696.4625     17.2828
   514.2500    116.7394      0.0000    688.9704     17.4833
   514.5000    121.8350      0.0000    685.8474     17.7531
   514.7500    128.0905      0.0000    691.7343     17.9701
   515.0000    132.6655      0.0000    704.4863     18.1227
   515.2500    133.7495      0.0000    718.2861     18.2822
   515.5000    132.1249      0.0000    728.2233     18.4381
   515.7500    129.9229      0.0000    732.8341     18.4994
   516.0000    128.1851      0.0000    733.0081     18.4144
   516.2500    126.2123      0.0000    728.8643     18.2375
   516.5000    123.1306      0.0000    719.9417     18.0793
   516.7500    119.2452      0.0000    708.4189     18.0194
   517.0000    115.5909      0.0000    698.7733     18.0633
   517.2500    112.8209      0.0000    693.3953     18.1383
   517.5000    110.9717      0.0000    691.5219     18.1526
   517.7500    109.8804      0.0000    692.4011     18.0887
   518.0000    109.3760      0.0000    697.1567     17.9778
   518.2500    109.1187      0.0000    706.4872     17.8259
   518.5000    108.6190      0.0000    716.4263     17.6539
   518.7500    107.6203      0.0000    718.9526     17.5263
   519.0000    106.3610      0.0000    709.5568     17.4874
   519.2500    105.3767      0.0000    692.8945     17.5358
   519.5000    105.1632      0.0000    678.1580     17.6319
   519.7500    105.9291      0.0000    669.9019     17.7048
   520.0000    107.2681      0.0000    666.5472     17.7172
   520.2500    108.1964      0.0000    665.2936     17.7174
   520.5000    108.0353      0.0000    664.8925     17.7733
   520.7500    107.2302      0.0000    665.4626     17.8815
   521.0000    106.8174      0.0000    667.8610     17.9650
   521.2500    107.2546      0.0000    672.2595     17.9523
   521.5000    108.3488      0.0000    676.1495     17.8579
   521.7500    109.8579      0.0000    675.9011     17.7739
   522.0000    111.3047      0.0000    671.6288     17.7634
   522.2500    111.6717      0.0000    667.4336     17.7906
   522.5000    110.4031      0.0000    666.2731     17.7907
   522.7500    108.4591      0.0000    665.9684     17.7671
   523.0000    107.4285      0.0000    657.5115     17.7639
   523.2500    107.7703      0.0000    627.8583     17.6939
   523.5000    108.6275      0.0000    575.0315     17.1957
   523.7500    109.0092      0.0000    525.5342     15.9588
   524.0000    108.4363      0.0000    517.7471     14.4507
   524.2500    106.7261      0.0000    559.1891     13.6405
   524.5000    103.8050      0.0000    622.7670     13.6137
   524.7500     99.8598      0.0000    680.5297     13.6680
   525.0000     95.4387      0.0000    719.0160     13.6414
   525.2500     91.2386      0.0000    734.2676     13.7651
   525.5000     87.7518      0.0000    726.4906     13.9887
   525.7500     85.0820      0.0000    699.1241     14.1966
   526.0000     82.9498      0.0000    658.3724     14.4131
   526.2500     80.7963     -2.0000    609.7743     14.6494
   526.5000     78.0772      0.0000    559.1398     14.8816
   526.7500     74.7355      0.0000    510.3776     15.3233
   527.0000     71.5398      0.0000    471.1978     16.2961
   527.2500     70.0068      0.0000    466.5434     17.4693
   527.5000     71.8043      0.0000    512.0575     18.1581
   527.7500     77.8107      0.0000    582.3909     18.3755
   528.0000     87.3006      0.0000    637.9758     18.4389
   528.2500     97.8494      0.0000    665.2538     18.3480
   528.5000    106.3782      0.0000    674.6174     18.1147
   528.7500    110.9907      0.0000    678.2009     17.9384
   529.0000    111.9805      0.0000    680.6321     17.9865
   529.2500    110.7798      0.0000    682.0692     18.2272
   529.5000    108.2372      0.0000    683.2803     18.4721
   529.7500    104.5679      0.0000    685.7344     18.5781
   530.0000    100.6619      0.0000    688.8309     18.5489
   530.2500     98.4815      0.0000    691.2400     18.4430
   530.5000     99.7816      0.0000    693.4594     18.2904
   530.7500    104.5656      0.0000    697.0388     18.1036
   531.0000    110.8466      0.0000    701.6686     17.8946
   531.2500    116.0103      0.0000    703.9615     17.6909
   531.5000    118.4726      0.0000    701.6334     17.5462
   531.7500    118.1763      0.0000    697.3979     17.5049
   532.0000    116.0917      0.0000    695.6797     17.5554
   532.2500    113.6722      0.0000    698.4602     17.6500
   532.5000    112.2329      0.0000    703.2128     17.7618
   532.7500    112.0480      0.0000    698.4741     17.8898
   533.0000    112.1861      0.0000    664.7737     18.0501
   533.2500    111.7037      0.0000    593.3652     18.2733
   533.5000    110.8284      0.0000    507.2776     18.5437
   533.7500    110.5665      0.0000    449.6540     18.7577
   534.0000    111.4286      0.0000    448.9698     18.8206
   534.2500    113.1135      0.0000    500.1831     18.7427
   534.5000    115.2892      0.0000    565.7130     18.6041
   534.7500    117.9857      0.0000    603.1654     18.4684
   535.0000    121.0389      0.0000    605.7482     18.3348
   535.2500    123.6331      0.0000    599.6652     18.1737
   535.5000    124.6589      0.0000    612.2225     17.9921
   535.7500    123.5130      0.0000    649.5522     17.8284
