~Version Information
VERS.                      2.0: CWLS Log ASCII Standard - VERSION 2.0
WRAP.                       NO: One line per depth step
~Well Information Block
STRT.FT               335.0000: 
STOP.FT              1013.5000: 
STEP.FT                 0.1000: 
NULL.                -999.2500: 
COMP.          Pioneer Natural Resources: COMPANY
WELL.             Giggle 21-22: WELL
FLD.           Purgatoire River: FIELD
LOC.           950' FNL & 2094' FWL: LOCATION
CNTY.               Las Animas: COUNTY
SRVC.                Patterson: SERVICE COMPANY
DATE.          Thu Apr 13 09:31:38 2006: LOG DATE
UWI.           05 071 08726 00: UNIQUE WELL ID
STAT.                 Colorado: STATE
~Curve Information Block
DEPT.FT            0 000 00 00: Depth
DCAL.in                       : CDL Caliper
RHOB.g/cc                     : CDL Bulk Density
RHOC.g/cc                     : CDL Density Correction
DPOR.pu                       : CDL Density Porosity
GR.GAPI                       : Gamma Ray
NPOR.pu                       : Neutron Porosity
~Parameter Information Block
~A  Depth       DCAL        RHOB        RHOC        DPOR         GR         NPOR    
# ...
   728.6000      8.1227      2.0085      0.1857     38.8766     94.6025     17.0293
   728.7000      8.1227      2.1280      0.1388     31.6390    101.3236     17.4046
   728.8000      8.0773      2.2408      0.1302     24.8029    109.5651     18.3935
   728.9000      8.0773      2.3457      0.1723     18.4427    118.3258     20.0767
   729.0000      8.0713      2.4227      0.1639     13.7787    124.3759     21.5172
   729.1000      8.0713      2.4574      0.1185     11.6730    126.2699     22.1028
   729.2000      8.0713      2.4618      0.1434     11.4039    124.6428     22.3314
   729.3000      8.0711      2.4509      0.1816     12.0648    122.5954     22.5015
   729.4000      8.0711      2.4318      0.0998     13.2220    122.0706     22.2595
   729.5000      8.0715      2.4136      0.1388     14.3252    120.6860     21.4132
   729.6000      8.0715      2.3993      0.0849     15.1939    117.5817     20.2506
   729.7000      8.0715      2.3857      0.0830     16.0208    114.2810     19.4364
   729.8000      8.0728      2.3774     -0.0144     16.5241    114.3509     19.3998
   729.9000      8.0728      2.3863      0.0683     15.9817    119.1387     19.7072
   730.0000      8.0716      2.4091      0.0707     14.5999    123.0190     19.6316
   730.1000      8.0716      2.4306      0.1108     13.2967    124.4314     19.4989
   730.2000      8.0716      2.4446      0.0844     12.4513    125.6231     20.0371
   730.3000      8.0184      2.4554      0.1151     11.7946    122.5497     20.9022
   730.4000      8.0184      2.4625      0.1357     11.3650    115.1167     21.4880
   730.5000      7.9975      2.4617      0.1256     11.4098    109.9552     21.9776
   730.6000      7.9975      2.4635      0.0698     11.3039    110.5763     22.4429
   730.7000      7.9975      2.4770      0.0972     10.4875    115.1793     22.4716
   730.8000      7.9943      2.4859      0.1002      9.9460    118.5920     21.9006
   730.9000      7.9943      2.4732      0.1262     10.7159    118.3075     21.2188
   731.0000      7.9940      2.4534      0.0683     11.9155    117.8824     21.0545
   731.1000      7.9940      2.4523      0.0376     11.9821    120.2431     21.3587
   731.2000      7.9940      2.4627      0.0556     11.3512    122.8835     21.6969
   731.3000      7.9916      2.4598      0.0161     11.5256    121.8994     21.8255
   731.4000      7.9916      2.4448     -0.0106     12.4393    116.4257     21.6889
   731.5000      7.9925      2.4370      0.0377     12.9075    107.8885     21.7287
   731.6000      7.9925      2.4426      0.0771     12.5705    104.2343     22.1781
   731.7000      7.9925      2.4508      0.0940     12.0725    110.4318     22.4175
   731.8000      7.9934      2.4582      0.0961     11.6263    119.4626     22.4452
   731.9000      7.9934      2.4810      0.0416     10.2401    123.7118     22.8301
   732.0000      7.9929      2.5242      0.1125      7.6251    121.5872     23.5274
   732.1000      7.9929      2.5613      0.1653      5.3770    116.4428     24.3671
   732.2000      7.9929      2.5774      0.1033      4.4030    112.9986     25.3885
   732.3000      7.9943      2.5837      0.0917      4.0196    114.1159     26.2069
   732.4000      7.9943      2.5874      0.0842      3.7962    118.0984     26.1972
   732.5000      7.9905      2.5865      0.0746      3.8476    119.5369     25.4177
   732.6000      7.9905      2.5823      0.0724      4.1006    117.7037     24.6702
   732.7000      7.9905      2.5757      0.0785      4.5036    115.5600     24.5036
   732.8000      7.9925      2.5684      0.0435      4.9462    113.4728     24.9153
   732.9000      7.9925      2.5688      0.0187      4.9205    111.8491     25.5854
   733.0000      7.9923      2.5789      0.0441      4.3067    112.5056     25.9056
   733.1000      7.9923      2.5923      0.0287      3.4941    114.7307     25.5858
   733.2000      7.9923      2.6011      0.0613      2.9636    115.4023     24.9374
   733.3000      7.9926      2.5898      0.0637      3.6472    113.5139     24.3531
   733.4000      7.9926      2.5536      0.0488      5.8434    109.5085     24.0495
   733.5000      7.9910      2.5175     -0.0037      8.0294    105.5340     23.7073
   733.6000      7.9910      2.5013      0.0412      9.0143    106.4491     23.0663
   733.7000      7.9910      2.4903      0.0362      9.6800    113.4028     22.5494
   733.8000      7.9912      2.4690      0.0075     10.9689    123.4609     22.5651
   733.9000      7.9912      2.4420     -0.0130     12.6061    131.4831     22.9640
   734.0000      7.9926      2.4268     -0.0489     13.5302    132.4873     23.3991
   734.1000      7.9926      2.4321     -0.0241     13.2090    129.3082     23.7369
   734.2000      7.9926      2.4380      0.0307     12.8492    126.7282     23.8506
   734.3000      7.9942      2.4286     -0.0399     13.4206    125.2685     23.4502
   734.4000      7.9942      2.4217     -0.0445     13.8388    124.5139     22.7427
   734.5000      7.9945      2.4337      0.0190     13.1067    123.9794     22.3139
   734.6000      7.9945      2.4515      0.0602     12.0307    122.9876     22.3040
   734.7000      7.9945      2.4645      0.0573     11.2397    122.1225     22.4466
   734.8000      7.9954      2.4785      0.0885     10.3964    122.7715     22.5891
   734.9000      7.9954      2.4848      0.1246     10.0104    124.7096     22.6645
   735.0000      7.9958      2.4752      0.0654     10.5962    125.5303     22.6347
   735.1000      7.9958      2.4592      0.0934     11.5656    124.5864     22.6516
   735.2000      7.9958      2.4466      0.0756     12.3302    122.2710     22.7471
   735.3000      7.9957      2.4418      0.1147     12.6164    116.3467     22.9476
   735.4000      7.9957      2.4446      0.1059     12.4487    108.8867     23.1272
   735.5000      7.9968      2.4571      0.1218     11.6924    108.1938     22.9131
   735.6000      7.9968      2.4830      0.1268     10.1188    117.0978     22.3423
   735.7000      7.9968      2.5126      0.2212      8.3251    128.0954     21.9921
   735.8000      7.9970      2.5314      0.1781      7.1885    133.7622     22.1865
   735.9000      7.9970      2.5398      0.1539      6.6763    137.1920     22.4959
   736.0000      7.9969      2.5517      0.1721      5.9569    141.2325     22.2836
   736.1000      7.9969      2.5759      0.2415      4.4936    140.0525     21.6640
   736.2000      7.9969      2.5968      0.2174      3.2225    131.6154     21.3014
   736.3000      7.9964      2.5835      0.2356      4.0304    124.6583     21.3296
   736.4000      7.9964      2.5361      0.1468      6.9056    124.8804     21.4181
   736.5000      7.9946      2.4986      0.1065      9.1771    127.5553     21.3888
   736.6000      7.9946      2.4998      0.1103      9.1057    127.1515     21.2175
   736.7000      7.9946      2.5259      0.0867      7.5187    123.0518     21.0067
   736.8000      7.9944      2.5510      0.0786      5.9979    119.3771     20.9573
   736.9000      7.9944      2.5707      0.0750      4.8071    119.7566     21.1847
   737.0000      7.9948      2.6003      0.1151      3.0094    122.6357     21.4588
   737.1000      7.9948      2.6354      0.0958      0.8854    126.3193     21.3962
   737.2000      7.9948      2.6564      0.1158     -0.3903    129.9205     21.1317
   737.3000      7.9958      2.6693      0.1215     -1.1671    130.5126     21.1897
   737.4000      7.9958      2.6845      0.1295     -2.0879    128.3094     21.6974
   737.5000      7.9966      2.6822      0.0852     -1.9533    126.2731     22.0818
   737.6000      7.9966      2.6472      0.0136      0.1699    123.4143     21.7292
   737.7000      7.9966      2.5994     -0.0123      3.0651    118.2273     21.0471
   737.8000      7.9973      2.5669     -0.0034      5.0380    116.3729     20.6721
   737.9000      7.9973      2.5571     -0.0011      5.6294    121.0318     20.4983
   738.0000      7.9953      2.5632      0.0315      5.2608    125.3784     20.6193
   738.1000      7.9953      2.5688      0.0770      4.9188    125.9160     21.3097
