~Version Information Section
 VERS.      2.0         :CWLS LAS VERSION
 WRAP.      NO          :WRAPING MODE
 WARE.      oller 2.5.0J:SOFTWARE VERSION
~Well Information Section
#MNEM.UNIT               VALUE/NAME                 DESCRIPTION
#----.----     ----------------------------------   --------------------
 WELL.         Dicks 35-05R                         :WELL
 COMP.         Pioneer Natrual Resources USA Inc.   :COMPANY
 FLD .         Purgatoire River                     :FIELD
 LOC .         SW/NE SEC05 T33S R65W                :LOCATION
 DATE.         12/08/05                             :DATE(S) LOGGED
 SRVC.         Blanco Geological Services LLC       :SERVICE COMPANY
 STAT.         Colorado                             :STATE
 CNTY.         Las Animas                           :COUNTY
 CTRY.         USA                                  :COUNTRY
 API .         05-071-08596-00                      :API NUMBER
 STRT.FT           400.0000                         :START DEPTH
 STOP.FT          1345.0000                         :STOP DEPTH
 STEP.FT             1.0000                         :DEPTH INCREMENT
 NULL.           -9999.0000                         :NULL VALUE
~Curve Information Section
#MNEM .UNIT         CURVE DESCRIPTION
#---- .----         -------------------------
 DEPTH.FT           :1
 ROP  .MIN/FT       :2
 GAS  .UNITS        :3
~Parameter Information Section
#MNEM.UNIT                  VALUE                   DESCRIPTION
#----.----     ----------------------------------   --------------------
~A  DEPTH     ROP        GAS    
# ...
  643.0000     0.2700    17.7000
  644.0000     0.2700    16.3000
  645.0000     0.2700    11.4000
  646.0000     0.2700     8.3000
  647.0000     0.2700     7.8000
  648.0000     0.2700     8.8000
  649.0000     0.2800    10.4000
  650.0000     0.1300    13.6000
  651.0000     0.2700    16.0000
  652.0000     0.2700    19.6000
  653.0000     0.2300    19.6000
  654.0000     0.2700    20.8000
  655.0000     0.3300    20.7000
  656.0000     0.2700    20.8000
  657.0000     0.0700    20.8000
  658.0000     0.3000    19.4000
  659.0000     0.2700    19.8000
  660.0000     0.2700    19.7000
  661.0000     0.2700    18.4000
  662.0000     0.1000    18.3000
  663.0000     0.2800    18.6000
  664.0000     0.3300    17.5000
  665.0000     0.2700    17.8000
  666.0000     0.1700    17.3000
  667.0000     0.2700    16.2000
  668.0000     0.2700    16.1000
  669.0000     0.2700    15.2000
  670.0000     0.2700    15.8000
  671.0000     0.2700    15.1000
  672.0000     0.2700    16.2000
  673.0000     0.2700    16.5000
  674.0000     0.2700    15.5000
  675.0000     0.2700    13.6000
  676.0000     0.2800    10.2000
  677.0000     0.2700     7.1000
  678.0000     0.2700     6.0000
  679.0000     0.2700     5.2000
  680.0000     0.2700     4.9000
  681.0000     0.2700     5.7000
  682.0000     0.3300     9.0000
  683.0000     0.2700     9.2000
  684.0000     0.2700     9.3000
  685.0000     0.2700     7.3000
  686.0000     0.2700     6.8000
  687.0000     0.2300     5.0000
  688.0000     0.2800     3.8000
  689.0000     0.1000     3.8000
  690.0000     0.2700     3.0000
  691.0000     0.2000     3.2000
  692.0000     0.2700     3.4000
  693.0000     0.2700     3.2000
  694.0000     0.3000     3.6000
  695.0000     0.2700     3.5000
  696.0000     0.1000     3.5000
  697.0000     0.2700     4.0000
  698.0000     0.2700     3.4000
  699.0000     0.1000     3.4000
  700.0000     0.2700     4.0000
  701.0000     0.0700     3.5000
  702.0000     0.2700     4.0000
  703.0000     0.2800     3.6000
  704.0000     0.2700     3.7000
  705.0000     0.2700     3.9000
  706.0000     0.2700     3.9000
  707.0000     0.2700     4.2000
  708.0000     0.2700     7.2000
  709.0000     0.2700    17.5000
  710.0000     0.2700    26.5000
  711.0000     0.2700    39.1000
  712.0000     0.2700    80.0000
  713.0000     0.2700   104.3000
  714.0000     0.2700    89.3000
  715.0000     0.2700    66.6000
  716.0000     0.2800    52.0000
  717.0000     0.2700    41.4000
  718.0000     0.2700    36.8000
  719.0000     0.2700    34.3000
  720.0000     0.1700    32.6000
  721.0000     0.2700    31.1000
  722.0000     0.2700    30.7000
  723.0000     0.2700    30.7000
  724.0000     0.2700    31.3000
  725.0000     0.2700    30.1000
  726.0000     0.2700    29.6000
  727.0000     0.2700    28.8000
  728.0000     0.2800    29.8000
  729.0000     0.2700    29.9000
  730.0000     0.2700    28.4000
  731.0000     0.2700    29.0000
  732.0000     0.2700    30.3000
  733.0000     0.2700    29.0000
  734.0000     0.2700    26.2000
  735.0000     0.2700    25.9000
  736.0000     0.2700    24.2000
  737.0000     0.2700    24.9000
  738.0000     0.2700    26.2000
  739.0000     0.1700    26.2000
  740.0000     0.2700    34.0000
  741.0000     0.2800    55.1000
  742.0000     0.2700    76.6000
  743.0000     0.2700    75.6000
  744.0000     0.2700    67.9000
  745.0000     0.2700    54.1000
  746.0000     0.2700    44.3000
  747.0000     0.1000    37.9000
  748.0000     0.2700    33.0000
  749.0000     0.2700    31.3000
  750.0000     0.2700    29.3000
  751.0000     0.2700    28.2000
  752.0000     0.1300    27.5000
  753.0000     0.2700    26.3000
  754.0000     0.2700    25.2000
  755.0000     0.2800    24.6000
  756.0000     0.2700    23.3000
  757.0000     0.1700    22.6000
  758.0000     0.2700    20.9000
  759.0000     0.2700    22.6000
  760.0000     0.2700    25.5000
  761.0000     0.2700    24.8000
  762.0000     0.2700    25.2000
  763.0000     0.1300    22.9000
  764.0000     0.2700    22.1000
  765.0000     0.2700    22.4000
  766.0000     0.2300    20.5000
  767.0000     0.2700    16.8000
  768.0000     0.2800    14.8000
  769.0000     0.0300    12.5000
  770.0000     0.2700    10.9000
  771.0000     0.2300     9.5000
  772.0000     0.3000     9.7000
  773.0000     0.2700     8.8000
  774.0000     0.2700     8.7000
  775.0000     0.2700     8.5000
  776.0000     0.4300     9.9000
  777.0000     0.4000    10.8000
  778.0000     0.3300    11.6000
  779.0000     0.3300    12.4000
  780.0000     0.2800    12.3000
  781.0000     0.2700    11.9000
  782.0000     0.2700    13.0000
  783.0000     0.2700    21.3000
  784.0000     0.2700    22.0000
  785.0000     0.2700    15.7000
  786.0000     0.2700    10.9000
  787.0000     0.2700     7.8000
  788.0000     0.2700     6.4000
  789.0000     0.2700     5.6000
  790.0000     0.2700     4.2000
  791.0000     0.2700     4.1000
  792.0000     0.2700     7.4000
  793.0000     0.2800    14.2000
  794.0000     0.3000    19.5000
  795.0000     0.2700    21.4000
  796.0000     0.2700    22.3000
  797.0000     0.2700    22.6000
  798.0000     0.2700    22.0000
  799.0000     0.2700    21.1000
  800.0000     0.2700    20.2000
  801.0000     0.1300    20.2000
  802.0000     0.2700    19.8000
  803.0000     0.2700    19.3000
  804.0000     0.2700    18.6000
  805.0000     0.2800    16.5000
  806.0000     0.2700    16.2000
  807.0000     0.3300    11.9000
  808.0000     0.2700    10.5000
  809.0000     0.2700    13.2000
  810.0000     0.2700    14.4000
  811.0000     0.2700    14.9000
  812.0000     0.2700    20.5000
  813.0000     0.2700    24.8000
  814.0000     0.2700    27.2000
  815.0000     0.2700    27.3000
  816.0000     0.3000    24.8000
  817.0000     0.2800    24.4000
  818.0000     0.1700    23.6000
  819.0000     0.2700    23.5000
  820.0000     0.2700    23.4000
  821.0000     0.2700    22.6000
  822.0000     0.2700    21.7000
  823.0000     0.1300    15.7000
  824.0000     0.2700    14.2000
  825.0000     0.2700    12.8000
  826.0000     0.2700    12.2000
  827.0000     0.2000    12.3000
  828.0000     0.2700    13.5000
  829.0000     0.2700    15.7000
  830.0000     0.1700    15.7000
  831.0000     0.2800   127.3000
  832.0000     0.2700   275.9000
  833.0000     0.2700   391.4000
  834.0000     0.2700  1116.4000
  835.0000     0.1000  1116.4000
  836.0000     0.2700  1248.7000
  837.0000     0.5300  1369.0000
  838.0000     0.2700  1406.5000
  839.0000     0.2700  1423.3000
  840.0000     0.6000  1513.1000
  841.0000     0.2700  1647.7000
  842.0000     0.5500  2063.1000
  843.0000     0.2700  2649.7000
  844.0000     0.5300  4148.7000
  845.0000     0.5700  3712.9000
  846.0000     0.2700  2821.4000
  847.0000     0.2700  2591.3000
  848.0000     0.3300  2509.7000
  849.0000     0.3000  1659.7000
  850.0000     0.2700  1368.1000
  851.0000     0.2800  1104.6000
  852.0000     0.2700   887.2000
  853.0000     0.2700   747.9000
  854.0000     0.2700   649.5000
  855.0000     0.2700   550.5000
  856.0000     0.5300   480.7000
  857.0000     0.3300   430.2000
  858.0000     0.2700   404.8000
  859.0000     0.2700   412.4000
  860.0000     0.2700   427.3000
  861.0000     0.2700   430.8000
  862.0000     0.2800   403.2000
  863.0000     0.2700   400.0000
  864.0000     0.2700   118.0000
  865.0000     0.5300    55.7000
  866.0000     0.3700    34.3000
  867.0000     0.2700    29.4000
  868.0000     0.2700    27.3000
  869.0000     0.5300    30.3000
  870.0000     0.2700    40.1000
  871.0000     0.2700    47.9000
  872.0000     0.2700    48.7000
  873.0000     0.0500    48.7000
  874.0000     0.2700    47.7000
  875.0000     0.2700    43.0000
  876.0000     0.2700    40.5000
  877.0000     0.2700    40.5000
  878.0000     0.2700    38.4000
  879.0000     0.3000    34.2000
  880.0000     0.2700    29.5000
  881.0000     0.2700    26.5000
  882.0000     0.3700    24.7000
  883.0000     0.2700    23.3000
  884.0000     0.2700    22.9000
  885.0000     0.2800    22.6000
