~Version Information
VERS.                      2.0: CWLS Log ASCII Standard - VERSION 2.0
WRAP.                       NO: One line per depth step
~Well Information Block
STRT.FT               245.0000: 
STOP.FT              1208.2000: 
STEP.FT                 0.1000: 
NULL.                -999.2500: 
COMP.          Pioneer Natural Resources: COMPANY
WELL.              Davida 34-8: WELL
FLD.           Purgatoire River: FIELD
LOC.           418' FSL & 1923' FEL--: LOCATION
CNTY.               Las Animas: COUNTY
SRVC.                Patterson: SERVICE COMPANY
DATE.          Mon Mar 20 08:22:01 2006: LOG DATE
UWI.           05 071 08722 00: UNIQUE WELL ID
STAT.                 Colorado: STATE
~Curve Information Block
DEPT.FT            0 000 00 00: Depth
DCAL.in                       : CDL Caliper
RHOB.g/cc                     : CDL Bulk Density
RHOC.g/cc                     : CDL Density Correction
DPOR.pu                       : CDL Density Porosity
NPOR.pu                       : Neutron Porosity
GR.GAPI                       : Gamma Ray
~Parameter Information Block
~A  Depth       DCAL        RHOB        RHOC        DPOR        NPOR         GR     
# ...
   926.6000      7.9984      2.4207      0.0312     13.8993     15.8568    129.2494
   926.7000      7.9984      2.4353      0.0746     13.0108     16.2189    136.7831
   926.8000      7.9578      2.4446      0.0287     12.4457     16.3461    143.5141
   926.9000      7.9578      2.4556      0.0511     11.7834     16.2358    144.1040
   927.0000      7.9194      2.4714      0.0901     10.8246     15.9984    138.2757
   927.1000      7.9194      2.4900      0.0530      9.6944     15.5603    134.2298
   927.2000      7.9194      2.5045      0.1006      8.8179     15.1485    138.9179
   927.3000      7.8993      2.5066      0.0893      8.6916     15.1224    147.4884
   927.4000      7.8993      2.5045      0.0869      8.8166     15.4899    150.5591
   927.5000      7.8964      2.5090      0.0995      8.5430     16.0415    146.1623
   927.6000      7.8964      2.5178      0.0982      8.0138     16.5023    137.1250
   927.7000      7.8964      2.5261      0.0744      7.5080     16.6131    128.7833
   927.8000      7.9014      2.5290      0.1189      7.3347     16.4156    124.7606
   927.9000      7.9014      2.5245      0.0659      7.6070     16.3235    123.6126
   928.0000      7.9053      2.5226      0.0399      7.7225     16.7914    125.4220
   928.1000      7.9053      2.5251      0.0211      7.5675     17.6327    128.6578
   928.2000      7.9053      2.5206      0.0297      7.8448     18.1192    127.2386
   928.3000      7.9082      2.5124      0.0134      8.3388     18.0016    120.1786
   928.4000      7.9082      2.5217      0.0116      7.7776     17.5043    112.5287
   928.5000      7.9148      2.5465      0.0958      6.2747     17.1239    110.7266
   928.6000      7.9148      2.5612      0.0553      5.3796     17.4534    116.5236
   928.7000      7.9148      2.5577      0.0283      5.5914     18.4325    122.2050
   928.8000      7.9188      2.5476      0.0085      6.2073     19.4111    122.9206
   928.9000      7.9188      2.5398      0.0112      6.6816     19.8041    121.5167
   929.0000      7.9131      2.5335      0.0185      7.0588     19.5997    115.1895
   929.1000      7.9131      2.5327      0.0046      7.1119     19.3926    102.9136
   929.2000      7.9131      2.5410      0.0437      6.6078     19.6871     94.6477
   929.3000      7.8987      2.5510      0.0716      6.0000     20.2848     94.8187
   929.4000      7.8987      2.5568      0.0507      5.6496     20.5378     97.4384
   929.5000      7.8825      2.5547      0.0395      5.7785     20.0577     98.8057
   929.6000      7.8825      2.5363      0.0813      6.8916     19.3849    102.2901
   929.7000      7.8825      2.5039      0.0212      8.8518     19.1812    110.4093
   929.8000      7.8744      2.4793      0.0327     10.3479     19.1190    120.3694
   929.9000      7.8744      2.4778      0.0161     10.4353     18.8888    128.5759
   930.0000      7.8733      2.4928      0.0477      9.5250     18.6624    132.0994
   930.1000      7.8733      2.5136      0.0127      8.2673     18.3629    129.2617
   930.2000      7.8733      2.5447      0.0189      6.3837     17.8786    123.2819
   930.3000      7.8719      2.5854      0.0823      3.9125     17.5152    119.9071
   930.4000      7.8719      2.6136      0.1386      2.2063     17.5286    119.8281
   930.5000      7.8682      2.6149      0.1361      2.1261     17.8173    120.2766
   930.6000      7.8682      2.6057      0.0839      2.6847     18.1424    119.7146
   930.7000      7.8682      2.6047      0.0915      2.7479     18.1173    118.7970
   930.8000      7.8641      2.6071      0.0927      2.5975     17.8277    118.7560
   930.9000      7.8641      2.6038      0.0510      2.8010     17.8319    116.4970
   931.0000      7.8631      2.5966      0.0404      3.2389     18.1768    110.7790
   931.1000      7.8631      2.5856      0.0403      3.9034     18.4648    104.5086
   931.2000      7.8631      2.5659      0.0351      5.0993     18.5010     99.6147
   931.3000      7.8611      2.5444     -0.0099      6.3971     18.5127     97.4984
   931.4000      7.8611      2.5357      0.0018      6.9277     18.6488     97.1638
   931.5000      7.8621      2.5393      0.0003      6.7098     18.7237     95.7677
   931.6000      7.8621      2.5479      0.0101      6.1871     18.8642     94.8944
   931.7000      7.8621      2.5593      0.0197      5.4962     19.1497     94.7513
   931.8000      7.8772      2.5615      0.0452      5.3666     19.2477     93.3040
   931.9000      7.8772      2.5443      0.0220      6.4051     19.1751     93.5441
   932.0000      7.9020      2.5314     -0.0320      7.1879     19.1769     98.6814
   932.1000      7.9020      2.5417      0.0485      6.5666     19.1456    105.4953
   932.2000      7.9020      2.5523      0.0808      5.9229     18.8234    109.8082
   932.3000      7.9270      2.5433      0.0553      6.4637     18.3907    111.6045
   932.4000      7.9270      2.5277      0.0153      7.4141     18.1379    113.8430
   932.5000      7.9408      2.5263     -0.0251      7.4994     18.0271    117.8097
   932.6000      7.9408      2.5399      0.0428      6.6748     17.9304    123.0509
   932.7000      7.9408      2.5526      0.0361      5.9002     17.9348    127.4195
   932.8000      7.9470      2.5550      0.0940      5.7583     18.1336    128.2762
   932.9000      7.9470      2.5488      0.0573      6.1337     18.2278    126.9613
   933.0000      7.9561      2.5487     -0.0130      6.1380     18.0566    125.3297
   933.1000      7.9561      2.5615      0.0327      5.3664     17.8780    121.5609
   933.2000      7.9561      2.5747      0.0436      4.5610     17.8829    114.9060
   933.3000      7.9674      2.5816      0.0586      4.1462     18.0777    109.6984
   933.4000      7.9674      2.5850      0.0200      3.9401     18.3826    107.7170
   933.5000      7.9671      2.5862      0.0333      3.8668     18.6763    104.3936
   933.6000      7.9671      2.5826      0.0109      4.0840     18.8527     98.5767
   933.7000      7.9671      2.5745      0.0227      4.5750     18.8845     95.6812
   933.8000      7.9530      2.5701      0.0057      4.8411     19.0102     99.9254
   933.9000      7.9530      2.5789      0.0321      4.3119     19.5061    105.3346
   934.0000      7.9313      2.5951      0.0479      3.3256     20.0002    103.9155
   934.1000      7.9313      2.6044      0.0377      2.7645     20.0292    100.4665
   934.2000      7.9313      2.6034      0.0445      2.8261     19.8704    102.4239
   934.3000      7.9023      2.6021      0.0431      2.9027     19.8607    106.3218
   934.4000      7.9023      2.6120      0.0320      2.3011     19.9033    103.9023
   934.5000      7.8831      2.6282      0.0842      1.3192     19.9900     98.5210
   934.6000      7.8831      2.6333      0.0978      1.0098     20.2459     99.6170
   934.7000      7.8831      2.6255      0.0634      1.4828     20.6245    104.8190
   934.8000      7.8807      2.6101      0.0705      2.4196     20.9643    109.5729
   934.9000      7.8807      2.5877      0.0460      3.7759     21.1944    114.6037
   935.0000      7.8823      2.5689     -0.0045      4.9177     21.3233    116.9989
   935.1000      7.8823      2.5558      0.0403      5.7112     21.2913    115.0079
   935.2000      7.8823      2.5325      0.0314      7.1225     21.1359    114.3022
   935.3000      7.8837      2.5009     -0.0387      9.0367     21.0465    119.9438
   935.4000      7.8837      2.4844     -0.0494     10.0364     21.0813    129.0962
   935.5000      7.8841      2.4904     -0.0254      9.6737     21.0634    135.8956
   935.6000      7.8841      2.5005      0.0512      9.0636     20.7485    137.6409
   935.7000      7.8841      2.4979      0.0180      9.2208     20.2880    134.0141
   935.8000      7.8868      2.4928     -0.0228      9.5255     20.0269    125.4885
   935.9000      7.8868      2.5003      0.0161      9.0740     19.8313    118.6229
   936.0000      7.8942      2.5138      0.0181      8.2558     19.3179    122.8163
   936.1000      7.8942      2.5209      0.0550      7.8222     18.4709    130.9749
