~Version Information
VERS.                      2.0: CWLS Log ASCII Standard - VERSION 2.0
WRAP.                       NO: One line per depth step
~Well Information Block
STRT.FT               460.0000: 
STOP.FT              2311.7500: 
STEP.FT                 0.2500: 
NULL.                -999.2500: 
COMP.          Pioneer Natural Resources: COMPANY
WELL.          McDonald 33-31 R: WELL
FLD.           Purgatoire River: FIELD
LOC.           1386' FSL & 1926' FEL: LOCATION
STAT.                 Colorado: State
CNTY.               Las Animas: COUNTY
CTRY.                      USA: Country
SECT.                       31: Section
TOWN.                      32S: Township
RANG.                      66W: Range
SRVC.                Patterson: SERVICE COMPANY
DATE.          Fri Sep 23 00:08:18 2005: LOG DATE
API.           05 071 08533 00: API#
~Curve Information Block
DEPT.FT            0 000 00 00: Depth
SN.Ohm-m                      : IEL Short Normal
SP.mV                         : IEL Spontaneous Potential
DIR.Ohm-m                     : IEL Induction Resistivity
GR.GAPI                       : Gamma Ray
~Parameter Information Block
~A  Depth        SN          SP         DIR          GR     
# ...
  1197.0000      3.1095   -368.8054      9.8344    115.1443
  1197.2500      3.1257   -369.5752      9.9429    112.7817
  1197.5000      3.1637   -369.6831     10.1822    108.7877
  1197.7500      3.1727   -369.2238     10.5640    105.5155
  1198.0000      3.1279   -368.3501     11.0814     98.9797
  1198.2500      3.0533   -367.2477     11.7084     93.4791
  1198.5000      2.9962   -366.1067     12.4020     84.6218
  1198.7500      2.9863   -365.0936     13.1076     79.5148
  1199.0000      3.0195   -364.3323     13.7655     74.9130
  1199.2500      3.0649   -363.8950     14.3163     74.1955
  1199.5000      3.0886   -363.8040     14.7108     75.7780
  1199.7500      3.0788   -364.0436     14.9221     77.9752
  1200.0000      3.0529   -364.5759     14.9559     82.8638
  1200.2500      3.0381   -365.3527     14.8456     87.4877
  1200.5000      3.0508   -366.3230     14.6325     96.2491
  1200.7500      3.0942   -367.4322     14.3458    102.3849
  1201.0000      3.1600   -368.6183     13.9941    109.9201
  1201.2500      3.2267   -369.8062     13.5714    113.0094
  1201.5000      3.2668   -370.9052     13.0722    114.5475
  1201.7500      3.2688   -371.8093     12.5050    113.8239
  1202.0000      3.2502   -372.4040     11.8952    110.8533
  1202.2500      3.2452   -372.5771     11.2775    108.3138
  1202.5000      3.2784   -372.2326     10.6833    105.6765
  1202.7500      3.3464   -371.3073     10.1311    105.8912
  1203.0000      3.4165   -369.7845      9.6261    109.6348
  1203.2500      3.4479   -367.7064      9.1642    113.4963
  1203.5000      3.4217   -365.1768      8.7394    119.1801
  1203.7500      3.3501   -362.3564      8.3481    122.2491
  1204.0000      3.2593   -359.4463      7.9926    125.8303
  1204.2500      3.1717   -356.6660      7.6793    127.5828
  1204.5000      3.1072   -354.2258      7.4167    128.7306
  1204.7500      3.0886   -352.3032      7.2115    128.1921
  1205.0000      3.1267   -351.0251      7.0674    125.5860
  1205.2500      3.2026   -350.4579      6.9853    123.1077
  1205.5000      3.2758   -350.6051      6.9630    119.1812
  1205.7500      3.3139   -351.4093      6.9966    116.9329
  1206.0000      3.3170   -352.7570      7.0798    115.1152
  1206.2500      3.3123   -354.4897      7.2038    115.4482
  1206.5000      3.3254   -356.4194      7.3576    118.1553
  1206.7500      3.3582   -358.3539      7.5281    120.5761
  1207.0000      3.3981   -360.1274      7.7018    123.1909
  1207.2500      3.4434   -361.6295      7.8664    123.6083
  1207.5000      3.5036   -362.8235      8.0144    122.5172
  1207.7500      3.5738   -363.7469      8.1446    121.2636
  1208.0000      3.6291   -364.4908      8.2617    119.4143
  1208.2500      3.6555   -365.1624      8.3745    118.3034
  1208.5000      3.6678   -365.8461      8.4930    116.7575
  1208.7500      3.6817   -366.5711      8.6255    115.9710
  1209.0000      3.6851   -367.2993      8.7745    115.6871
  1209.2500      3.6561   -367.9337      8.9331    116.1215
  1209.5000      3.5967   -368.3445      9.0808    116.8178
  1209.7500      3.5320   -368.4032      9.1852    116.5085
  1210.0000      3.4827   -368.0156      9.2116    114.0608
  1210.2500      3.4511   -367.1455      9.1375    111.3691
  1210.5000      3.4314   -365.8256      8.9649    107.4140
  1210.7500      3.4227   -364.1569      8.7181    106.0476
  1211.0000      3.4307   -362.2963      8.4322    107.1337
  1211.2500      3.4610   -360.4375      8.1388    109.6959
  1211.5000      3.5146   -358.7823      7.8595    114.3960
  1211.7500      3.5870   -357.5120      7.6052    116.8867
  1212.0000      3.6630   -356.7597      7.3805    118.9483
  1212.2500      3.7187   -356.5908      7.1878    119.6478
  1212.5000      3.7380   -356.9971      7.0295    120.5071
  1212.7500      3.7244   -357.9055      6.9088    120.8648
  1213.0000      3.6849   -359.1982      6.8277    120.5049
  1213.2500      3.6148   -360.7367      6.7854    119.7410
  1213.5000      3.5161   -362.3865      6.7774    118.7266
  1213.7500      3.4182   -364.0328      6.7961    118.5650
  1214.0000      3.3543   -365.5884      6.8317    118.9949
  1214.2500      3.3231   -366.9931      6.8737    119.4078
  1214.5000      3.2960   -368.2069      6.9112    119.9435
  1214.7500      3.2621   -369.2027      6.9329    120.3963
  1215.0000      3.2467   -369.9614      6.9279    121.8179
  1215.2500      3.2849   -370.4702      6.8893    123.5185
  1215.5000      3.3866   -370.7256      6.8181    126.8470
  1215.7500      3.5220   -370.7376      6.7240    128.8482
  1216.0000      3.6349   -370.5344      6.6227    130.1073
  1216.2500      3.6801   -370.1620      6.5303    129.5038
  1216.5000      3.6601   -369.6810      6.4578    127.3584
  1216.7500      3.6237   -369.1587      6.4092    126.0621
  1217.0000      3.6267   -368.6605      6.3827    125.4912
  1217.2500      3.6949   -368.2414      6.3736    126.1251
  1217.5000      3.8035   -367.9401      6.3780    128.0317
  1217.7500      3.8814   -367.7764      6.3943    129.4578
  1218.0000      3.8555   -367.7509      6.4237    131.1652
  1218.2500      3.7154   -367.8475      6.4680    131.9100
  1218.5000      3.5276   -368.0383      6.5273    132.7570
  1218.7500      3.3749   -368.2913      6.5979    133.4092
  1219.0000      3.2931   -368.5774      6.6725    134.7456
  1219.2500      3.2673   -368.8782      6.7413    135.9132
  1219.5000      3.2660   -369.1895      6.7949    138.2553
  1219.7500      3.2616   -369.5223      6.8267    140.2644
  1220.0000      3.2379   -369.8993      6.8353    143.3088
  1220.2500      3.1976   -370.3485      6.8238    144.4639
  1220.5000      3.1583   -370.8954      6.7983    143.4977
  1220.7500      3.1338   -371.5535      6.7659    141.1267
  1221.0000      3.1223   -372.3176      6.7329    136.8697
  1221.2500      3.1154   -373.1588      6.7048    134.9275
  1221.5000      3.1117   -374.0241      6.6857    134.4322
  1221.7500      3.1201   -374.8388      6.6782    135.3526
  1222.0000      3.1507   -375.5139      6.6826    137.0240
  1222.2500      3.2059   -375.9552      6.6967    137.4083
  1222.5000      3.2779   -376.0733      6.7165    136.2294
  1222.7500      3.3504   -375.7932      6.7372    134.5694
  1223.0000      3.4047   -375.0636      6.7555    131.6061
  1223.2500      3.4339   -373.8659      6.7701    129.4156
  1223.5000      3.4508   -372.2240      6.7825    125.4741
  1223.7500      3.4731   -370.2109      6.7950    122.5247
  1224.0000      3.5011   -367.9510      6.8103    118.7757
  1224.2500      3.5185   -365.6123      6.8310    117.5007
  1224.5000      3.5107   -363.3879      6.8594    117.9053
  1224.7500      3.4759   -361.4688      6.8979    119.3940
  1225.0000      3.4186   -360.0138      6.9494    122.2810
  1225.2500      3.3428   -359.1256      7.0169    123.8819
  1225.5000      3.2594   -358.8387      7.1037    124.7163
  1225.7500      3.1917   -359.1220      7.2115    123.8087
  1226.0000      3.1621   -359.8938      7.3397    120.0162
  1226.2500      3.1721   -361.0429      7.4855    116.1603
  1226.5000      3.1942   -362.4490      7.6452    109.8397
  1226.7500      3.1902   -363.9995      7.8167    106.4738
  1227.0000      3.1399   -365.5983      7.9999    104.3332
  1227.2500      3.0557   -367.1683      8.1948    104.9753
  1227.5000      2.9648   -368.6509      8.3993    107.7684
  1227.7500      2.8868   -370.0019      8.6072    109.8128
  1228.0000      2.8282   -371.1891      8.8097    112.1013
  1228.2500      2.7890   -372.1889      8.9981    113.0698
  1228.5000      2.7656   -372.9839      9.1674    113.8087
  1228.7500      2.7528   -373.5605      9.3179    113.5718
  1229.0000      2.7478   -373.9095      9.4519    111.3488
  1229.2500      2.7495   -374.0269      9.5708    108.5471
  1229.5000      2.7581   -373.9179      9.6732    103.5102
  1229.7500      2.7788   -373.6017      9.7538    100.6643
  1230.0000      2.8204   -373.1161      9.8027     98.4111
  1230.2500      2.8785   -372.5188      9.8044     98.3023
