~Version Information
VERS.                      2.0: CWLS Log ASCII Standard - VERSION 2.0
WRAP.                       NO: One line per depth step
~Well Information Block
STRT.FT                10.0000: 
STOP.FT               743.5000: 
STEP.FT                 0.1000: 
NULL.                -999.2500: 
COMP.          Pioneer Natural Resources: COMPANY
WELL.                Mia 21-18: WELL
FLD.           Purgatorie River: FIELD
LOC.           1067' FNL & 1824' FWL: LOCATION
PROV.                 Colorado: PROVINCE
CNTY.               Las Animas: COUNTRY
SRVC.                Patterson: SERVICE COMPANY
DATE.          Tue Nov 22 15:40:03 2005: LOG DATE
UWI.           05-071-08559               : UNIQUE WELL ID
~Curve Information Block
DEPT.FT            0 000 00 00: Depth
DCAL.in                       : CDL Caliper
RHOB.g/cc                     : CDL Bulk Density
RHOC.g/cc                     : CDL Density Correction
DPOR.pu                       : CDL Density Porosity
GR.GAPI                       : Gamma Ray
NPOR.pu                       : Neutron Porosity
~Parameter Information Block
~A  Depth       DCAL        RHOB        RHOC        DPOR         GR         NPOR    
# ...
    58.0000     -3.1029      1.6397      2.4626     -0.0202    152.8628     24.6073
    58.1000     -3.1029      1.6285      2.4887     -0.0204    150.8063     24.2987
    58.2000     -3.1029      1.6122      2.4449     -0.0208    153.5593     24.0769
    58.3000     -3.1029      1.5985      2.4230     -0.0210    156.2682     23.8430
    58.4000     -3.1029      1.5922      2.4389     -0.0212    155.7310     23.3883
    58.5000     -3.1029      1.5911      2.4168     -0.0212    153.8897     23.0148
    58.6000     -3.1029      1.5947      2.4250     -0.0211    151.3118     23.0556
    58.7000     -3.1029      1.6024      2.4298     -0.0210    148.6909     23.5246
    58.8000     -3.1029      1.6094      2.4647     -0.0208    149.1547     24.0182
    58.9000     -3.1029      1.6124      2.4251     -0.0208    153.3394     24.1107
    59.0000     -3.1029      1.6143      2.4208     -0.0207    155.7303     23.8239
    59.1000     -3.1029      1.6148      2.4504     -0.0207    152.8490     23.2431
    59.2000     -3.1029      1.6100      2.4448     -0.0208    150.4484     22.5178
    59.3000     -3.1029      1.6051      2.4025     -0.0209    152.3349     22.1564
    59.4000     -3.1029      1.6091      2.4274     -0.0208    154.1912     22.2105
    59.5000     -3.1029      1.6192      2.4213     -0.0206    152.5588     22.2402
    59.6000     -3.1029      1.6267      2.4420     -0.0205    150.4492     22.0450
    59.7000     -3.1029      1.6254      2.4582     -0.0205    153.1038     21.8921
    59.8000     -3.1029      1.6174      2.4462     -0.0207    158.5204     22.1159
    59.9000     -3.1029      1.6103      2.4228     -0.0208    160.5213     22.5909
    60.0000     -3.1029      1.6028      2.4708     -0.0210    161.3725     23.0242
    60.1000     -3.1029      1.5891      2.4324     -0.0212    164.9662     23.2487
    60.2000     -3.1029      1.5734      2.4295     -0.0215    166.8932     23.3407
    60.3000     -3.1029      1.5602      2.4345     -0.0218    165.2408     23.2454
    60.4000     -3.1029      1.5431      2.4454     -0.0221    164.3679     22.9083
    60.5000     -3.1029      1.5159      2.4038     -0.0227    165.5535     22.8536
    60.6000     -3.1029      1.4831      2.3718     -0.0234    165.8312     23.3814
    60.7000     -3.1029      1.4549      2.3454     -0.0239    166.8995     24.1037
    60.8000     -3.1029      1.4368      2.3461     -0.0243    173.1489     24.6371
    60.9000     -3.1029      1.4253      2.3667     -0.0245    180.0502     24.9353
    61.0000     -3.1029      1.4166      2.3404     -0.0247    180.7487     25.0382
    61.1000     -3.1029      1.4114      2.3346     -0.0248    177.5666     25.2100
    61.2000     -3.1029      1.4058      2.3511     -0.0249    174.1938     25.7275
    61.3000     -3.1029      1.3942      2.3243     -0.0251    170.4772     26.3196
    61.4000     -3.1029      1.3798      2.3021     -0.0254    166.6283     26.6483
    61.5000     -3.1029      1.3704      2.2956     -0.0256    163.8068     26.7224
    61.6000     -3.1029      1.3671      2.2963     -0.0257    161.2323     26.5913
    61.7000     -3.1029      1.3617      2.3229     -0.0258    157.5272     26.1479
    61.8000     -3.1029      1.3536      2.2529     -0.0259    154.7100     25.4279
    61.9000     -3.1029      1.3526      2.2837     -0.0260    155.0367     24.8298
    62.0000     -3.1029      1.3525      2.3075     -0.0260    156.8255     24.5889
    62.1000     -3.1029      1.3401      2.2824     -0.0262    159.1494     24.7536
    62.2000     -3.1029      1.3200      2.2547     -0.0266    163.5079     25.3391
    62.3000     -3.1029      1.3067      2.2510     -0.0269    167.9347     25.7823
    62.4000     -3.1029      1.3065      2.2675     -0.0269    168.0861     25.5104
    62.5000     -3.1029      1.3122      2.2748     -0.0268    164.6665     24.8725
    62.6000     -3.1029      1.3121      2.2901     -0.0268    163.1586     24.6044
    62.7000     -3.1029      1.3050      2.2313     -0.0269    166.1913     24.7971
    62.8000     -3.1029      1.2977      2.2620     -0.0271    171.3086     25.0517
    62.9000     -3.1029      1.2929      2.2154     -0.0272    175.7322     25.2430
    63.0000     -3.1029      1.2902      2.2579     -0.0272    180.1377     25.1785
    63.1000     -3.1029      1.2900      2.2197     -0.0272    184.8204     24.7194
    63.2000     -3.1029      1.2921      2.2524     -0.0272    187.2851     24.3076
    63.3000     -3.1029      1.2941      2.2425     -0.0271    187.4336     24.2394
    63.4000     -3.1029      1.2995      2.2366     -0.0270    184.2762     24.5138
    63.5000     -3.1029      1.3131      2.2652     -0.0268    177.8646     25.0071
    63.6000     -3.1029      1.3283      2.2937     -0.0264    172.5396     25.3765
    63.7000     -3.1029      1.3321      2.2949     -0.0264    168.0954     25.5078
    63.8000     -3.1029      1.3183      2.2995     -0.0266    162.0470     25.3966
    63.9000     -3.1029      1.2934      2.2442     -0.0271    156.7791     24.8722
    64.0000     -3.1029      1.2759      2.2117     -0.0275    156.2747     24.1241
    64.1000     -3.1029      1.2752      2.2403     -0.0275    158.7854     23.5979
    64.2000     -3.1029      1.2786      2.2763     -0.0274    160.4203     23.4937
    64.3000     -3.1029      1.2726      2.2468     -0.0276    161.8307     23.5205
    64.4000     -3.1029      1.2592      2.2225     -0.0278    164.5115     23.3037
    64.5000     -3.1029      1.2446      2.2308     -0.0281    165.5954     23.0833
    64.6000     -3.1029      1.2329      2.2084     -0.0284    162.0516     23.3489
    64.7000     -3.1029      1.2260      2.2141     -0.0285    156.8544     23.8521
    64.8000     -3.1029      1.2208      2.2159     -0.0286    155.1960     23.9857
    64.9000     -3.1029      1.2152      2.2074     -0.0287    157.3284     23.7629
    65.0000     -3.1029      1.2104      2.2043     -0.0288    158.6661     23.4117
    65.1000     -3.1029      1.2023      2.2101     -0.0290    156.7011     23.0994
    65.2000     -3.1029      1.1869      2.2015     -0.0293    153.4941     23.0357
    65.3000     -3.1029      1.1692      2.1520     -0.0296    152.1569     23.2352
    65.4000     -3.1029      1.1582      2.1557     -0.0299    153.4821     23.8276
    65.5000     -3.1029      1.1540      2.1618     -0.0299    155.7796     24.7440
    65.6000     -3.1029      1.1484      2.1636     -0.0300    155.6203     25.5843
    65.7000     -3.1029      1.1393      2.1243     -0.0302    152.4631     26.5731
    65.8000     -3.1029      1.1345      2.1202     -0.0303    150.5376     28.4011
    65.9000     -3.1029      1.1407      2.1215     -0.0302    150.8605     30.9236
    66.0000     -3.1029      1.1611      2.1024     -0.0298    149.4999     32.9805
    66.1000     -3.1029      1.1939      2.1305     -0.0291    147.3937     34.0220
    66.2000     -3.1029      1.2219      2.2122     -0.0286    147.4322     34.6085
    66.3000     -3.1029      1.2263      2.1741     -0.0285    148.4057     34.9847
    66.4000     -3.1029      1.2118      2.1641     -0.0288    149.9999     34.9256
    66.5000     -3.1029      1.1905      2.1505     -0.0292    152.8490     34.3241
    66.6000     -3.1029      1.1613      2.1497     -0.0298    155.7675     33.2319
    66.7000     -3.1029      1.1203      2.1099     -0.0306    157.8324     31.8920
    66.8000     -3.1029      1.0764      2.0617     -0.0315    158.2398     30.5339
    66.9000     -3.1029      1.0440      2.0486     -0.0321    157.0065     29.3024
    67.0000     -3.1029      1.0276      2.0167     -0.0325    156.6971     28.2931
    67.1000     -3.1029      1.0220      2.0387     -0.0326    160.1844     27.3030
    67.2000     -3.1029      1.0204      2.0145     -0.0326    166.2754     26.1445
    67.3000     -3.1029      1.0193      2.0547     -0.0326    168.0180     25.2866
    67.4000     -3.1029      1.0186      2.0258     -0.0326    162.2689     25.2361
    67.5000     -3.1029      1.0219      2.0302     -0.0326    156.5003     25.6417
