~Version Information
VERS.                      2.0: CWLS Log ASCII Standard - VERSION 2.0
WRAP.                       NO: One line per depth step
~Well Information Block
STRT.FT               645.0000: 
STOP.FT              1320.0000: 
STEP.FT                 0.1000: 
NULL.                -999.2500: 
COMP.          Pioneer Natural Resources: COMPANY
WELL.          Rockfish 11-30 Tr: WELL
FLD.           Purgatoire River: FIELD
LOC.           1063' FNL & 1068' FWL: LOCATION
STAT.                 Colorado: State
CNTY.               Las Animas: COUNTY
CTRY. USA : Country
SECT. 30 : Section
TOWN. 32S : Township
RANG. 65W : Range
SRVC.                Patterson: SERVICE COMPANY
DATE.          Wed Nov 16 07:46:07 2005: LOG DATE
API.           05 071 08585 00: UNIQUE WELL ID
~Curve Information Block
DEPT.FT            0 000 00 00: Depth
DCAL.in                       : CDL Caliper
RHOB.g/cc                     : CDL Bulk Density
RHOC.g/cc                     : CDL Density Correction
DPOR.pu                       : CDL Density Porosity
GR.GAPI                       : Gamma Ray
NPOR.pu                       : Neutron Porosity
~Parameter Information Block
~A  Depth       DCAL        RHOB        RHOC        DPOR         GR         NPOR    
# ...
  1000.2000      7.9916      2.4752      0.1292     10.5960    119.1918     23.6210
  1000.3000      7.9801      2.4995      0.0733      9.1230    123.5194     24.1973
  1000.4000      7.9801      2.4956      0.0581      9.3603    128.7281     24.6515
  1000.5000      7.9735      2.4873      0.0484      9.8619    131.3592     24.5975
  1000.6000      7.9735      2.4927      0.0091      9.5348    132.9489     24.0492
  1000.7000      7.9735      2.5039      0.0300      8.8524    135.6294     23.6447
  1000.8000      7.9640      2.5032      0.0101      8.8971    135.9166     24.2054
  1000.9000      7.9640      2.4922      0.0302      9.5654    134.4988     25.7077
  1001.0000      7.9630      2.4779      0.0781     10.4298    136.4213     27.0487
  1001.1000      7.9630      2.4686     -0.0061     10.9920    136.8324     27.3822
  1001.2000      7.9630      2.4763      0.0423     10.5283    132.9056     27.0193
  1001.3000      7.9599      2.4919      0.0495      9.5829    132.8268     26.4422
  1001.4000      7.9599      2.5066      0.0320      8.6885    140.6178     25.6632
  1001.5000      7.9458      2.5306      0.0278      7.2355    150.3707     24.9069
  1001.6000      7.9458      2.5660      0.0587      5.0895    150.2481     24.5859
  1001.7000      7.9458      2.5979      0.1045      3.1550    137.5285     24.6506
  1001.8000      7.9118      2.6061      0.1258      2.6605    124.4272     24.7536
  1001.9000      7.9118      2.5914      0.0607      3.5537    118.9465     24.7717
  1002.0000      7.9266      2.5846      0.0441      3.9666    118.4016     24.6930
  1002.1000      7.9266      2.5953      0.1340      3.3141    118.5441     24.4266
  1002.2000      7.9266      2.5930      0.0935      3.4574    119.2694     24.2096
  1002.3000      7.9048      2.5680      0.0569      4.9716    120.6512     24.3254
  1002.4000      7.9048      2.5507      0.0128      6.0152    121.3123     24.4208
  1002.5000      7.8713      2.5564      0.1017      5.6712    121.3127     24.2166
  1002.6000      7.8713      2.5679      0.0967      4.9742    118.1445     23.8211
  1002.7000      7.8713      2.5760      0.1126      4.4849    112.5519     23.2759
  1002.8000      7.8777      2.5762      0.1590      4.4697    112.2714     22.7857
  1002.9000      7.8777      2.5659      0.0776      5.0942    118.4011     22.5774
  1003.0000      7.8636      2.5606      0.1132      5.4184    122.2584     22.6325
  1003.1000      7.8636      2.5632      0.1195      5.2636    118.9037     22.8423
  1003.2000      7.8636      2.5629      0.0597      5.2810    115.3454     23.1669
  1003.3000      7.8586      2.5646      0.0919      5.1748    117.4388     23.6705
  1003.4000      7.8586      2.5749      0.1256      4.5541    121.4842     24.0981
  1003.5000      7.8720      2.5892      0.1239      3.6831    126.7369     23.9100
  1003.6000      7.8720      2.6043      0.1203      2.7674    134.8995     23.2931
  1003.7000      7.8720      2.6113      0.1750      2.3468    141.6096     22.9835
  1003.8000      7.8796      2.5940      0.1222      3.3927    142.7326     23.2353
  1003.9000      7.8796      2.5576      0.0461      5.5992    141.1452     23.7378
  1004.0000      7.8807      2.5293      0.0328      7.3160    142.4044     24.1376
  1004.1000      7.8807      2.5222      0.0711      7.7449    145.6988     24.3900
  1004.2000      7.8807      2.5262      0.0449      7.5032    145.1454     24.4996
  1004.3000      7.8792      2.5359      0.0530      6.9157    142.1515     24.4722
  1004.4000      7.8792      2.5553      0.0300      5.7367    138.7648     24.6228
  1004.5000      7.8787      2.5767      0.0649      4.4442    130.4861     24.9861
  1004.6000      7.8787      2.5832      0.1004      4.0464    124.7605     25.1054
  1004.7000      7.8787      2.5790      0.0672      4.3035    134.0070     24.9128
  1004.8000      7.8849      2.5750      0.0903      4.5433    150.1511     24.8633
  1004.9000      7.8849      2.5643      0.0626      5.1960    156.9349     25.1477
  1005.0000      7.8987      2.5500      0.0163      6.0577    152.8874     25.2522
  1005.1000      7.8987      2.5452      0.0708      6.3494    147.3469     24.6813
  1005.2000      7.8987      2.5450      0.0556      6.3608    145.3413     24.0886
  1005.3000      7.9078      2.5386      0.0811      6.7510    144.1930     24.2257
  1005.4000      7.9078      2.5213      0.0710      7.7982    141.5586     24.7603
  1005.5000      7.8974      2.5016      0.0168      8.9933    141.0544     24.9011
  1005.6000      7.8974      2.4950      0.0201      9.3947    145.7368     24.7947
  1005.7000      7.8974      2.5041      0.0320      8.8436    151.0447     25.2058
  1005.8000      7.9028      2.5185      0.0261      7.9677    152.7278     25.9936
  1005.9000      7.9028      2.5326     -0.0017      7.1148    151.2360     26.3952
  1006.0000      7.9363      2.5456      0.0574      6.3260    148.3800     26.4176
  1006.1000      7.9363      2.5531      0.0619      5.8742    147.1100     26.5569
  1006.2000      7.9363      2.5564      0.0468      5.6723    149.0701     26.7947
  1006.3000      7.9339      2.5590      0.0462      5.5124    151.0636     26.9793
  1006.4000      7.9339      2.5579      0.0645      5.5831    148.3739     27.0369
  1006.5000      7.9160      2.5551      0.0317      5.7494    141.6359     26.9196
  1006.6000      7.9160      2.5579      0.0447      5.5808    135.3235     26.8750
  1006.7000      7.9160      2.5683      0.0410      4.9501    129.6617     26.8187
  1006.8000      7.9042      2.5835      0.0149      4.0308    123.4317     26.3079
  1006.9000      7.9042      2.5867      0.0567      3.8389    119.4599     25.5592
  1007.0000      7.8907      2.5681      0.0353      4.9639    117.3106     25.0581
  1007.1000      7.8907      2.5518      0.0261      5.9516    112.9371     24.5935
  1007.2000      7.8907      2.5548      0.0402      5.7693    107.7653     23.9447
  1007.3000      7.9058      2.5654      0.0126      5.1291    108.5240     23.5704
  1007.4000      7.9058      2.5757      0.0409      4.5004    112.1727     23.7969
  1007.5000      7.9107      2.5834      0.0712      4.0364    110.7596     24.0933
  1007.6000      7.9107      2.5805      0.0673      4.2097    106.4008     23.9841
  1007.7000      7.9107      2.5729      0.0637      4.6708    102.3246     23.7674
  1007.8000      7.9027      2.5785      0.0422      4.3321    101.0127     23.5688
  1007.9000      7.9027      2.6030      0.0910      2.8466    104.4370     23.3623
  1008.0000      7.8945      2.6310      0.1074      1.1543    108.7135     23.4775
  1008.1000      7.8945      2.6397      0.1388      0.6238    113.1733     23.8978
  1008.2000      7.8945      2.6253      0.1328      1.4982    120.9039     24.0777
  1008.3000      7.8405      2.6106      0.0866      2.3897    128.8492     23.6752
  1008.4000      7.8405      2.6187      0.0911      1.9000    132.9549     23.0110
  1008.5000      7.8231      2.6413      0.1266      0.5247    132.6301     22.7546
  1008.6000      7.8231      2.6521      0.1189     -0.1300    125.9267     23.0345
  1008.7000      7.8231      2.6413      0.0956      0.5261    113.5955     23.2693
  1008.8000      7.8825      2.6186      0.0789      1.9008    102.2888     23.1229
  1008.9000      7.8825      2.5883      0.0308      3.7395     97.4338     22.8521
  1009.0000      7.8774      2.5536      0.0328      5.8412     98.0424     22.5724
  1009.1000      7.8774      2.5287      0.0337      7.3485    101.1239     22.4009
  1009.2000      7.8774      2.5249      0.0261      7.5800    103.8271     22.6634
  1009.3000      7.8826      2.5466      0.0458      6.2677    103.6191     23.2789
  1009.4000      7.8826      2.5793      0.0993      4.2831    100.4148     23.7109
  1009.5000      7.8999      2.5986      0.1032      3.1151     97.9134     23.7069
  1009.6000      7.8999      2.6030      0.0987      2.8468    100.2996     23.6214
  1009.7000      7.8999      2.6062      0.1517      2.6516    106.2612     23.8857
