~Version Information
VERS.                      2.0: CWLS Log ASCII Standard - VERSION 2.0
WRAP.                       NO: One line per depth step
~Well Information Block
STRT.FT                 8.2500: 
STOP.FT              1156.2500: 
STEP.FT                 0.2500: 
NULL.                -999.2500: 
COMP.          Pioneer Natural Resources: COMPANY
WELL.              Davida 34-8: WELL
FLD.           Purgatoire River: FIELD
LOC.           418' FSL & 1923' FEL: LOCATION
CNTY.               Las Animas: COUNTY
SRVC.                Patterson: SERVICE COMPANY
DATE.          Thu Mar 30 09:09:42 2006: LOG DATE
UWI.           05 071 08722 00: UNIQUE WELL ID
STAT.                 Colorado: STATE
~Curve Information Block
DEPT.FT            0 000 00 00: Depth
GR.GAPI                       : Gamma Ray
CCL.                          : Casing Collar Locator
TT3.usec                      : CBL 3' Travel Time
AMP3.mV                       : CBL 3' Amplitude
~Parameter Information Block
~A  Depth        GR         CCL         TT3         AMP3    
# ...
   879.2500    100.3087      0.0000    469.7003      6.2623
   879.5000     98.0509      0.0000    470.0258      6.1510
   879.7500     95.2523      0.0000    473.2926      6.0544
   880.0000     92.5399      0.0000    482.2237      5.9839
   880.2500     90.5519      0.0000    499.3523      5.9488
   880.5000     89.3161      0.0000    524.5780      5.9509
   880.7500     87.9419      0.0000    553.8326      5.9837
   881.0000     85.3949      0.0000    581.2543      6.0322
   881.2500     81.7171      0.0000    603.0182      6.0789
   881.5000     78.3141      0.0000    618.4703      6.1115
   881.7500     76.9446      0.0000    627.9005      6.1265
   882.0000     78.4341      0.0000    630.7435      6.1253
   882.2500     82.1946      0.0000    626.5791      6.1100
   882.5000     86.7259      0.0000    616.7043      6.0814
   882.7500     90.4337      0.0000    603.1206      6.0375
   883.0000     92.0977      0.0000    586.3062      5.9749
   883.2500     91.0910      0.0000    566.1202      5.8920
   883.5000     87.7427      0.0000    545.1247      5.7898
   883.7500     83.6101      0.0000    528.7959      5.6665
   884.0000     80.9157      0.0000    521.9681      5.5170
   884.2500     81.1116      0.0000    526.2123      5.3463
   884.5000     83.7335      0.0000    538.7686      5.1825
   884.7500     86.6240      0.0000    551.5218      5.0644
   885.0000     87.4443      0.0000    553.4868      5.0170
   885.2500     85.1983      0.0000    538.5323      5.0502
   885.5000     80.4537      0.0000    511.4049      5.1813
   885.7500     74.2012      0.0000    484.3641      5.4233
   886.0000     66.8599      0.0000    467.0454      5.7304
   886.2500     58.5941     -3.0000    459.8532      5.9802
   886.5000     50.2121     -3.0000    457.8918      6.0472
   886.7500     43.3204      0.0000    460.7544      5.8956
   887.0000     39.6340      0.0000    475.4728      5.6033
   887.2500     40.2223      0.0000    507.6707      5.3102
   887.5000     45.1018      0.0000    552.4057      5.1432
   887.7500     53.1771      0.0000    596.7534      5.1579
   888.0000     62.5241      0.0000    629.4937      5.3265
   888.2500     71.0168      0.0000    645.8780      5.5792
   888.5000     77.1683      0.0000    646.1215      5.8567
   888.7500     80.6516      0.0000    634.4094      6.1266
   889.0000     82.0293      0.0000    619.5742      6.3623
   889.2500     82.0290      0.0000    612.2298      6.5304
   889.5000     81.2552      0.0000    617.7108      6.6101
   889.7500     80.4834      0.0000    631.8994      6.6155
   890.0000     80.6800      0.0000    645.5590      6.5851
   890.2500     82.3051      0.0000    653.0467      6.5535
   890.5000     84.7869      0.0000    656.4160      6.5349
   890.7500     87.0122      0.0000    661.3314      6.5262
   891.0000     88.2436      0.0000    670.3491      6.5163
   891.2500     88.4921      0.0000    681.0815      6.4959
   891.5000     88.2448      0.0000    689.8267      6.4667
   891.7500     87.8995      0.0000    695.1210      6.4405
   892.0000     87.2162      0.0000    697.8350      6.4264
   892.2500     85.3141      0.0000    699.3767      6.4195
   892.5000     81.5193      0.0000    700.5481      6.4027
   892.7500     76.2623      0.0000    701.4659      6.3633
   893.0000     70.9763      0.0000    701.6996      6.3060
   893.2500     67.0391      0.0000    700.0229      6.2496
   893.5000     64.8221      0.0000    693.9124      6.2099
   893.7500     63.7183      0.0000    679.9119      6.1860
   894.0000     63.0439      0.0000    656.5590      6.1665
   894.2500     62.8731      0.0000    628.7614      6.1485
   894.5000     63.8656      0.0000    607.6321      6.1469
   894.7500     66.2311      0.0000    601.6864      6.1828
   895.0000     69.0388      0.0000    607.2663      6.2636
   895.2500     70.7895      0.0000    611.4445      6.3773
   895.5000     70.6967      0.0000    606.3005      6.5047
   895.7500     69.3051      0.0000    597.1182      6.6308
   896.0000     67.8196      0.0000    594.5093      6.7463
   896.2500     66.8644      0.0000    602.3034      6.8379
   896.5000     66.0066      0.0000    616.9973      6.8817
   896.7500     64.4691      0.0000    635.5595      6.8502
   897.0000     61.9987      0.0000    657.8318      6.7318
   897.2500     58.8774      0.0000    682.2299      6.5465
   897.5000     55.5698      0.0000    704.0040      6.3375
   897.7500     52.7353      0.0000    718.5377      6.1481
   898.0000     51.1124      0.0000    724.6144      6.0022
   898.2500     50.8941      0.0000    724.5544      5.9048
   898.5000     51.5734      0.0000    721.9045      5.8508
   898.7500     52.8242      0.0000    718.4736      5.8305
   899.0000     55.1135      0.0000    713.0831      5.8299
   899.2500     58.9475      0.0000    703.5621      5.8326
   899.5000     63.7488      0.0000    690.1202      5.8244
   899.7500     67.9814      0.0000    675.8186      5.7984
   900.0000     70.4186      0.0000    663.1912      5.7556
   900.2500     71.0265      0.0000    650.6271      5.7036
   900.5000     70.5916      0.0000    632.2000      5.6539
   900.7500     69.7682      0.0000    601.5931      5.6185
   901.0000     68.6893      0.0000    557.9447      5.6070
   901.2500     67.2862      0.0000    508.9133      5.6254
   901.5000     65.5848      0.0000    467.2268      5.6748
   901.7500     63.5899      0.0000    443.7173      5.7482
   902.0000     61.2494      0.0000    443.6487      5.8293
   902.2500     58.8237      0.0000    467.1880      5.8991
   902.5000     57.0797      0.0000    509.5036      5.9448
   902.7500     56.7718      0.0000    560.2447      5.9645
   903.0000     57.9512      0.0000    606.6177      5.9646
   903.2500     59.9332      0.0000    639.6119      5.9560
   903.5000     61.8483      0.0000    657.5646      5.9492
   903.7500     63.0409      0.0000    664.5300      5.9497
   904.0000     63.1543      0.0000    666.3920      5.9552
   904.2500     62.3759      0.0000    667.7210      5.9578
   904.5000     61.6838      0.0000    670.2535      5.9483
   904.7500     62.3862      0.0000    672.8843      5.9178
   905.0000     65.0442      0.0000    672.7574      5.8619
   905.2500     68.8753      0.0000    667.0055      5.7825
   905.5000     72.3763      0.0000    654.7959      5.6861
   905.7500     74.5451      0.0000    638.4849      5.5810
   906.0000     75.3269      0.0000    622.0797      5.4771
   906.2500     74.9725      0.0000    607.7283      5.3844
   906.5000     73.4172      0.0000    593.9709      5.3091
   906.7500     70.4334      0.0000    578.2829      5.2499
   907.0000     66.1170      0.0000    561.7438      5.2021
   907.2500     61.1366      0.0000    550.3930      5.1642
   907.5000     56.6235      0.0000    550.5366      5.1363
   907.7500     53.6290      0.0000    562.6761      5.1140
   908.0000     52.4071      0.0000    581.4881      5.0907
   908.2500     52.2441      0.0000    601.4611      5.0680
   908.5000     52.1177      0.0000    620.5371      5.0586
   908.7500     51.4831      0.0000    638.1810      5.0763
   909.0000     50.4115      0.0000    652.4987      5.1249
   909.2500     49.2744      0.0000    661.1590      5.1956
   909.5000     48.5329      0.0000    664.5015      5.2693
   909.7500     48.6083      0.0000    666.0531      5.3229
   910.0000     49.5602      0.0000    669.0422      5.3426
   910.2500     50.8552      0.0000    672.9222      5.3350
   910.5000     51.7501      0.0000    674.5781      5.3250
   910.7500     52.0452      0.0000    672.7645      5.3393
   911.0000     52.2482      0.0000    669.8151      5.3878
   911.2500     52.9551      0.0000    668.9818      5.4562
   911.5000     54.4210      0.0000    671.5031      5.5180
   911.7500     56.8258      0.0000    676.4097      5.5558
   912.0000     60.5236      0.0000    681.9739      5.5730
   912.2500     65.7286      0.0000    686.5270      5.5843
   912.5000     72.1624      0.0000    688.4683      5.5986
