~Version Information
VERS.                      2.0: CWLS Log ASCII Standard - VERSION 2.0
WRAP.                       NO: One line per depth step
~Well Information Block
STRT.FT               240.0000: 
STOP.FT              1185.5000: 
STEP.FT                 0.2500: 
NULL.                -999.2500: 
COMP.          Pioneer Natural Resources: COMPANY
WELL.          Whitecoat 14-36: WELL
FLD.           Purgatorie River: FIELD
LOC.           606' FSL & 260' FWL: LOCATION
PROV.                 Colorado: PROVINCE
CNTY.               Las Animas: COUNTRY
SRVC.                Patterson: SERVICE COMPANY
DATE.          Mon Dec 05 16:51:12 2005: LOG DATE
UWI.                          : UNIQUE WELL ID
~Curve Information Block
DEPT.FT            0 000 00 00: Depth
DIR.Ohm-m                     : IEL Induction Resistivity
GR.GAPI                       : Gamma Ray
~Parameter Information Block
~A  Depth       DIR          GR     
   240.0000   -999.2500     73.4651
   240.2500   -999.2500     74.6907
   240.5000   -999.2500     76.7216
   240.7500   -999.2500     78.0530
   241.0000   -999.2500     79.7180
   241.2500   -999.2500     80.4079
   241.5000      7.9600     80.4413
   241.7500      7.9507     79.6332
   242.0000      7.9386     77.2118
   242.2500      7.9260     75.0461
   242.5000      7.9130     71.5859
   242.7500      7.8983     69.4001
   243.0000      7.8806     66.4774
   243.2500      7.8603     64.8513
   243.5000      7.8410     63.2569
   243.7500      7.8285     63.0336
   244.0000      7.8291     64.2229
   244.2500      7.8462     65.9623
   244.5000      7.8777     69.4563
   244.7500      7.9148     71.8332
   245.0000      7.9426     74.4091
   245.2500      7.9448     75.0967
   245.5000      7.9103     74.8172
   245.7500      7.8424     74.2594
   246.0000      7.7616     73.6478
   246.2500      7.6999     73.5588
   246.5000      7.6869     73.8532
   246.7500      7.7346     74.3048
   247.0000      7.8308     75.3761
   247.2500      7.9441     76.3141
   247.5000      8.0394     77.9043
   247.7500      8.0954     78.9467
   248.0000      8.1123     79.9374
   248.2500      8.1101     79.7140
   248.5000      8.1225     77.4242
   248.7500      8.1894     74.6670
   249.0000      8.3452     69.5451
   249.2500      8.5983     66.1602
   249.5000      8.9052     62.1955
   249.7500      9.1618     60.7244
   250.0000      9.2440     60.5545
   250.2500      9.0966     61.6970
   250.5000      8.7841     64.8624
   250.7500      8.4410     67.6747
   251.0000      8.1935     72.4624
   251.2500      8.1384     75.6380
   251.5000      8.3787     79.5450
   251.7500      9.0899     81.2260
   252.0000     10.6113     82.4431
   252.2500     13.5716     82.8376
   252.5000     18.7679     83.7138
   252.7500     24.8583     84.7030
   253.0000     24.5356     86.3767
   253.2500     17.6307     87.1446
   253.5000     11.9449     87.2484
   253.7500      8.9077     86.6630
   254.0000      7.5581     85.2733
   254.2500      7.2288     84.3108
   254.5000      7.6067     83.2503
   254.7500      8.4536     83.0393
   255.0000      9.2121     83.8772
   255.2500      8.8711     85.3788
   255.5000      7.1862     95.4487
   255.7500      5.2670     98.9614
   256.0000      3.9030    104.9247
   256.2500      3.1357    108.8765
   256.5000      2.8084    129.0673
   256.7500      2.8126    131.7415
   257.0000      3.1133    134.0161
   257.2500      3.7307    134.6762
   257.5000      4.7260    135.0009
   257.7500      6.2122    134.9099
   258.0000      8.4024    134.0801
   258.2500     11.6081    132.9219
   258.5000     15.7183    130.5227
   258.7500     18.6377    128.8388
   259.0000     17.4326    126.5359
   259.2500     13.7453    125.1037
   259.5000     10.5779    123.2336
   259.7500      8.6013    122.6273
   260.0000      7.5027    123.5099
   260.2500      6.9322    125.2541
   260.5000      6.6523    128.6873
   260.7500      6.5194    131.1154
   261.0000      6.4582    135.2656
   261.2500      6.4388    138.8118
   261.5000      6.4561    145.3055
   261.7500      6.5160    149.7633
   262.0000      6.6265    155.2241
   262.2500      6.7900    157.6230
   262.5000      6.9938    159.5881
   262.7500      7.2043    160.2397
   263.0000      7.3763    161.0001
   263.2500      7.4765    161.7173
   263.5000      7.5034    163.4275
   263.7500      7.4839    164.9136
   264.0000      7.4510    166.9660
   264.2500      7.4258    167.5675
   264.5000      7.4154    166.2530
   264.7500      7.4209    163.6494
   265.0000      7.4462    157.8995
   265.2500      7.4988    153.9346
   265.5000      7.5835    149.8705
   265.7500      7.6941    149.0693
   266.0000      7.8121    150.4552
   266.2500      7.9127    152.4374
   266.5000      7.9774    155.6982
   266.7500      8.0016    157.4418
   267.0000      7.9949    158.8925
   267.2500      7.9718    159.1777
   267.5000      7.9449    159.1198
   267.7500      7.9216    159.0070
   268.0000      7.9079    158.7847
   268.2500      7.9116    158.5191
   268.5000      7.9418    158.0009
   268.7500      8.0049    157.8131
   269.0000      8.0999    158.2199
   269.2500      8.2185    158.9465
   269.5000      8.3497    159.9955
   269.7500      8.4846    160.0485
   270.0000      8.6189    158.6890
   270.2500      8.7525    157.1543
   270.5000      8.8883    154.8094
   270.7500      9.0301    153.3512
   271.0000      9.1829    150.7952
   271.2500      9.3530    148.5854
   271.5000      9.5494    144.9240
   271.7500      9.7816    142.9298
   272.0000     10.0536    141.5834
   272.2500     10.3562    141.7370
   272.5000     10.6657    142.4005
   272.7500     10.9559    142.3338
   273.0000     11.2165    140.8406
   273.2500     11.4648    139.1669
   273.5000     11.7391    136.8138
   273.7500     12.0804    136.0659
   274.0000     12.5167    136.6632
   274.2500     13.0541    137.9185
   274.5000     13.6789    140.0326
   274.7500     14.3667    140.9834
   275.0000     15.0953    140.9801
   275.2500     15.8503    139.8341
   275.5000     16.6175    136.6176
   275.7500     17.3696    133.9173
   276.0000     18.0638    130.0632
   276.2500     18.6601    128.1220
   276.5000     19.1424    126.2773
   276.7500     19.5157    125.2661
   277.0000     19.7771    122.7436
   277.2500     19.8961    119.9112
   277.5000     19.8359    114.3879
   277.7500     19.6029    110.6962
   278.0000     19.2692    106.5006
   278.2500     18.9381    104.8946
   278.5000     18.6886    104.0121
   278.7500     18.5535    104.1688
   279.0000     18.5378    105.2484
   279.2500     18.6421    106.4907
   279.5000     18.8579    109.1799
   279.7500     19.1417    111.5780
   280.0000     19.4005    116.1190
   280.2500     19.5179    119.6634
   280.5000     19.4223    125.1965
   280.7500     19.1487    128.5525
   281.0000     18.8355    132.3439
   281.2500     18.6503    133.8283
   281.5000     18.7054    134.5489
   281.7500     19.0145    134.1876
   282.0000     19.4984    132.6016
   282.2500     20.0246    130.8831
   282.5000     20.4612    127.3965
   282.7500     20.7178    124.7230
   283.0000     20.7588    121.1690
   283.2500     20.5958    119.7954
   283.5000     20.2800    119.8776
   283.7500     19.8947    121.1736
   284.0000     19.5414    123.9990
   284.2500     19.3115    125.9295
   284.5000     19.2533    128.5049
   284.7500     19.3493    130.0064
   285.0000     19.5215    131.9397
   285.2500     19.6617    132.9839
   285.5000     19.6764    134.2293
   285.7500     19.5228    134.8933
   286.0000     19.2227    135.5150
   286.2500     18.8544    135.5211
   286.5000     18.5269    134.8936
   286.7500     18.3428    134.2716
   287.0000     18.3625    133.5197
   287.2500     18.5836    133.2687
   287.5000     18.9447    133.1355
   287.7500     19.3500    133.0323
   288.0000     19.7098    132.6550
   288.2500     19.9734    132.2994
   288.5000     20.1313    131.9234
   288.7500     20.1924    131.9301
   289.0000     20.1626    132.2594
   289.2500     20.0436    132.5538
   289.5000     19.8489    133.1272
   289.7500     19.6202    133.7818
   290.0000     19.4311    135.2784
   290.2500     19.3654    136.3433
   290.5000     19.4773    137.2771
   290.7500     19.7515    137.2263
   291.0000     20.0940    136.4638
   291.2500     20.3720    135.9205
   291.5000     20.4873    135.5390
   291.7500     20.4212    135.5136
   292.0000     20.2133    135.1855
   292.2500     19.9081    134.3748
   292.5000     19.5281    132.1976
   292.7500     19.0815    130.5358
   293.0000     18.5786    128.6949
   293.2500     18.0387    128.1714
   293.5000     17.4921    128.3198
   293.7500     16.9786    128.8839
   294.0000     16.5400    130.1623
   294.2500     16.2082    131.0282
   294.5000     15.9946    131.8291
   294.7500     15.8873    131.9694
   295.0000     15.8543    131.9288
   295.2500     15.8518    131.9806
   295.5000     15.8383    132.6174
