~Version Information
VERS.                      2.0: CWLS Log ASCII Standard - VERSION 2.0
WRAP.                       NO: One line per depth step
~Well Information Block
STRT.FT                -4.0000: 
STOP.FT               675.2500: 
STEP.FT                 0.2500: 
NULL.                -999.2500: 
COMP.          Pioneer Natural Resources: COMPANY
WELL.          Razor Clam 23-27: WELL
FLD.           Purgatoire River: FIELD
LOC.           2499' FSL & 2636' FWL: LOCATION
CNTY.               Las Animas: COUNTY
SRVC.                         : SERVICE COMPANY
DATE.          Thu Mar 09 13:15:19 2006: LOG DATE
UWI.           05 071 08667 00: UNIQUE WELL ID
STAT.                       CO: STATE
~Curve Information Block
DEPT.FT            0 000 00 00: Depth
GR.GAPI                       : Gamma Ray
CCL.                          : Casing Collar Locator
TT3.usec                      : CBL 3' Travel Time
AMP3.mV                       : CBL 3' Amplitude
~Parameter Information Block
~A  Depth        GR         CCL         TT3         AMP3    
# ...
   364.5000     60.5812      0.0000    728.0212     12.6232
   364.7500     59.7312      0.0000    726.0872     12.4183
   365.0000     59.1971      0.0000    722.7751     12.2729
   365.2500     58.5761      0.0000    718.8270     12.1843
   365.5000     57.3060      0.0000    716.0121     12.1408
   365.7500     55.2045      0.0000    715.9478     12.1375
   366.0000     52.9341      0.0000    718.6562     12.1825
   366.2500     51.5577      0.0000    722.5533     12.2869
   366.5000     51.5079      0.0000    725.8904     12.4309
   366.7500     52.2086      0.0000    727.9474     12.5555
   367.0000     52.7793      0.0000    728.9754     12.6135
   367.2500     52.9834      0.0000    729.4954     12.6151
   367.5000     53.3653      0.0000    729.8250     12.5940
   367.7500     54.5186      0.0000    730.0234     12.5432
   368.0000     56.4041      0.0000    730.0408     12.4234
   368.2500     58.4704      0.0000    729.8680     12.2394
   368.5000     60.3501      0.0000    729.5823     12.0695
   368.7500     62.2778      0.0000    729.2921     12.0014
   369.0000     64.9240      0.0000    729.0759     12.0608
   369.2500     69.0775      0.0000    728.9739     12.2098
   369.5000     75.4766      0.0000    728.9927     12.3837
   369.7500     84.4372      0.0000    729.0855     12.5137
   370.0000     95.2680      0.0000    729.1620     12.5411
   370.2500    106.1567      0.0000    729.1599     12.4495
   370.5000    114.9564      0.0000    729.1043     12.2883
   370.7500    120.2506      0.0000    729.0735     12.1460
   371.0000    121.8585      0.0000    729.1126     12.0927
   371.2500    120.7975      0.0000    729.1907     12.1446
   371.5000    118.9444      0.0000    729.2365     12.2659
   371.7500    118.2844      0.0000    729.1981     12.3936
   372.0000    119.9546      0.0000    729.0734     12.4720
   372.2500    123.7754      0.0000    728.8956     12.4888
   372.5000    128.5111      0.0000    728.7048     12.4776
   372.7500    132.4589      0.0000    728.5306     12.4739
   373.0000    134.1416      0.0000    728.3965     12.4675
   373.2500    133.0044      0.0000    728.3329     12.4134
   373.5000    129.6854      0.0000    728.4098     12.2830
   373.7500    125.3815      0.0000    728.8176     12.0709
   374.0000    120.8410      0.0000    730.0063     11.7393
   374.2500    116.0306      0.0000    732.6669     11.1967
   374.5000    110.5589      0.0000    737.1804     10.3736
   374.7500    104.2909      0.0000    742.5957      9.3235
   375.0000     97.9550      0.0000    746.3147      8.2299
   375.2500     93.3047      0.0000    745.8104      7.2994
   375.5000     92.0388      0.0000    741.3527      6.6467
   375.7500     94.2123      0.0000    736.4615      6.2631
   376.0000     97.9988      0.0000    734.9324      6.0667
   376.2500    101.1780      0.0000    737.7484      5.9741
   376.5000    102.8771      0.0000    743.2784      5.9400
   376.7500    104.1794      0.0000    749.6721      5.9629
   377.0000    107.1542      0.0000    756.0692      6.0801
   377.2500    112.7948      0.0000    761.5651      6.3674
   377.5000    119.5427      0.0000    764.0125      6.9197
   377.7500    124.1476      0.0000    761.1364      7.7939
   378.0000    124.4484      0.0000    753.1724      8.9362
   378.2500    121.3030      0.0000    743.3799     10.1670
   378.5000    117.8212      0.0000    735.4053     11.2569
   378.7500    116.9774      0.0000    730.7263     12.0443
   379.0000    119.7097      0.0000    728.6574     12.4972
   379.2500    124.5765      0.0000    727.7923     12.6826
   379.5000    128.9120      0.0000    726.9142     12.6971
   379.7500    130.7054      0.0000    725.1348     12.6222
   380.0000    129.6976      0.0000    722.0780     12.5166
   380.2500    126.7767      0.0000    718.3347     12.4188
   380.5000    122.7058      0.0000    715.3971     12.3475
   380.7500    117.9420      0.0000    714.4136     12.3079
   381.0000    113.4134      0.0000    714.8033     12.3002
   381.2500    110.6684      0.0000    714.6208     12.3186
   381.5000    110.9875      0.0000    712.6782     12.3488
   381.7500    114.4114      0.0000    710.0871     12.3799
   382.0000    119.5159      0.0000    709.3875     12.4191
   382.2500    124.1292      0.0000    712.1669     12.4822
   382.5000    126.5565      0.0000    717.6445     12.5705
   382.7500    126.4446      0.0000    723.4338     12.6658
   383.0000    124.7082      0.0000    727.3101     12.7415
   383.2500    122.5652      0.0000    728.2613     12.7702
   383.5000    120.3783      0.0000    726.4720     12.7295
   383.7500    117.4149      0.0000    722.9528     12.6173
   384.0000    112.8523      0.0000    719.0911     12.4620
   384.2500    106.8178      0.0000    716.0353     12.3106
   384.5000    100.2256      0.0000    714.2464     12.2047
   384.7500     93.9393      0.0000    713.6308     12.1651
   385.0000     88.3860      0.0000    714.0406     12.1874
   385.2500     83.7651      0.0000    715.5521     12.2518
   385.5000     80.3130      0.0000    718.2466     12.3406
   385.7500     78.2750      0.0000    721.7712     12.4448
   386.0000     77.6475      0.0000    725.2805     12.5508
   386.2500     77.9602      0.0000    727.9625     12.6299
   386.5000     78.4064      0.0000    729.5675     12.6584
   386.7500     78.5762      0.0000    730.3723     12.6417
   387.0000     79.1509      0.0000    730.7630     12.6026
   387.2500     81.2683      0.0000    730.9677     12.5526
   387.5000     84.7877      0.0000    731.0642     12.4920
   387.7500     87.7582      0.0000    731.0626     12.4323
   388.0000     88.1958      0.0000    730.8879     12.3985
   388.2500     85.9758      0.0000    730.3134     12.4081
   388.5000     82.4705      0.0000    729.0679     12.4455
   388.7500     78.8200      0.0000    727.2868     12.4415
   389.0000     75.2687      0.0000    725.9944     12.2811
   389.2500     71.9889      0.0000    726.8068     11.8746
   389.5000     69.7916      0.0000    730.7794     11.2585
   389.7500     69.6873      0.0000    737.7040     10.6105
   390.0000     71.9172      0.0000    746.9618     10.1226
   390.2500     75.5227      0.0000    758.6530      9.8659
   390.5000     78.7660      0.0000    772.5356      9.7998
   390.7500     80.1057      0.0000    785.2245      9.8630
   391.0000     79.1040      0.0000    790.2657     10.0004
   391.2500     76.6753      0.0000    783.5273     10.1471
   391.5000     74.4724      0.0000    768.1848     10.2550
   391.7500     73.7931     -2.0000    751.6155     10.3287
   392.0000     74.7976      0.0000    737.5884     10.4316
   392.2500     76.6487      0.0000    724.8795     10.6724
   392.5000     78.3843      0.0000    713.6506     11.1458
   392.7500     79.6242      0.0000    708.3946     11.8191
   393.0000     80.5491      0.0000    712.1526     12.4957
   393.2500     81.4834      0.0000    721.3444     12.9611
   393.5000     82.5957      0.0000    729.3001     13.1458
   393.7500     83.8264      0.0000    732.7436     13.1178
   394.0000     85.0653      0.0000    732.8657     12.9752
   394.2500     86.4514      0.0000    732.0334     12.7937
   394.5000     88.2889      0.0000    731.4655     12.6282
   394.7500     90.4695      0.0000    731.2755     12.5081
   395.0000     92.2086      0.0000    731.2114     12.4316
   395.2500     92.6474      0.0000    730.9823     12.3812
   395.5000     91.6338      0.0000    730.1393     12.3447
   395.7500     89.7841      0.0000    727.5180     12.3197
   396.0000     87.9494      0.0000    720.3657     12.3051
   396.2500     86.7890      0.0000    704.0502     12.2954
   396.5000     86.6617      0.0000    674.1597     12.2855
   396.7500     87.6091      0.0000    630.9954     12.2762
   397.0000     89.3153      0.0000    582.2070     12.2742
   397.2500     91.0951      0.0000    539.1415     12.2883
   397.5000     92.1288      0.0000    509.4726     12.3247
   397.7500     91.9757      0.0000    493.5433     12.3819
