~Version Information
VERS.                      2.0: CWLS Log ASCII Standard - VERSION 2.0
WRAP.                       NO: One line per depth step
~Well Information Block
STRT.FT               240.0000: 
STOP.FT               902.0000: 
STEP.FT                 0.1000: 
NULL.                -999.2500: 
COMP.          Pioneer Natural Resources: COMPANY
WELL.          Bienville 31-28: WELL
FLD.           Purgatoire River: FIELD
LOC.           1212' FNL & 2271' FEL: LOCATION
PROV.                 Colorado: PROVINCE
CNTY.               Las Animas: COUNTRY
SRVC.                Patterson: SERVICE COMPANY
DATE.          Mon Jan 16 13:39:21 2006: LOG DATE
UWI.           05 071 08666 00: UNIQUE WELL ID
~Curve Information Block
DEPT.FT            0 000 00 00: Depth
DCAL.in                       : CDL Caliper
RHOB.g/cc                     : CDL Bulk Density
RHOC.g/cc                     : CDL Density Correction
DPOR.pu                       : CDL Density Porosity
GR.GAPI                       : Gamma Ray
NPOR.pu                       : Neutron Porosity
~Parameter Information Block
~A  Depth       DCAL        RHOB        RHOC        DPOR         GR         NPOR    
# ...
   585.6000      7.8507      2.6076      0.0534      2.5710     49.9077     19.0749
   585.7000      7.8507      2.6126      0.0737      2.2637     46.0597     19.1026
   585.8000      7.8574      2.5935      0.0556      3.4260     43.2228     19.2591
   585.9000      7.8574      2.5633     -0.0155      5.2540     44.7056     19.6628
   586.0000      7.8770      2.5541     -0.0207      5.8103     47.5178     19.9324
   586.1000      7.8770      2.5758      0.0258      4.5000     47.5280     19.6182
   586.2000      7.8770      2.6064      0.0764      2.6401     44.6935     19.0826
   586.3000      7.8779      2.6186      0.1129      1.9015     43.0236     18.8006
   586.4000      7.8779      2.6054      0.0223      2.7024     46.3425     18.7093
   586.5000      7.8732      2.5844      0.0288      3.9786     53.4706     18.5760
   586.6000      7.8732      2.5738     -0.0134      4.6160     57.0564     18.4116
   586.7000      7.8732      2.5777      0.0173      4.3801     51.9353     18.4127
   586.8000      7.8830      2.5830      0.0414      4.0618     43.3846     18.4692
   586.9000      7.8830      2.5796      0.0216      4.2646     38.3935     18.2577
   587.0000      7.9008      2.5778      0.0053      4.3774     37.0133     17.8903
   587.1000      7.9008      2.5819      0.0154      4.1256     37.1967     17.6477
   587.2000      7.9008      2.5759      0.0664      4.4922     38.6407     17.6183
   587.3000      7.9102      2.5550     -0.0317      5.7582     40.6605     17.9648
   587.4000      7.9102      2.5363     -0.0295      6.8907     43.3155     18.5914
   587.5000      7.9237      2.5245      0.0058      7.6090     47.7319     19.0577
   587.6000      7.9237      2.5125     -0.0473      8.3321     52.9389     19.1845
   587.7000      7.9237      2.5013     -0.0309      9.0100     57.0956     19.1394
   587.8000      7.9125      2.5006      0.0334      9.0573     60.1765     19.3235
   587.9000      7.9125      2.5237     -0.0327      7.6550     60.7603     19.9059
   588.0000      7.9157      2.5622      0.0841      5.3234     56.8781     20.4121
   588.1000      7.9157      2.5765      0.0687      4.4569     50.1665     20.5668
   588.2000      7.9157      2.5561     -0.0214      5.6923     43.8285     20.6164
   588.3000      7.9204      2.5372      0.0097      6.8380     40.9870     20.5792
   588.4000      7.9204      2.5425      0.0517      6.5171     44.7635     20.3949
   588.5000      7.8924      2.5614      0.0273      5.3722     51.9404     20.0234
   588.6000      7.8924      2.5767      0.0687      4.4439     55.5938     19.3770
   588.7000      7.8924      2.5825      0.0387      4.0929     54.6276     18.7241
   588.8000      7.8826      2.5875     -0.0061      3.7900     49.9015     18.4309
   588.9000      7.8826      2.5950      0.0068      3.3339     44.2486     18.3739
   589.0000      7.8979      2.5920      0.0538      3.5137     41.8059     18.3763
   589.1000      7.8979      2.5773     -0.0448      4.4071     41.6845     18.4790
   589.2000      7.8979      2.5716     -0.0062      4.7534     41.4234     18.7416
   589.3000      7.8719      2.5758      0.0407      4.4967     41.0930     19.1465
   589.4000      7.8719      2.5652      0.0651      5.1394     42.4666     19.4567
   589.5000      7.8864      2.5431     -0.0162      6.4796     45.0050     19.6143
   589.6000      7.8864      2.5475     -0.0442      6.2100     46.5228     19.5930
   589.7000      7.8864      2.5816      0.0680      4.1482     48.2240     19.3912
   589.8000      7.8858      2.6044      0.0467      2.7621     51.5305     19.2388
   589.9000      7.8858      2.6007      0.0618      2.9892     54.1404     19.0887
   590.0000      7.8787      2.5850      0.0236      3.9394     54.0883     18.8471
   590.1000      7.8787      2.5639      0.0500      5.2204     53.0195     18.7099
   590.2000      7.8787      2.5351      0.0025      6.9611     51.9546     18.8275
   590.3000      7.8776      2.5090     -0.0157      8.5458     50.5134     19.1439
   590.4000      7.8776      2.4985     -0.0163      9.1822     49.3762     19.5050
   590.5000      7.8851      2.5040     -0.0244      8.8480     48.3077     19.7210
   590.6000      7.8851      2.5101      0.0444      8.4806     48.7089     19.6074
   590.7000      7.8851      2.5058     -0.0032      8.7414     52.0052     19.3070
   590.8000      7.8831      2.5013      0.0513      9.0134     55.3545     19.2530
   590.9000      7.8831      2.5101      0.0146      8.4817     55.9231     19.5012
   591.0000      7.9023      2.5316      0.0555      7.1775     54.9187     19.6179
   591.1000      7.9023      2.5484     -0.0092      6.1556     53.0508     19.3881
   591.2000      7.9023      2.5494     -0.0156      6.0952     51.2835     19.1105
   591.3000      7.9130      2.5430     -0.0293      6.4878     53.4086     19.0109
   591.4000      7.9130      2.5364      0.0093      6.8860     56.9470     19.1478
   591.5000      7.9162      2.5244      0.0349      7.6093     55.4019     19.5458
   591.6000      7.9162      2.5126     -0.0453      8.3262     50.2528     20.0175
   591.7000      7.9162      2.5226     -0.0164      7.7208     48.8524     20.2784
   591.8000      7.9022      2.5490      0.0824      6.1233     54.8328     20.3326
   591.9000      7.9022      2.5628      0.0960      5.2825     62.7605     20.6986
   592.0000      7.8876      2.5601      0.0459      5.4500     64.9242     21.4025
   592.1000      7.8876      2.5568      0.0599      5.6509     61.5303     21.7442
   592.2000      7.8876      2.5628      0.0506      5.2879     57.0470     21.5666
   592.3000      7.8888      2.5748      0.0770      4.5579     54.4373     21.0938
   592.4000      7.8888      2.5775      0.0397      4.3960     53.6655     20.5935
   592.5000      7.9098      2.5749     -0.0049      4.5496     53.1774     20.3109
   592.6000      7.9098      2.5857      0.0605      3.8960     52.8582     20.2565
   592.7000      7.9098      2.6023      0.0681      2.8900     54.6926     20.2652
   592.8000      7.9021      2.6097      0.0673      2.4403     60.8696     20.2918
   592.9000      7.9021      2.6089      0.0792      2.4932     69.0315     20.5016
   593.0000      7.8632      2.6048      0.0444      2.7412     71.7876     20.7907
   593.1000      7.8632      2.6113      0.0448      2.3432     66.0492     20.7765
   593.2000      7.8632      2.6318      0.0806      1.1040     57.7488     20.7145
   593.3000      7.8614      2.6392      0.1199      0.6525     53.4259     21.3183
   593.4000      7.8614      2.6225      0.0677      1.6694     54.4405     22.3528
   593.5000      7.8499      2.6054      0.0193      2.7021     56.3558     23.0330
   593.6000      7.8499      2.5986      0.0389      3.1153     54.1085     23.0773
   593.7000      7.8499      2.5812      0.0532      4.1716     51.6336     22.5872
   593.8000      7.8616      2.5462     -0.0399      6.2888     55.9108     21.7906
   593.9000      7.8616      2.5241     -0.0518      7.6285     63.4393     21.0113
   594.0000      7.8789      2.5338      0.0142      7.0422     65.9780     20.6609
   594.1000      7.8789      2.5596      0.0344      5.4760     62.2016     20.8588
   594.2000      7.8789      2.5855      0.0136      3.9064     56.4194     21.1461
   594.3000      7.8887      2.6022      0.0345      2.8945     51.5970     21.2055
   594.4000      7.8887      2.6006      0.0652      2.9935     48.4878     21.3108
   594.5000      7.8860      2.5895     -0.0118      3.6690     47.0930     21.5159
   594.6000      7.8860      2.5920     -0.0153      3.5163     47.8108     21.4437
   594.7000      7.8860      2.6136      0.0792      2.2085     48.9372     20.9908
   594.8000      7.9123      2.6384      0.0771      0.7040     47.8132     20.5455
   594.9000      7.9123      2.6483      0.1097      0.1025     47.5770     20.3557
   595.0000      7.8903      2.6403      0.0842      0.5849     50.9956     20.1966
   595.1000      7.8903      2.6321      0.0744      1.0827     53.5445     19.9541
