~Version Information
VERS.                      2.0: CWLS Log ASCII Standard - VERSION 2.0
WRAP.                       NO: One line per depth step
~Well Information Block
STRT.FT                 0.0000: 
STOP.FT              1906.7500: 
STEP.FT                 0.2500: 
NULL.                -999.2500: 
COMP.          Petrogulf Corporation: COMPANY
WELL.             Kraft 17-23R: WELL
FLD.           Purgatorie River: FIELD
LOC.           1509' FSL & 1673' FWL: LOCATION
STAT.                 Colorado: State
CNTY.               Las Animas: COUNTY
CTRY. USA : Country
SECT. 17 : Section
TOWN. 33S : Township
RANG. 67W : Range
SRVC.                Patterson: SERVICE COMPANY
DATE.          Fri Jan 06 08:59:54 2006: LOG DATE
API. 05-071-08560                         : UNIQUE WELL ID
~Curve Information Block
DEPT.FT            0 000 00 00: Depth
CCL.                          : Casing Collar Locator
TT3.usec                      : CBL 3' Travel Time
AMP3.mV                       : CBL 3' Amplitude
AMP3.mV                       : CBL 3' Amplitude
GR.GAPI                       : Gamma Ray
AMP3.mV                       : CBL 3' Amplitude
~Parameter Information Block
~A  Depth       CCL         TT3         AMP3        AMP3         GR        .AMP3    
# ...
   624.0000      0.0000    557.0973      5.9259      5.9259     65.5070      5.9259
   624.2500      0.0000    556.6299      6.0246      6.0246     61.5794      6.0246
   624.5000      0.0000    556.3158      6.0869      6.0869     57.9543      6.0869
   624.7500      0.0000    556.1373      6.1220      6.1220     55.1477      6.1220
   625.0000      0.0000    556.0726      6.1533      6.1533     53.1480      6.1533
   625.2500      0.0000    556.1036      6.1947      6.1947     51.8197      6.1947
   625.5000      0.0000    556.1490      6.2518      6.2518     51.1821      6.2518
   625.7500      0.0000    556.1311      6.3239      6.3239     51.3682      6.3239
   626.0000      0.0000    556.2333      6.3957      6.3957     52.3962      6.3957
   626.2500      0.0000    556.9230      6.4504      6.4504     54.0101      6.4504
   626.5000      0.0000    558.9653      6.4942      6.4942     55.6356      6.4942
   626.7500      0.0000    563.8613      6.5569      6.5569     56.4934      6.5569
   627.0000      0.0000    573.3612      6.6526      6.6526     55.8921      6.6526
   627.2500      0.0000    587.2347      6.7495      6.7495     53.4995      6.7495
   627.5000      0.0000    602.5440      6.8154      6.8154     49.4800      6.8154
   627.7500      0.0000    617.1815      6.8801      6.8801     44.6016      6.8801
   628.0000      0.0000    633.5475      6.9992      6.9992     40.1046      6.9992
   628.2500      0.0000    653.0750      7.1806      7.1806     37.1272      7.1806
   628.5000      0.0000    665.4959      7.3890      7.3890     36.1001      7.3890
   628.7500      0.0000    654.2947      7.5576      7.5576     36.6234      7.5576
   629.0000      0.0000    620.4106      7.5560      7.5560     37.8133      7.5560
   629.2500      0.0000    589.4922      7.3137      7.3137     38.8930      7.3137
   629.5000      0.0000    578.5903      7.0894      7.0894     39.7069      7.0894
   629.7500      0.0000    572.8221      7.2436      7.2436     40.7429      7.2436
   630.0000      0.0000    559.3285      7.5603      7.5603     42.5879      7.5603
   630.2500      0.0000    555.8432      7.5153      7.5153     45.3242      7.5153
   630.5000      0.0000    580.3192      7.1762      7.1762     48.3646      7.1762
   630.7500      0.0000    617.4143      6.9921      6.9921     50.9382      6.9921
   631.0000      0.0000    636.6454      7.1108      7.1108     52.9346      7.1108
   631.2500      0.0000    628.0658      7.3680      7.3680     55.1987      7.3680
   631.5000     -2.0000    606.3954      7.5374      7.5374     58.6916      7.5374
   631.7500      0.0000    583.1115      7.4790      7.4790     63.2934      7.4790
   632.0000      0.0000    551.2228      7.2543      7.2543     67.6786      7.2543
   632.2500      0.0000    508.2405      7.1658      7.1658     70.4712      7.1658
   632.5000      0.0000    469.1410      7.4526      7.4526     71.4157      7.4526
   632.7500      0.0000    444.3576      7.8369      7.8369     71.5452      7.8369
   633.0000      0.0000    426.8249      7.8889      7.8889     72.4356      7.8889
   633.2500      0.0000    407.3479      7.6910      7.6910     75.1874      7.6910
   633.5000      0.0000    388.6355      7.4992      7.4992     79.7631      7.4992
   633.7500      0.0000    376.9413      7.3038      7.3038     85.0938      7.3038
   634.0000      0.0000    371.0433      7.0301      7.0301     89.6854      7.0301
   634.2500      0.0000    364.9802      6.6902      6.6902     92.2575      6.6902
   634.5000      0.0000    355.0486      6.3330      6.3330     92.3256      6.3330
   634.7500      0.0000    343.0108      6.0244      6.0244     90.4810      6.0244
   635.0000      0.0000    333.5037      5.8209      5.8209     87.8452      5.8209
   635.2500      0.0000    328.6548      5.7292      5.7292     85.1538      5.7292
   635.5000      0.0000    327.0841      5.7033      5.7033     82.5555      5.7033
   635.7500      0.0000    326.8242      5.6512      5.6512     80.0781      5.6512
   636.0000      0.0000    327.0852      5.4818      5.4818     77.8924      5.4818
   636.2500      0.0000    328.3955      5.1888      5.1888     76.2553      5.1888
   636.5000      0.0000    332.3974      4.8378      4.8378     75.5003      4.8378
   636.7500      0.0000    340.2849      4.4797      4.4797     75.8882      4.4797
   637.0000      0.0000    350.2512      4.1513      4.1513     77.1443      4.1513
   637.2500      0.0000    358.3420      3.8986      3.8986     78.3135      3.8986
   637.5000      0.0000    362.5791      3.7364      3.7364     78.4472      3.7364
   637.7500      0.0000    364.0033      3.6457      3.6457     77.5395      3.6457
   638.0000      0.0000    364.2688      3.6087      3.6087     76.7092      3.6087
   638.2500      0.0000    364.2999      3.6309      3.6309     77.3459      3.6309
   638.5000      0.0000    364.7069      3.7174      3.7174     79.8392      3.7174
   638.7500      0.0000    366.9865      3.8174      3.8174     83.0176      3.8174
   639.0000      0.0000    375.9535      3.8637      3.8637     85.0380      3.8637
   639.2500      0.0000    400.5242      3.8614      3.8614     85.0661      3.8614
   639.5000      0.0000    443.1088      3.8917      3.8917     83.9272      3.8917
   639.7500      0.0000    482.9883      4.0485      4.0485     82.9683      4.0485
   640.0000      0.0000    488.5767      4.3789      4.3789     82.6645      4.3789
   640.2500      0.0000    456.2547      4.8667      4.8667     82.6799      4.8667
   640.5000      0.0000    414.7385      5.4520      5.4520     82.8202      5.4520
   640.7500      0.0000    390.2109      6.0249      6.0249     83.1911      6.0249
   641.0000      0.0000    391.0957      6.4526      6.4526     83.5179      6.4526
   641.2500      0.0000    419.1430      6.6839      6.6839     82.9819      6.6839
   641.5000      0.0000    467.0380      6.7860      6.7860     80.9662      6.7860
   641.7500      0.0000    504.7599      6.8363      6.8363     77.7200      6.8363
   642.0000      0.0000    499.0145      6.8252      6.8252     74.2525      6.8252
   642.2500      0.0000    454.4355      6.7451      6.7451     71.6751      6.7451
   642.5000      0.0000    407.2599      6.7028      6.7028     70.5185      6.7028
   642.7500      0.0000    380.3414      6.8101      6.8101     70.5177      6.8101
   643.0000      0.0000    369.6574      7.0380      7.0380     71.1205      7.0380
   643.2500      0.0000    363.1235      7.3144      7.3144     72.2518      7.3144
   643.5000      0.0000    353.9897      7.6636      7.6636     74.4342      7.6636
   643.7500      0.0000    342.8109      8.1185      8.1185     78.0098      8.1185
   644.0000      0.0000    333.7877      8.6213      8.6213     82.3880      8.6213
   644.2500      0.0000    329.0664      9.0916      9.0916     86.3309      9.0916
   644.5000      0.0000    327.4073      9.4825      9.4825     88.9127      9.4825
   644.7500      0.0000    326.9551      9.7726      9.7726     89.9836      9.7726
   645.0000      0.0000    326.8396      9.9884      9.9884     89.9655      9.9884
   645.2500      0.0000    326.8585     10.1935     10.1935     89.6277     10.1935
   645.5000      0.0000    326.9914     10.4247     10.4247     89.8469     10.4247
   645.7500      0.0000    327.2186     10.6754     10.6754     91.0734     10.6754
   646.0000      0.0000    327.4797     10.9363     10.9363     92.9644     10.9363
   646.2500      0.0000    327.6906     11.2015     11.2015     94.5692     11.2015
   646.5000      0.0000    327.7966     11.4086     11.4086     94.8849     11.4086
   646.7500      0.0000    327.8335     11.4669     11.4669     93.5726     11.4669
   647.0000      0.0000    327.8956     11.3771     11.3771     91.2827     11.3771
   647.2500      0.0000    328.0522     11.2372     11.2372     89.0034     11.2372
   647.5000      0.0000    328.5843     11.1231     11.1231     87.1806     11.1231
   647.7500      0.0000    330.6558     11.0207     11.0207     85.7378     11.0207
