~Version Information
VERS.                      2.0: CWLS Log ASCII Standard - VERSION 2.0
WRAP.                       NO: One line per depth step
~Well Information Block
STRT.FT               570.0000: 
STOP.FT              1958.5000: 
STEP.FT                 0.2500: 
NULL.                -999.2500: 
COMP.          Petrogulf Corporation: COMPANY
WELL.            Montoya 7-14R: WELL
FLD.           Purgatorie River: FIELD
LOC.           628' FSL & 454' FWL: LOCATION
PROV.                 Colorado: PROVINCE
CNTY.               Las Animas: COUNTRY
SRVC.                Patterson: SERVICE COMPANY
DATE.          Sat Oct 08 17:13:52 2005: LOG DATE
UWI.                          : UNIQUE WELL ID
~Curve Information Block
DEPT.FT            0 000 00 00: Depth
SP.mV                         : DIL Spontaneous Potential
RILD.Ohm-m                    : DIL Deep Resistivity
RILM.Ohm-m                    : DIL Medium Resistivity
RLL3.Ohm-m                    : DIL Shallow Resistivity
GR.GAPI                       : Gamma Ray
~Parameter Information Block
~A  Depth        SP         RILD        RILM        RLL3         GR     
# ...
  1494.0000    190.4578     23.1925     25.1639     48.3375    113.3374
  1494.2500    189.6653     23.3981     26.0328     53.0227    108.2400
  1494.5000    189.0216     23.6740     26.7173     54.0017     99.9245
  1494.7500    188.5562     24.0816     27.2048     51.6536     95.0348
  1495.0000    188.2836     24.6578     27.5343     47.1863     90.7752
  1495.2500    188.1928     25.4037     27.7807     41.8991     90.8063
  1495.5000    188.2429     26.2810     28.0292     36.8445     94.8468
  1495.7500    188.3716     27.2187     28.3538     32.8783     99.1085
  1496.0000    188.5206     28.1297     28.8023     30.6946    105.6548
  1496.2500    188.6611     28.9298     29.3900     30.5986    109.2170
  1496.5000    188.8015     29.5522     30.0978     32.2243    112.4413
  1496.7500    188.9719     29.9555     30.8736     34.6389    112.7182
  1497.0000    189.2002     30.1295     31.6390     36.9330    109.8846
  1497.2500    189.4948     30.0997     32.3017     38.7951    106.2242
  1497.5000    189.8434     29.9205     32.7742     40.4783     99.7871
  1497.7500    190.2232     29.6583     32.9935     42.1886     95.8007
  1498.0000    190.6164     29.3726     32.9353     43.5565     91.0813
  1498.2500    191.0233     29.1067     32.6167     43.7749     88.9731
  1498.5000    191.4663     28.8858     32.0869     42.2799     87.4353
  1498.7500    191.9786     28.7176     31.4118     39.3034     87.2551
  1499.0000    192.5826     28.5921     30.6585     35.7942     87.6561
  1499.2500    193.2720     28.4842     29.8855     32.8266     88.2981
  1499.5000    194.0092     28.3613     29.1382     30.9896     90.1340
  1499.7500    194.7395     28.1957     28.4494     30.1549     91.9603
  1500.0000    195.4081     27.9715     27.8417     29.7476     95.0693
  1500.2500    195.9697     27.6838     27.3305     29.2885     97.0292
  1500.5000    196.3951     27.3313     26.9247     28.7058     99.5822
  1500.7500    196.6792     26.9108     26.6247     28.1723    100.9587
  1501.0000    196.8478     26.4180     26.4182     27.8597    102.0773
  1501.2500    196.9549     25.8533     26.2754     28.0290    102.0207
  1501.5000    197.0711     25.2260     26.1460     29.1828    101.3208
  1501.7500    197.2679     24.5556     25.9630     31.7314    100.9016
  1502.0000    197.6002     23.8702     25.6558     35.3110    100.0121
  1502.2500    198.0880     23.2025     25.1699     38.5666     98.6673
  1502.5000    198.7085     22.5864     24.4881     39.8869     95.6852
  1502.7500    199.4053     22.0515     23.6397     38.5266     93.9944
  1503.0000    200.1113     21.6181     22.6925     35.0376     93.4962
  1503.2500    200.7703     21.2917     21.7311     30.6552     94.7982
  1503.5000    201.3438     21.0597     20.8339     26.4082     98.7107
  1503.7500    201.8037     20.8939     20.0585     22.8255    102.1315
  1504.0000    202.1215     20.7588     19.4370     20.2189    107.7296
  1504.2500    202.2661     20.6270     18.9793     18.9091    111.4542
  1504.5000    202.2122     20.4931     18.6808     19.0597    116.5585
  1504.7500    201.9495     20.3771     18.5300     20.3738    119.2425
  1505.0000    201.4852     20.3158     18.5163     22.0694    121.2652
  1505.2500    200.8381     20.3474     18.6359     23.2577    120.9820
  1505.5000    200.0307     20.5021     18.8951     23.4938    119.0482
  1505.7500    199.0855     20.8010     19.3095     23.1325    118.0702
  1506.0000    198.0296     21.2585     19.9012     23.2606    118.6557
  1506.2500    196.9041     21.8839     20.6933     25.2157    119.9597
  1506.5000    195.7685     22.6804     21.7039     29.8559    120.6440
  1506.7500    194.6918     23.6424     22.9411     36.8924    118.7535
  1507.0000    193.7350     24.7556     24.3997     44.7710    111.3543
  1507.2500    192.9344     25.9992     26.0609     51.4620    103.8866
  1507.5000    192.2919     27.3481     27.8955     55.7984     91.4236
  1507.7500    191.7782     28.7713     29.8685     58.3209     84.0467
  1508.0000    191.3472     30.2249     31.9422     60.8467     76.0004
  1508.2500    190.9580     31.6453     34.0733     65.0476     72.4116
  1508.5000    190.5920     32.9474     36.2025     71.0990     68.4662
  1508.7500    190.2557     34.0341     38.2402     77.3563     66.2930
  1509.0000    189.9693     34.8148     40.0565     81.3497     63.2900
  1509.2500    189.7505     35.2279     41.4871     81.5175     61.3304
  1509.5000    189.6076     35.2559     42.3602     78.4128     58.7348
  1509.7500    189.5470     34.9290     42.5422     74.3517     57.6934
  1510.0000    189.5840     34.3165     41.9844     71.7516     57.8128
  1510.2500    189.7404     33.5115     40.7484     71.5040     58.9274
  1510.5000    190.0266     32.6124     38.9949     72.4799     61.2021
  1510.7500    190.4215     31.7026     36.9422     72.2553     62.4676
  1511.0000    190.8705     30.8359     34.8132     68.5568     63.6902
  1511.2500    191.3019     30.0339     32.7937     60.7298     64.6293
  1511.5000    191.6507     29.2950     31.0128     50.3057     67.9393
  1511.7500    191.8806     28.6109     29.5417     40.0978     72.1888
  1512.0000    191.9948     27.9786     28.4048     32.4941     81.6307
  1512.2500    192.0331     27.4035     27.5934     28.3731     89.1401
  1512.5000    192.0516     26.8967     27.0785     27.2707    100.1616
  1512.7500    192.0988     26.4725     26.8205     28.1688    106.3004
  1513.0000    192.2024     26.1480     26.7762     30.0700    112.4271
  1513.2500    192.3690     25.9416     26.9052     32.1860    113.9707
  1513.5000    192.5891     25.8706     27.1747     33.9877    112.5894
  1513.7500    192.8405     25.9489     27.5636     35.2473    110.1351
  1514.0000    193.0905     26.1876     28.0646     35.9974    106.3675
  1514.2500    193.3018     26.5967     28.6852     36.3836    104.5371
  1514.5000    193.4427     27.1869     29.4449     36.5478    102.6512
  1514.7500    193.4974     27.9685     30.3711     36.6483    101.6250
  1515.0000    193.4679     28.9468     31.4939     36.9426    100.4189
  1515.2500    193.3689     30.1141     32.8410     37.7947    100.0708
  1515.5000    193.2176     31.4435     34.4323     39.5909    100.2058
  1515.7500    193.0269     32.8856     36.2763     42.6369    100.2897
  1516.0000    192.8018     34.3740     38.3668     47.0649     99.4359
  1516.2500    192.5387     35.8416     40.6804     52.7262     97.9296
  1516.5000    192.2300     37.2429     43.1751     59.0802     94.2772
  1516.7500    191.8761     38.5681     45.7891     65.2033     90.8541
  1517.0000    191.4992     39.8305     48.4410     70.0684     83.8319
  1517.2500    191.1488     41.0280     51.0293     73.0323     77.9641
  1517.5000    190.8927     42.1091     53.4321     74.2037     68.9239
  1517.7500    190.7979     42.9709     55.5031     74.3785     64.1158
  1518.0000    190.9111     43.4970     57.0709     74.5448     60.2021
  1518.2500    191.2488     43.5987     57.9465     75.2624     59.6094
  1518.5000    191.7969     43.2274     57.9479     76.3423     60.2521
  1518.7500    192.5200     42.3635     56.9446     77.0752     60.8740
  1519.0000    193.3765     41.0170     54.9099     76.8127     61.6419
  1519.2500    194.3351     39.2458     51.9534     75.3678     62.2653
  1519.5000    195.3826     37.1631     48.3103     72.8953     63.7480
  1519.7500    196.5223     34.9092     44.2865     69.4594     64.9401
  1520.0000    197.7659     32.6045     40.1842     64.7801     66.3549
  1520.2500    199.1273     30.3189     36.2425     58.4345     66.9821
  1520.5000    200.6172     28.0763     32.6095     50.3850     68.5792
  1520.7500    202.2404     25.8812     29.3473     41.4338     71.1296
  1521.0000    204.0020     23.7487     26.4542     33.1743     78.3668
  1521.2500    205.9283     21.7149     23.8932     27.2840     85.3168
  1521.5000    208.0849     19.8275     21.6164     24.5282     97.2152
  1521.7500    210.5606     18.1265     19.5822     24.1961    104.7090
