~Version Information
VERS.                      2.0: CWLS Log ASCII Standard - VERSION 2.0
WRAP.                       NO: One line per depth step
~Well Information Block
STRT.FT                -7.5000: 
STOP.FT              2228.7500: 
STEP.FT                 0.2500: 
NULL.                -999.2500: 
COMP.          Pioneer Natural Resources: COMPANY
WELL.          McDonald 33-31 R: WELL
FLD.           Purgatorie River: FIELD
LOC.           1386' FSL & 1926' FEL: LOCATION
STAT.                       CO: State
CNTY.               Las Animas: COUNTY
CTRY.                      USA: Country
SECT.                       31: Section
TOWN.                      32S: Township
RANG.                      66W: Range
SRVC.          Patterson Wireline: SERVICE COMPANY
DATE.          Wed Sep 28 13:29:18 2005: LOG DATE
API.           05 071 08533 00: API#
~Curve Information Block
DEPT.FT            0 000 00 00: Depth
CCL.                          : Casing Collar Locator
TT3.usec                      : CBL 3' Travel Time
AMP3.mV                       : CBL 3' Amplitude
GR.GAPI                       : Gamma Ray
~Parameter Information Block
~A  Depth       CCL         TT3         AMP3         GR     
# ...
  1165.0000      0.0000    510.6136      9.0395    116.0365
  1165.2500      0.0000    502.0512      8.9038    114.9859
  1165.5000      0.0000    499.9202      8.7385    116.3961
  1165.7500      0.0000    504.6259      8.5763    119.7620
  1166.0000      0.0000    514.7192      8.4416    123.0521
  1166.2500      0.0000    526.3680      8.3629    124.1318
  1166.5000      0.0000    535.2599      8.3852    122.4359
  1166.7500      0.0000    539.5507      8.5449    119.2095
  1167.0000      0.0000    539.7720      8.8184    115.9618
  1167.2500      0.0000    537.0142      9.1055    112.8971
  1167.5000      0.0000    534.1192      9.2758    108.8260
  1167.7500      0.0000    536.5223      9.2465    102.3826
  1168.0000      0.0000    546.8502      9.0279     93.5368
  1168.2500      0.0000    560.2759      8.7070     84.2781
  1168.5000      0.0000    570.7072      8.3924     77.8482
  1168.7500      0.0000    580.3586      8.1731     77.1239
  1169.0000      0.0000    597.3240      8.1124     83.0987
  1169.2500      0.0000    623.8669      8.2401     94.0528
  1169.5000      0.0000    652.5396      8.5210    105.9867
  1169.7500      0.0000    674.1698      8.8375    114.6694
  1170.0000      0.0000    685.2021      9.0356    118.2237
  1170.2500      0.0000    686.3010      9.0167    117.9814
  1170.5000      0.0000    677.1610      8.8041    116.8801
  1170.7500      0.0000    655.3405      8.5230    117.2707
  1171.0000      0.0000    620.6185      8.3056    119.9323
  1171.2500      0.0000    579.6476      8.1971    124.1363
  1171.5000      0.0000    544.6240      8.1460    128.2073
  1171.7500      0.0000    525.8412      8.0854    130.6140
  1172.0000      0.0000    524.6271      8.0211    130.9940
  1172.2500      0.0000    532.6788      8.0302    130.1761
  1172.5000      0.0000    538.2781      8.1723    129.3282
  1172.7500      0.0000    534.5355      8.4099    129.1819
  1173.0000      0.0000    522.6669      8.6289    129.7685
  1173.2500      0.0000    508.1300      8.7341    130.6094
  1173.5000      0.0000    495.4192      8.7116    131.2089
  1173.7500      0.0000    487.3455      8.6036    131.4189
  1174.0000      0.0000    487.5041      8.4399    131.2754
  1174.2500      0.0000    500.7787      8.2046    130.6751
  1174.5000      0.0000    530.0273      7.8697    129.4762
  1174.7500      0.0000    571.7369      7.4589    127.7406
  1175.0000      0.0000    615.4576      7.0726    125.6485
  1175.2500      0.0000    648.8661      6.8319    123.1342
  1175.5000      0.0000    664.7263      6.7906    119.7038
  1175.7500      0.0000    663.8958      6.9029    114.9199
  1176.0000      0.0000    652.4142      7.0737    109.3118
  1176.2500      0.0000    635.2301      7.2329    104.5586
  1176.5000      0.0000    612.0210      7.3739    102.3980
  1176.7500      0.0000    580.3527      7.5344    103.3489
  1177.0000      0.0000    543.2935      7.7387    106.5382
  1177.2500      0.0000    511.5118      7.9562    110.4309
  1177.5000      0.0000    496.6157      8.1159    113.5446
  1177.7500      0.0000    503.5345      8.1603    114.9873
  1178.0000      0.0000    528.8806      8.0800    114.8638
  1178.2500      0.0000    564.6052      7.9065    113.9688
  1178.5000      0.0000    602.7791      7.6881    112.8687
  1178.7500      0.0000    637.9149      7.4720    111.5892
  1179.0000      0.0000    666.6404      7.2934    110.2718
  1179.2500      0.0000    687.3802      7.1786    109.4567
  1179.5000      0.0000    701.1262      7.1695    109.2834
  1179.7500      0.0000    711.3732      7.3316    108.8929
  1180.0000      0.0000    721.8618      7.6956    107.2196
  1180.2500      0.0000    733.6674      8.1763    104.4205
  1180.5000      0.0000    744.5286      8.5841    102.3408
  1180.7500      0.0000    751.2479      8.7488    103.4082
  1181.0000      0.0000    752.4684      8.6400    108.7711
  1181.2500      0.0000    749.2226      8.3705    117.2409
  1181.5000      0.0000    743.4804      8.0961    125.9410
  1181.7500      0.0000    736.5322      7.9167    132.1394
  1182.0000      0.0000    727.7858      7.8633    134.8794
  1182.2500      0.0000    714.7471      7.9512    135.1340
  1182.5000      0.0000    695.3265      8.2065    134.5229
  1182.7500      0.0000    671.6007      8.6221    134.0682
  1183.0000      0.0000    651.1439      9.1079    134.1216
  1183.2500      0.0000    643.1954      9.5144    134.7772
  1183.5000      0.0000    652.3434      9.7172    135.7727
  1183.7500      0.0000    675.1852      9.6812    136.3090
  1184.0000      0.0000    702.5421      9.4597    135.5426
  1184.2500      0.0000    724.5965      9.1530    133.2004
  1184.5000      0.0000    734.6379      8.8678    129.3985
  1184.7500      0.0000    730.1216      8.6916    124.2489
  1185.0000      0.0000    712.4208      8.6690    118.4151
  1185.2500      0.0000    685.5936      8.7893    113.8727
  1185.5000      0.0000    654.3691      9.0032    112.9131
  1185.7500      0.0000    623.2097      9.2579    115.7188
  1186.0000      0.0000    596.4933      9.5157    119.5506
  1186.2500      0.0000    577.9204      9.7514    121.0756
  1186.5000      0.0000    569.5837      9.9466    119.2305
  1186.7500      0.0000    572.6299     10.0928    115.2677
  1187.0000      0.0000    587.9846     10.1967    110.5000
  1187.2500      0.0000    614.5543     10.2692    104.9916
  1187.5000      0.0000    646.5967     10.2969     98.4744
  1187.7500      0.0000    674.3604     10.2226     91.4999
  1188.0000      0.0000    688.4799      9.9684     85.1290
  1188.2500      0.0000    684.1559      9.4989     80.0502
  1188.5000      0.0000    662.5656      8.8822     76.5118
  1188.7500      0.0000    630.6307      8.2950     74.6668
  1189.0000      0.0000    600.1563      7.9381     74.4204
  1189.2500      0.0000    583.9804      7.8943     75.2117
  1189.5000      0.0000    587.5597      8.0592     76.5706
  1189.7500      0.0000    603.1038      8.2348     78.8972
  1190.0000      2.0000    615.8967      8.2861     83.3282
  1190.2500      0.0000    618.4623      8.1967     90.6957
  1190.5000      0.0000    616.4037      8.0208    100.4779
  1190.7500      0.0000    620.4841      7.8366    110.4340
  1191.0000      0.0000    636.2205      7.7314    117.5010
  1191.2500      0.0000    660.7531      7.7784    119.8384
  1191.5000      0.0000    686.3204      8.0102    118.3390
  1191.7500      0.0000    705.9698      8.4140    115.9671
  1192.0000      0.0000    717.2189      8.9298    115.6679
  1192.2500      0.0000    721.1971      9.4429    118.8844
  1192.5000      0.0000    719.8228      9.8223    125.2642
  1192.7500      0.0000    714.8826      9.9995    132.8649
  1193.0000      0.0000    708.8029      9.9971    138.8101
  1193.2500      0.0000    704.6514      9.8810    140.7900
  1193.5000      0.0000    704.6994      9.7027    138.5454
  1193.7500      0.0000    709.0648      9.4821    133.7833
  1194.0000      0.0000    715.5894      9.2306    128.6960
  1194.2500      0.0000    720.8917      8.9880    124.7358
  1194.5000      0.0000    721.4849      8.8315    122.4490
  1194.7500      0.0000    714.0815      8.8266    121.9412
  1195.0000      0.0000    695.9557      8.9639    123.3218
  1195.2500      0.0000    667.0978      9.1556    126.4573
  1195.5000      0.0000    633.8193      9.2918    130.1786
  1195.7500      0.0000    609.4556      9.2972    132.4870
  1196.0000      0.0000    607.7557      9.1605    132.3669
  1196.2500      0.0000    632.0950      8.9420    130.8262
  1196.5000      0.0000    670.9985      8.7512    129.3344
  1196.7500      0.0000    705.9187      8.6896    127.8174
  1197.0000      0.0000    724.2244      8.7957    124.9260
  1197.2500      0.0000    725.4999      9.0415    119.6515
  1197.5000      0.0000    717.6781      9.3724    111.9285
  1197.7500      0.0000    709.0917      9.7358    102.2594
  1198.0000      0.0000    703.4880     10.0706     91.6758
  1198.2500      0.0000    700.1907     10.2900     81.8307
