~Version Information
VERS.                      2.0: CWLS Log ASCII Standard - VERSION 2.0
WRAP.                       NO: One line per depth step
~Well Information Block
STRT.FT                 7.7500: 
STOP.FT              2101.0000: 
STEP.FT                 0.2500: 
NULL.                -999.2500: 
COMP.          Pioneer Natural Resources: COMPANY
WELL.          Gunslinger 13-24: WELL
FLD.           Purgatoire River: FIELD
LOC.           1968' FSL & 633' FWL: LOCATION
PROV.                 Colorado: PROVINCE
CNTY.               Las Animas: COUNTRY
SRVC.                Patterson: SERVICE COMPANY
DATE.          Mon Aug 15 11:00:02 2005: LOG DATE
UWI.           05 071 08442 00: UNIQUE WELL ID
~Curve Information Block
DEPT.FT            0 000 00 00: Depth
GR.GAPI                       : Gamma Ray
CCL.                          : Casing Collar Locator
TT3.usec                      : CBL 3' Travel Time
AMP3.mV                       : CBL 3' Amplitude
~Parameter Information Block
~A  Depth        GR         CCL         TT3         AMP3    
# ...
   945.7500    156.2821      0.0000    298.0544     24.9436
   946.0000    157.7661      0.0000    298.3866     24.8881
   946.2500    159.2710      0.0000    298.7065     24.8502
   946.5000    161.7912      0.0000    298.9559     24.8138
   946.7500    164.7289      0.0000    299.0948     24.7754
   947.0000    165.9734      0.0000    299.1071     24.7466
   947.2500    162.9699      0.0000    299.0057     24.7448
   947.5000    154.3446      0.0000    298.9104     24.7782
   947.7500    140.9881      0.0000    299.2444     24.8390
   948.0000    125.6337      0.0000    300.9996     24.9098
   948.2500    111.2540      0.0000    305.6853     24.9710
   948.5000     99.7335      0.0000    314.5152     25.0008
   948.7500     91.6683      0.0000    326.9746     24.9791
   949.0000     86.7065      0.0000    340.2737     24.9032
   949.2500     83.8823      0.0000    350.8175     24.7961
   949.5000     82.3189      0.0000    356.1907     24.6913
   949.7500     82.3677      0.0000    355.3581     24.6083
   950.0000     85.8272      0.0000    348.0139     24.5457
   950.2500     94.1767      0.0000    335.3763     24.4924
   950.5000    106.1593      0.0000    321.0426     24.4410
   950.7500    117.4377      0.0000    309.2277     24.4011
   951.0000    123.1381      0.0000    301.9654     24.4027
   951.2500    121.0257      0.0000    298.6327     24.4761
   951.5000    112.5514      0.0000    297.6565     24.6145
   951.7500    101.3745      0.0000    298.0007     24.7592
   952.0000     90.9625      0.0000    299.3463     24.8341
   952.2500     83.0108      0.0000    301.4287     24.8042
   952.5000     77.5140      0.0000    303.4479     24.6946
   952.7500     73.9714      0.0000    304.2632     24.5532
   953.0000     72.2937      0.0000    303.3415     24.4087
   953.2500     72.6194      0.0000    301.2803     24.2685
   953.5000     74.6875      0.0000    299.2106     24.1385
   953.7500     77.6666      0.0000    297.8415     24.0297
   954.0000     80.4379      0.0000    297.1908     23.9534
   954.2500     81.9658      0.0000    296.9536     23.9183
   954.5000     81.6788      0.0000    296.8696     23.9279
   954.7500     79.8530      0.0000    296.8189     23.9761
   955.0000     77.6502      0.0000    296.7713     24.0467
   955.2500     76.5814      0.0000    296.7317     24.1190
   955.5000     77.7938      0.0000    296.7233     24.1716
   955.7500     81.6600      0.0000    296.8166     24.1775
   956.0000     87.5774      0.0000    297.3074     24.0965
   956.2500     93.8703      0.0000    299.1517     23.8781
   956.5000     98.2869      0.0000    304.7928     23.4871
   956.7500     99.3359      0.0000    318.8681     22.9444
   957.0000     97.4584      0.0000    347.3018     22.3428
   957.2500     94.8454      0.0000    393.3680     21.8074
   957.5000     94.1631      0.0000    451.9889     21.4221
   957.7500     97.3278      0.0000    507.5886     21.1823
   958.0000    104.7967      0.0000    541.2612     21.0134
   958.2500    115.3209      0.0000    544.4727     20.8285
   958.5000    126.5795      0.0000    525.5406     20.5667
   958.7500    136.7242      0.0000    500.9188     20.1701
   959.0000    145.3568      0.0000    482.8950     19.5335
   959.2500    152.7471      0.0000    477.4512     18.5213
   959.5000    158.5174      0.0000    487.8154     17.1061
   959.7500    161.5762      0.0000    514.6348     15.5022
   960.0000    161.0455      0.0000    554.8035     14.0879
   960.2500    156.9880      0.0000    601.0513     13.1469
   960.5000    150.5113      0.0000    641.1876     12.7090
   960.7500    143.3084      0.0000    660.8351     12.6292
   961.0000    136.7879      0.0000    651.0019     12.7451
   961.2500    131.4479      0.0000    612.7894     12.9450
   961.5000    126.9567      0.0000    555.9997     13.1629
   961.7500    122.6395      0.0000    495.6777     13.3716
   962.0000    117.9459      0.0000    446.4875     13.5845
   962.2500    112.8259      0.0000    414.8472     13.8575
   962.5000    107.9098      0.0000    396.8905     14.2732
   962.7500    104.2103      0.0000    386.1778     14.8745
   963.0000    102.3228      0.0000    381.2598     15.5835
   963.2500    101.8549      0.0000    384.2572     16.2246
   963.5000    101.8861      0.0000    394.6589     16.6642
   963.7500    101.8567      0.0000    406.8809     16.9011
   964.0000    101.4729      0.0000    413.5707     17.0165
   964.2500     99.9775      0.0000    410.5750     17.0866
   964.5000     96.5379      0.0000    399.1863     17.1635
   964.7500     91.6149      0.0000    384.4380     17.2998
   965.0000     87.0678      0.0000    372.1154     17.5430
   965.2500     84.5201      0.0000    367.4681     17.8985
   965.5000     84.1348      0.0000    375.6986     18.3108
   965.7500     85.1393      0.0000    401.7121     18.6857
   966.0000     86.9570      0.0000    446.4656     18.9322
   966.2500     89.5125      0.0000    501.5061     18.9963
   966.5000     92.6385      0.0000    549.5869     18.8829
   966.7500     95.4936      0.0000    575.5874     18.6589
   967.0000     96.7768      0.0000    576.9972     18.4271
   967.2500     95.6863      0.0000    562.1212     18.2747
   967.5000     92.7017      0.0000    542.9824     18.2222
   967.7500     89.3608      0.0000    533.6386     18.2068
   968.0000     87.1827      0.0000    546.7092     18.1281
   968.2500     86.7812      0.0000    582.5720     17.9299
   968.5000     87.8216      0.0000    626.4573     17.6429
   968.7500     89.3948      0.0000    663.3675     17.3468
   969.0000     90.3064      0.0000    692.2817     17.0996
   969.2500     89.5037      0.0000    720.4028     16.9153
   969.5000     86.6958      0.0000    748.8347     16.7968
   969.7500     82.4868      0.0000    770.7297     16.7697
   970.0000     77.7932      0.0000    779.7993     16.8736
   970.2500     73.3685      0.0000    774.8904     17.1250
   970.5000     69.8785      0.0000    758.0675     17.4977
   970.7500     67.9626      0.0000    732.2587     17.9492
   971.0000     67.8478      0.0000    700.0793     18.4618
   971.2500     68.9286      0.0000    662.5974     19.0479
   971.5000     69.9800      0.0000    620.3823     19.7103
   971.7500     70.1344      0.0000    578.3322     20.4001
   972.0000     69.9064      0.0000    548.0452     21.0164
   972.2500     71.2602      0.0000    540.9107     21.4552
   972.5000     76.4680      0.0000    557.4664     21.6710
   972.7500     86.4899      0.0000    586.2172     21.7007
   973.0000    100.0547      0.0000    613.4691     21.6275
   973.2500    114.1501      0.0000    632.3688     21.5201
   973.5000    125.6702      0.0000    643.3433     21.4018
   973.7500    133.0838      0.0000    649.3229     21.2679
   974.0000    136.8743      0.0000    652.0278     21.1208
   974.2500    138.5766      0.0000    651.6913     20.9820
   974.5000    139.4287      0.0000    648.7169     20.8773
   974.7500    139.8140      0.0000    644.6818     20.8209
   975.0000    139.7462      0.0000    641.4240     20.8159
   975.2500    139.6559      0.0000    639.5173     20.8607
   975.5000    140.5395      0.0000    638.2955     20.9444
   975.7500    143.2045      0.0000    637.4066     21.0386
   976.0000    147.3274      0.0000    637.6450     21.1030
   976.2500    151.3703      0.0000    639.9659     21.1057
   976.5000    153.6134      0.0000    644.2836     21.0378
   976.7500    153.3049      0.0000    649.5571     20.9132
   977.0000    150.8900      0.0000    654.5585     20.7556
   977.2500    147.4114      0.0000    658.4557     20.5848
   977.5000    143.9901      0.0000    661.3008     20.4111
   977.7500    141.7346      0.0000    664.0343     20.2395
   978.0000    141.4442      0.0000    667.4609     20.0748
   978.2500    142.8530      0.0000    671.2648     19.9252
   978.5000    144.4462      0.0000    674.4250     19.8039
   978.7500    144.7319      0.0000    676.3608     19.7286
   979.0000    143.6860      0.0000    677.2902     19.7133
