~Version Information
VERS.                      2.0: CWLS Log ASCII Standard - VERSION 2.0
WRAP.                       NO: One line per depth step
~Well Information Block
STRT.FT               673.2000: 
STOP.FT              1510.5000: 
STEP.FT                 0.1000: 
NULL.                -999.2500: 
COMP.          Pioneer Natural Resources: COMPANY
WELL.          Hammerhead 24-24 Tr: WELL
FLD.           Purgatoire River: FIELD
LOC.           953' FSL & 1922' FWL: LOCATION
PROV.                 Colorado: PROVINCE
CNTY.               Las Animas: COUNTRY
SRVC.                Patterson: SERVICE COMPANY
DATE.          Mon Jan 30 07:27:57 2006: LOG DATE
UWI.           05 071 08669 00: UNIQUE WELL ID
~Curve Information Block
DEPT.FT            0 000 00 00: Depth
DCAL.in                       : CDL Caliper
RHOB.g/cc                     : CDL Bulk Density
RHOC.g/cc                     : CDL Density Correction
DPOR.pu                       : CDL Density Porosity
GR.GAPI                       : Gamma Ray
~Parameter Information Block
~A  Depth       DCAL        RHOB        RHOC        DPOR         GR     
# ...
  1233.2000      7.9498      2.5464      0.0735      6.2792    150.2800
  1233.3000      7.9496      2.5442      0.0182      6.4150    151.7276
  1233.4000      7.9496      2.5454     -0.0154      6.3384    151.0182
  1233.5000      7.9491      2.5571      0.0177      5.6298    146.9564
  1233.6000      7.9491      2.5681      0.0861      4.9606    143.8195
  1233.7000      7.9491      2.5720      0.0218      4.7288    140.6146
  1233.8000      7.9487      2.5811      0.0324      4.1731    132.5401
  1233.9000      7.9487      2.5914      0.0486      3.5502    123.3388
  1234.0000      7.9489      2.5853      0.0262      3.9183    119.7699
  1234.1000      7.9489      2.5681      0.0152      4.9660    121.1509
  1234.2000      7.9489      2.5621      0.0134      5.3246    124.3755
  1234.3000      7.9493      2.5747      0.0278      4.5621    127.9808
  1234.4000      7.9493      2.5877      0.0275      3.7788    128.0176
  1234.5000      7.9496      2.5894      0.0231      3.6744    123.5911
  1234.6000      7.9496      2.5893      0.0406      3.6800    121.0564
  1234.7000      7.9496      2.5944      0.0316      3.3710    123.7797
  1234.8000      7.9492      2.5971      0.0876      3.2058    127.7887
  1234.9000      7.9492      2.5937     -0.0075      3.4142    128.1581
  1235.0000      7.9481      2.5966      0.0149      3.2348    123.0702
  1235.1000      7.9481      2.6052      0.0427      2.7137    114.2822
  1235.2000      7.9481      2.6033      0.0081      2.8275    109.7015
  1235.3000      7.9481      2.5892      0.0169      3.6865    112.0780
  1235.4000      7.9481      2.5717      0.0381      4.7449    113.3650
  1235.5000      7.9484      2.5604      0.0337      5.4294    109.5641
  1235.6000      7.9484      2.5655      0.0293      5.1204    105.6739
  1235.7000      7.9484      2.5815      0.0262      4.1500    104.8922
  1235.8000      7.9482      2.5856      0.0457      3.9044    107.2926
  1235.9000      7.9482      2.5685      0.0307      4.9385    111.8448
  1236.0000      7.9485      2.5470      0.0185      6.2408    115.9287
  1236.1000      7.9485      2.5468     -0.0534      6.2529    119.9798
  1236.2000      7.9485      2.5764      0.0044      4.4582    124.7425
  1236.3000      7.9487      2.6099      0.0894      2.4322    127.4161
  1236.4000      7.9487      2.6169      0.0464      2.0063    124.0651
  1236.5000      7.9480      2.6005      0.0386      2.9988    115.3859
  1236.6000      7.9480      2.5831     -0.0051      4.0517    108.3708
  1236.7000      7.9480      2.5790      0.0085      4.3004    107.5680
  1236.8000      7.9469      2.5837      0.0472      4.0201    111.6466
  1236.9000      7.9469      2.5833      0.0508      4.0397    116.2621
  1237.0000      7.9474      2.5739      0.0237      4.6103    116.0671
  1237.1000      7.9474      2.5609      0.0285      5.4008    110.7831
  1237.2000      7.9474      2.5507      0.0187      6.0182    106.0489
  1237.3000      7.9481      2.5507      0.0067      6.0210    104.1162
  1237.4000      7.9481      2.5627      0.0317      5.2929    105.1642
  1237.5000      7.9477      2.5751      0.0469      4.5399    108.0284
  1237.6000      7.9477      2.5823      0.0242      4.1028    107.3030
  1237.7000      7.9477      2.5960      0.0491      3.2716    102.0841
  1237.8000      7.9465      2.6191      0.0704      1.8750     97.6845
  1237.9000      7.9465      2.6398      0.0877      0.6204     97.3669
  1238.0000      7.9470      2.6470      0.0896      0.1800     97.7591
  1238.1000      7.9470      2.6358      0.0488      0.8577     96.0977
  1238.2000      7.9470      2.6136      0.0366      2.2081     95.7902
  1238.3000      7.9489      2.5927      0.0586      3.4746     97.1762
  1238.4000      7.9489      2.5813      0.0217      4.1614     96.9921
  1238.5000      7.9485      2.5874      0.0227      3.7944     97.8064
  1238.6000      7.9485      2.6082      0.0548      2.5313    100.6508
  1238.7000      7.9485      2.6239      0.0918      1.5815    100.0261
  1238.8000      7.9474      2.6266      0.0531      1.4164     97.0527
  1238.9000      7.9474      2.6310      0.0485      1.1522     96.8115
  1239.0000      7.9473      2.6437      0.0604      0.3846     98.3991
  1239.1000      7.9473      2.6563      0.0442     -0.3801     99.1763
  1239.2000      7.9473      2.6597      0.0762     -0.5874     98.5902
  1239.3000      7.9474      2.6591      0.0140     -0.5525     97.4893
  1239.4000      7.9474      2.6714      0.0381     -1.2988     97.0140
  1239.5000      7.9470      2.6892      0.0775     -2.3779     97.3593
  1239.6000      7.9470      2.6921      0.0525     -2.5510     97.1323
  1239.7000      7.9470      2.6762      0.0457     -1.5886     95.2022
  1239.8000      7.9460      2.6486     -0.0102      0.0827     90.8536
  1239.9000      7.9460      2.6231     -0.0016      1.6313     84.8062
  1240.0000      7.9448      2.6097     -0.0282      2.4408     80.6468
  1240.1000      7.9448      2.6040      0.0118      2.7869     79.9067
  1240.2000      7.9448      2.5970      0.0004      3.2100     80.5985
  1240.3000      7.9432      2.5927      0.0106      3.4699     80.4815
  1240.4000      7.9432      2.5971      0.0034      3.2082     80.6385
  1240.5000      7.9399      2.6042      0.0510      2.7742     83.6883
  1240.6000      7.9399      2.6040      0.0862      2.7879     89.6348
  1240.7000      7.9399      2.5921      0.0941      3.5091     99.0278
  1240.8000      7.9357      2.5716      0.0557      4.7523    108.2490
  1240.9000      7.9357      2.5468      0.0661      6.2541    111.6490
  1241.0000      7.9345      2.5214      0.0409      7.7929    113.1797
  1241.1000      7.9345      2.5047      0.0034      8.8091    119.1601
  1241.2000      7.9345      2.5001      0.0293      9.0868    129.1077
  1241.3000      7.9391      2.4985     -0.0102      9.1804    138.7157
  1241.4000      7.9391      2.4920      0.0212      9.5738    145.3677
  1241.5000      7.9455      2.4808      0.0330     10.2566    147.7348
  1241.6000      7.9455      2.4772      0.0079     10.4738    145.6383
  1241.7000      7.9455      2.5002      0.0277      9.0787    141.9820
  1241.8000      7.9462      2.5485      0.0957      6.1505    141.0148
  1241.9000      7.9462      2.5958      0.1677      3.2826    142.1884
  1242.0000      7.9429      2.6267      0.1241      1.4124    140.0644
  1242.1000      7.9429      2.6530      0.1439     -0.1843    132.8223
  1242.2000      7.9429      2.6806      0.1466     -1.8546    122.9111
  1242.3000      7.9415      2.7005      0.1416     -3.0622    110.8932
  1242.4000      7.9415      2.7125      0.1200     -3.7907     97.5420
  1242.5000      7.9447      2.7160      0.1525     -4.0008     83.8658
  1242.6000      7.9447      2.7058      0.0967     -3.3808     71.8189
  1242.7000      7.9447      2.6998      0.0193     -3.0191     62.6199
  1242.8000      7.9463      2.7141      0.0548     -3.8843     56.1460
  1242.9000      7.9463      2.7329      0.0666     -5.0241     53.4223
  1243.0000      7.9444      2.7435      0.0095     -5.6662     53.9374
  1243.1000      7.9444      2.7468      0.0532     -5.8645     53.0656
  1243.2000      7.9444      2.7364      0.0252     -5.2334     49.8333
  1243.3000      7.9414      2.7200     -0.0053     -4.2441     50.8153
  1243.4000      7.9414      2.7175      0.0191     -4.0905     58.8427
  1243.5000      7.9387      2.7223      0.0345     -4.3829     67.9399
  1243.6000      7.9387      2.7137      0.0668     -3.8608     74.6626
  1243.7000      7.9387      2.6880      0.0231     -2.3052     82.7729
  1243.8000      7.9394      2.6558      0.0149     -0.3512     93.7581
  1243.9000      7.9394      2.6266      0.0216      1.4199    103.1891
  1244.0000      7.9432      2.6068     -0.0120      2.6160    108.0826
  1244.1000      7.9432      2.5959      0.0163      3.2791    114.6303
  1244.2000      7.9432      2.5906     -0.0349      3.6023    126.2850
  1244.3000      7.9459      2.5958     -0.0008      3.2826    136.3113
