~Version Information
VERS.                      2.0: CWLS Log ASCII Standard - VERSION 2.0
WRAP.                       NO: One line per depth step
~Well Information Block
STRT.FT               655.0000: 
STOP.FT              2623.7500: 
STEP.FT                 0.2500: 
NULL.                -999.2500: 
COMP.          Pioneer Natural Resources: COMPANY
WELL.             Aviator 12-4: WELL
FLD.           Purgatoire River: FIELD
LOC.           1969' FNL & 732' FWL--: LOCATION
CNTY.               Las Animas: COUNTY
SRVC.                Patterson: SERVICE COMPANY
DATE.          Sun Apr 09 14:25:03 2006: LOG DATE
UWI.           05 071 08714 00: UNIQUE WELL ID
STAT.                 Colorado: STATE
~Curve Information Block
DEPT.FT            0 000 00 00: Depth
SN.Ohm-m                      : IEL Short Normal
SP.mV                         : IEL Spontaneous Potential
DIR.Ohm-m                     : IEL Induction Resistivity
GR.GAPI                       : Gamma Ray
~Parameter Information Block
~A  Depth        SN          SP         DIR          GR     
# ...
  2464.0000     24.7510     96.1998     19.8703     56.2903
  2464.2500     22.5665     97.2008     18.6836     56.9201
  2464.5000     20.5529     98.5516     17.3647     59.9421
  2464.7500     18.8667    100.2030     16.0224     64.0463
  2465.0000     17.4332    102.0820     14.7411     73.7053
  2465.2500     16.0946    104.0996     13.5652     81.6885
  2465.5000     14.7606    106.1599     12.5065     93.4591
  2465.7500     13.4572    108.1696     11.5610     99.8339
  2466.0000     12.2580    110.0464     10.7252    106.1987
  2466.2500     11.2140    111.7257     10.0017    108.5084
  2466.5000     10.3676    113.1643      9.3976    110.1895
  2466.7500      9.7735    114.3409      8.9182    110.9090
  2467.0000      9.4740    115.2549      8.5629    112.4100
  2467.2500      9.4634    115.9224      8.3245    113.7961
  2467.5000      9.6763    116.3713      8.1907    115.5705
  2467.7500      9.9994    116.6361      8.1454    115.7091
  2468.0000     10.3071    116.7540      8.1706    113.5332
  2468.2500     10.5255    116.7612      8.2484    110.8074
  2468.5000     10.6639    116.6907      8.3635    106.1239
  2468.7500     10.7674    116.5717      8.5040    103.1172
  2469.0000     10.8670    116.4286      8.6601     98.8052
  2469.2500     10.9791    116.2811      8.8221     96.0245
  2469.5000     11.1062    116.1442      8.9798     92.6485
  2469.7500     11.2286    116.0275      9.1240     91.6185
  2470.0000     11.3224    115.9357      9.2484     92.7013
  2470.2500     11.3743    115.8691      9.3498     95.0136
  2470.5000     11.3710    115.8246      9.4267     99.6288
  2470.7500     11.3057    115.7974      9.4777    102.6005
  2471.0000     11.2016    115.7824      9.5032    105.9013
  2471.2500     11.0943    115.7756      9.5071    107.1971
  2471.5000     11.0051    115.7738      9.4976    108.2133
  2471.7500     10.9603    115.7747      9.4862    108.6714
  2472.0000     10.9821    115.7754      9.4839    109.2712
  2472.2500     11.0440    115.7710      9.4992    109.3510
  2472.5000     11.0940    115.7531      9.5382    108.4944
  2472.7500     11.1232    115.7098      9.6074    107.4340
  2473.0000     11.1713    115.6261      9.7159    106.1437
  2473.2500     11.2836    115.4849      9.8760    105.9979
  2473.5000     11.4864    115.2698     10.1011    106.4483
  2473.7500     11.7843    114.9670     10.4023    106.1345
  2474.0000     12.1631    114.5685     10.7833    102.9014
  2474.2500     12.6018    114.0730     11.2378     98.7493
  2474.5000     13.0737    113.4874     11.7497     90.8804
  2474.7500     13.5468    112.8258     12.2992     85.4462
  2475.0000     14.0241    112.1079     12.8716     77.6864
  2475.2500     14.5828    111.3567     13.4626     72.8654
  2475.5000     15.3242    110.5956     14.0770     66.6163
  2475.7500     16.2693    109.8461     14.7198     63.5880
  2476.0000     17.3131    109.1261     15.3867     61.4034
  2476.2500     18.2892    108.4495     16.0570     61.4786
  2476.5000     19.0689    107.8268     16.6923     62.8360
  2476.7500     19.5908    107.2655     17.2437     63.6496
  2477.0000     19.8461    106.7710     17.6661     63.8167
  2477.2500     19.8691    106.3459     17.9348     63.4383
  2477.5000     19.7206    105.9890     18.0566     63.1016
  2477.7500     19.4744    105.6931     18.0674     63.3681
  2478.0000     19.2055    105.4444     18.0168     64.5819
  2478.2500     18.9719    105.2226     17.9507     65.9285
  2478.5000     18.7973    105.0037     17.9008     68.7703
  2478.7500     18.6716    104.7643     17.8848     71.0326
  2479.0000     18.5694    104.4870     17.9117     73.9943
  2479.2500     18.4699    104.1637     17.9845     74.8036
  2479.5000     18.3648    103.7981     18.0978     73.1774
  2479.7500     18.2559    103.4040     18.2365     70.3917
  2480.0000     18.1588    103.0023     18.3801     65.4682
  2480.2500     18.1043    102.6175     18.5104     62.9127
  2480.5000     18.1182    102.2733     18.6151     61.1147
  2480.7500     18.1944    101.9901     18.6861     60.9654
  2481.0000     18.2982    101.7831     18.7170     61.1647
  2481.2500     18.3880    101.6610     18.7041     61.1477
  2481.5000     18.4377    101.6259     18.6496     61.0513
  2481.7500     18.4484    101.6727     18.5643     61.4120
  2482.0000     18.4283    101.7898     18.4663     63.4258
  2482.2500     18.3734    101.9599     18.3774     65.9342
  2482.5000     18.2804    102.1619     18.3159     70.9287
  2482.7500     18.1523    102.3727     18.2922     74.3961
  2483.0000     17.9859    102.5701     18.3055     78.5330
  2483.2500     17.7817    102.7351     18.3442     80.0182
  2483.5000     17.5659    102.8532     18.3894     79.9169
  2483.7500     17.3755    102.9162     18.4220     78.5401
  2484.0000     17.2289    102.9216     18.4317     75.7125
  2484.2500     17.1330    102.8720     18.4246     74.0028
  2484.5000     17.1096    102.7737     18.4247     72.0031
  2484.7500     17.1832    102.6348     18.4684     70.8653
  2485.0000     17.3440    102.4636     18.5900     69.2699
  2485.2500     17.5455    102.2678     18.8038     68.2633
  2485.5000     17.7403    102.0548     19.0913     66.5347
  2485.7500     17.9068    101.8317     19.4020     64.9707
  2486.0000     18.0459    101.6061     19.6731     62.1222
  2486.2500     18.1655    101.3871     19.8580     60.4463
  2486.5000     18.2616    101.1849     19.9434     59.4180
  2486.7500     18.3143    101.0115     19.9482     59.9758
  2487.0000     18.3080    100.8795     19.9096     62.0128
  2487.2500     18.2404    100.8013     19.8678     63.4059
  2487.5000     18.1164    100.7875     19.8522     64.4520
  2487.7500     17.9444    100.8446     19.8691     64.2333
  2488.0000     17.7392    100.9734     19.8971     62.7873
  2488.2500     17.5205    101.1670     19.8960     61.3721
  2488.5000     17.3018    101.4109     19.8271     59.1075
  2488.7500     17.0835    101.6847     19.6732     57.8051
  2489.0000     16.8670    101.9645     19.4443     56.5627
  2489.2500     16.6626    102.2274     19.1689     56.3454
  2489.5000     16.4767    102.4545     18.8791     57.0403
  2489.7500     16.3046    102.6332     18.6008     58.0909
  2490.0000     16.1408    102.7576     18.3509     59.9251
  2490.2500     15.9933    102.8273     18.1409     60.8083
  2490.5000     15.8912    102.8448     17.9780     61.0492
  2490.7500     15.8692    102.8133     17.8600     60.5138
  2491.0000     15.9344    102.7350     17.7645     59.2384
  2491.2500     16.0592    102.6096     17.6403     58.5087
  2491.5000     16.2049    102.4351     17.4145     58.0455
  2491.7500     16.3423    102.2081     17.0247     58.1062
  2492.0000     16.4582    101.9252     16.4732     58.3229
  2492.2500     16.5479    101.5840     15.8698     58.3693
  2492.5000     16.6101    101.1834     15.4298     58.3929
  2492.7500     16.6613    100.7248     15.4449     58.5716
  2493.0000     16.7323    100.2109     16.3031     59.2254
  2493.2500     16.8382     99.6450     18.6709     59.8189
  2493.5000     16.9648     99.0303     24.1657     60.6944
  2493.7500     17.0765     98.3678     38.4303     61.2045
  2494.0000     17.1380     97.6556    101.0344     61.7943
  2494.2500     17.1451     96.8873 100000.0000     61.9387
  2494.5000     17.1258     96.0523 100000.0000     61.4772
  2494.7500     17.1026     95.1353 100000.0000     60.7104
  2495.0000     17.0620     94.1172 100000.0000     59.3423
  2495.2500     16.9734     92.9752     95.7693     58.6899
  2495.5000     16.8257     91.6833     47.9758     58.6194
  2495.7500     16.6353     90.2111     52.1150     59.3169
  2496.0000     16.4321     88.5211 100000.0000     61.4519
  2496.2500     16.2473     86.5650 100000.0000     63.3581
  2496.5000     16.1018     84.2780 100000.0000     66.0522
  2496.7500     15.9901     81.5745 100000.0000     67.2155
  2497.0000     15.8797     78.3451 100000.0000     67.8242
  2497.2500     15.7423     74.4598 100000.0000     67.7567
