~Version Information
VERS.                      2.0: CWLS Log ASCII Standard - VERSION 2.0
WRAP.                       NO: One line per depth step
~Well Information Block
STRT.FT               490.0000: 
STOP.FT              2303.5000: 
STEP.FT                 0.1000: 
NULL.                -999.2500: 
COMP.          Pioneer Natural Resources: COMPANY
WELL.             Baa Baa 34-1: WELL
FLD.           Purgatoire River: FIELD
LOC.           617' FSL & 2289' FEL: LOCATION
STAT.                 Colorado: State
CNTY.               Las Animas: COUNTY
CTRY. USA : Country
SECT. 1 : Section
TOWN. 33S : Township
RANG. 67W : Range
SRVC.                Patterson: SERVICE COMPANY
DATE.          Thu Sep 08 09:44:32 2005: LOG DATE
API.           05 071 08502 00: UNIQUE WELL ID
~Curve Information Block
DEPT.FT            0 000 00 00: Depth
DCAL.in                       : CDL Caliper
RHOB.g/cc                     : CDL Bulk Density
RHOC.g/cc                     : CDL Density Correction
DPOR.pu                       : CDL Density Porosity
GR.GAPI                       : Gamma Ray
NPOR.pu                       : Neutron Porosity
~Parameter Information Block
~A  Depth       DCAL        RHOB        RHOC        DPOR         GR         NPOR    
# ...
  1930.0000      7.9258      2.5093      0.0697      8.5282    131.6273     27.1485
  1930.1000      7.9258      2.5127      0.0315      8.3184    129.8542     28.1083
  1930.2000      7.9258      2.5233      0.0253      7.6816    125.0477     30.4821
  1930.3000      7.9230      2.5375      0.0962      6.8172    122.2253     32.0041
  1930.4000      7.9230      2.5366      0.0733      6.8709    122.6701     31.6512
  1930.5000      7.8991      2.5326      0.0366      7.1160    124.7394     30.0060
  1930.6000      7.8991      2.5454      0.0772      6.3396    125.8184     27.5077
  1930.7000      7.8991      2.5591      0.0591      5.5064    123.7055     25.0638
  1930.8000      7.8842      2.5601      0.0304      5.4493    121.2771     24.1462
  1930.9000      7.8842      2.5685      0.0497      4.9409    120.7434     25.1446
  1931.0000      7.8846      2.6006      0.0830      2.9966    117.8198     26.6496
  1931.1000      7.8846      2.6330      0.1571      1.0322    110.8397     26.7168
  1931.2000      7.8846      2.6330      0.1325      1.0318    103.3586     25.7124
  1931.3000      7.8853      2.6063      0.1036      2.6482     97.1294     25.0856
  1931.4000      7.8853      2.5848      0.0527      3.9508     91.7651     25.3552
  1931.5000      7.8798      2.5824      0.0428      4.0951     88.8561     26.0549
  1931.6000      7.8798      2.5842      0.0461      3.9903     91.4841     26.4959
  1931.7000      7.8798      2.5754      0.0175      4.5190    100.6300     27.0563
  1931.8000      7.8870      2.5610      0.0267      5.3941    113.5608     28.1222
  1931.9000      7.8870      2.5515      0.0013      5.9685    126.7592     28.6009
  1932.0000      7.8998      2.5422      0.0314      6.5362    133.4207     27.9376
  1932.1000      7.8998      2.5261     -0.0039      7.5090    129.7117     27.1710
  1932.2000      7.8998      2.5244     -0.0330      7.6118    123.0038     27.0828
  1932.3000      7.9063      2.5397      0.0535      6.6855    121.8807     27.6369
  1932.4000      7.9063      2.5396      0.0408      6.6924    127.8972     28.3889
  1932.5000      7.9111      2.5202      0.0010      7.8678    136.0108     28.9832
  1932.6000      7.9111      2.5022      0.0136      8.9579    140.5625     28.9497
  1932.7000      7.9111      2.4954     -0.0212      9.3671    142.6682     27.8048
  1932.8000      7.8999      2.4969      0.0501      9.2773    143.0599     25.9714
  1932.9000      7.8999      2.4881      0.0758      9.8105    139.0317     24.9301
  1933.0000      7.9158      2.4599      0.0232     11.5217    134.4117     25.4240
  1933.1000      7.9158      2.4272     -0.0233     13.5004    132.2898     26.4465
  1933.2000      7.9158      2.3992     -0.0408     15.2021    126.0117     27.1800
  1933.3000      7.9387      2.3615      0.0237     17.4875    111.5631     23.2068
  1933.4000      7.9387      2.3084     -0.0446     20.7021     96.2688     24.4352
  1933.5000      7.9448      2.2665     -0.0451     23.2451     85.7525     24.8536
  1933.6000      7.9448      2.2517     -0.0239     24.1413     79.1572     24.5917
  1933.7000      7.9448      2.2526     -0.0065     24.0824     75.5678     24.7643
  1933.8000      7.9606      2.2642     -0.0178     23.3819     73.2958     25.3295
  1933.9000      7.9606      2.2966      0.0345     21.4175     69.8999     24.9804
  1934.0000      8.0045      2.3519      0.0657     18.0644     63.1186     23.3984
  1934.1000      8.0045      2.4165      0.1733     14.1508     55.0636     22.3048
  1934.2000      8.0045      2.4848      0.1709     10.0148     50.9394     22.9082
  1934.3000      8.0300      2.5604      0.1814      5.4327     51.7206     24.2539
  1934.4000      8.0300      2.6231      0.1812      1.6303     55.5142     24.4796
  1934.5000      7.9499      2.6440      0.1435      0.3643     58.1268     23.2564
  1934.6000      7.9499      2.6330      0.0061      1.0289     56.1838     21.6547
  1934.7000      7.9499      2.6231      0.0305      1.6324     54.6730     20.6634
  1934.8000      7.8521      2.6235      0.0368      1.6050     57.7878     20.7255
  1934.9000      7.8521      2.6215      0.0469      1.7248     59.1731     21.2015
  1935.0000      7.8460      2.6080      0.0233      2.5438     54.1569     20.6824
  1935.1000      7.8460      2.5925      0.0249      3.4861     48.8299     19.3717
  1935.2000      7.8460      2.5911      0.0153      3.5677     52.0254     18.6798
  1935.3000      7.8797      2.6011      0.0781      2.9616     64.6181     18.9454
  1935.4000      7.8797      2.6017      0.0590      2.9293     77.7975     19.6825
  1935.5000      7.8895      2.5831      0.0021      4.0561     84.8465     20.3302
  1935.6000      7.8895      2.5544      0.0295      5.7948     88.4669     20.3990
  1935.7000      7.8895      2.5305     -0.0127      7.2455     93.6978     19.9094
  1935.8000      7.8934      2.5198     -0.0339      7.8932    104.8530     19.2998
  1935.9000      7.8934      2.5141     -0.0066      8.2366    118.8000     19.1319
  1936.0000      7.9035      2.5024     -0.0055      8.9475    127.1373     19.8351
  1936.1000      7.9035      2.4870     -0.0046      9.8783    131.7953     21.2907
  1936.2000      7.9035      2.4831     -0.0439     10.1152    141.5681     22.7570
  1936.3000      7.9094      2.5027     -0.0221      8.9282    153.1358     23.5136
  1936.4000      7.9094      2.5289      0.0723      7.3396    153.6032     23.9399
  1936.5000      7.9162      2.5353      0.0498      6.9515    143.2314     24.2830
  1936.6000      7.9162      2.5328      0.0465      7.1036    135.7404     23.8415
  1936.7000      7.9162      2.5405      0.1031      6.6387    135.4238     22.8454
  1936.8000      7.9191      2.5437      0.0828      6.4450    136.5185     22.7840
  1936.9000      7.9191      2.5304      0.0414      7.2515    138.5207     24.0951
  1937.0000      7.9242      2.5141      0.0320      8.2373    141.0969     25.7917
  1937.1000      7.9242      2.4999      0.0645      9.0975    139.2824     27.1647
  1937.2000      7.9242      2.4875      0.0375      9.8455    133.4213     28.0892
  1937.3000      7.9207      2.4928     -0.0050      9.5256    129.4655     28.2312
  1937.4000      7.9207      2.5139      0.0830      8.2475    131.3716     27.6368
  1937.5000      7.9016      2.5237      0.1217      7.6574    138.4089     26.9752
  1937.6000      7.9016      2.5177      0.0582      8.0168    146.9512     26.1115
  1937.7000      7.9016      2.5134      0.0784      8.2806    153.0650     24.6593
  1937.8000      7.8892      2.5079      0.1199      8.6101    152.6076     23.6370
  1937.9000      7.8892      2.4915      0.1027      9.6041    145.5478     23.7357
  1938.0000      7.8946      2.4737      0.0660     10.6847    136.9672     24.1970
  1938.1000      7.8946      2.4604      0.0795     11.4929    131.4221     24.3552
  1938.2000      7.8946      2.4270      0.1541     13.5172    127.1824     24.3789
  1938.3000      7.9065      2.3537      0.0617     17.9592    120.6343     24.6830
  1938.4000      7.9065      2.2691     -0.0350     23.0835    115.9645     25.2364
  1938.5000      7.9262      2.2142     -0.0790     26.4135    115.4228     25.6776
  1938.6000      7.9262      2.1892      0.0122     27.9273    110.1994     26.1135
  1938.7000      7.9262      2.1698     -0.0043     29.1008    100.1308     26.4576
  1938.8000      7.9432      2.1516      0.0082     30.2085     97.2432     26.9612
  1938.9000      7.9432      2.1416      0.0403     30.8151    102.3780     28.0915
  1939.0000      7.9433      2.1417      0.0375     30.8083    110.0587     29.2653
  1939.1000      7.9433      2.1674     -0.0255     29.2459    119.7284     29.3689
  1939.2000      7.9433      2.2336      0.0975     25.2358    126.7875     28.6277
  1939.3000      7.9417      2.3119      0.1525     20.4901    127.2245     28.2485
  1939.4000      7.9417      2.3587      0.1770     17.6525    125.0499     27.8104
  1939.5000      7.9353      2.3743      0.0937     16.7065    126.3890     25.9584
