~Version Information
VERS.                      2.0: CWLS Log ASCII Standard - VERSION 2.0
WRAP.                       NO: One line per depth step
~Well Information Block
STRT.FT               460.0000: 
STOP.FT              1509.0000: 
STEP.FT                 0.2500: 
NULL.                -999.2500: 
COMP.          Pioneer Natural Resources: COMPANY
WELL.           Amore 32-09 Tr: WELL
FLD.           Purgatoire River: FIELD
LOC.           1941' FNL & 2297' FEL: LOCATION
PROV.                 Colorado: PROVINCE
CNTY.               Las Animas: COUNTRY
SRVC.                Patterson: SERVICE COMPANY
DATE.          Mon Nov 14 11:07:52 2005: LOG DATE
UWI.           05 071 08584 00: UNIQUE WELL ID
~Curve Information Block
DEPT.FT            0 000 00 00: Depth
SN.Ohm-m                      : IEL Short Normal
SP.mV                         : IEL Spontaneous Potential
DIR.Ohm-m                     : IEL Induction Resistivity
GR.GAPI                       : Gamma Ray
~Parameter Information Block
~A  Depth        SN          SP         DIR          GR     
# ...
   728.0000   2000.0000   2000.0000     39.5185    112.1653
   728.2500   2000.0000   2000.0000     37.3845    117.4091
   728.5000   2000.0000   2000.0000     35.3116    124.9315
   728.7500   2000.0000   2000.0000     33.3842    129.0704
   729.0000   2000.0000   2000.0000     31.5991    133.2576
   729.2500   2000.0000   2000.0000     29.8922    134.9535
   729.5000   2000.0000   2000.0000     28.2148    137.1739
   729.7500   2000.0000   2000.0000     26.5966    139.0959
   730.0000   2000.0000   2000.0000     25.1403    142.8702
   730.2500   2000.0000   2000.0000     23.9555    145.7581
   730.5000   2000.0000   2000.0000     23.0992    150.0379
   730.7500   2000.0000   2000.0000     22.5637    152.2821
   731.0000   2000.0000   2000.0000     22.3026    153.5278
   731.2500   2000.0000   2000.0000     22.2616    152.6285
   731.5000   2000.0000   2000.0000     22.3961    149.5143
   731.7500   2000.0000   2000.0000     22.6719    147.2191
   732.0000   2000.0000   2000.0000     23.0625    144.4253
   732.2500   2000.0000   2000.0000     23.5510    142.5938
   732.5000   2000.0000   2000.0000     24.1271    137.8021
   732.7500   2000.0000   2000.0000     24.7826    132.0215
   733.0000   2000.0000   2000.0000     25.5121    119.0007
   733.2500   2000.0000   2000.0000     26.3335    108.3728
   733.5000   2000.0000   2000.0000     27.3134     92.3251
   733.7500   2000.0000   2000.0000     28.5696     83.0621
   734.0000   2000.0000   2000.0000     30.2425     72.6934
   734.2500   2000.0000   2000.0000     32.4571     68.2053
   734.5000   2000.0000   2000.0000     35.3056     64.4014
   734.7500   2000.0000   2000.0000     38.8493     63.1077
   735.0000   2000.0000   2000.0000     43.0991     61.6523
   735.2500   2000.0000   2000.0000     47.9364     60.4199
   735.5000   2000.0000   2000.0000     52.9886     57.9950
   735.7500   2000.0000   2000.0000     57.5868     56.2621
   736.0000   2000.0000   2000.0000     60.9628     53.9397
   736.2500   2000.0000   2000.0000     62.6467     52.6205
   736.5000   2000.0000   2000.0000     62.7464     50.8625
   736.7500   2000.0000   2000.0000     61.8521     49.8991
   737.0000   2000.0000   2000.0000     60.6783     49.3158
   737.2500   2000.0000   2000.0000     59.7335     49.9379
   737.5000   2000.0000   2000.0000     59.1597     52.9122
   737.7500   2000.0000   2000.0000     58.7260     56.3171
   738.0000   2000.0000   2000.0000     57.9490     63.1073
   738.2500   2000.0000   2000.0000     56.3601     68.0996
   738.5000   2000.0000   2000.0000     53.8300     74.7753
   738.7500   2000.0000   2000.0000     50.6850     78.0950
   739.0000   2000.0000   2000.0000     47.4570     81.6286
   739.2500   2000.0000   2000.0000     44.5281     83.7362
   739.5000   2000.0000   2000.0000     41.9838     87.8345
   739.7500   2000.0000   2000.0000     39.6911     91.7856
   740.0000   2000.0000   2000.0000     37.4641    100.2379
   740.2500   2000.0000   2000.0000     35.2067    107.4940
   740.5000   2000.0000   2000.0000     32.9675    119.3079
   740.7500   2000.0000   2000.0000     30.8978    126.4668
   741.0000   2000.0000   2000.0000     29.1534    134.7412
   741.2500   2000.0000   2000.0000     27.8117    138.8420
   741.5000   2000.0000   2000.0000     26.8482    144.2448
   741.7500   2000.0000   2000.0000     26.1710    147.8524
   742.0000   2000.0000   2000.0000     25.6792    152.6770
   742.2500   2000.0000   2000.0000     25.3068    154.5352
   742.5000   2000.0000   2000.0000     25.0248    154.0450
   742.7500   2000.0000   2000.0000     24.8190    151.7039
   743.0000   2000.0000   2000.0000     24.6744    146.6687
   743.2500   2000.0000   2000.0000     24.5802    143.0396
   743.5000   2000.0000   2000.0000     24.5419    137.2680
   743.7500   2000.0000   2000.0000     24.5779    132.8942
   744.0000   2000.0000   2000.0000     24.6964    125.7429
   744.2500   2000.0000   2000.0000     24.8735    121.2836
   744.5000   2000.0000   2000.0000     25.0574    116.2155
   744.7500   2000.0000   2000.0000     25.2062    113.9640
   745.0000   2000.0000   2000.0000     25.3280    111.4317
   745.2500   2000.0000   2000.0000     25.4764    109.8703
   745.5000   2000.0000   2000.0000     25.7046    107.8003
   745.7500   2000.0000   2000.0000     26.0224    106.9685
   746.0000   2000.0000   2000.0000     26.3897    107.0043
   746.2500   2000.0000   2000.0000     26.7387    107.9105
   746.5000   2000.0000   2000.0000     26.9973    110.4033
   746.7500   2000.0000   2000.0000     27.1042    112.5916
   747.0000   2000.0000   2000.0000     27.0217    115.9656
   747.2500   2000.0000   2000.0000     26.7479    117.8834
   747.5000   2000.0000   2000.0000     26.3204    120.2278
   747.7500   2000.0000   2000.0000     25.8037    121.7473
   748.0000   2000.0000   2000.0000     25.2653    124.2480
   748.2500   2000.0000   2000.0000     24.7531    125.8438
   748.5000   2000.0000   2000.0000     24.2931    127.5089
   748.7500   2000.0000   2000.0000     23.9030    127.9738
   749.0000   2000.0000   2000.0000     23.6030    128.1440
   749.2500   2000.0000   2000.0000     23.4064    128.6452
   749.5000   2000.0000   2000.0000     23.3027    131.5372
   749.7500   2000.0000   2000.0000     23.2627    135.1978
   750.0000   2000.0000   2000.0000     23.2692    141.7112
   750.2500   2000.0000   2000.0000     23.3498    145.0060
   750.5000   2000.0000   2000.0000     23.5785    146.1057
   750.7500   2000.0000   2000.0000     24.0391    144.0863
   751.0000   2000.0000   2000.0000     24.7800    138.1385
   751.2500   2000.0000   2000.0000     25.7892    133.1467
   751.5000   2000.0000   2000.0000     27.0067    125.1828
   751.7500   2000.0000   2000.0000     28.3719    119.7521
   752.0000   2000.0000   2000.0000     29.8802    111.1579
   752.2500   2000.0000   2000.0000     31.6005    104.8568
   752.5000   2000.0000   2000.0000     33.6338     94.6324
   752.7500   2000.0000   2000.0000     36.0380     87.8976
   753.0000   2000.0000   2000.0000     38.7720     79.3248
   753.2500   2000.0000   2000.0000     41.6998     75.1168
   753.5000   2000.0000   2000.0000     44.6624     70.9304
   753.7500   2000.0000   2000.0000     47.5676     69.1377
   754.0000   2000.0000   2000.0000     50.4194     67.1750
   754.2500   2000.0000   2000.0000     53.2575     66.0090
   754.5000   2000.0000   2000.0000     56.0495     64.3013
   754.7500   2000.0000   2000.0000     58.6064     63.4387
   755.0000   2000.0000   2000.0000     60.5877     63.4095
   755.2500   2000.0000   2000.0000     61.6607     64.6796
   755.5000   2000.0000   2000.0000     61.7562     68.8416
   755.7500   2000.0000   2000.0000     61.2110     73.0468
   756.0000   2000.0000   2000.0000     60.6064     80.8410
   756.2500   2000.0000   2000.0000     60.4446     86.1806
   756.5000   2000.0000   2000.0000     60.9234     92.0943
   756.7500   2000.0000   2000.0000     61.9203     93.1709
   757.0000   2000.0000   2000.0000     63.1348     89.1865
   757.2500   2000.0000   2000.0000     64.2937     83.3825
   757.5000   2000.0000   2000.0000     65.2828     72.9067
   757.7500   2000.0000   2000.0000     66.1241     66.5877
   758.0000   2000.0000   2000.0000     66.8474     59.7079
   758.2500   2000.0000   2000.0000     67.3980     56.7505
   758.5000   2000.0000   2000.0000     67.6865     53.9087
   758.7500   2000.0000   2000.0000     67.7255     52.7776
   759.0000   2000.0000   2000.0000     67.7117     52.0970
   759.2500   2000.0000   2000.0000     67.9358     52.1742
   759.5000   2000.0000   2000.0000     68.5697     52.6504
   759.7500   2000.0000   2000.0000     69.4948     53.1683
   760.0000   2000.0000   2000.0000     70.2685     54.8725
   760.2500   2000.0000   2000.0000     70.2908     57.1770
   760.5000   2000.0000   2000.0000     69.1411     62.9660
   760.7500   2000.0000   2000.0000     66.8865     68.3303
   761.0000   2000.0000   2000.0000     64.0817     77.9044
   761.2500   2000.0000   2000.0000     61.4505     84.5729
