~Version Information
VERS.                      2.0: CWLS Log ASCII Standard - VERSION 2.0
WRAP.                       NO: One line per depth step
~Well Information Block
STRT.FT                -7.7500: 
STOP.FT              1420.5000: 
STEP.FT                 0.2500: 
NULL.                -999.2500: 
COMP.          Pioneer Natural Resources: COMPANY
WELL.          Parklane 43-34 Tr: WELL
FLD.           Purgatorie River: FIELD
LOC.           1643' FSL & 966' FEL--: LOCATION
PROV.                       CO: PROVINCE
CNTY.               Las Animas: COUNTRY
SRVC.          Patterson Wireline: SERVICE COMPANY
DATE.          Tue Aug 02 11:35:27 2005: LOG DATE
UWI.           05 071 08452 00: UNIQUE WELL ID
~Curve Information Block
DEPT.FT            0 000 00 00: Depth
CCL.                          : Casing Collar Locator
TT3.usec                      : CBL 3' Travel Time
AMP3.mV                       : CBL 3' Amplitude
GR.GAPI                       : Gamma Ray
~Parameter Information Block
~A  Depth       CCL         TT3         AMP3         GR     
# ...
   461.2500      0.0000    857.3304     13.8843     92.8867
   461.5000      0.0000    856.5041     13.9214     92.7720
   461.7500      0.0000    857.2917     13.9312     92.0289
   462.0000      0.0000    860.0712     13.9072     90.2617
   462.2500      0.0000    865.3455     13.8530     87.9643
   462.5000      0.0000    872.5277     13.7797     86.3453
   462.7500      0.0000    879.3786     13.7031     86.3317
   463.0000      0.0000    883.1655     13.6402     87.6973
   463.2500      0.0000    882.8134     13.6048     89.0905
   463.5000      0.0000    879.7455     13.6029     89.1683
   463.7500      0.0000    876.4803     13.6331     87.9813
   464.0000      0.0000    874.7457     13.6886     86.9974
   464.2500      0.0000    874.9073     13.7572     87.4921
   464.5000      0.0000    876.0354     13.8236     89.2156
   464.7500      0.0000    875.8700     13.8738     90.9041
   465.0000      0.0000    871.9849     13.9029     91.7133
   465.2500      0.0000    864.3428     13.9159     91.9342
   465.5000      0.0000    856.1373     13.9213     92.5052
   465.7500      0.0000    851.0457     13.9252     93.9671
   466.0000      0.0000    850.0430     13.9303     95.9061
   466.2500      0.0000    851.5736     13.9396     97.2840
   466.5000      0.0000    854.1437     13.9556     97.0151
   466.7500      0.0000    857.8260     13.9769     94.2772
   467.0000      0.0000    863.4267     13.9962     88.9482
   467.2500      0.0000    870.6622     14.0045     82.0324
   467.5000      0.0000    877.3256     13.9984     75.3619
   467.7500      0.0000    880.5762     13.9831     70.9038
   468.0000      0.0000    879.4861     13.9689     70.4831
   468.2500      0.0000    876.3220     13.9639     75.3764
   468.5000      0.0000    874.9218     13.9698     85.0713
   468.7500      0.0000    877.5795     13.9844     96.4310
   469.0000      0.0000    883.3646     14.0067    104.9885
   469.2500      0.0000    889.1429     14.0390    107.6517
   469.5000      0.0000    891.7404     14.0840    104.4575
   469.7500      0.0000    889.3853     14.1386     98.2333
   470.0000      0.0000    882.4885     14.1899     92.6558
   470.2500      0.0000    874.1895     14.2206     90.0354
   470.5000      0.0000    869.3297     14.2197     90.4395
   470.7500      0.0000    871.1041     14.1899     92.6548
   471.0000      0.0000    878.3908     14.1389     95.4622
   471.2500      0.0000    887.0508     14.0693     97.7484
   471.5000      0.0000    893.6044     13.9807     98.0807
   471.7500      0.0000    897.1542     13.8825     95.1477
   472.0000      0.0000    898.5601     13.7958     88.9559
   472.2500      0.0000    898.9249     13.7406     81.2625
   472.5000      0.0000    898.9191     13.7197     74.4434
   472.7500      0.0000    898.8162     13.7180     69.8995
   473.0000      0.0000    898.6724     13.7164     67.6602
   473.2500      0.0000    898.4567     13.7087     67.3173
   473.5000      0.0000    898.1258     13.7067     68.9286
   473.7500      0.0000    897.6768     13.7256     72.7326
   474.0000      0.0000    897.1575     13.7612     78.0733
   474.2500      0.0000    896.6441     13.7898     82.9540
   474.5000      0.0000    896.2070     13.7930     84.9072
   474.7500      0.0000    895.8865     13.7775     82.5010
   475.0000      0.0000    895.6948     13.7644     76.1892
   475.2500      0.0000    895.6351     13.7656     67.8628
   475.5000      0.0000    895.7075     13.7756     59.6660
   475.7500      0.0000    895.8886     13.7822     53.0179
   476.0000      0.0000    896.1104     13.7796     48.2766
   476.2500      0.0000    896.2723     13.7714     44.9766
   476.5000      0.0000    896.2943     13.7663     42.4284
   476.7500      0.0000    896.1694     13.7727     40.4110
   477.0000      0.0000    895.9296     13.7956     39.6226
   477.2500      0.0000    895.4854     13.8357     41.4161
   477.5000      0.0000    894.3974     13.8893     46.6792
   477.7500      0.0000    891.8201     13.9510     54.7534
   478.0000      0.0000    886.9258     14.0184     63.6680
   478.2500      0.0000    879.7424     14.0921     71.6073
   478.5000      0.0000    871.6102     14.1718     77.9889
   478.7500      0.0000    864.5067     14.2520     83.1368
   479.0000      0.0000    859.7451     14.3277     87.2585
   479.2500      0.0000    857.3529     14.4012     90.0107
   479.5000      0.0000    856.5436     14.4821     90.9783
   479.7500      0.0000    856.4948     14.5771     90.3925
   480.0000      0.0000    856.7145     14.6811     89.1726
   480.2500      0.0000    856.9988     14.7784     88.0779
   480.5000      0.0000    857.2927     14.8514     86.9935
   480.7500      0.0000    857.6057     14.8908     85.3562
   481.0000      0.0000    857.9901     14.8967     83.1576
   481.2500      0.0000    858.5607     14.8684     81.1588
   481.5000      0.0000    859.5722     14.7937     80.2017
   481.7500      0.0000    861.4357     14.6555     80.6033
   482.0000      0.0000    864.4611     14.4456     82.1209
   482.2500      0.0000    868.6044     14.1612     84.2756
   482.5000      0.0000    874.0143     13.7758     86.6887
   482.7500      0.0000    882.6916     13.2221     89.0085
   483.0000      0.0000    899.4332     12.4282     90.4664
   483.2500      0.0000    929.1420     11.4009     90.0340
   483.5000      0.0000    970.6601     10.2884     87.3898
   483.7500      0.0000   1013.7009      9.3363     83.3688
   484.0000      0.0000   1045.5610      8.7360     79.2188
   484.2500      0.0000   1062.5580      8.4942     75.9325
   484.5000     -2.0000   1072.4585      8.4556     74.5322
   484.7500      2.0000   1084.4341      8.4523     76.1282
   485.0000      0.0000   1099.1039      8.4449     80.9183
   485.2500      0.0000   1108.6860      8.5677     87.5270
   485.5000      0.0000   1103.2708      9.0535     93.8771
   485.7500      0.0000   1076.2606     10.0419     98.6424
   486.0000      0.0000   1028.5039     11.3908    101.8446
   486.2500      0.0000    970.8704     12.7112    104.2968
   486.5000      0.0000    921.8445     13.6575    106.4265
   486.7500      0.0000    899.7852     14.1645    107.3683
   487.0000      0.0000    914.0531     14.3854    105.3629
   487.2500      0.0000    959.8146     14.4797     99.4652
   487.5000      0.0000   1020.1464     14.5180     90.9649
   487.7500      0.0000   1075.5653     14.5193     83.0136
   488.0000      0.0000   1114.3312     14.4962     78.7305
   488.2500      0.0000   1135.5565     14.4593     79.4325
   488.5000      0.0000   1144.7506     14.4117     84.2709
   488.7500      0.0000   1147.9117     14.3536     91.0985
   489.0000      0.0000   1148.7775     14.2891     97.5752
   489.2500      0.0000   1148.9657     14.2270    101.8270
   489.5000      0.0000   1148.9973     14.1740    102.8039
   489.7500      0.0000   1149.0000     14.1296    100.7254
   490.0000      0.0000   1148.9840     14.0890     97.0304
   490.2500      0.0000   1148.8798     14.0440     93.3055
   490.5000      0.0000   1148.3500     13.9835     90.2285
   490.7500      0.0000   1146.2542     13.8973     87.7632
   491.0000      0.0000   1139.7896     13.7827     86.0851
   491.2500      0.0000   1124.2548     13.6471     85.7929
   491.5000      0.0000   1095.1168     13.5052     87.1714
   491.7500      0.0000   1052.3427     13.3737     89.6139
   492.0000      0.0000   1002.8918     13.2653     91.8149
   492.2500      0.0000    957.3296     13.1841     92.4173
   492.5000      0.0000    923.3378     13.1266     90.8133
   492.7500      0.0000    902.8583     13.0861     87.6625
   493.0000      0.0000    894.0079     13.0538     84.4401
   493.2500      0.0000    893.3856     13.0159     82.2220
   493.5000      0.0000    896.9581     12.9579     81.1562
   493.7500      0.0000    901.1028     12.8765     81.1788
   494.0000      0.0000    903.8333     12.7846     82.5439
   494.2500      0.0000    904.7922     12.7002     85.1351
   494.5000      0.0000    904.1957     12.6311     87.8393
