~Version Information
 VERS.                                  2.0 : CWLS LAS VERSION
 WRAP.                                   NO : WRAPING MODE
 SWARE .                 MController 2.5.0J : SOFTWARE VERSION
~Well Information
 WELL.                     Galloway 32-13Tr : WELL
 COMP.    Pioneer Natural Resources USA Inc : COMPANY
 FLD.                      Purgatoire River : FIELD
 LOC.                  SW/NE SEC13 32S R66W : LOCATION
 DATE.                             11/12/05 : DATE(S) LOGGED
 SRVC.       Blanco Geological Services LLC : SERVICE COMPANY
 STAT.                             Colorado : STATE
 CNTY.                           Las Animas : COUNTY
 CTRY.                                  USA : COUNTRY
 API.                       05-071-08608-00 : API NUMBER
 STRT.FT                             530.00 : START DEPTH
 STOP.FT                            1619.00 : STOP DEPTH
 STEP.FT                               1.00 : DEPTH INCREMENT
 NULL.                                -9999 : NULL VALUE
~Curve information
 DEPTH.FT                                   :
 ROP.MIN/FT                                 :
 GAS.UNITS                                  :
~ASCII Log data
# ...
       730.0         0.23         11.0 
       731.0         0.22         11.0 
       732.0         0.23         11.9 
       733.0         0.13         11.1 
       734.0         0.20         10.5 
       735.0         0.23         10.8 
       736.0         0.27         10.4 
       737.0         0.23         11.0 
       738.0         0.30         10.5 
       739.0         0.33         10.4 
       740.0         0.27         10.6 
       741.0         0.20         10.6 
       742.0         0.23         10.8 
       743.0         0.20         11.2 
       744.0         0.20         11.3 
       745.0         0.25         10.4 
       746.0         1.50         15.2 
       747.0         0.53         18.3 
       748.0         0.33         16.4 
       749.0         0.30         15.1 
       750.0         0.23         11.9 
       751.0         0.23         11.1 
       752.0         0.42         10.7 
       753.0         0.33         10.4 
       754.0         0.33          9.4 
       755.0         0.40         10.0 
       756.0         0.73         11.0 
       757.0         0.40         10.7 
       758.0         0.23         11.6 
       759.0         0.23         11.8 
       760.0         0.13         11.2 
       761.0         0.23         11.6 
       762.0         0.28         12.4 
       763.0         0.33         12.5 
       764.0         0.30         13.8 
       765.0         0.27         14.7 
       766.0         0.33         14.2 
       767.0         0.40         12.5 
       768.0         0.37         13.0 
       769.0         0.27         10.8 
       770.0         0.23         11.2 
       771.0         0.27         11.1 
       772.0         0.23         12.3 
       773.0         0.25         11.9 
       774.0         0.23         13.6 
       775.0         0.23         13.2 
       776.0         2.13         14.0 
       777.0         0.10         10.4 
       778.0         0.40         10.1 
       779.0         0.32         10.2 
       780.0         0.33         10.0 
       781.0         0.30          9.5 
       782.0         0.20          9.4 
       783.0         0.33          9.8 
       784.0         0.20         10.0 
       785.0         0.23         10.1 
       786.0         0.17         11.1 
       787.0         0.23         10.2 
       788.0         0.20         11.2 
       789.0         0.20         10.7 
       790.0         0.17         11.6 
       791.0         0.17         12.8 
       792.0         0.17         12.8 
       793.0         0.13         14.4 
       794.0         0.10         14.4 
       795.0         0.22         14.4 
       796.0         0.13         14.9 
       797.0         0.10         16.2 
       798.0         0.17         16.4 
       799.0         0.27         20.1 
       800.0         0.27         25.2 
       801.0         0.20         32.0 
       802.0         0.20         34.9 
       803.0         0.17         34.9 
       804.0         0.20         35.0 
       805.0         0.17         28.5 
       806.0         1.75         22.9 
       807.0         0.30         10.6 
       808.0         0.30         10.0 
       809.0         0.30         10.8 
       810.0         0.20         10.8 
       811.0         0.20         11.0 
       812.0         0.17         11.0 
       813.0         0.17         12.0 
       814.0         0.20         11.8 
       815.0         0.17         11.8 
       816.0         0.17         12.7 
       817.0         0.17         12.3 
       818.0         0.20         12.0 
       819.0         0.23         12.3 
       820.0         0.25         12.2 
       821.0         0.20         12.5 
       822.0         0.23         12.4 
       823.0         0.13         12.8 
       824.0         0.10         12.8 
       825.0         0.23         12.7 
       826.0         0.33         12.4 
       827.0         0.23         12.1 
       828.0         0.20         12.7 
       829.0         0.17         12.2 
       830.0         0.20         11.9 
       831.0         0.20         13.5 
       832.0         0.30         13.0 
       833.0         0.23         13.8 
       834.0         0.33         15.6 
       835.0         0.07         14.5 
       836.0         1.25         13.8 
       837.0         0.73         11.2 
       838.0         0.30         10.5 
       839.0         0.23         10.4 
       840.0         0.20         11.0 
       841.0         0.23         11.4 
       842.0         0.23         11.2 
       843.0         0.17         10.6 
       844.0         0.15         11.2 
       845.0         0.17         11.2 
       846.0         0.23         10.8 
       847.0         0.30         11.0 
       848.0         0.33         11.6 
       849.0         0.23         10.8 
       850.0         0.17         11.3 
       851.0         0.17         11.3 
       852.0         0.17         10.8 
       853.0         0.13         11.3 
       854.0         0.13         11.3 
       855.0         0.13         11.5 
       856.0         0.13         11.6 
       857.0         0.17         11.6 
       858.0         0.20         12.3 
       859.0         0.23         12.3 
       860.0         0.17         12.4 
       861.0         0.28         13.4 
       862.0         0.20         12.7 
       863.0         0.23         12.5 
       864.0         0.23         11.7 
       865.0         1.00         90.0 
       866.0         0.63        129.3 
       867.0         0.27        115.2 
       868.0         0.33         98.2 
       869.0         0.27         84.3 
       870.0         0.28         71.3 
       871.0         0.17         61.6 
       872.0         0.23         57.1 
       873.0         0.27         50.2 
       874.0         0.30         44.2 
       875.0         0.27         42.3 
       876.0         0.23         37.1 
       877.0         0.23         34.6 
       878.0         0.20         33.5 
       879.0         0.20         31.1 
       880.0         0.17         30.2 
       881.0         0.13         31.8 
       882.0         0.17         33.8 
       883.0         0.13         35.5 
       884.0         0.20         34.7 
       885.0         0.13         34.7 
       886.0         0.18         36.1 
       887.0         0.17         38.6 
       888.0         0.20         39.6 
       889.0         0.23         41.1 
       890.0         0.17         39.2 
       891.0         0.20         38.9 
       892.0         0.20         36.6 
       893.0         0.20         33.5 
       894.0         0.20         32.8 
       895.0         0.17         29.3 
       896.0         1.88        133.2 
       897.0         0.30        108.3 
       898.0         0.20        106.6 
       899.0         0.23         91.1 
       900.0         0.20         73.1 
       901.0         0.13         60.9 
       902.0         0.20         51.9 
       903.0         0.33         49.2 
       904.0         0.27         36.8 
       905.0         0.33         31.0 
       906.0         0.23         27.8 
       907.0         0.20         25.1 
       908.0         0.23         25.7 
       909.0         0.28         25.9 
       910.0         0.20         24.0 
       911.0         0.23         22.0 
       912.0         0.27         23.2 
       913.0         0.27         21.6 
       914.0         0.23         21.9 
       915.0         0.23         18.9 
       916.0         0.23         20.0 
       917.0         0.43         23.6 
       918.0         0.37         23.1 
       919.0         0.33         19.9 
       920.0         0.20         19.1 
       921.0         0.23         17.0 
       922.0         0.25         16.3 
       923.0         0.27         13.7 
       924.0         0.23         14.2 
       925.0         0.30         13.6 
       926.0         1.90        102.0 
       927.0         0.10         91.2 
       928.0         0.30         83.1 
       929.0         0.38         81.6 
