~Version Information
VERS.                      2.0: CWLS Log ASCII Standard - VERSION 2.0
WRAP.                       NO: One line per depth step
~Well Information Block
STRT.FT                -6.7500: 
STOP.FT              2034.2500: 
STEP.FT                 0.2500: 
NULL.                -999.2500: 
COMP.          Evergreen Operating Corp.: COMPANY
WELL.           Big Pine 32-15: WELL
FLD.           Purgatorie River: FIELD
LOC.           2590 FNL & 1442 FEL--: LOCATION
STAT.                       CO: State
CNTY.               Las Animas: COUNTY
CTRY. USA : Country
SECT. 15 : Section
TOWN. 33S : township
RANG. 67W : Range
SRVC.          Patterson Wireline, Inc.: SERVICE COMPANY
DATE.          Mon Mar 24 12:45:01 2003: LOG DATE
API.           05 071 07772 00: UNIQUE WELL ID
~Curve Information Block
DEPT.FT            0 000 00 00: Depth
HVOLTA.V                      : Head Voltage Apparent
CCL.                          : Casing Collar Locator
TT3.usec                      : CBL 3' Travel Time
AMP3.mV                       : CBL 3' Amplitude
GR.GAPI                       : Gamma Ray
~Parameter Information Block
~A  Depth      HVOLTA       CCL         TT3         AMP3         GR     
# ...
   805.2500    121.2774      0.0000    737.5754      5.3112    127.8398
   805.5000    121.2561      0.0000    726.5983      5.6111    124.3924
   805.7500    121.3406      0.0000    715.6140      5.5687    123.3656
   806.0000    121.3934      0.0000    704.0541      5.0628    124.7978
   806.2500    121.2286      0.0000    692.9766      4.3397    127.2693
   806.5000    121.3179      0.0000    682.6431      3.7596    128.8102
   806.7500    121.3680      0.0000    669.3290      3.4684    128.3877
   807.0000    121.3014      0.0000    653.3456      3.3602    126.5584
   807.2500    121.3996      0.0000    645.6840      3.2905    124.7741
   807.5000    121.3138      0.0000    655.0501      3.2412    124.1186
   807.7500    121.5047      0.0000    675.2598      3.2773    124.5034
   808.0000    121.2836      0.0000    696.4059      3.4331    124.9111
   808.2500    121.2554      0.0000    716.6632      3.6831    124.5604
   808.5000    121.3921      0.0000    739.9156      4.0059    123.9076
   808.7500    121.3282      0.0000    769.1584      4.4505    124.3997
   809.0000    121.3646      0.0000    798.9821      5.0822    127.1707
   809.2500    121.3673      0.0000    818.4291      5.8165    131.8499
   809.5000    121.2527      0.0000    823.8394      6.3856    136.5437
   809.7500    121.3982      0.0000    819.0925      6.5972    139.2644
   810.0000    121.3701      0.0000    807.3624      6.5714    139.5217
   810.2500    121.2822      0.0000    791.9750      6.6278    138.3799
   810.5000    121.2039      0.0000    779.0730      6.9819    137.2542
   810.7500    121.4504      0.0000    772.6318      7.6384    136.9691
   811.0000    121.3646      0.0000    768.9525      8.5552    137.4225
   811.2500    121.2245      0.0000    760.2856      9.7264    137.5597
   811.5000    121.3358      0.0000    739.0060     11.0765    136.1325
   811.7500    121.3653      0.0000    693.1354     12.4197    133.1430
   812.0000    121.2293      0.0000    613.0040     13.4764    130.3480
   812.2500    121.3165      0.0000    513.9723     14.0448    129.7851
   812.5000    121.3406      0.0000    430.6545     14.3812    131.7592
   812.7500    121.3358      0.0000    379.4062     15.0788    134.6985
   813.0000    121.3962      0.0000    350.2917     16.4139    137.1077
   813.2500    121.2025      0.0000    330.6615     18.1869    139.1973
   813.5000    121.2252      0.0000    316.4297     20.1306    142.1235
   813.7500    121.3564      0.0000    307.6080     22.1258    145.9843
   814.0000    121.2870      0.0000    303.4601     24.0562    149.3508
   814.2500    121.4738      0.0000    301.9528     25.6615    150.7970
   814.5000    121.1462      0.0000    301.3969     26.7777    150.0282
   814.7500    121.2767      0.0000    301.1124     27.5625    147.4073
   815.0000    121.3653      0.0000    301.0678     28.0279    143.5111
   815.2500    121.4195      0.0000    301.8952     27.6416    139.5797
   815.5000    121.2815      0.0000    304.9891     26.0048    137.3340
   815.7500    121.4278      0.0000    311.0424     23.8180    137.3934
   816.0000    121.3076      0.0000    318.5518     22.2653    138.3534
   816.2500    121.3117      0.0000    325.7621     21.4148    138.0556
   816.5000    121.4491      0.0000    332.3026     20.4620    135.3371
   816.7500    121.4779      0.0000    337.4890     19.1382    130.3628
   817.0000    121.2561      0.0000    340.4356     17.7890    124.2178
   817.2500    121.3131      0.0000    341.5485     16.7485    118.6869
   817.5000    121.2609      5.0000    342.1488     16.0723    115.4238
   817.7500    121.3364      4.5804    344.9510     15.5899    114.4269
   818.0000    120.9911      0.0000    357.2523     15.2117    113.9092
   818.2500    121.1318      0.0000    390.4963     15.1890    112.4796
   818.5000    121.3454      0.0000    446.1074     15.8994    110.9501
   818.7500    121.3440      0.0000    508.0219     16.9560    111.2937
   819.0000    121.9029      0.0000    568.5536     16.9612    114.2947
   819.2500    121.1723      0.0000    635.5543     15.2151    118.8803
   819.5000    121.4168      0.0000    700.6923     12.7085    123.4786
   819.7500    121.3090      0.0000    744.6190     10.5593    127.6814
   820.0000    121.3378      0.0000    765.3705      8.9643    132.7752
   820.2500    121.3152      0.0000    771.5625      7.7713    140.4070
   820.5000    121.2616      0.0000    766.3284      6.8947    150.2004
   820.7500    121.2424      0.0000    752.7534      6.2260    158.8182
   821.0000    121.2623      0.0000    739.2476      5.5379    161.8191
   821.2500    121.3385      0.0000    731.5132      4.6515    156.5360
   821.5000    121.3660      0.0000    728.6149      3.7075    143.5719
   821.7500    121.4223      0.0000    727.8497      3.0413    126.1061
   822.0000    121.2815      0.0000    728.2079      2.8359    107.6998
   822.2500    121.4429      0.0000    730.7787      3.0244     90.4254
   822.5000    121.2705      0.0000    738.5923      3.3446     74.9300
   822.7500    121.2870      0.0000    753.7133      3.4391     61.7661
   823.0000    121.2815      0.0000    772.1291      3.1225     51.9606
   823.2500    121.4717      0.0000    785.0107      2.6185     46.1707
   823.5000    121.3646      0.0000    786.7178      2.3730     43.8193
   823.7500    121.3962      0.0000    778.8644      2.5912     43.5346
   824.0000    121.1208      0.0000    766.9635      3.0485     44.3016
   824.2500    121.3364      0.0000    754.1829      3.3064     45.9097
   824.5000    121.2877      0.0000    741.3763      3.1111     48.4569
   824.7500    121.3145      0.0000    732.7399      2.6521     51.9216
   825.0000    121.2547      0.0000    733.5811      2.3801     56.3026
   825.2500    121.4504      0.0000    744.1124      2.5772     61.6576
   825.5000    121.2877      0.0000    759.8959      3.1327     67.6702
   825.7500    121.4484      0.0000    774.9854      3.6461     73.4981
   826.0000    121.4710      0.0000    785.2497      3.7299     78.4274
   826.2500    121.3364      0.0000    792.8096      3.3255     82.5247
   826.5000    121.2589      0.0000    802.4856      2.7753     86.4114
   826.7500    121.3371      0.0000    808.9102      2.5285     90.6669
   827.0000    121.3399      0.0000    799.0209      2.7513     95.7326
   827.2500    121.3392      0.0000    774.5696      3.2065    102.0391
   827.5000    121.2012      0.0000    754.1770      3.4682    109.5957
   827.7500    121.2561      0.0000    747.9748      3.3307    117.4139
   828.0000    121.2080      0.0000    747.7732      3.0045    123.9852
   828.2500    121.3399      0.0000    744.0745      2.8483    128.6534
   828.5000    121.1469      0.0000    739.2566      3.0368    132.0116
   828.7500    121.4168      0.0000    741.2021      3.4845    134.7096
   829.0000    121.2794      0.0000    752.1488      3.8953    136.5507
   829.2500    121.3364      0.0000    765.4798      3.9857    137.2385
   829.5000    121.4937      0.0000    773.4511      3.8390    137.6026
   829.7500    121.3948      0.0000    777.2809      3.8508    139.4042
   830.0000    121.2863      0.0000    781.3575      4.2715    143.7172
   830.2500    121.3927      0.0000    781.7002      5.0093    149.7725
   830.5000    121.3680      0.0000    771.9303      5.7603    155.6381
   830.7500    121.4264      0.0000    755.2058      6.2596    159.8135
   831.0000    121.2870      0.0000    741.4027      6.5932    161.9947
   831.2500    121.1991      0.0000    736.1468      7.1334    162.8126
   831.5000    121.1710      0.0000    737.7880      8.0760    163.2484
   831.7500    121.2856      0.0000    742.0952      9.2776    164.0651
   832.0000    121.2822      0.0000    746.5894     10.4510    165.5491
   832.2500    121.3618      0.0000    750.8231     11.3830    167.6637
   832.5000    121.3426      0.0000    754.2706     12.0970    170.1035
   832.7500    121.5308      0.0000    756.3089     12.7488    172.2538
   833.0000    121.2286      0.0000    757.2195     13.3077    173.7023
