~Version Information
VERS.                      2.0: CWLS Log ASCII Standard - VERSION 2.0
WRAP.                       NO: One line per depth step
~Well Information Block
STRT.FT                -8.7500: 
STOP.FT              1860.5000: 
STEP.FT                 0.2500: 
NULL.                -999.2500: 
COMP.          Pioneer Natural Resources: COMPANY
WELL.          Cortina 23-25 Tr: WELL
FLD.           Purgatorie River: FIELD
LOC.           --2521' FSL & 2345' FWL------: LOCATION
STAT.                       CO: PROVINCE
CNTY.               Las Animas: COUNTY
CTRY. USA : country
SECT. 25 : Section
TOWN. 32S : Township
RANG. 67W : Range
SRVC.          Patterson Wireline: SERVICE COMPANY
DATE.          Thu Sep 29 11:30:45 2005: LOG DATE
API.           05 071 08534 00: UNIQUE WELL ID
~Curve Information Block
DEPT.FT            0 000 00 00: Depth
CCL.                          : Casing Collar Locator
TT3.usec                      : CBL 3' Travel Time
AMP3.mV                       : CBL 3' Amplitude
GR.GAPI                       : Gamma Ray
~Parameter Information Block
~A  Depth       CCL         TT3         AMP3         GR     
# ...
  1599.2500      0.0000    687.7025     17.5109    110.4849
  1599.5000      0.0000    672.9789     17.8922    104.0581
  1599.7500      0.0000    654.1395     18.0617     98.4291
  1600.0000      0.0000    647.1173     17.8815     94.4751
  1600.2500      0.0000    651.1119     17.3646     92.2937
  1600.5000      0.0000    653.1345     16.6570     91.0846
  1600.7500      0.0000    643.0988     15.9379     90.0868
  1601.0000      0.0000    623.6841     15.3204     89.4528
  1601.2500      0.0000    607.3541     14.8223     89.8498
  1601.5000      0.0000    603.1791     14.4179     91.3881
  1601.7500      0.0000    605.3887     14.1045     93.4710
  1602.0000      0.0000    596.6281     13.9060     95.6434
  1602.2500      0.0000    564.0730     13.8264     97.9739
  1602.5000      0.0000    511.4536     13.8306    100.4455
  1602.7500      0.0000    455.1215     13.8718    102.4504
  1603.0000      0.0000    410.5623     13.9186    103.2180
  1603.2500      0.0000    383.3661     13.9511    102.5294
  1603.5000      0.0000    370.3228     13.9447    100.8135
  1603.7500      0.0000    365.4421     13.8673     98.7400
  1604.0000      0.0000    364.2384     13.6922     96.8854
  1604.2500      0.0000    364.6075     13.4144     95.6309
  1604.5000      0.0000    366.2889     13.0610     95.1480
  1604.7500      0.0000    370.7874     12.6879     95.3378
  1605.0000      0.0000    381.9566     12.3589     95.8869
  1605.2500      0.0000    405.5340     12.1135     96.6913
  1605.5000      0.0000    445.1499     11.9540     98.1806
  1605.7500      0.0000    495.7436     11.8688    100.9738
  1606.0000      0.0000    541.5995     11.8684    105.3163
  1606.2500      0.0000    566.0090     11.9818    110.9327
  1606.5000      0.0000    566.8729     12.2101    117.0990
  1606.7500      0.0000    561.0735     12.4917    122.7133
  1607.0000      0.0000    569.6061     12.7206    126.6317
  1607.2500      0.0000    598.5404     12.7998    128.2143
  1607.5000      0.0000    636.7203     12.6888    127.6439
  1607.7500      0.0000    669.9071     12.4262    125.8974
  1608.0000      0.0000    692.7400     12.1134    124.3811
  1608.2500      0.0000    707.6330     11.8614    124.2321
  1608.5000      0.0000    716.9048     11.7385    125.5984
  1608.7500      0.0000    719.2674     11.7588    127.3518
  1609.0000      0.0000    714.2135     11.9013    127.7149
  1609.2500      0.0000    707.6002     12.1256    125.5733
  1609.5000      0.0000    709.2769     12.3807    120.9580
  1609.7500      0.0000    723.6455     12.6240    114.1186
  1610.0000      0.0000    744.5249     12.8377    105.0874
  1610.2500      0.0000    759.6268     13.0249     94.7445
  1610.5000      0.0000    757.4255     13.1915     85.3497
  1610.7500      0.0000    730.8043     13.3398     79.0730
  1611.0000      0.0000    680.2200     13.4752     76.3167
  1611.2500      0.0000    616.5947     13.6093     75.8901
  1611.5000      0.0000    558.3350     13.7493     76.3810
  1611.7500      0.0000    522.8600     13.8840     76.9906
  1612.0000      0.0000    520.1520     13.9876     77.5662
  1612.2500      0.0000    550.9835     14.0412     78.5704
  1612.5000      0.0000    606.4045     14.0527     81.1779
  1612.7500      0.0000    669.1497     14.0571     86.8147
  1613.0000      0.0000    720.4720     14.0968     95.8624
  1613.2500      0.0000    748.6848     14.1977    106.8336
  1613.5000      0.0000    751.6205     14.3667    117.3129
  1613.7500      0.0000    733.0623     14.6149    125.6395
  1614.0000      0.0000    698.7528     14.9774    131.3101
  1614.2500      0.0000    653.2703     15.4987    134.2062
  1614.5000      0.0000    597.7770     16.1902    134.3226
  1614.7500      0.0000    532.5793     16.9956    132.3683
  1615.0000      0.0000    463.5752     17.8040    130.0862
  1615.2500      0.0000    402.8426     18.5101    129.4558
  1615.5000      0.0000    360.3445     19.0732    131.3685
  1615.7500      0.0000    337.1055     19.5205    135.1782
  1616.0000      0.0000    327.2062     19.8966    139.5297
  1616.2500      0.0000    323.9042     20.2117    143.3863
  1616.5000      0.0000    323.0320     20.4362    146.3154
  1616.7500      0.0000    322.8383     20.5437    148.2030
  1617.0000      0.0000    322.7806     20.5515    148.9642
  1617.2500      0.0000    322.7115     20.5110    148.3365
  1617.5000      0.0000    322.5947     20.4525    145.7403
  1617.7500      0.0000    322.4698     20.3506    140.6777
  1618.0000      0.0000    322.4439     20.1492    133.6792
  1618.2500      0.0000    322.8404     19.8043    126.7406
  1618.5000      0.0000    324.6383     19.2921    122.2481
  1618.7500      0.0000    330.3496     18.5889    121.0496
  1619.0000      0.0000    344.8050     17.6597    121.8130
  1619.2500      0.0000    374.5325     16.4695    122.8613
  1619.5000      0.0000    424.6562     15.0154    124.3574
  1619.7500      0.0000    494.3718     13.3839    127.7763
  1620.0000      0.0000    574.3265     11.7892    133.2860
  1620.2500      0.0000    649.0378     10.4943    138.8437
  1620.5000      0.0000    704.3703      9.6255    142.1874
  1620.7500      0.0000    735.3068      9.0934    142.7922
  1621.0000      0.0000    747.5342      8.7515    141.5486
  1621.2500      0.0000    751.5900      8.5701    139.3598
  1621.5000      0.0000    755.3981      8.5876    136.5555
  1621.7500      0.0000    761.1475      8.7693    133.2762
  1622.0000     -2.0000    766.5405      8.9995    129.9209
  1622.2500      0.0000    767.0256      9.1738    127.0962
  1622.5000      0.0000    758.2918      9.2688    125.2454
  1622.7500      0.0000    740.0581      9.3616    124.4851
  1623.0000      0.0000    717.9957      9.5805    124.7868
  1623.2500      0.0000    698.3138      9.9874    126.2411
  1623.5000      0.0000    678.3256     10.5371    129.1200
  1623.7500      0.0000    645.9448     11.1974    133.6996
  1624.0000      0.0000    592.3487     12.0248    139.8615
  1624.2500      0.0000    523.7827     13.0340    146.6539
  1624.5000      0.0000    458.5227     14.0636    152.2895
  1624.7500      0.0000    412.9725     14.8648    155.0239
  1625.0000      0.0000    391.4023     15.2956    154.3532
  1625.2500      0.0000    386.7856     15.3900    151.3715
  1625.5000      0.0000    389.0156     15.2791    147.9841
  1625.7500      0.0000    392.4874     15.0834    145.7841
  1626.0000      0.0000    397.4748     14.8613    145.2524
  1626.2500      0.0000    405.7299     14.6247    145.5209
  1626.5000      0.0000    415.9885     14.3924    145.0333
  1626.7500      0.0000    423.9165     14.2228    142.9034
  1627.0000      0.0000    425.6829     14.1892    139.5524
  1627.2500      0.0000    421.5854     14.3225    135.7771
  1627.5000      0.0000    417.0454     14.5770    131.7141
  1627.7500      0.0000    419.9085     14.8493    127.3404
  1628.0000      0.0000    435.1112     15.0321    123.3656
  1628.2500      0.0000    460.1769     15.0653    120.7913
  1628.5000      0.0000    485.7227     14.9528    119.8761
  1628.7500      0.0000    502.8808     14.7387    119.7365
  1629.0000      0.0000    512.2916     14.4602    118.4790
  1629.2500      0.0000    524.0721     14.1161    114.0202
  1629.5000      0.0000    547.3002     13.6816    105.7297
  1629.7500      0.0000    581.8478     13.1554     95.4153
  1630.0000      0.0000    621.1105     12.5924     86.2382
  1630.2500      0.0000    658.2255     12.0887     80.7451
  1630.5000      0.0000    687.9789     11.7352     80.0567
  1630.7500      0.0000    707.2993     11.5766     84.1577
  1631.0000      0.0000    717.0451     11.5991     91.9730
  1631.2500      0.0000    721.5397     11.7496    101.3054
  1631.5000      0.0000    724.7460     11.9658    109.4868
  1631.7500      0.0000    727.3497     12.1942    114.4110
  1632.0000      0.0000    727.1574     12.3940    115.2110
  1632.2500      0.0000    721.0126     12.5439    112.6935
  1632.5000      0.0000    706.9764     12.6467    109.4023
