~Version Information
VERS.                      2.0: CWLS Log ASCII Standard - VERSION 2.0
WRAP.                       NO: One line per depth step
~Well Information Block
STRT.FT                 0.0000: 
STOP.FT              1528.0000: 
STEP.FT                 0.1000: 
NULL.                -999.2500: 
COMP.          Pioneer Natural Resources: COMPANY
WELL.             Andrew 23-15: WELL
FLD.           Purgatorie River: FIELD
LOC.           2137' FSL & 2292' FWL: LOCATION
PROV.                 Colorado: PROVINCE
CNTY.               Las Animas: COUNTRY
SRVC.                Patterson: SERVICE COMPANY
DATE.          Sat Aug 13 12:06:57 2005: LOG DATE
UWI.                          : UNIQUE WELL ID
~Curve Information Block
DEPT.FT            0 000 00 00: Depth
DCAL.in                       : CDL Caliper
RHOB.g/cc                     : CDL Bulk Density
RHOC.g/cc                     : CDL Density Correction
DPOR.pu                       : CDL Density Porosity
GR.GAPI                       : Gamma Ray
NPOR.pu                       : Neutron Porosity
~Parameter Information Block
~A  Depth       DCAL        RHOB        RHOC        DPOR         GR         NPOR    
# ...
   105.6000     16.6345      1.9898      1.8263     -0.0132    168.3636     25.5088
   105.7000     16.6345      2.0568      1.8349     -0.0119    162.4402     25.2573
   105.8000     16.6318      2.1017      1.8980     -0.0110    163.8520     25.2245
   105.9000     16.6318      2.1051      1.8813     -0.0109    169.1144     25.3002
   106.0000     16.6335      2.0748      1.9138     -0.0115    170.8064     25.2060
   106.1000     16.6335      2.0610      1.8202     -0.0118    169.2218     24.8467
   106.2000     16.6335      2.1001      1.8879     -0.0110    168.7281     24.1276
   106.3000     16.6315      2.1508      1.9021     -0.0100    168.8358     23.2115
   106.4000     16.6315      2.1590      1.8661     -0.0098    166.2353     22.7183
   106.5000     16.6326      2.1497      1.8101     -0.0100    161.2724     22.9207
   106.6000     16.6326      2.1760      1.8285     -0.0095    156.9750     23.7571
   106.7000     16.6326      2.2277      1.9047     -0.0085    157.1945     24.9169
   106.8000     16.6344      2.2602      1.8911     -0.0078    166.0488     25.8442
   106.9000     16.6344      2.2757      1.8522     -0.0075    179.5485     26.0036
   107.0000     16.6365      2.3155      1.8965     -0.0067    185.2283     25.2574
   107.1000     16.6365      2.3700      1.8916     -0.0056    180.0435     24.2909
   107.2000     16.6365      2.3665      2.0040     -0.0057    174.4938     23.8746
   107.3000     16.6322      2.2983      1.7700     -0.0070    175.5155     23.9767
   107.4000     16.6322      2.2518      1.8475     -0.0080    179.3138     24.2288
   107.5000     16.6349      2.2763      1.8702     -0.0075    178.4004     24.6362
   107.6000     16.6349      2.4071      1.8206     -0.0049    171.7760     24.9599
   107.7000     16.6349      2.6416      1.9187     -0.0002    167.6128     24.8763
   107.8000     16.6322      2.7826      2.3585      0.0027    172.2791     24.7757
   107.9000     16.6322      2.6583      1.9249      0.0002    178.6519     25.0241
   108.0000     16.6365      2.4416      1.7889     -0.0042    175.8964     25.0426
   108.1000     16.6365      2.3630      1.8648     -0.0057    166.7905     24.3877
   108.2000     16.6365      2.4394      1.9495     -0.0042    163.0810     23.8965
   108.3000     16.6346      2.5888      1.9759     -0.0012    168.4782     24.3525
   108.4000     16.6346      2.6862      2.3306      0.0007    175.4445     25.3115
   108.5000     16.6337      2.6239      2.0123     -0.0005    176.3936     25.9910
   108.6000     16.6337      2.4680      1.8778     -0.0036    173.7057     25.9988
   108.7000     16.6337      2.3649      1.8749     -0.0057    171.7897     25.5138
   108.8000     16.6301      2.3481      1.8398     -0.0060    167.5367     24.8711
   108.9000     16.6301      2.3699      1.9052     -0.0056    161.6340     24.5021
   109.0000     16.6326      2.4170      1.8896     -0.0047    162.1911     25.1312
   109.1000     16.6326      2.4891      2.2782     -0.0032    168.4522     26.4653
   109.2000     16.6326      2.5625      1.9327     -0.0018    169.1331     27.3023
   109.3000     16.6352      2.6285      1.9886     -0.0004    165.7506     27.1901
   109.4000     16.6352      2.6689      2.1562      0.0004    167.7738     26.6313
   109.5000     16.6322      2.6503      1.9945      0.0000    172.2358     26.1135
   109.6000     16.6322      2.5709      1.9175     -0.0016    173.8207     25.5464
   109.7000     16.6322      2.4641      1.8713     -0.0037    173.3198     24.8734
   109.8000     16.6280      2.3794      1.7620     -0.0054    172.5096     24.3700
   109.9000     16.6280      2.3335      1.9013     -0.0063    173.0925     24.3085
   110.0000     16.6369      2.3040      1.8375     -0.0069    175.2222     24.3758
   110.1000     16.6369      2.2993      1.8567     -0.0070    177.8758     24.2669
   110.2000     16.6369      2.3299      1.9487     -0.0064    179.5084     24.3952
   110.3000     16.6323      2.3656      1.9011     -0.0057    179.4166     24.6828
   110.4000     16.6323      2.3911      1.8887     -0.0052    175.8694     24.4944
   110.5000     16.6361      2.4367      1.9226     -0.0043    167.9464     24.1617
   110.6000     16.6361      2.5399      1.8710     -0.0022    162.6681     24.0865
   110.7000     16.6361      2.6490      2.0226     -0.0000    162.9873     23.7379
   110.8000     16.6419      2.6804      1.8857      0.0006    162.2250     22.9400
   110.9000     16.6419      2.6713      1.9241      0.0004    162.2570     22.2711
   111.0000     16.6422      2.6935      1.9087      0.0009    167.7276     22.1958
   111.1000     16.6422      2.7631      1.8808      0.0023    170.5293     22.4581
   111.2000     16.6422      2.8520      2.0878      0.0040    165.1238     22.5807
   111.3000     16.6387      2.8839      2.4002      0.0047    158.8489     22.4705
   111.4000     16.6387      2.8251      2.1189      0.0035    158.7386     22.1658
   111.5000     16.6325      2.7248      1.9834      0.0015    165.3055     21.8266
   111.6000     16.6325      2.6005      2.4156     -0.0010    169.3101     21.5413
   111.7000     16.6325      2.4417      1.9338     -0.0042    164.4511     21.1606
   111.8000     16.6383      2.2945      1.9467     -0.0071    159.6507     20.7960
   111.9000     16.6383      2.1796      1.8051     -0.0094    161.2382     20.9833
   112.0000     16.6479      2.0733      1.8918     -0.0115    164.5847     21.5740
   112.1000     16.6479      1.9841      1.7671     -0.0133    165.1933     21.8302
   112.2000     16.6479      1.9376      1.7128     -0.0143    161.3305     21.4418
   112.3000     16.6384      1.9216      1.6811     -0.0146    151.3753     20.9626
   112.4000     16.6384      1.9099      1.7456     -0.0148    140.0526     20.8616
   112.5000     16.6425      1.8938      1.7114     -0.0151    134.4404     20.8480
   112.6000     16.6425      1.8750      1.7837     -0.0155    136.6409     20.8937
   112.7000     16.6425      1.8547      1.7376     -0.0159    145.0287     21.3723
   112.8000     16.6373      1.8433      1.7281     -0.0161    154.3439     22.1782
   112.9000     16.6373      1.8420      1.7333     -0.0162    162.1168     22.6860
   113.0000     16.6407      1.8332      1.7605     -0.0163    170.0353     22.7438
   113.1000     16.6407      1.8088      1.7837     -0.0168    177.0822     23.0106
   113.2000     16.6407      1.7726      1.7818     -0.0176    179.4224     23.5865
   113.3000     16.6435      1.7389      1.7475     -0.0182    175.2036     23.7459
   113.4000     16.6435      1.7404      1.7047     -0.0182    168.5329     23.4976
   113.5000     16.6404      1.7846      1.7782     -0.0173    165.4347     23.4945
   113.6000     16.6404      1.8352      1.8188     -0.0163    164.4442     23.7523
   113.7000     16.6404      1.8597      1.8419     -0.0158    163.9421     24.0564
   113.8000     16.6342      1.8513      1.7958     -0.0160    167.6421     24.5674
   113.9000     16.6342      1.8289      1.8077     -0.0164    175.4306     25.0216
   114.0000     16.6391      1.8131      1.8185     -0.0167    180.6797     24.8948
   114.1000     16.6391      1.8048      1.7645     -0.0169    178.7760     24.6132
   114.2000     16.6391      1.7919      1.8469     -0.0172    172.6463     24.7896
   114.3000     16.6434      1.7667      1.7853     -0.0177    165.5601     25.0237
   114.4000     16.6434      1.7406      1.7614     -0.0182    157.8789     24.9735
   114.5000     16.6404      1.7146      1.8054     -0.0187    152.8896     24.6654
   114.6000     16.6404      1.6752      1.7342     -0.0195    153.4169     24.0879
   114.7000     16.6404      1.6324      1.7299     -0.0204    157.8298     23.5597
   114.8000     16.6338      1.6154      1.7460     -0.0207    164.1529     23.3784
   114.9000     16.6338      1.6381      1.6915     -0.0202    171.2708     23.5978
   115.0000     16.6361      1.6846      1.7662     -0.0193    173.8455     24.0626
   115.1000     16.6361      1.7318      1.7549     -0.0184    169.1041     24.4687
