~Version Information
VERS.                      2.0: CWLS Log ASCII Standard - VERSION 2.0
WRAP.                       NO: One line per depth step
~Well Information Block
STRT.FT                -4.7500: 
STOP.FT              2723.2500: 
STEP.FT                 0.2500: 
NULL.                -999.2500: 
COMP.          Pioneer Natural Resources: COMPANY
WELL.           Dolzanie 34-12: WELL
FLD.           Purgatorie River: FIELD
LOC.           1001' FSL & 1750' FEL: LOCATION
PROV.                 Colorado: PROVINCE
CNTY.               Las Animas: COUNTRY
SRVC.                Patterson: SERVICE COMPANY
DATE.          Wed Jul 27 14:23:29 2005: LOG DATE
UWI.                          : UNIQUE WELL ID
~Curve Information Block
DEPT.FT            0 000 00 00: Depth
GR.GAPI                       : Gamma Ray
CCL.                          : Casing Collar Locator
TT3.usec                      : CBL 3' Travel Time
AMP3.mV                       : CBL 3' Amplitude
~Parameter Information Block
~A  Depth        GR         CCL         TT3         AMP3    
# ...
   363.7500     49.3290      0.0000    779.0077     13.9295
   364.0000     50.9103      0.0000    779.0724     13.9755
   364.2500     51.2927      0.0000    778.7606     14.0318
   364.5000     50.4585      0.0000    778.2072     14.1312
   364.7500     49.5380      0.0000    777.6339     14.2507
   365.0000     49.8765      0.0000    777.2005     14.3480
   365.2500     51.7207      0.0000    776.9445     14.4002
   365.5000     54.1180      0.0000    776.8087     14.4063
   365.7500     55.9776      0.0000    776.6978     14.3739
   366.0000     56.8384      0.0000    776.5809     14.3190
   366.2500     56.7394      0.0000    776.5685     14.2840
   366.5000     55.8152      0.0000    776.8040     14.3098
   366.7500     54.1575      0.0000    777.2753     14.3678
   367.0000     51.8334      0.0000    777.8669     14.3836
   367.2500     48.9119      0.0000    778.6623     14.3322
   367.5000     45.5233      0.0000    780.3060     14.2524
   367.7500     41.9394      0.0000    783.8182     14.1951
   368.0000     38.6273      0.0000    788.5904     14.1757
   368.2500     36.2224      0.0000    791.0295     14.1547
   368.5000     35.3274      0.0000    788.6766     14.0750
   368.7500     36.1434      0.0000    784.1245     13.9242
   369.0000     38.2320      0.0000    781.0864     13.7493
   369.2500     40.6902      0.0000    780.0067     13.6001
   369.5000     42.6125      0.0000    779.5549     13.4601
   369.7500     43.4773      0.0000    779.1190     13.2705
   370.0000     43.2470      0.0000    778.7988     13.0343
   370.2500     42.2797      0.0000    778.5654     12.8315
   370.5000     41.1833      0.0000    778.2358     12.7146
   370.7500     40.5799      0.0000    777.8572     12.6489
   371.0000     40.8178      0.0000    777.6503     12.5767
   371.2500     41.9568      0.0000    777.6681     12.4986
   371.5000     44.0639      0.0000    777.7648     12.4540
   371.7500     47.3408      0.0000    777.8238     12.4511
   372.0000     51.8153      0.0000    777.7838     12.4616
   372.2500     57.0628      0.0000    777.5582     12.4592
   372.5000     62.4701      0.0000    777.1788     12.4525
   372.7500     67.7460      0.0000    776.8272     12.4825
   373.0000     73.0319      0.0000    776.5622     12.5586
   373.2500     78.5493      0.0000    776.4620     12.6216
   373.5000     84.2613      0.0000    777.3041     12.6086
   373.7500     89.7965      0.0000    780.3858     12.5189
   374.0000     94.5647      0.0000    785.2267     12.3957
   374.2500     97.9306      0.0000    788.1483     12.2807
   374.5000     99.4047      0.0000    786.5651     12.2085
   374.7500     98.9910      0.0000    783.3326     12.2115
   375.0000     97.6294      0.0000    783.0402     12.3043
   375.2500     97.0097      0.0000    785.9962     12.4661
   375.5000     98.3380      0.0000    787.8905     12.6192
   375.7500    101.1119      0.0000    785.5448     12.6646
   376.0000    103.3390      0.0000    781.0675     12.5742
   376.2500    103.1540      0.0000    777.8879     12.3845
   376.5000    100.3321      0.0000    775.8116     12.0995
   376.7500     96.2924      0.0000    771.0827     11.6950
   377.0000     92.6587      0.0000    760.0358     11.2496
   377.2500     89.9276      0.0000    747.2591     10.8134
   377.5000     87.6180      0.0000    747.7196     10.0748
   377.7500     85.3973      0.0000    770.7589      8.8036
   378.0000     83.5680      0.0000    810.4968      7.4842
   378.2500     82.4851      0.0000    859.0486      6.6870
   378.5000     82.0682      0.0000    916.6372      6.3607
   378.7500     82.1476     -2.0000    980.1580      6.1928
   379.0000     82.9063      2.0000   1026.6299      6.0479
   379.2500     84.5619      0.0000   1032.0610      5.9354
   379.5000     86.8232      0.0000   1001.1031      5.9110
   379.7500     89.0823      0.0000    954.0436      6.1267
   380.0000     91.1424      0.0000    903.0706      6.7359
   380.2500     93.5022      0.0000    850.8746      7.5826
   380.5000     96.7337      0.0000    802.3810      8.4044
   380.7500    100.5059      0.0000    771.5444      9.2307
   381.0000    103.3621      0.0000    764.1785     10.0526
   381.2500    103.7844      0.0000    768.7449     10.6428
   381.5000    101.6333      0.0000    773.2618     10.9249
   381.7500     98.3282      0.0000    775.1198     11.0306
   382.0000     95.4135      0.0000    775.8210     11.0695
   382.2500     93.2497      0.0000    776.5854     11.0673
   382.5000     91.3899      0.0000    778.8455     11.0389
   382.7500     89.6463      0.0000    785.6432     11.0177
   383.0000     88.1135      0.0000    800.3552     11.0360
   383.2500     86.5254      0.0000    822.6640     11.1057
   383.5000     84.3298      0.0000    847.5867     11.2025
   383.7500     81.3514      0.0000    870.4404     11.2806
   384.0000     78.0445      0.0000    890.7552     11.3250
   384.2500     75.1262      0.0000    911.0733     11.3609
   384.5000     73.1311      0.0000    930.8568     11.4141
   384.7500     72.2624      0.0000    939.2094     11.4920
   385.0000     72.4783      0.0000    924.0491     11.5925
   385.2500     73.4957      0.0000    890.5364     11.7046
   385.5000     74.5882      0.0000    853.2072     11.7998
   385.7500     74.6126      0.0000    820.4969     11.8454
   386.0000     72.6399      0.0000    802.4907     11.8335
   386.2500     68.7307      0.0000    813.8130     11.7830
   386.5000     64.0855      0.0000    858.8988     11.7177
   386.7500     60.3998      0.0000    920.4127     11.6486
   387.0000     58.8761      0.0000    970.4134     11.5782
   387.2500     59.4908      0.0000    996.1638     11.5202
   387.5000     61.0487      0.0000   1004.6880     11.4991
   387.7500     62.1833      0.0000   1006.4998     11.5228
   388.0000     62.5810      0.0000   1006.3845     11.5662
   388.2500     63.1084      0.0000   1004.6651     11.5880
   388.5000     64.5574      0.0000   1000.2089     11.5692
   388.7500     66.4872      0.0000    993.9485     11.5274
   389.0000     67.6441      0.0000    990.6782     11.4827
   389.2500     67.4306      0.0000    993.6583     11.4335
   389.5000     66.5821      0.0000    999.5508     11.3727
   389.7500     66.2399      0.0000   1003.0792     11.3029
   390.0000     66.5490      0.0000   1001.4763     11.2312
   390.2500     66.4573      0.0000    993.2276     11.1683
   390.5000     64.9883      0.0000    980.9526     11.1300
   390.7500     62.4403      0.0000    974.7844     11.1221
   391.0000     60.0536      0.0000    981.5571     11.1285
   391.2500     58.6397      0.0000    994.4921     11.1266
   391.5000     57.9141      0.0000   1003.7205     11.1085
   391.7500     57.2286      0.0000   1007.5120     11.0828
   392.0000     56.4459      0.0000   1008.6204     11.0575
   392.2500     55.7267      0.0000   1008.8354     11.0366
   392.5000     54.9722      0.0000   1008.6985     11.0329
   392.7500     54.0967      0.0000   1008.4645     11.0520
   393.0000     53.5037      0.0000   1008.2906     11.0749
   393.2500     53.6188      0.0000   1008.2142     11.0788
   393.5000     54.1687      0.0000   1008.1995     11.0651
   393.7500     54.4716      0.0000   1007.7855     11.0530
   394.0000     54.2095      0.0000   1004.5750     11.0520
   394.2500     53.4802      0.0000    991.8229     11.0533
   394.5000     52.4321      0.0000    959.8550     11.0373
   394.7500     51.3446      0.0000    907.0185     10.9883
   395.0000     50.8740      0.0000    850.1052     10.9112
   395.2500     51.7698      0.0000    815.3920     10.8324
   395.5000     54.2191      0.0000    819.8478     10.7733
   395.7500     57.5307      0.0000    862.2161     10.7323
   396.0000     60.5211      0.0000    920.7966     10.6904
   396.2500     62.2725      0.0000    965.4602     10.6296
   396.5000     62.5437      0.0000    984.2576     10.5451
   396.7500     61.5377      0.0000    989.1015     10.4442
   397.0000     59.5187      0.0000    993.9443     10.3425
