~Version Information
VERS.                      2.0: CWLS Log ASCII Standard - VERSION 2.0
WRAP.                       NO: One line per depth step
~Well Information Block
STRT.FT               491.0000: 
STOP.FT              1909.5000: 
STEP.FT                 0.1000: 
NULL.                -999.2500: 
COMP.          Pioneer Natural Resources: COMPANY
WELL.            Corazon 13-10: WELL
FLD.           Purgatoire River: FIELD
LOC.           2510' FSL & 439' FWL: LOCATION
PROV.                 Colorado: PROVINCE
CNTY.               Las Animas: COUNTRY
SRVC.                Patterson: SERVICE COMPANY
DATE.          Thu Dec 01 07:28:46 2005: LOG DATE
UWI.           05 071 08613 00: UNIQUE WELL ID
~Curve Information Block
DEPT.FT            0 000 00 00: Depth
DCAL.in                       : CDL Caliper
RHOB.g/cc                     : CDL Bulk Density
RHOC.g/cc                     : CDL Density Correction
DPOR.pu                       : CDL Density Porosity
GR.GAPI                       : Gamma Ray
NPOR.pu                       : Neutron Porosity
~Parameter Information Block
~A  Depth       DCAL        RHOB        RHOC        DPOR         GR         NPOR    
# ...
  1047.8000      8.2551      2.4796      0.0072     10.3284     93.5993     20.5244
  1047.9000      8.2551      2.4997      0.0096      9.1062     94.9161     20.8011
  1048.0000      8.2572      2.5168      0.0254      8.0720     97.9051     21.1305
  1048.1000      8.2572      2.5226      0.0239      7.7238     98.1526     20.7969
  1048.2000      8.2572      2.5165      0.0130      8.0931     92.0383     19.8405
  1048.3000      8.2648      2.5043      0.0016      8.8311     83.8883     19.5563
  1048.4000      8.2648      2.4938     -0.0007      9.4668     80.7924     20.8562
  1048.5000      8.2633      2.4890      0.0244      9.7587     83.2235     22.8459
  1048.6000      8.2633      2.4914      0.0208      9.6116     89.3209     24.1719
  1048.7000      8.2633      2.4956      0.0140      9.3585    100.6885     24.7572
  1048.8000      8.2649      2.4909     -0.0181      9.6420    117.4138     24.7948
  1048.9000      8.2649      2.4850     -0.0228      9.9995    131.6598     24.3814
  1049.0000      8.2665      2.4904     -0.0009      9.6726    136.6740     24.3912
  1049.1000      8.2665      2.4949      0.0188      9.4008    139.7843     25.2811
  1049.2000      8.2665      2.4855      0.0148      9.9674    151.6822     26.0780
  1049.3000      8.2707      2.4678     -0.0278     11.0405    167.2365     25.6113
  1049.4000      8.2707      2.4457     -0.0036     12.3827    175.3045     24.4539
  1049.5000      8.2774      2.4084     -0.0309     14.6436    172.9344     24.3170
  1049.6000      8.2774      2.3432     -0.0053     18.5949    164.1811     25.3522
  1049.7000      8.2774      2.2488     -0.0605     24.3178    155.8408     26.4296
  1049.8000      8.2832      2.1345     -0.1040     31.2423    153.2446     26.9989
  1049.9000      8.2832      2.0069     -0.1408     38.9747    159.4444     27.1861
  1050.0000      8.2833      1.8756     -0.1559     46.9307    169.8762     27.3510
  1050.1000      8.2833      1.7637     -0.2067     53.7172    172.4759     27.9546
  1050.2000      8.2833      1.6737     -0.1690     59.1687    161.0493     29.3524
  1050.3000      8.3092      1.5780     -0.1197     64.9701    143.0224     30.9129
  1050.4000      8.3092      1.4772     -0.1433     71.0784    125.3290     31.9080
  1050.5000      8.3362      1.4131     -0.1280     74.9647    105.5599     32.7208
  1050.6000      8.3362      1.3971     -0.0206     75.9305     90.6954     33.4071
  1050.7000      8.3362      1.3907      0.0301     76.3224     89.1337     33.4565
  1050.8000      8.3206      1.3659      0.0376     77.8260     89.5617     33.1248
  1050.9000      8.3206      1.3341      0.0451     79.7494     82.1132     32.9448
  1051.0000      8.3587      1.3252      0.0014     80.2926     73.7061     32.9765
  1051.1000      8.3587      1.3640     -0.0012     77.9364     70.2555     33.0219
  1051.2000      8.3587      1.4408      0.1062     73.2862     68.5970     32.5966
  1051.3000      8.3945      1.5194      0.0849     68.5234     64.9956     31.5201
  1051.4000      8.3945      1.5945      0.0827     63.9689     60.5907     30.6518
  1051.5000      8.4620      1.6816      0.1215     58.6937     56.2929     30.9978
  1051.6000      8.4620      1.7655      0.1669     53.6081     52.7639     32.4224
  1051.7000      8.4620      1.8199      0.1753     50.3097     53.5412     33.9000
  1051.8000      8.4753      1.8501      0.1606     48.4811     58.5430     34.4330
  1051.9000      8.4753      1.8861      0.1191     46.2960     63.4965     33.7339
  1052.0000      8.4020      1.9418      0.1493     42.9182     67.4046     32.4789
  1052.1000      8.4020      1.9993      0.1084     39.4387     71.6644     31.5362
  1052.2000      8.4020      2.0474     -0.0327     36.5207     75.1408     30.9872
  1052.3000      8.3702      2.0928      0.0541     33.7719     77.8983     30.6264
  1052.4000      8.3702      2.1416      0.0438     30.8097     84.8949     30.3451
  1052.5000      8.3011      2.2070      0.1043     26.8457     95.8674     29.7736
  1052.6000      8.3011      2.2899      0.2254     21.8262    104.5216     28.5117
  1052.7000      8.3011      2.3700      0.2327     16.9724    110.1609     26.9916
  1052.8000      8.2982      2.4287      0.2193     13.4128    114.0219     26.0004
  1052.9000      8.2982      2.4610      0.1017     11.4534    117.1605     25.5719
  1053.0000      8.4137      2.4717      0.0711     10.8078    120.6060     25.5323
  1053.1000      8.4137      2.4614      0.0473     11.4273    123.1205     25.8123
  1053.2000      8.4137      2.4387     -0.0120     12.8044    126.8332     26.2364
  1053.3000      8.2860      2.4267     -0.0216     13.5328    132.9945     26.4108
  1053.4000      8.2860      2.4352     -0.0008     13.0159    138.4758     26.2016
  1053.5000      8.2610      2.4552      0.0005     11.8061    144.9384     25.9076
  1053.6000      8.2610      2.4774      0.0148     10.4605    152.2308     25.4504
  1053.7000      8.2610      2.4980      0.0428      9.2102    154.5472     24.6813
  1053.8000      8.2512      2.5180      0.0033      7.9999    152.5610     23.6601
  1053.9000      8.2512      2.5360      0.0373      6.9100    151.4185     22.8196
  1054.0000      8.2435      2.5406      0.0391      6.6277    153.1466     22.6865
  1054.1000      8.2435      2.5274      0.0502      7.4287    157.8324     22.7831
  1054.2000      8.2435      2.5108      0.0218      8.4378    163.3466     22.5642
  1054.3000      8.2410      2.5077      0.0329      8.6244    165.2689     22.3800
  1054.4000      8.2410      2.5175      0.0727      8.0331    160.2370     22.5941
  1054.5000      8.2366      2.5334      0.0205      7.0685    149.2302     22.8305
  1054.6000      8.2366      2.5543      0.0498      5.7988    137.5296     22.4382
  1054.7000      8.2366      2.5701      0.0606      4.8443    130.4188     21.3727
  1054.8000      8.2416      2.5751      0.0471      4.5406    126.3747     19.8417
  1054.9000      8.2416      2.5755      0.0551      4.5167    121.6510     18.5679
  1055.0000      8.2390      2.5694      0.0512      4.8845    118.7339     18.5302
  1055.1000      8.2390      2.5528      0.0019      5.8933    121.6536     19.3748
  1055.2000      8.2390      2.5311      0.0573      7.2058    124.5086     19.7426
  1055.3000      8.2303      2.5163     -0.0079      8.1024    119.0285     19.1104
  1055.4000      8.2303      2.5173     -0.0543      8.0451    108.9179     18.0068
  1055.5000      8.2249      2.5171      0.0381      8.0519    101.7752     17.4423
  1055.6000      8.2249      2.4962     -0.0060      9.3197     99.2708     18.1328
  1055.7000      8.2249      2.4752     -0.0194     10.5967     96.8696     19.2944
  1055.8000      8.2228      2.4815     -0.0500     10.2119     93.6755     19.7100
  1055.9000      8.2228      2.5049     -0.0158      8.7929     96.2036     19.3265
  1056.0000      8.2217      2.5195      0.0100      7.9064    102.7662     18.6772
  1056.1000      8.2217      2.5220      0.0000      7.7546    103.6794     18.1011
  1056.2000      8.2217      2.5284      0.0135      7.3671     97.4266     17.3765
  1056.3000      8.2215      2.5485     -0.0213      6.1512     88.5556     16.2562
  1056.4000      8.2215      2.5698      0.0498      4.8609     80.1699     15.1208
  1056.5000      8.2216      2.5728     -0.0425      4.6788     74.2230     14.4139
  1056.6000      8.2216      2.5607      0.0261      5.4103     72.7623     14.3936
  1056.7000      8.2216      2.5504      0.0164      6.0356     75.0082     15.1927
  1056.8000      8.2217      2.5550     -0.0183      5.7582     76.0321     16.6278
  1056.9000      8.2217      2.5642      0.0768      5.2000     73.7696     17.9209
  1057.0000      8.2192      2.5593      0.0140      5.4971     71.3641     18.4226
  1057.1000      8.2192      2.5459      0.0259      6.3099     71.4763     17.9977
  1057.2000      8.2192      2.5368      0.0318      6.8597     73.9887     17.0404
  1057.3000      8.2203      2.5392      0.0231      6.7125     75.9839     16.6804
