~Version Information
VERS.                      2.0: CWLS Log ASCII Standard - VERSION 2.0
WRAP.                       NO: One line per depth step
~Well Information Block
STRT.FT               645.0000: 
STOP.FT              2131.0000: 
STEP.FT                 0.1000: 
NULL.                -999.2500: 
COMP.          Pioneer Natural Resources: COMPANY
WELL.          Gunslinger 13-24: WELL
FLD.           Purgatoire River: FIELD
LOC.           1968' FSL & 633' FWL: LOCATION
PROV.                 Colorado: PROVINCE
CNTY.               Las Animas: COUNTRY
SRVC.                Patterson: SERVICE COMPANY
DATE.          Sat Jul 30 08:07:53 2005: LOG DATE
UWI.           05 071 08442 00: UNIQUE WELL ID
~Curve Information Block
DEPT.FT            0 000 00 00: Depth
DCAL.in                       : CDL Caliper
RHOB.g/cc                     : CDL Bulk Density
RHOC.g/cc                     : CDL Density Correction
DPOR.pu                       : CDL Density Porosity
GR.GAPI                       : Gamma Ray
NPOR.pu                       : Neutron Porosity
~Parameter Information Block
~A  Depth       DCAL        RHOB        RHOC        DPOR         GR         NPOR    
# ...
  1038.6000      8.0484      2.5176      0.0730      8.0215     60.4582     17.9835
  1038.7000      8.0484      2.5287      0.0547      7.3504     59.2359     18.1220
  1038.8000      8.0448      2.5368      0.0821      6.8594     60.5164     18.2808
  1038.9000      8.0448      2.5374      0.0628      6.8270     63.4605     18.3455
  1039.0000      8.0462      2.5356      0.0816      6.9314     63.8205     18.4022
  1039.1000      8.0462      2.5388      0.0756      6.7375     61.0100     18.7866
  1039.2000      8.0462      2.5520      0.0500      5.9414     57.5720     19.3372
  1039.3000      8.0439      2.5665      0.0552      5.0624     56.0031     19.6532
  1039.4000      8.0439      2.5671      0.0322      5.0249     57.7553     19.5707
  1039.5000      8.0403      2.5509      0.0403      6.0055     59.8861     19.1748
  1039.6000      8.0403      2.5259      0.0455      7.5183     60.2759     18.5753
  1039.7000      8.0403      2.4995      0.0069      9.1193     60.0683     17.9974
  1039.8000      8.0345      2.4801      0.0191     10.2997     60.4641     17.7557
  1039.9000      8.0345      2.4729      0.0508     10.7348     62.7318     17.6973
  1040.0000      8.0398      2.4746      0.0355     10.6275     66.8779     17.5147
  1040.1000      8.0398      2.4736      0.0632     10.6881     68.4986     17.3549
  1040.2000      8.0398      2.4609      0.0254     11.4597     62.8502     17.1657
  1040.3000      8.0295      2.4504     -0.0148     12.0993     53.7878     16.6220
  1040.4000      8.0295      2.4648     -0.0260     11.2266     50.1679     16.0341
  1040.5000      8.0439      2.5007      0.0558      9.0499     55.6336     15.9362
  1040.6000      8.0439      2.5271      0.0769      7.4488     67.6941     16.2904
  1040.7000      8.0439      2.5197      0.0639      7.8998     79.2768     16.8054
  1040.8000      8.0443      2.4901      0.0350      9.6883     84.1542     17.2710
  1040.9000      8.0443      2.4767      0.0308     10.5014     81.9683     17.3275
  1041.0000      8.0415      2.4932      0.0614      9.5014     76.5721     16.8976
  1041.1000      8.0415      2.5158      0.0632      8.1362     72.6628     16.4832
  1041.2000      8.0415      2.5187      0.0892      7.9589     71.4767     16.5265
  1041.3000      8.0383      2.4946      0.0831      9.4189     70.3137     16.8630
  1041.4000      8.0383      2.4639      0.0038     11.2804     67.4765     17.0659
  1041.5000      8.0335      2.4539      0.0033     11.8867     63.8769     17.2657
  1041.6000      8.0335      2.4661     -0.0095     11.1450     60.6147     17.8907
  1041.7000      8.0335      2.4926      0.0271      9.5367     58.9952     18.5071
  1041.8000      8.0323      2.5274      0.0675      7.4304     59.5626     18.4746
  1041.9000      8.0323      2.5516      0.0901      5.9653     61.9213     18.2620
  1042.0000      8.0380      2.5493      0.0556      6.1049     65.6845     18.3379
  1042.1000      8.0380      2.5346      0.0149      6.9932     68.6728     18.2375
  1042.2000      8.0380      2.5230      0.0604      7.6951     68.5546     17.9858
  1042.3000      8.0418      2.5053      0.0681      8.7703     65.1171     18.2465
  1042.4000      8.0418      2.4814      0.0120     10.2171     60.6984     18.8738
  1042.5000      8.0244      2.4712     -0.0189     10.8341     60.0290     19.1021
  1042.6000      8.0244      2.4862      0.0066      9.9287     65.6807     18.8775
  1042.7000      8.0244      2.5156      0.0490      8.1470     72.9390     18.7064
  1042.8000      8.0239      2.5356      0.0917      6.9305     75.7348     18.8633
  1042.9000      8.0239      2.5327      0.0963      7.1090     74.3377     19.5145
  1043.0000      8.0074      2.5276      0.0161      7.4166     74.4085     20.4004
  1043.1000      8.0074      2.5417      0.0939      6.5660     77.7067     20.6357
  1043.2000      8.0074      2.5547      0.0856      5.7768     79.4141     20.1920
  1043.3000      8.0166      2.5452      0.0938      6.3530     77.5148     19.9295
  1043.4000      8.0166      2.5136      0.0471      8.2680     77.4117     20.1367
  1043.5000      7.9964      2.4671      0.0432     11.0861     84.2787     20.6569
  1043.6000      7.9964      2.4235     -0.0403     13.7271     95.4231     21.3322
  1043.7000      7.9964      2.4113     -0.0528     14.4662    103.7423     21.7375
  1043.8000      8.0030      2.4397      0.0293     12.7471    105.9594     21.8001
  1043.9000      8.0030      2.4853      0.0894      9.9822    105.0974     22.0716
  1044.0000      8.0095      2.5265      0.0765      7.4861    105.9106     22.7124
  1044.1000      8.0095      2.5671      0.0652      5.0241    109.5061     23.4451
  1044.2000      8.0095      2.6096      0.1260      2.4477    114.5868     24.3531
  1044.3000      8.0301      2.6451      0.1321      0.2966    120.4226     25.3852
  1044.4000      8.0301      2.6757      0.1588     -1.5602    126.5129     26.2936
  1044.5000      8.0455      2.7090      0.2377     -3.5774    130.4546     27.2086
  1044.6000      8.0455      2.7398      0.2911     -5.4397    130.5978     27.9888
  1044.7000      8.0455      2.7498      0.3422     -6.0497    128.6648     28.3583
  1044.8000      8.0151      2.7332      0.1643     -5.0398    122.3611     28.5542
  1044.9000      8.0151      2.7107      0.1252     -3.6774    110.9458     28.9149
  1045.0000      8.0051      2.7013      0.0574     -3.1078    102.0022     29.1453
  1045.1000      8.0051      2.7056      0.0501     -3.3689     99.6248     28.8616
  1045.2000      8.0051      2.7102      0.0492     -3.6514    100.1791     28.1492
  1045.3000      7.9787      2.7038      0.0437     -3.2623     98.4540     27.2022
  1045.4000      7.9787      2.6888     -0.0000     -2.3487     93.6867     26.5175
  1045.5000      7.9612      2.6699      0.0533     -1.2082     89.1105     26.4438
  1045.6000      7.9612      2.6579      0.0391     -0.4767     87.8803     26.5584
  1045.7000      7.9612      2.6730      0.0485     -1.3931     89.8279     26.4443
  1045.8000      7.9462      2.7107      0.0932     -3.6799     93.4296     26.3018
  1045.9000      7.9462      2.7409      0.0977     -5.5087     99.3623     26.1907
  1046.0000      7.9573      2.7472      0.1230     -5.8921    104.8725     25.9114
  1046.1000      7.9573      2.7238      0.0926     -4.4708    104.8245     25.6269
  1046.2000      7.9573      2.6733      0.0309     -1.4114    101.8968     25.3612
  1046.3000      7.9619      2.6287     -0.0512      1.2910    100.3987     25.0978
  1046.4000      7.9619      2.6174      0.0129      1.9734     99.8767     25.2135
  1046.5000      7.9619      2.6272     -0.0163      1.3827    100.0869     25.7427
  1046.6000      7.9619      2.6455     -0.0303      0.2727    100.8403     26.2983
  1046.7000      7.9619      2.6739      0.0222     -1.4486    102.5628     26.5865
  1046.8000      7.9537      2.7030      0.0412     -3.2120    104.8752     26.5899
  1046.9000      7.9537      2.7190      0.0887     -4.1816    102.5497     26.3534
  1047.0000      7.9652      2.7306      0.0386     -4.8826     96.6389     25.9541
  1047.1000      7.9652      2.7561      0.0489     -6.4305     94.5258     25.5525
  1047.2000      7.9652      2.7822      0.0993     -8.0141     95.9154     25.3575
  1047.3000      7.9764      2.7813      0.0987     -7.9573     95.5746     25.2892
  1047.4000      7.9764      2.7542      0.0816     -6.3174     92.8679     25.1988
  1047.5000      7.9626      2.7182      0.0804     -4.1353     91.1512     25.0894
  1047.6000      7.9626      2.6900      0.0399     -2.4257     90.6241     24.7457
  1047.7000      7.9626      2.6853      0.0253     -2.1389     90.0321     24.3741
  1047.8000      7.9616      2.7046      0.0438     -3.3086     91.1553     24.5708
  1047.9000      7.9616      2.7329      0.0649     -5.0225     94.6119     25.1027
  1048.0000      7.9638      2.7511      0.0833     -6.1245     95.2869     25.4657
  1048.1000      7.9638      2.7367      0.0813     -5.2552     89.3210     25.8119
