~Version Information
VERS.                      2.0: CWLS Log ASCII Standard - VERSION 2.0
WRAP.                       NO: One line per depth step
~Well Information Block
STRT.FT                 0.0000: 
STOP.FT              1201.0000: 
STEP.FT                 0.2500: 
NULL.                -999.2500: 
COMP.          Pioneer Natural Resources: COMPANY
WELL.             Margaux 11-1: WELL
FLD.           Purgatoire River: FIELD
LOC.           1154' FNL & 472' FWL --------: LOCATION
PROV.                 Colorado: PROVINCE
CNTY.               Las Animas: COUNTRY
SRVC.                         : SERVICE COMPANY
DATE.          Thu Jan 05 11:16:55 2006: LOG DATE
UWI.                          : UNIQUE WELL ID
~Curve Information Block
DEPT.FT            0 000 00 00: Depth
CCL.                          : Casing Collar Locator
TT3.usec                      : CBL 3' Travel Time
AMP3.mV                       : CBL 3' Amplitude
AMP5.mV                       : CBL 5' Amplitude
GR.GAPI                       : Gamma Ray
~Parameter Information Block
~A  Depth       CCL         TT3         AMP3        AMP5         GR     
# ...
   392.0000      0.0000    722.5048      7.6178      1.7142    132.3540
   392.2500      0.0000    722.5766      7.6120      1.7196    126.2347
   392.5000      0.0000    722.6653      7.6020      1.7482    121.6702
   392.7500      0.0000    722.7581      7.5771      1.7722    120.0770
   393.0000      0.0000    722.8978      7.5361      1.7840    121.9110
   393.2500      0.0000    723.2872      7.4858      1.7932    126.3740
   393.5000      0.0000    724.4374      7.4358      1.8066    131.6821
   393.7500      0.0000    727.2021      7.3988      1.8203    135.8887
   394.0000      0.0000    732.3964      7.3871      1.8322    137.8293
   394.2500      0.0000    739.9996      7.4041      1.8508    137.3394
   394.5000      0.0000    748.6829      7.4416      1.8842    134.5969
   394.7500      0.0000    756.4446      7.4891      1.9266    129.3998
   395.0000      0.0000    761.9169      7.5387      1.9640    121.2165
   395.2500      0.0000    765.0240      7.5814      1.9889    110.0652
   395.5000      0.0000    766.5126      7.6086      2.0052     97.2389
   395.7500      0.0000    767.0997      7.6207      2.0207     84.9077
   396.0000      0.0000    766.9895      7.6280      2.0453     74.9491
   396.2500      0.0000    765.8081      7.6379      2.0879     68.1261
   396.5000      0.0000    762.8264      7.6491      2.1477     63.9574
   396.7500      0.0000    757.5751      7.6602      2.2110     61.0764
   397.0000      0.0000    750.7874      7.6845      2.2627     58.0712
   397.2500      0.0000    744.8007      7.7515      2.2982     54.4076
   397.5000      0.0000    742.4360      7.8890      2.3154     50.5396
   397.7500      0.0000    744.9005      8.0967      2.3047     47.1815
   398.0000      0.0000    750.7739      8.3354      2.2581     44.7857
   398.2500      0.0000    757.2099      8.5396      2.1839     43.6591
   398.5000      0.0000    762.0127      8.6462      2.1046     44.1156
   398.7500      0.0000    764.5472      8.6232      2.0420     46.2692
   399.0000      0.0000    765.1276      8.4866      2.0093     50.0070
   399.2500      0.0000    764.2710      8.2950      2.0107     55.5257
   399.5000      0.0000    762.9000      8.1168      2.0398     63.6831
   399.7500      0.0000    762.9970      7.9892      2.0794     75.2497
   400.0000      0.0000    766.9842      7.9003      2.1034     89.6765
   400.2500      0.0000    775.2147      7.8066      2.0824    104.8341
   400.5000      0.0000    784.0135      7.6642      1.9985    118.1331
   400.7500      0.0000    787.5999      7.4547      1.8633    127.9271
   401.0000      0.0000    783.0569      7.1909      1.7159    133.8040
   401.2500      0.0000    772.9141      6.9018      1.5944    135.8393
   401.5000      0.0000    762.2690      6.6115      1.5118    134.3607
   401.7500      0.0000    754.2504      6.3344      1.4550    130.7067
   402.0000      0.0000    749.0696      6.0834      1.4027    127.2742
   402.2500      0.0000    746.1609      5.8708      1.3409    125.8751
   402.5000      0.0000    745.2714      5.6951      1.2731    126.2387
   402.7500      0.0000    745.5533      5.5317      1.2189    126.5367
   403.0000      0.0000    745.2931      5.3444      1.1946    125.2122
   403.2500      0.0000    743.2946      5.1082      1.1973    122.1269
   403.5000      0.0000    740.0966      4.8256      1.2118    118.2670
   403.7500      0.0000    737.8755      4.5311      1.2285    114.7318
   404.0000      0.0000    739.2156      4.2799      1.2442    111.9713
   404.2500      0.0000    745.2021      4.1251      1.2497    109.5665
   404.5000      0.0000    754.0593      4.0961      1.2322    106.6940
   404.7500      0.0000    762.0668      4.1874      1.1903    103.2493
   405.0000      0.0000    766.2641      4.3643      1.1430    100.5674
   405.2500      0.0000    766.0568      4.5799      1.1234    100.5878
   405.5000      0.0000    762.3267      4.7955      1.1556    104.3686
   405.7500      0.0000    755.9315      4.9914      1.2344    111.6584
   406.0000      0.0000    747.6306      5.1692      1.3280    121.4208
   406.2500      0.0000    738.8176      5.3533      1.3978    132.2588
   406.5000      0.0000    731.3658      5.5884      1.4166    142.6591
   406.7500      0.0000    726.5110      5.9216      1.3793    151.1106
   407.0000      0.0000    724.1855      6.3681      1.3124    155.9579
   407.2500      0.0000    723.4568      6.8869      1.2721    155.6918
   407.5000      0.0000    723.3627      7.3899      1.3195    150.3051
   407.7500      0.0000    723.3561      7.7881      1.4761    142.2888
   408.0000      0.0000    723.2755      8.0388      1.6943    135.4859
   408.2500      0.0000    723.1464      8.1612      1.8834    132.5812
   408.5000      0.0000    723.0256      8.2126      1.9843    133.5827
   408.7500      0.0000    722.9385      8.2518      2.0126    136.4165
   409.0000      0.0000    722.8851      8.3151      2.0232    138.9197
   409.2500      0.0000    722.8595      8.4093      2.0528    140.5429
   409.5000      0.0000    722.8555      8.5195      2.1057    142.2953
   409.7500      0.0000    722.8621      8.6211      2.1717    145.1942
   410.0000      0.0000    722.8661      8.6917      2.2341    148.9531
   410.2500      0.0000    722.8667      8.7194      2.2712    151.9949
   410.5000      0.0000    722.8760      8.7064      2.2707    152.4952
   410.7500      0.0000    722.8989      8.6663      2.2432    149.7930
   411.0000      0.0000    722.9238      8.6189      2.2108    145.2372
   411.2500      0.0000    722.9437      8.5807      2.1851    141.3077
   411.5000      0.0000    722.9677      8.5591      2.1632    139.5405
   411.7500      0.0000    722.9948      8.5526      2.1383    139.6295
   412.0000      0.0000    722.9937      8.5540      2.1055    140.5408
   412.2500      0.0000    722.9257      8.5492      2.0583    141.6397
   412.5000      0.0000    722.7824      8.5169      1.9916    142.5225
   412.7500      0.0000    722.5878      8.4367      1.9138    142.6222
   413.0000      0.0000    722.3776      8.3022      1.8434    141.5049
   413.2500      0.0000    722.1932      8.1185      1.7942    139.3685
   413.5000      0.0000    722.1547      7.8850      1.7687    137.1595
   413.7500      0.0000    722.6639      7.5836      1.7583    136.1703
   414.0000      0.0000    724.7833      7.1903      1.7383    137.0439
   414.2500      0.0000    730.5057      6.7169      1.6767    138.6080
   414.5000      0.0000    742.2441      6.2551      1.5676    137.8158
   414.7500      0.0000    761.1816      5.9446      1.4488    131.5978
   415.0000      0.0000    785.5289      5.8518      1.3731    119.1937
   415.2500      0.0000    810.6916      5.9008      1.3655    102.7126
   415.5000      0.0000    831.9526      5.9732      1.4101     85.7186
   415.7500      0.0000    847.1888      6.0380      1.4707     71.5871
   416.0000      0.0000    856.5911      6.1332      1.5192     62.7391
   416.2500      0.0000    860.6442      6.2613      1.5487     60.3645
   416.5000      2.0000    860.6347      6.3670      1.5689     63.9959
   416.7500      0.0000    860.6846      6.4052      1.5894     71.1909
   417.0000      0.0000    865.1085      6.4046      1.6079     78.2604
   417.2500      0.0000    871.8679      6.4618      1.6114     82.3197
   417.5000      0.0000    871.8458      6.6551      1.5898     83.2153
   417.7500      0.0000    857.1300      6.9275      1.5499     83.3898
   418.0000      0.0000    828.8523      7.0748      1.5122     85.5888
   418.2500      0.0000    796.0907      6.9097      1.4931     90.5548
   418.5000      0.0000    768.6981      6.4250      1.4866     96.6777
   418.7500      0.0000    751.9478      5.7646      1.4635    101.4900
   419.0000      0.0000    746.2026      5.0786      1.3954    103.3860
   419.2500      0.0000    749.2678      4.4519      1.2803    102.1479
   419.5000      0.0000    758.6337      3.9247      1.1472     98.2048
   419.7500      0.0000    772.1141      3.5209      1.0359     91.9321
