~Version Information
VERS.                      2.0: CWLS Log ASCII Standard - VERSION 2.0
WRAP.                       NO: One line per depth step
~Well Information Block
STRT.FT               460.0000: 
STOP.FT              2311.7000: 
STEP.FT                 0.1000: 
NULL.                -999.2500: 
COMP.          Pioneer Natural Resources: COMPANY
WELL.          McDonald 33-31 R: WELL
FLD.           Purgatoire River: FIELD
LOC.           1386' FSL & 1926' FEL: LOCATION
STAT.                 Colorado: State
CNTY.               Las Animas: COUNTY
CTRY.                      USA: Country
SECT.                       31: Section
TOWN.                      32S: Township
RANG.                      66W: Range
SRVC.                Patterson: SERVICE COMPANY
DATE.          Sat Sep 24 09:00:13 2005: LOG DATE
API.           05 071 08533 00: API
~Curve Information Block
DEPT.FT            0 000 00 00: Depth
DCAL.in                       : CDL Caliper
RHOB.g/cc                     : CDL Bulk Density
RHOC.g/cc                     : CDL Density Correction
DPOR.pu                       : CDL Density Porosity
NPOR.pu                       : Neutron Porosity
GR.GAPI                       : Gamma Ray
~Parameter Information Block
~A  Depth       DCAL        RHOB        RHOC        DPOR        NPOR         GR     
# ...
  2044.0000      7.8716      1.6531      0.0765     60.4179      2.4029    103.6634
  2044.1000      7.8716      1.6743      0.1314     59.1329      2.4839    100.1652
  2044.2000      7.8716      1.6952      0.0853     57.8646      2.5549     96.2465
  2044.3000      7.8684      1.7231      0.0778     56.1760      2.6593     92.2101
  2044.4000      7.8684      1.7639      0.1034     53.7052      2.7767     90.9676
  2044.5000      7.8520      1.8169      0.0731     50.4916      2.8196     92.2694
  2044.6000      7.8520      1.8887      0.1152     46.1418      2.8521     94.1064
  2044.7000      7.8520      1.9872      0.1849     40.1678      2.9837     94.6623
  2044.8000      7.8389      2.1070      0.2492     32.9067      3.2228     90.7815
  2044.9000      7.8389      2.2226      0.2891     25.9057      3.5962     84.2691
  2045.0000      7.8358      2.3118      0.2853     20.4963      4.2180     78.6679
  2045.1000      7.8358      2.3896      0.2603     15.7846      5.1254     73.9051
  2045.2000      7.8358      2.4907      0.2853      9.6574      6.2339     70.0962
  2045.3000      7.8380      2.6169      0.2918      2.0069      7.6448     67.7160
  2045.4000      7.8380      2.7230      0.2876     -4.4249      9.5373     65.5042
  2045.5000      7.8404      2.7623      0.1953     -6.8039     11.6585     62.9592
  2045.6000      7.8404      2.7361      0.1183     -5.2188     13.4567     60.2883
  2045.7000      7.8404      2.6912      0.0622     -2.4982     14.8573     58.4821
  2045.8000      7.8410      2.6679      0.0564     -1.0842     16.2661     59.7324
  2045.9000      7.8410      2.6693      0.0572     -1.1675     17.8124     61.7510
  2046.0000      7.8436      2.6823      0.0761     -1.9596     19.2508     62.5501
  2046.1000      7.8436      2.7034      0.0608     -3.2364     20.5183     65.4284
  2046.2000      7.8436      2.7308      0.0871     -4.8986     21.8199     70.2974
  2046.3000      7.8542      2.7504      0.0863     -6.0828     23.4130     72.5954
  2046.4000      7.8542      2.7521      0.0472     -6.1869     25.3755     71.1333
  2046.5000      7.8672      2.7427      0.0406     -5.6170     27.0982     69.2277
  2046.6000      7.8672      2.7289      0.0456     -4.7790     27.9111     67.8421
  2046.7000      7.8672      2.7149      0.0079     -3.9345     28.0563     66.0704
  2046.8000      7.8736      2.7074      0.0289     -3.4814     27.9323     64.3049
  2046.9000      7.8736      2.7086      0.0510     -3.5523     27.6245     62.1583
  2047.0000      7.8752      2.7238      0.0188     -4.4720     27.4237     60.5487
  2047.1000      7.8752      2.7560      0.0357     -6.4234     27.5884     63.6861
  2047.2000      7.8752      2.7778      0.0818     -7.7485     27.8542     70.4228
  2047.3000      7.8743      2.7652      0.0299     -6.9824     27.8427     72.3048
  2047.4000      7.8743      2.7397      0.0416     -5.4375     27.6252     67.9209
  2047.5000      7.8740      2.7267      0.0864     -4.6511     27.4939     63.9743
  2047.6000      7.8740      2.7292      0.0215     -4.7994     27.6575     64.2039
  2047.7000      7.8740      2.7416      0.0311     -5.5501     28.0807     68.0738
  2047.8000      7.8716      2.7548      0.0055     -6.3486     28.4732     72.6688
  2047.9000      7.8716      2.7605      0.0314     -6.6974     28.9596     73.9920
  2048.0000      7.8660      2.7536     -0.0017     -6.2795     29.6860     71.3151
  2048.1000      7.8660      2.7362      0.0548     -5.2213     29.9288     68.0801
  2048.2000      7.8660      2.7168      0.0208     -4.0485     29.1805     64.9191
  2048.3000      7.8584      2.7037      0.0084     -3.2534     28.3247     60.2413
  2048.4000      7.8584      2.6947     -0.0213     -2.7086     28.1554     55.5724
  2048.5000      7.8512      2.6846      0.0204     -2.0974     28.3503     53.1912
  2048.6000      7.8512      2.6738      0.0084     -1.4422     28.4450     54.7091
  2048.7000      7.8512      2.6701     -0.0075     -1.2164     28.2636     60.1946
  2048.8000      7.8481      2.6746      0.0113     -1.4904     27.8620     65.9168
  2048.9000      7.8481      2.6702      0.0423     -1.2251     27.5343     69.1622
  2049.0000      7.8489      2.6520      0.0447     -0.1234     27.2291     71.8164
  2049.1000      7.8489      2.6410      0.0183      0.5448     26.6736     73.9545
  2049.2000      7.8489      2.6471      0.0547      0.1733     25.9966     71.8603
  2049.3000      7.8491      2.6601      0.0056     -0.6114     25.3881     64.7720
  2049.4000      7.8491      2.6729      0.0517     -1.3865     24.8025     58.8996
  2049.5000      7.8474      2.6804      0.0705     -1.8440     24.2990     58.9647
  2049.6000      7.8474      2.6760      0.0394     -1.5770     23.9689     61.2065
  2049.7000      7.8474      2.6616     -0.0001     -0.7010     23.6055     60.7159
  2049.8000      7.8484      2.6392      0.0651      0.6529     22.9808     58.5634
  2049.9000      7.8484      2.5994      0.0103      3.0653     21.9938     59.4325
  2050.0000      7.8538      2.5433     -0.0135      6.4639     20.7172     63.7677
  2050.1000      7.8538      2.4876     -0.0139      9.8442     19.6693     69.1821
  2050.2000      7.8538      2.4442     -0.0122     12.4711     18.9352     74.2451
  2050.3000      7.8622      2.4182     -0.0142     14.0510     17.9362     78.8792
  2050.4000      7.8622      2.4103     -0.0090     14.5291     16.5607     85.0099
  2050.5000      7.8662      2.4170      0.0085     14.1235     15.5043     89.8597
  2050.6000      7.8662      2.4319      0.0190     13.2205     15.2687     88.1092
  2050.7000      7.8662      2.4442      0.0818     12.4730     15.3480     85.4970
  2050.8000      7.8601      2.4511      0.0891     12.0541     15.0277     89.8562
  2050.9000      7.8601      2.4720      0.0746     10.7860     14.4774     99.4340
  2051.0000      7.8547      2.5127      0.1383      8.3189     14.1740    111.0373
  2051.1000      7.8547      2.5422      0.1606      6.5355     14.2465    123.0241
  2051.2000      7.8547      2.5419      0.0865      6.5514     14.6651    133.9262
  2051.3000      7.8581      2.5294      0.0932      7.3081     15.2992    144.7496
  2051.4000      7.8581      2.5236      0.0309      7.6625     15.8901    150.5006
  2051.5000      7.8690      2.5285      0.0808      7.3658     16.2123    143.8821
  2051.6000      7.8690      2.5414      0.0408      6.5846     16.3357    134.2252
  2051.7000      7.8690      2.5597      0.0369      5.4742     16.5487    132.9983
  2051.8000      7.8752      2.5741      0.0553      4.5993     17.3423    137.6586
  2051.9000      7.8752      2.5757      0.0401      4.5032     18.6254    142.7424
  2052.0000      7.8716      2.5700      0.0421      4.8466     19.4551    145.1803
  2052.1000      7.8716      2.5673      0.0388      5.0110     19.6097    145.0626
  2052.2000      7.8716      2.5660      0.0423      5.0919     19.8572    147.8305
  2052.3000      7.8641      2.5598      0.0387      5.4694     20.5241    154.2171
  2052.4000      7.8641      2.5575      0.0161      5.6060     21.1189    154.4983
  2052.5000      7.8558      2.5633      0.0873      5.2524     21.2137    145.0102
  2052.6000      7.8558      2.5595      0.0770      5.4838     21.1591    134.9005
  2052.7000      7.8558      2.5439      0.0213      6.4301     21.4520    131.0230
  2052.8000      7.8481      2.5368      0.0263      6.8591     21.8855    131.0437
  2052.9000      7.8481      2.5466      0.0515      6.2667     22.3736    129.8469
  2053.0000      7.8414      2.5660      0.0529      5.0911     23.0800    126.5397
  2053.1000      7.8414      2.5808      0.0778      4.1937     23.5509    120.4537
  2053.2000      7.8414      2.5812      0.0507      4.1720     23.4163    111.3265
  2053.3000      7.8365      2.5802      0.0406      4.2319     23.1206    106.9618
  2053.4000      7.8365      2.5896      0.0878      3.6589     23.0574    111.9436
  2053.5000      7.8306      2.6008      0.0930      2.9820     23.0962    120.0052
