~Version Information
VERS.                      2.0: CWLS Log ASCII Standard - VERSION 2.0
WRAP.                       NO: One line per depth step
~Well Information Block
STRT.FT                -7.0000: 
STOP.FT              3030.2500: 
STEP.FT                 0.2500: 
NULL.                -999.2500: 
COMP.          Pioneer Natural Resources: COMPANY
WELL.            Cleaver 24-12: WELL
FLD.           Purgatorie River: FIELD
LOC.           204' FSL & 2351' FWL--: LOCATION
CNTY.               Las Animas: COUNTY
SRVC.          Patterson Wireline: SERVICE COMPANY
DATE.          Thu Feb 02 12:17:57 2006: LOG DATE
UWI.           05 071 08634 00: UNIQUE WELL ID
STAT.                       CO: STATE
~Curve Information Block
DEPT.FT            0 000 00 00: Depth
CCL.                          : Casing Collar Locator
TT3.usec                      : CBL 3' Travel Time
AMP3.mV                       : CBL 3' Amplitude
GR.GAPI                       : Gamma Ray
~Parameter Information Block
~A  Depth       CCL         TT3         AMP3         GR     
# ...
  1802.0000      0.0000    343.1734     13.3653    127.6128
  1802.2500      0.0000    343.1262     13.2530    128.5524
  1802.5000      0.0000    343.0751     13.1770    128.3200
  1802.7500      0.0000    343.0279     13.1265    126.6681
  1803.0000      0.0000    343.0259     13.0845    123.8959
  1803.2500      0.0000    343.1536     13.0364    121.3053
  1803.5000      0.0000    343.5598     12.9723    120.5973
  1803.7500      0.0000    344.4973     12.8846    122.6503
  1804.0000      0.0000    346.2328     12.7738    126.8629
  1804.2500      0.0000    348.6809     12.6589    131.6178
  1804.5000      0.0000    351.0403     12.5722    135.3146
  1804.7500      0.0000    352.1041     12.5343    137.1434
  1805.0000      0.0000    351.2751     12.5333    137.3340
  1805.2500      0.0000    349.1668     12.5362    136.8736
  1805.5000      0.0000    346.9962     12.5185    136.7619
  1805.7500      0.0000    345.5849     12.4815    137.3076
  1806.0000      0.0000    345.1360     12.4424    138.1051
  1806.2500      0.0000    345.7349     12.4149    138.6152
  1806.5000      0.0000    347.7062     12.4024    138.7265
  1806.7500      0.0000    351.2325     12.4025    138.6579
  1807.0000      0.0000    355.5155     12.4150    138.4008
  1807.2500      0.0000    358.6077     12.4439    137.6919
  1807.5000      0.0000    358.6893     12.4913    136.6283
  1807.7500      0.0000    355.7168     12.5500    135.6398
  1808.0000      0.0000    351.4644     12.6060    134.6091
  1808.2500      0.0000    347.9373     12.6493    132.8970
  1808.5000      0.0000    346.1171     12.6799    130.6448
  1808.7500      0.0000    346.1405     12.7023    129.2432
  1809.0000      0.0000    348.0189     12.7227    130.0123
  1809.2500      0.0000    351.6299     12.7515    132.7061
  1809.5000      0.0000    355.9771     12.8067    135.4196
  1809.7500      0.0000    358.9879     12.9106    136.0326
  1810.0000      0.0000    358.7779     13.0777    134.0183
  1810.2500      0.0000    355.3132     13.2992    130.7781
  1810.5000      0.0000    350.4599     13.5419    128.0816
  1810.7500      0.0000    346.3253     13.7672    126.3376
  1811.0000      0.0000    343.8313     13.9512    124.5953
  1811.2500      0.0000    342.7209     14.0916    122.0688
  1811.5000      0.0000    342.3878     14.1987    119.2770
  1811.7500      0.0000    342.5560     14.2804    117.3698
  1812.0000      0.0000    343.5569     14.3280    116.6489
  1812.2500      0.0000    346.2735     14.3200    116.4307
  1812.5000      0.0000    351.8542     14.2415    116.2725
  1812.7500      0.0000    361.5556     14.0987    116.6492
  1813.0000      0.0000    377.2126     13.9082    118.1763
  1813.2500      0.0000    401.7432     13.6793    120.3545
  1813.5000      0.0000    437.2939     13.4153    121.4572
  1813.7500      0.0000    481.0749     13.1253    120.0295
  1814.0000      0.0000    524.6783     12.8236    116.3620
  1814.2500      0.0000    560.7437     12.5201    112.0854
  1814.5000      0.0000    589.3853     12.2181    108.5622
  1814.7500      0.0000    615.0485     11.9203    106.0754
  1815.0000      0.0000    638.8336     11.6314    104.1805
  1815.2500      0.0000    657.5232     11.3600    102.0585
  1815.5000      0.0000    668.5273     11.1220     98.5953
  1815.7500      0.0000    672.3195     10.9368     92.9007
  1816.0000      0.0000    670.4268     10.8144     85.2877
  1816.2500      0.0000    663.6188     10.7522     77.6675
  1816.5000      0.0000    653.2957     10.7407     72.6399
  1816.7500      0.0000    643.9432     10.7585     71.9806
  1817.0000      0.0000    642.0674     10.7660     75.7912
  1817.2500      0.0000    650.8561     10.7277     82.8438
  1817.5000      0.0000    666.3748     10.6461     91.5295
  1817.7500      0.0000    680.4944     10.5594    100.5338
  1818.0000      0.0000    687.4116     10.5052    108.8088
  1818.2500      0.0000    686.9605     10.4930    115.0331
  1818.5000      0.0000    682.7146     10.5066    117.5023
  1818.7500      0.0000    678.2376     10.5190    115.1947
  1819.0000      0.0000    675.0862     10.5081    109.0685
  1819.2500      0.0000    673.0135     10.4663    101.7054
  1819.5000      0.0000    670.6616     10.3995     95.2882
  1819.7500      0.0000    665.4933     10.3186     90.1251
  1820.0000      0.0000    653.7699     10.2380     85.1658
  1820.2500      0.0000    632.5199     10.1787     79.5441
  1820.5000      0.0000    603.4721     10.1597     73.5794
  1820.7500      0.0000    574.7198     10.1821     68.6190
  1821.0000      0.0000    555.8764     10.2270     65.9175
  1821.2500      0.0000    550.4122     10.2695     65.5046
  1821.5000      0.0000    554.3527     10.2932     66.2209
  1821.7500      0.0000    562.2465     10.2980     67.0297
  1822.0000      0.0000    570.9996     10.3049     68.2510
  1822.2500      0.0000    578.1470     10.3526     71.5496
  1822.5000      0.0000    582.0807     10.4736     78.7095
  1822.7500      0.0000    585.6119     10.6691     90.0694
  1823.0000      0.0000    594.3112     10.9066    103.8810
  1823.2500      0.0000    609.5519     11.1450    117.4554
  1823.5000      0.0000    626.6855     11.3607    128.9689
  1823.7500      0.0000    640.5060     11.5518    137.8648
  1824.0000      0.0000    649.4286     11.7263    143.8911
  1824.2500      0.0000    654.6171     11.8897    146.6926
  1824.5000      0.0000    656.8699     12.0393    146.5332
  1824.7500      0.0000    653.6184     12.1647    144.6008
  1825.0000      0.0000    639.0511     12.2541    141.8954
  1825.2500      0.0000    609.1754     12.3028    138.0388
  1825.5000      0.0000    566.3576     12.3191    131.9012
  1825.7500      0.0000    517.8309     12.3191    123.6156
  1826.0000      0.0000    471.5104     12.3157    115.4257
  1826.2500      0.0000    433.7267     12.3114    110.1364
  1826.5000      0.0000    407.8654     12.3040    108.9128
  1826.7500      0.0000    393.1660     12.2932    110.6712
  1827.0000      0.0000    385.6201     12.2785    113.2739
  1827.2500      0.0000    380.6253     12.2570    115.2110
  1827.5000      0.0000    375.0489     12.2270    116.4520
  1827.7500      0.0000    367.9723     12.1885    118.0499
  1828.0000      0.0000    360.6563     12.1390    121.0003
  1828.2500      0.0000    355.9565     12.0748    125.2359
  1828.5000      0.0000    357.3571     11.9998    129.4862
  1828.7500      0.0000    367.5166     11.9265    132.1726
  1829.0000      0.0000    385.4683     11.8667    132.6984
  1829.2500      0.0000    404.4146     11.8234    131.7404
  1829.5000      0.0000    415.3853     11.7929    129.8903
  1829.7500      0.0000    416.6911     11.7728    126.2151
  1830.0000      0.0000    418.2675     11.7668    118.9525
  1830.2500      0.0000    432.2106     11.7829    107.8716
  1830.5000      0.0000    457.9084     11.8285     95.3058
  1830.7500      0.0000    479.0801     11.9096     84.4446
  1831.0000      0.0000    477.7765     12.0291     76.9636
  1831.2500      0.0000    450.9907     12.1833     72.5788
  1831.5000      0.0000    412.2784     12.3571     70.3979
  1831.7500      0.0000    378.6668     12.5272     70.0730
  1832.0000      0.0000    358.9205     12.6700     71.7694
  1832.2500      0.0000    353.1035     12.7711     75.6007
  1832.5000      0.0000    358.6255     12.8296     81.1903
  1832.7500      0.0000    373.9995     12.8581     87.4552
  1833.0000      0.0000    397.7861     12.8787     92.9314
  1833.2500      0.0000    425.3848     12.9153     96.8182
  1833.5000      0.0000    447.8525     12.9826     99.7966
  1833.7500      0.0000    455.5575     13.0760    103.4796
  1834.0000      0.0000    444.8394     13.1741    109.0597
  1834.2500      0.0000    421.6230     13.2488    116.6166
  1834.5000      0.0000    398.0550     13.2684    125.2612
  1834.7500      0.0000    385.6267     13.1925    133.2919
  1835.0000      0.0000    390.7908     12.9883    138.5018
  1835.2500      0.0000    413.8356     12.6792    139.3048
