~Version Information
VERS.                      2.0: CWLS Log ASCII Standard - VERSION 2.0
WRAP.                       NO: One line per depth step
~Well Information Block
STRT.FT               240.0000: 
STOP.FT              1043.5000: 
STEP.FT                 0.2500: 
NULL.                -999.2500: 
COMP.          Pioneer Natural Resources: COMPANY
WELL.          Stags Leap 13-30: WELL
FLD.           Purgatorie River: FIELD
LOC.           1813' FSL & 117' FWL: LOCATION
PROV.                 Colorado: PROVINCE
CNTY.               Las Animas: COUNTRY
SRVC.                Patterson: SERVICE COMPANY
DATE.          Thu Dec 08 19:20:57 2005: LOG DATE
UWI.                          : UNIQUE WELL ID
~Curve Information Block
DEPT.FT            0 000 00 00: Depth
DIR.Ohm-m                     : IEL Induction Resistivity
GR.GAPI                       : Gamma Ray
~Parameter Information Block
~A  Depth       DIR          GR     
# ...
   909.0000     28.2537     88.9879
   909.2500     27.7754     88.5955
   909.5000     27.1894     88.0367
   909.7500     26.5385     87.7769
   910.0000     25.8828     87.3897
   910.2500     25.2872     86.8548
   910.5000     24.8024     85.3253
   910.7500     24.4485     83.9783
   911.0000     24.2133     82.2599
   911.2500     24.0672     81.8243
   911.5000     23.9840     82.7778
   911.7500     23.9555     84.5848
   912.0000     23.9923     89.0030
   912.2500     24.1137     92.9217
   912.5000     24.3354     99.4742
   912.7500     24.6619    103.4675
   913.0000     25.0866    107.3159
   913.2500     25.6024    107.9103
   913.5000     26.2123    106.0716
   913.7500     26.9319    103.6418
   914.0000     27.7797     99.3004
   914.2500     28.7617     96.3578
   914.5000     29.8567     92.1793
   914.7500     31.0089     89.5872
   915.0000     32.1356     85.9889
   915.2500     33.1481     83.8248
   915.5000     33.9764     81.1285
   915.7500     34.5768     79.8602
   916.0000     34.9225     79.0332
   916.2500     34.9975     79.2937
   916.5000     34.8122     80.7316
   916.7500     34.4302     82.0192
   917.0000     33.9655     83.5271
   917.2500     33.5352     83.8131
   917.5000     33.1974     83.0217
   917.7500     32.9246     82.0019
   918.0000     32.6340     80.6949
   918.2500     32.2471     80.5117
   918.5000     31.7327     81.6888
   918.7500     31.1042     83.2645
   919.0000     30.3930     85.9636
   919.2500     29.6281     87.4423
   919.5000     28.8318     88.6414
   919.7500     28.0205     88.7741
   920.0000     27.2029     88.3903
   920.2500     26.3800     88.0278
   920.5000     25.5495     87.6068
   920.7500     24.7135     87.4821
   921.0000     23.8819     87.6749
   921.2500     23.0711     88.1500
   921.5000     22.2996     89.4839
   921.7500     21.5839     90.8198
   922.0000     20.9351     93.3627
   922.2500     20.3558     95.1152
   922.5000     19.8370     97.1917
   922.7500     19.3586     98.1332
   923.0000     18.8948     99.5642
   923.2500     18.4222    101.1543
   923.5000     17.9295    105.1830
   923.7500     17.4236    108.8803
   924.0000     16.9284    114.9853
   924.2500     16.4774    118.6177
   924.5000     16.1031    122.1046
   924.7500     15.8291    122.6428
   925.0000     15.6656    120.7566
   925.2500     15.6077    118.2341
   925.5000     15.6354    114.0968
   925.7500     15.7151    111.9734
   926.0000     15.8074    110.5317
   926.2500     15.8799    110.7415
   926.5000     15.9196    112.2919
   926.7500     15.9379    113.5580
   927.0000     15.9652    114.4123
   927.2500     16.0413    113.6478
   927.5000     16.2063    110.6110
   927.7500     16.4945    108.0976
   928.0000     16.9296    105.1508
   928.2500     17.5173    104.2722
   928.5000     18.2396    104.6398
   928.7500     19.0553    105.6680
   929.0000     19.9123    107.5248
   929.2500     20.7679    108.5148
   929.5000     21.6010    109.2046
   929.7500     22.4065    109.0885
   930.0000     23.1784    107.9620
   930.2500     23.9025    106.3719
   930.5000     24.5670    102.3941
   930.7500     25.1812     98.8295
   931.0000     25.7792     93.0912
   931.2500     26.3996     89.6767
   931.5000     27.0580     85.8082
   931.7500     27.7334     84.0632
   932.0000     28.3733     82.4659
   932.2500     28.9105     82.0400
   932.5000     29.2728     82.4468
   932.7500     29.3864     83.4156
   933.0000     29.1893     85.8252
   933.2500     28.6689     88.1031
   933.5000     27.8983     92.6272
   933.7500     27.0251     96.1232
   934.0000     26.2054    100.7605
   934.2500     25.5363    102.5212
   934.5000     25.0330    102.4861
   934.7500     24.6507    101.0588
   935.0000     24.3255     98.1240
   935.2500     24.0069     96.2346
   935.5000     23.6742     93.8609
   935.7500     23.3357     92.6175
   936.0000     23.0190     91.5188
   936.2500     22.7559     91.5612
   936.5000     22.5705     92.9698
   936.7500     22.4724     94.6182
   937.0000     22.4566     97.6382
   937.2500     22.5074     99.8286
   937.5000     22.6031    103.2215
   937.7500     22.7213    105.4213
   938.0000     22.8432    108.3233
   938.2500     22.9559    109.8229
   938.5000     23.0537    111.0486
   938.7500     23.1391    110.9224
   939.0000     23.2220    109.1856
   939.2500     23.3145    107.3076
   939.5000     23.4211    104.4762
   939.7500     23.5281    103.1989
   940.0000     23.5993    102.6434
   940.2500     23.5819    102.9704
   940.5000     23.4260    103.7574
   940.7500     23.1116    104.1904
   941.0000     22.6656    104.7962
   941.2500     22.1512    105.4586
   941.5000     21.6323    107.3538
   941.7500     21.1408    109.3418
   942.0000     20.6728    113.0066
   942.2500     20.2112    115.2945
   942.5000     19.7525    117.3151
   942.7500     19.3158    117.3665
   943.0000     18.9289    115.8522
   943.2500     18.6112    114.4186
   943.5000     18.3668    112.8071
   943.7500     18.1903    112.4890
   944.0000     18.0760    113.0927
   944.2500     18.0216    113.8585
   944.5000     18.0243    114.8047
   944.7500     18.0748    114.9934
   945.0000     18.1553    114.4718
   945.2500     18.2440    113.6724
   945.5000     18.3205    112.0000
   945.7500     18.3712    110.6691
   946.0000     18.3912    108.6325
   946.2500     18.3844    107.5565
   946.5000     18.3600    106.9375
   946.7500     18.3295    107.3206
   947.0000     18.3042    108.8456
   947.2500     18.2968    110.2594
   947.5000     18.3240    112.7517
   947.7500     18.4060    114.6023
   948.0000     18.5615    117.4304
   948.2500     18.8013    119.1235
   948.5000     19.1239    121.0611
   948.7500     19.5162    121.8902
   949.0000     19.9562    122.3773
   949.2500     20.4149    122.0785
   949.5000     20.8631    120.4697
   949.7500     21.2853    118.6257
   950.0000     21.6928    114.8945
   950.2500     22.1194    111.8061
   950.5000     22.5942    106.1088
   950.7500     23.1090    101.5198
   951.0000     23.6056     93.7170
   951.2500     23.9976     88.3770
   951.5000     24.2100     81.3624
   951.7500     24.2056     78.0571
   952.0000     23.9830     75.8891
   952.2500     23.5640     76.2828
   952.5000     22.9909     78.9495
   952.7500     22.3279     81.6036
   953.0000     21.6532     86.3165
   953.2500     21.0355     89.8188
   953.5000     20.5143     95.4484
   953.7500     20.0931     99.2048
   954.0000     19.7482    104.1659
   954.2500     19.4471    106.7015
   954.5000     19.1658    109.4069
   954.7500     18.8991    110.8806
   955.0000     18.6584    113.2191
   955.2500     18.4604    114.7543
   955.5000     18.3164    116.0301
   955.7500     18.2304    115.6268
   956.0000     18.2046    113.1306
   956.2500     18.2468    110.8809
   956.5000     18.3716    108.1864
   956.7500     18.5939    107.3436
   957.0000     18.9199    107.1251
   957.2500     19.3425    107.0784
   957.5000     19.8431    106.6641
   957.7500     20.3978    106.4583
   958.0000     20.9791    107.1303
   958.2500     21.5532    108.3153
   958.5000     22.0778    110.0911
   958.7500     22.5123    110.2779
   959.0000     22.8394    108.0275
   959.2500     23.0841    105.0433
   959.5000     23.3130     99.8193
   959.7500     23.6080     96.8864
   960.0000     24.0243     94.6138
   960.2500     24.5541     94.7831
   960.5000     25.1186     97.1502
   960.7500     25.6004     99.4626
   961.0000     25.9048    102.4936
   961.2500     26.0051    103.4459
   961.5000     25.9419    102.8266
   961.7500     25.7891    101.4368
   962.0000     25.6207     99.2112
   962.2500     25.4919     98.3232
   962.5000     25.4307     98.4029
   962.7500     25.4370     99.3918
   963.0000     25.4907    101.9889
   963.2500     25.5689    104.0638
   963.5000     25.6593    106.6549
   963.7500     25.7567    107.5457
   964.0000     25.8447    107.5966
   964.2500     25.8826    107.1694
   964.5000     25.8165    106.4860
