~Version Information
VERS.                      2.0: CWLS Log ASCII Standard - VERSION 2.0
WRAP.                       NO: One line per depth step
~Well Information Block
STRT.FT              1585.0000: 
STOP.FT              2353.0000: 
STEP.FT                 0.2500: 
NULL.                -999.2500: 
COMP.          XTO Energy Inc.: COMPANY
WELL.          Hill Ranch 15-11: WELL
FLD.           Purgatrorie River: FIELD
LOC.           1862' FSL & 1801' FWL: LOCATION
STAT.                       CO: State
CNTY.               Las Animas: COUNTY
CTRY. USA : Country
SECT. 15 : Section
TOWN. 35S : Township
RANG. 67W : Range
SRVC.          Patterson Wireline: SERVICE COMPANY
DATE.          Thu Dec 08 10:20:02 2005: LOG DATE
API.              05 071 08472: UNIQUE WELL ID
~Curve Information Block
DEPT.FT            0 000 00 00: Depth
CCL.                          : Casing Collar Locator
TT3.usec                      : CBL 3' Travel Time
AMP3.mV                       : CBL 3' Amplitude
BONDIX.                       : CBL Bond Index
GR.GAPI                       : Gamma Ray
~Parameter Information Block
~A  Depth       CCL         TT3         AMP3       BONDIX        GR     
  1585.0000   -999.2500   -999.2500   -999.2500   -999.2500    134.8658
  1585.2500   -999.2500   -999.2500   -999.2500   -999.2500    135.1226
  1585.5000   -999.2500   -999.2500   -999.2500   -999.2500    137.6568
  1585.7500   -999.2500   -999.2500   -999.2500   -999.2500    140.7194
  1586.0000   -999.2500   -999.2500   -999.2500   -999.2500    142.7922
  1586.2500   -999.2500   -999.2500   -999.2500   -999.2500    143.7573
  1586.5000   -999.2500   -999.2500   -999.2500   -999.2500    145.0238
  1586.7500   -999.2500   -999.2500   -999.2500   -999.2500    148.4283
  1587.0000   -999.2500   -999.2500   -999.2500   -999.2500    154.4364
  1587.2500   -999.2500   -999.2500   -999.2500   -999.2500    161.3459
  1587.5000   -999.2500   -999.2500   -999.2500   -999.2500    166.8131
  1587.7500   -999.2500   -999.2500   -999.2500   -999.2500    170.1209
  1588.0000   -999.2500   -999.2500   -999.2500   -999.2500    172.3124
  1588.2500   -999.2500   -999.2500   -999.2500   -999.2500    174.3594
  1588.5000   -999.2500   -999.2500   -999.2500   -999.2500    176.1419
  1588.7500   -999.2500   -999.2500   -999.2500   -999.2500    177.3072
  1589.0000   -999.2500   -999.2500   -999.2500   -999.2500    178.3009
  1589.2500   -999.2500   -999.2500   -999.2500   -999.2500    180.0108
  1589.5000   -999.2500   -999.2500   -999.2500   -999.2500    182.6650
  1589.7500   -999.2500   -999.2500   -999.2500   -999.2500    185.7033
  1590.0000   -999.2500   -999.2500   -999.2500   -999.2500    188.6903
  1590.2500   -999.2500    749.9617      2.4542      0.8028    191.6516
  1590.5000   -999.2500    750.8093      2.4330      0.8047    194.4031
  1590.7500   -999.2500    751.3643      2.4160      0.8062    196.2698
  1591.0000   -999.2500    747.8635      2.4005      0.8076    196.7323
  1591.2500   -999.2500    737.1939      2.3843      0.8091    195.6262
  1591.5000   -999.2500    719.2593      2.3666      0.8107    192.4757
  1591.7500   -999.2500    698.0918      2.3493      0.8124    186.3981
  1592.0000   -999.2500    679.9167      2.3396      0.8133    177.0969
  1592.2500   -999.2500    669.2798      2.3525      0.8121    165.5627
  1592.5000   -999.2500    666.8344      2.4062      0.8071    153.5751
  1592.7500   -999.2500    670.1436      2.5083      0.7980    142.7341
  1593.0000   -999.2500    675.8881      2.6468      0.7862    133.9543
  1593.2500   -999.2500    681.7686      2.8005      0.7738    127.2937
  1593.5000   -999.2500    687.1469      2.9643      0.7613    121.8056
  1593.7500   -999.2500    691.9326      3.1564      0.7475    116.1716
  1594.0000   -999.2500    694.8689      3.3945      0.7315    110.2760
  1594.2500   -999.2500    693.6313      3.6668      0.7146    105.7953
  1594.5000   -999.2500    686.8987      3.9264      0.6995    104.6115
  1594.7500   -999.2500    676.2738      4.1128      0.6893    107.0761
  1595.0000   -999.2500    666.2911      4.1790      0.6858    112.1766
  1595.2500   -999.2500    662.1877      4.1146      0.6892    118.5722
  1595.5000   -999.2500    666.6111      3.9605      0.6976    124.8671
  1595.7500   -999.2500    677.5426      3.7993      0.7068    129.5511
  1596.0000      0.0000    689.3284      3.7106      0.7119    131.5881
  1596.2500      0.0000    696.1906      3.7197      0.7114    131.1482
  1596.5000      0.0000    695.0253      3.7912      0.7072    129.3532
  1596.7500      0.0000    685.7238      3.8697      0.7027    127.1520
  1597.0000      0.0000    670.7079      3.9197      0.6999    124.5417
  1597.2500      0.0000    654.6846      3.9325      0.6992    120.8420
  1597.5000      0.0000    643.1438      3.9189      0.6999    115.5918
  1597.7500      0.0000    639.5793      3.9051      0.7007    109.3088
  1598.0000      0.0000    643.9399      3.9259      0.6996    103.5356
  1598.2500      0.0000    653.7280      4.0040      0.6952    100.0688
  1598.5000      0.0000    666.0505      4.1266      0.6886    100.0331
  1598.7500      0.0000    678.4257      4.2420      0.6825    103.5347
  1599.0000      0.0000    688.2452      4.2872      0.6802    109.7375
  1599.2500      0.0000    692.8135      4.2265      0.6833    117.1539
  1599.5000      0.0000    690.9007      4.0660      0.6918    124.3983
  1599.7500      0.0000    683.9443      3.8353      0.7047    130.8910
  1600.0000      0.0000    675.0221      3.5636      0.7208    136.5379
  1600.2500      0.0000    666.7938      3.2755      0.7393    141.0377
  1600.5000      0.0000    660.7826      2.9996      0.7587    144.1803
  1600.7500      0.0000    657.9252      2.7684      0.7763    146.5922
  1601.0000      0.0000    658.6196      2.6035      0.7898    149.2144
  1601.2500      0.0000    662.0885      2.5046      0.7983    151.9712
  1601.5000      0.0000    666.5244      2.4532      0.8029    153.9088
  1601.7500      0.0000    670.2353      2.4235      0.8055    154.8367
  1602.0000      0.0000    672.4749      2.3948      0.8081    155.7711
  1602.2500      0.0000    673.2625      2.3596      0.8114    157.3556
  1602.5000      0.0000    673.0156      2.3239      0.8147    158.8366
  1602.7500      0.0000    672.7536      2.3012      0.8169    159.1639
  1603.0000      0.0000    674.3669      2.3024      0.8168    158.4716
  1603.2500      0.0000    679.6484      2.3299      0.8142    158.1514
  1603.5000      0.0000    688.1672      2.3787      0.8096    159.8301
  1603.7500      0.0000    696.4965      2.4405      0.8040    164.0515
  1604.0000      0.0000    700.8754      2.5061      0.7982    169.3958
  1604.2500      0.0000    701.1343      2.5664      0.7929    173.0912
  1604.5000      0.0000    701.2858      2.6123      0.7890    172.9235
  1604.7500      0.0000    705.8160      2.6365      0.7870    168.6094
  1605.0000      0.0000    715.7278      2.6357      0.7871    161.6425
  1605.2500      0.0000    728.2496      2.6137      0.7889    154.3671
  1605.5000      0.0000    739.6804      2.5817      0.7916    149.0083
  1605.7500      0.0000    747.8356      2.5545      0.7940    146.8085
  1606.0000      0.0000    752.1021      2.5434      0.7949    147.6634
  1606.2500      0.0000    752.4855      2.5510      0.7943    150.5394
  1606.5000      0.0000    749.4866      2.5695      0.7927    154.2660
  1606.7500      0.0000    744.1793      2.5835      0.7915    158.0652
  1607.0000      0.0000    737.4254      2.5779      0.7920    161.6190
  1607.2500      0.0000    729.2322      2.5479      0.7945    165.0043
  1607.5000      0.0000    719.3820      2.5042      0.7983    168.5906
  1607.7500      0.0000    708.4411      2.4661      0.8017    172.5418
  1608.0000      0.0000    698.1793      2.4488      0.8032    176.1637
  1608.2500      0.0000    691.4770      2.4568      0.8025    178.1736
  1608.5000      0.0000    691.3777      2.4853      0.8000    178.1082
  1608.7500      0.0000    698.9194      2.5270      0.7963    177.0593
  1609.0000      0.0000    711.3137      2.5757      0.7922    176.4364
  1609.2500      0.0000    722.9409      2.6270      0.7878    176.4292
  1609.5000      0.0000    729.0947      2.6792      0.7835    176.1779
  1609.7500      0.0000    729.1660      2.7353      0.7789    174.8282
  1610.0000      0.0000    726.3763      2.8024      0.7736    171.8742
  1610.2500      0.0000    725.0291      2.8867      0.7671    167.1076
  1610.5000      0.0000    728.0020      2.9878      0.7595    160.9313
  1610.7500      0.0000    735.3541      3.0998      0.7515    154.5697
  1611.0000      0.0000    744.0095      3.2158      0.7434    149.6672
  1611.2500      0.0000    749.7684      3.3285      0.7358    147.4344
  1611.5000      0.0000    751.0547      3.4283      0.7293    147.6863
  1611.7500      0.0000    749.9953      3.5044      0.7245    148.7746
  1612.0000      0.0000    749.0804      3.5524      0.7215    149.1208
  1612.2500      0.0000    748.3077      3.5820      0.7197    148.8665
  1612.5000      0.0000    746.8857      3.6149      0.7177    149.5573
  1612.7500      0.0000    745.9559      3.6726      0.7142    152.3941
