~Version Information
VERS.                      2.0: CWLS Log ASCII Standard - VERSION 2.0
WRAP.                       NO: One line per depth step
~Well Information Block
STRT.FT                -8.2500: 
STOP.FT              1580.5000: 
STEP.FT                 0.2500: 
NULL.                -999.2500: 
COMP.          Pioneer Natural Resources: COMPANY
WELL.          Daytona 31-14 Tr: WELL
FLD.           Purgatorie River: FIELD
LOC.           683' FNL & 1943' FEL--: LOCATION
CNTY.               Las Animas: COUNTY
SRVC.          Patterson Wireline: SERVICE COMPANY
DATE.          Thu Feb 02 08:47:22 2006: LOG DATE
UWI.           05 071 08681 00: UNIQUE WELL ID
STAT.                       CO: STATE
~Curve Information Block
DEPT.FT            0 000 00 00: Depth
CCL.                          : Casing Collar Locator
TT3.usec                      : CBL 3' Travel Time
AMP3.mV                       : CBL 3' Amplitude
GR.GAPI                       : Gamma Ray
~Parameter Information Block
~A  Depth       CCL         TT3         AMP3         GR     
# ...
  1331.7500      0.0000    581.1773      4.1040    140.3184
  1332.0000      0.0000    594.2601      4.1670    141.0836
  1332.2500      0.0000    614.9683      4.2314    141.3643
  1332.5000      0.0000    639.4764      4.2672    141.0883
  1332.7500      0.0000    663.6250      4.2507    141.3739
  1333.0000      0.0000    685.6779      4.1902    143.5701
  1333.2500      0.0000    705.3991      4.1232    147.4757
  1333.5000      0.0000    722.3320      4.0864    150.6336
  1333.7500      0.0000    735.4461      4.0917    149.7587
  1334.0000      0.0000    742.6830      4.1264    142.9805
  1334.2500      0.0000    740.1962      4.1699    130.8606
  1334.5000      0.0000    724.6117      4.2099    115.6515
  1334.7500      0.0000    698.8846      4.2475     99.9500
  1335.0000      0.0000    674.3067      4.2889     85.9293
  1335.2500      0.0000    662.6840      4.3338     75.2526
  1335.5000      0.0000    666.4454      4.3723     68.9809
  1335.7500      0.0000    678.7609      4.3939     67.2750
  1336.0000      0.0000    690.9199      4.3979     69.2172
  1336.2500      0.0000    695.2114      4.3941     73.0330
  1336.5000      0.0000    683.9346      4.3949     76.7937
  1336.7500      0.0000    653.2487      4.4055     79.3848
  1337.0000      0.0000    610.0928      4.4225     81.1732
  1337.2500      0.0000    572.2042      4.4378     83.7722
  1337.5000      0.0000    558.1223      4.4450     88.9854
  1337.7500      0.0000    574.6074      4.4405     97.6940
  1338.0000      0.0000    611.7255      4.4203    109.4164
  1338.2500      0.0000    649.1467      4.3747    122.5834
  1338.5000      0.0000    668.1144      4.2931    135.1291
  1338.7500      0.0000    660.7678      4.1787    145.0387
  1339.0000      0.0000    631.8883      4.0541    150.8902
  1339.2500      0.0000    593.6942      3.9496    152.5629
  1339.5000      0.0000    558.7409      3.8850    151.7080
  1339.7500      0.0000    536.1731      3.8638    151.0475
  1340.0000      0.0000    531.3517      3.8794    152.4833
  1340.2500      0.0000    544.9904      3.9213    155.7090
  1340.5000      0.0000    571.1538      3.9794    158.7627
  1340.7500      0.0000    598.8069      4.0456    159.7217
  1341.0000      0.0000    619.3828      4.1133    157.8094
  1341.2500      0.0000    633.5004      4.1753    153.7485
  1341.5000      0.0000    648.2529      4.2258    149.7365
  1341.7500      0.0000    667.8807      4.2637    148.3918
  1342.0000      0.0000    688.9387      4.2919    150.7668
  1342.2500      0.0000    703.8917      4.3132    155.3612
  1342.5000      0.0000    706.9728      4.3277    159.3812
  1342.7500      0.0000    697.0333      4.3341    160.9392
  1343.0000      0.0000    677.9234      4.3324    160.2099
  1343.2500      0.0000    657.5273      4.3255    158.8413
  1343.5000      0.0000    644.0338      4.3199    158.1409
  1343.7500      0.0000    639.9393      4.3252    157.5867
  1344.0000      0.0000    639.3526      4.3467    155.2022
  1344.2500      0.0000    633.3917      4.3792    149.4257
  1344.5000      0.0000    620.0371      4.4119    140.4776
  1344.7500      0.0000    608.4543      4.4399    130.1990
  1345.0000      0.0000    612.2289      4.4647    120.9321
  1345.2500      0.0000    636.9136      4.4852    114.2074
  1345.5000      0.0000    672.9872      4.4943    109.9949
  1345.7500      0.0000    700.6465      4.4894    107.2442
  1346.0000      0.0000    703.4521      4.4820    105.0282
  1346.2500      0.0000    681.0819      4.4879    102.9917
  1346.5000      0.0000    651.2814      4.5027    101.2190
  1346.7500      0.0000    637.5276      4.4994    100.1236
  1347.0000      0.0000    650.6556      4.4645    100.0597
  1347.2500      0.0000    680.2158      4.4208    100.5756
  1347.5000      0.0000    703.5115      4.3981    100.4669
  1347.7500      0.0000    704.1351      4.3913     99.2903
  1348.0000      2.0000    684.5134      4.3684     98.7859
  1348.2500      0.0000    662.8256      4.3113    102.0795
  1348.5000      0.0000    657.5195      4.2343    111.0183
  1348.7500      0.0000    672.9328      4.1679    124.3515
  1349.0000      0.0000    698.1229      4.1326    138.4995
  1349.2500      0.0000    718.1589      4.1215    149.9600
  1349.5000      0.0000    725.8266      4.0985    157.2183
  1349.7500      0.0000    723.8668      4.0225    160.8549
  1350.0000      0.0000    719.1905      3.8793    162.1073
  1350.2500      0.0000    716.7360      3.6877    161.3237
  1350.5000      0.0000    717.5904      3.4799    157.6824
  1350.7500      0.0000    720.4206      3.2862    150.3344
  1351.0000      0.0000    723.4063      3.1311    139.7745
  1351.2500      0.0000    725.4030      3.0303    128.0158
  1351.5000      0.0000    726.6777      2.9849    117.3702
  1351.7500      0.0000    729.0258      2.9830    109.0779
  1352.0000      0.0000    734.1203      3.0095    103.0260
  1352.2500      0.0000    740.9127      3.0529     98.5274
  1352.5000      0.0000    745.5669      3.1080     95.3172
  1352.7500      0.0000    745.0447      3.1767     93.9536
  1353.0000      0.0000    740.2216      3.2666     95.3822
  1353.2500      0.0000    734.4741      3.3835    100.2228
  1353.5000      0.0000    729.6927      3.5208    108.4278
  1353.7500      0.0000    724.7072      3.6556    119.2715
  1354.0000      0.0000    716.8893      3.7576    131.4224
  1354.2500      0.0000    704.2831      3.8069    143.2875
  1354.5000      0.0000    687.4999      3.8070    153.6024
  1354.7500      0.0000    671.3119      3.7795    161.6297
  1355.0000      0.0000    662.9907      3.7488    166.8043
  1355.2500      0.0000    666.5031      3.7297    168.5887
  1355.5000      0.0000    678.6100      3.7266    166.8210
  1355.7500      0.0000    692.0123      3.7390    161.7798
  1356.0000      0.0000    701.4183      3.7642    153.9814
  1356.2500      0.0000    705.6695      3.7985    144.4465
  1356.5000      0.0000    705.3584      3.8367    134.9773
  1356.7500      0.0000    700.2025      3.8741    127.3114
  1357.0000      0.0000    689.1104      3.9080    121.6662
  1357.2500      0.0000    672.0375      3.9388    116.4872
  1357.5000      0.0000    650.4318      3.9672    110.0308
  1357.7500      0.0000    625.4771      3.9899    102.2433
  1358.0000      0.0000    597.8600      3.9991     94.9679
  1358.2500      0.0000    570.8572      3.9880     90.5329
  1358.5000      0.0000    552.0367      3.9559     90.2404
  1358.7500      0.0000    549.9995      3.9100     93.6856
  1359.0000      0.0000    569.2322      3.8617     98.9021
  1359.2500      0.0000    606.9822      3.8227    103.2861
  1359.5000      0.0000    653.0156      3.8037    104.9473
  1359.7500      0.0000    692.9799      3.8125    103.5795
  1360.0000      0.0000    714.9169      3.8488    100.3544
  1360.2500      0.0000    714.8354      3.9005     97.2096
  1360.5000      0.0000    696.9178      3.9505     96.0134
  1360.7500      0.0000    668.6722      3.9868     97.7385
  1361.0000      0.0000    635.9709      4.0066    101.9258
  1361.2500      0.0000    602.7137      4.0136    106.8634
  1361.5000      0.0000    574.1891      4.0137    110.4566
  1361.7500      0.0000    558.1679      4.0153    111.2519
  1362.0000      0.0000    560.6631      4.0280    109.1895
  1362.2500      0.0000    580.5796      4.0566    105.7343
  1362.5000      0.0000    609.3464      4.0953    102.8908
  1362.7500      0.0000    636.1823      4.1312    101.6404
  1363.0000      0.0000    653.9528      4.1539    101.5822
  1363.2500      0.0000    660.6316      4.1602    102.3712
  1363.5000      0.0000    656.5900      4.1518    104.8126
  1363.7500      0.0000    642.2181      4.1309    109.7644
  1364.0000      0.0000    618.7420      4.1007    116.3234
  1364.2500      0.0000    590.2338      4.0677    122.1918
  1364.5000      0.0000    562.9211      4.0423    125.9096
  1364.7500      0.0000    541.5703      4.0349    127.7196
  1365.0000      0.0000    526.8096      4.0504    127.9687
