~Version Information
VERS.                      2.0: CWLS Log ASCII Standard - VERSION 2.0
WRAP.                       NO: One line per depth step
~Well Information Block
STRT.FT                10.0000: 
STOP.FT               959.2500: 
STEP.FT                 0.2500: 
NULL.                -999.2500: 
COMP.          XTO Energy Inc.: COMPANY
WELL.          Golden Eagle 20-04: WELL
FLD.           Purgatrorie River: FIELD
LOC.           702' FNL & 487' FWL--: LOCATION
STAT.                       CO: State
CNTY.               Las Animas: COUNTY
CTRY. USA : Country
SECT. 20 : Section
TOWN. 33S : Township
RANG. 67W : Range
SRVC.          Patterson Wireline: SERVICE COMPANY
DATE.          Mon Dec 05 08:42:44 2005: LOG DATE
API.           05 071 08599 00: UNIQUE WELL ID
~Curve Information Block
DEPT.FT            0 000 00 00: Depth
TEMP.degF                     : Downhole Temperature
DTMP.degF                     : Delta Temperature
~Parameter Information Block
~A  Depth       TEMP        DTMP    
# ...
   400.2500     58.5385      0.0581
   400.5000     58.5545      0.0580
   400.7500     58.5706      0.0579
   401.0000     58.5826      0.0578
   401.2500     58.5985      0.0576
   401.5000     58.6144      0.0573
   401.7500     58.6263      0.0570
   402.0000     58.6419      0.0585
   402.2500     58.6537      0.0562
   402.5000     58.6692      0.0557
   402.7500     58.6846      0.0553
   403.0000     58.6997      0.0547
   403.2500     58.7110      0.0542
   403.5000     58.7259      0.0534
   403.7500     58.7369      0.0526
   404.0000     58.7513      0.0501
   404.2500     58.7620      0.0511
   404.5000     58.7761      0.0501
   404.7500     58.7897      0.0494
   405.0000     58.7999      0.0484
   405.2500     58.8132      0.0491
   405.5000     58.8261      0.0466
   405.7500     58.8357      0.0455
   406.0000     58.8481      0.0461
   406.2500     58.8602      0.0436
   406.5000     58.8692      0.0425
   406.7500     58.8807      0.0417
   407.0000     58.8921      0.0406
   407.2500     58.9004      0.0383
   407.5000     58.9112      0.0388
   407.7500     58.9191      0.0378
   408.0000     58.9294      0.0368
   408.2500     58.9369      0.0360
   408.5000     58.9468      0.0351
   408.7500     58.9563      0.0344
   409.0000     58.9656      0.0335
   409.2500     58.9724      0.0328
   409.5000     58.9813      0.0320
   409.7500     58.9879      0.0313
   410.0000     58.9963      0.0305
   410.2500     59.0026      0.0301
   410.5000     59.0108      0.0294
   410.7500     59.0188      0.0300
   411.0000     59.0267      0.0286
   411.2500     59.0325      0.0292
   411.5000     59.0402      0.0289
   411.7500     59.0479      0.0276
   412.0000     59.0536      0.0273
   412.2500     59.0610      0.0271
   412.5000     59.0685      0.0268
   412.7500     59.0740      0.0257
   413.0000     59.0813      0.0264
   413.2500     59.0867      0.0262
   413.5000     59.0939      0.0251
   413.7500     59.0993      0.0259
   414.0000     59.1063      0.0258
   414.2500     59.1134      0.0257
   414.5000     59.1187      0.0257
   414.7500     59.1258      0.0265
   415.0000     59.1328      0.0257
   415.2500     59.1381      0.0257
   415.5000     59.1452      0.0267
   415.7500     59.1523      0.0259
   416.0000     59.1577      0.0261
   416.2500     59.1649      0.0262
   416.5000     59.1722      0.0264
   416.7500     59.1776      0.0266
   417.0000     59.1850      0.0268
   417.2500     59.1906      0.0270
   417.5000     59.1981      0.0272
   417.7500     59.2056      0.0274
   418.0000     59.2113      0.0275
   418.2500     59.2190      0.0276
   418.5000     59.2266      0.0277
   418.7500     59.2324      0.0278
   419.0000     59.2401      0.0278
   419.2500     59.2458      0.0278
   419.5000     59.2535      0.0269
   419.7500     59.2612      0.0278
   420.0000     59.2670      0.0277
   420.2500     59.2747      0.0286
   420.5000     59.2804      0.0275
   420.7500     59.2880      0.0274
   421.0000     59.2955      0.0282
   421.2500     59.3030      0.0271
   421.5000     59.3086      0.0278
   421.7500     59.3160      0.0267
   422.0000     59.3233      0.0265
   422.2500     59.3288      0.0253
   422.5000     59.3360      0.0260
   422.7500     59.3414      0.0258
   423.0000     59.3484      0.0255
   423.2500     59.3537      0.0253
   423.5000     59.3606      0.0251
   423.7500     59.3675      0.0249
   424.0000     59.3743      0.0246
   424.2500     59.3795      0.0252
   424.5000     59.3861      0.0242
   424.7500     59.3911      0.0239
   425.0000     59.3977      0.0236
   425.2500     59.4042      0.0234
   425.5000     59.4090      0.0231
   425.7500     59.4153      0.0229
   426.0000     59.4216      0.0227
   426.2500     59.4263      0.0224
   426.5000     59.4324      0.0222
   426.7500     59.4370      0.0219
   427.0000     59.4430      0.0215
   427.2500     59.4489      0.0213
   427.5000     59.4533      0.0209
   427.7500     59.4590      0.0207
   428.0000     59.4647      0.0203
   428.2500     59.4688      0.0199
   428.5000     59.4743      0.0201
   428.7500     59.4783      0.0191
   429.0000     59.4836      0.0186
   429.2500     59.4887      0.0182
   429.5000     59.4936      0.0177
   429.7500     59.4972      0.0173
   430.0000     59.5019      0.0167
   430.2500     59.5053      0.0161
   430.5000     59.5096      0.0156
   430.7500     59.5128      0.0152
   431.0000     59.5170      0.0146
   431.2500     59.5209      0.0142
   431.5000     59.5248      0.0137
   431.7500     59.5276      0.0134
   432.0000     59.5311      0.0129
   432.2500     59.5337      0.0124
   432.5000     59.5371      0.0120
   432.7500     59.5396      0.0117
   433.0000     59.5427      0.0113
   433.2500     59.5458      0.0111
   433.5000     59.5487      0.0108
   433.7500     59.5509      0.0110
   434.0000     59.5538      0.0105
   434.2500     59.5559      0.0105
   434.5000     59.5587      0.0101
   434.7500     59.5615      0.0106
   435.0000     59.5637      0.0107
   435.2500     59.5667      0.0113
   435.5000     59.5690      0.0111
   435.7500     59.5721      0.0113
   436.0000     59.5752      0.0119
   436.2500     59.5784      0.0117
   436.5000     59.5808      0.0124
   436.7500     59.5842      0.0122
   437.0000     59.5875      0.0125
   437.2500     59.5901      0.0129
   437.5000     59.5937      0.0132
   437.7500     59.5965      0.0137
   438.0000     59.6003      0.0137
   438.2500     59.6043      0.0147
   438.5000     59.6073      0.0153
   438.7500     59.6115      0.0158
   439.0000     59.6148      0.0167
   439.2500     59.6194      0.0176
   439.5000     59.6244      0.0184
   439.7500     59.6282      0.0194
   440.0000     59.6336      0.0203
   440.2500     59.6395      0.0215
   440.5000     59.6440      0.0228
   440.7500     59.6504      0.0237
   441.0000     59.6555      0.0249
   441.2500     59.6625      0.0261
   441.5000     59.6699      0.0280
   441.7500     59.6756      0.0281
   442.0000     59.6835      0.0300
   442.2500     59.6917      0.0299
   442.5000     59.7001      0.0309
   442.7500     59.7066      0.0316
   443.0000     59.7154      0.0327
   443.2500     59.7222      0.0338
   443.5000     59.7317      0.0336
   443.7500     59.7389      0.0360
   444.0000     59.7489      0.0359
   444.2500     59.7594      0.0384
   444.5000     59.7674      0.0383
   444.7500     59.7786      0.0410
   445.0000     59.7872      0.0425
   445.2500     59.7991      0.0440
   445.5000     59.8083      0.0451
   445.7500     59.8209      0.0465
   446.0000     59.8339      0.0493
   446.2500     59.8473      0.0488
   446.5000     59.8576      0.0516
   446.7500     59.8716      0.0530
   447.0000     59.8859      0.0523
   447.2500     59.8968      0.0535
   447.5000     59.9116      0.0565
   447.7500     59.9269      0.0557
   448.0000     59.9385      0.0571
   448.2500     59.9543      0.0581
   448.5000     59.9706      0.0594
   448.7500     59.9830      0.0608
   449.0000     60.0000      0.0617
   449.2500     60.0129      0.0631
   449.5000     60.0305      0.0620
   449.7500     60.0484      0.0653
   450.0000     60.0620      0.0664
   450.2500     60.0805      0.0672
   450.5000     60.0946      0.0681
   450.7500     60.1136      0.0688
   451.0000     60.1328      0.0715
   451.2500     60.1474      0.0693
   451.5000     60.1667      0.0715
   451.7500     60.1860      0.0689
   452.0000     60.2050      0.0681
   452.2500     60.2191      0.0673
   452.5000     60.2376      0.0660
   452.7500     60.2514      0.0644
   453.0000     60.2690      0.0666
   453.2500     60.2819      0.0678
   453.5000     60.2987      0.0685
   453.7500     60.3148      0.0685
   454.0000     60.3383      0.0682
   454.2500     60.3546      0.0695
   454.5000     60.3746      0.0665
   454.7500     60.3885      0.0651
   455.0000     60.4053      0.0580
   455.2500     60.4209      0.0555
   455.5000     60.4317      0.0508
   455.7500     60.4450      0.0475
