~Version Information
VERS.                      2.0: CWLS Log ASCII Standard - VERSION 2.0
WRAP.                       NO: One line per depth step
~Well Information Block
STRT.FT                10.0000: 
STOP.FT              1350.5000: 
STEP.FT                 0.1000: 
NULL.                -999.2500: 
COMP.          Pioneer Natural Resources: COMPANY
WELL.              Dicks 32-5R: WELL
FLD.           Purgatorie River: FIELD
LOC.           1485' FNL & 1684' FEL: LOCATION
PROV.                 Colorado: PROVINCE
CNTY.               Las Animas: COUNTRY
SRVC.                Patterson: SERVICE COMPANY
DATE.          Fri Dec 09 10:06:15 2005: LOG DATE
UWI.                          : UNIQUE WELL ID
~Curve Information Block
DEPT.FT            0 000 00 00: Depth
DCAL.in                       : CDL Caliper
RHOB.g/cc                     : CDL Bulk Density
RHOC.g/cc                     : CDL Density Correction
DPOR.pu                       : CDL Density Porosity
GR.GAPI                       : Gamma Ray
NPOR.pu                       : Neutron Porosity
~Parameter Information Block
~A  Depth       DCAL        RHOB        RHOC        DPOR         GR         NPOR    
# ...
   806.8000      8.0896      2.5965      0.0808      3.2403    182.4523     25.7314
   806.9000      8.0896      2.6094      0.0751      2.4585    179.5639     25.5913
   807.0000      8.0852      2.6183      0.1153      1.9208    168.8604     25.8179
   807.1000      8.0852      2.6212      0.0851      1.7440    155.5612     26.7551
   807.2000      8.0852      2.6318      0.1044      1.1039    147.0896     27.8159
   807.3000      8.0639      2.6449      0.1347      0.3083    143.8608     28.4929
   807.4000      8.0639      2.6417      0.0740      0.5002    141.2926     28.5527
   807.5000      8.0518      2.6284      0.0406      1.3091    135.3508     27.8486
   807.6000      8.0518      2.6183      0.0814      1.9206    127.8303     26.9458
   807.7000      8.0518      2.6122      0.0334      2.2890    123.5264     26.7515
   807.8000      7.9972      2.6106      0.0413      2.3859    122.5151     27.2347
   807.9000      7.9972      2.6103      0.0552      2.4033    121.8896     27.7534
   808.0000      7.9579      2.6101      0.0434      2.4163    120.9761     27.8935
   808.1000      7.9579      2.6131      0.0604      2.2373    121.7573     27.4134
   808.2000      7.9579      2.6135      0.0767      2.2133    124.4643     26.2910
   808.3000      7.9945      2.6026      0.0511      2.8752    127.9156     25.0358
   808.4000      7.9945      2.5899      0.0376      3.6426    130.8194     24.2443
   808.5000      8.0504      2.5917      0.0908      3.5336    131.7921     23.8895
   808.6000      8.0504      2.6008      0.0656      2.9799    131.7719     23.7852
   808.7000      8.0504      2.6011      0.1042      2.9622    132.9856     23.9518
   808.8000      7.9815      2.6005      0.0520      3.0012    137.5254     24.1475
   808.9000      7.9815      2.6215      0.0772      1.7287    145.5602     24.2192
   809.0000      8.0054      2.6570      0.1214     -0.4214    150.8517     24.4215
   809.1000      8.0054      2.6800      0.1382     -1.8166    148.0173     24.8997
   809.2000      8.0054      2.6834      0.1534     -2.0271    142.6451     25.4285
   809.3000      8.0682      2.6772      0.1106     -1.6507    140.4401     25.7605
   809.4000      8.0682      2.6674      0.1155     -1.0574    139.6862     26.0463
   809.5000      8.0614      2.6527      0.0834     -0.1626    138.2810     26.3853
   809.6000      8.0614      2.6332      0.0906      1.0177    137.7934     26.4028
   809.7000      8.0614      2.6159      0.0169      2.0669    139.3010     25.9479
   809.8000      8.0469      2.6044      0.0684      2.7606    139.7087     25.4248
   809.9000      8.0469      2.5959      0.0142      3.2816    138.1913     25.2420
   810.0000      8.0487      2.5933      0.0814      3.4361    141.0989     25.4695
   810.1000      8.0487      2.5975      0.0576      3.1846    150.1765     25.8311
   810.2000      8.0487      2.5983      0.1276      3.1350    157.7963     25.9852
   810.3000      8.0511      2.5845      0.0751      3.9685    161.2423     25.7540
   810.4000      8.0511      2.5588      0.0129      5.5293    163.9158     25.0788
   810.5000      8.0829      2.5310      0.0442      7.2148    167.3152     24.2862
   810.6000      8.0829      2.5077      0.0387      8.6232    170.4854     24.0189
   810.7000      8.0829      2.4938      0.0595      9.4661    170.2419     24.4079
   810.8000      8.0794      2.4934      0.0375      9.4890    165.6188     24.8394
   810.9000      8.0794      2.5096      0.0674      8.5117    162.7171     24.7300
   811.0000      8.0819      2.5319      0.0842      7.1584    165.1713     24.2536
   811.1000      8.0819      2.5393      0.1236      6.7070    168.8896     23.8769
   811.2000      8.0819      2.5286      0.0688      7.3577    170.3479     23.7536
   811.3000      8.1053      2.5162      0.0751      8.1112    171.6988     23.8208
   811.4000      8.1053      2.5032      0.1166      8.8940    174.6410     23.9255
   811.5000      8.1004      2.4764      0.1490     10.5237    175.8903     23.8846
   811.6000      8.1004      2.4422      0.1046     12.5963    174.5815     23.7170
   811.7000      8.1004      2.4181      0.1059     14.0522    174.6566     23.5254
   811.8000      8.2076      2.4026      0.0839     14.9939    177.1221     23.2700
   811.9000      8.2076      2.3899      0.0714     15.7609    179.5420     23.0509
   812.0000      8.1932      2.3862      0.0483     15.9903    178.4857     22.9269
   812.1000      8.1932      2.3913      0.1235     15.6805    173.5593     22.7183
   812.2000      8.1932      2.3986      0.0923     15.2365    169.5376     22.4565
   812.3000      8.1764      2.4154      0.0941     14.2161    169.0752     22.4234
   812.4000      8.1764      2.4457      0.1430     12.3827    169.6075     22.7237
   812.5000      8.1798      2.4695      0.2024     10.9369    167.0327     23.1939
   812.6000      8.1798      2.4765      0.1647     10.5124    162.1728     23.6428
   812.7000      8.1798      2.4874      0.1151      9.8566    161.0008     23.9525
   812.8000      8.1394      2.5124      0.2051      8.3386    165.1246     24.1390
   812.9000      8.1394      2.5335      0.1973      7.0600    170.0366     24.3576
   813.0000      8.1816      2.5458      0.1119      6.3163    169.8488     24.7333
   813.1000      8.1816      2.5534      0.1693      5.8566    164.1568     25.1556
   813.2000      8.1816      2.5459      0.0975      6.3114    157.8738     25.3043
   813.3000      8.1752      2.5284      0.0966      7.3712    154.7838     25.0997
   813.4000      8.1752      2.5215      0.0750      7.7863    154.8250     24.9000
   813.5000      8.2952      2.5238      0.1349      7.6476    154.0589     24.9277
   813.6000      8.2952      2.5186      0.1064      7.9610    150.9027     24.9841
   813.7000      8.2952      2.5064      0.0998      8.7009    148.8107     24.8927
   813.8000      8.2299      2.5004      0.0618      9.0649    150.8858     24.8093
   813.9000      8.2299      2.5064      0.0829      8.7037    154.2349     24.8301
   814.0000      8.2006      2.5170      0.1025      8.0632    155.0123     24.8107
   814.1000      8.2006      2.5202      0.1301      7.8695    153.7478     24.7297
   814.2000      8.2006      2.5181      0.0897      7.9936    153.1102     24.6343
   814.3000      8.1408      2.5267      0.1716      7.4712    154.2888     24.5096
   814.4000      8.1408      2.5431      0.1882      6.4802    155.8550     24.5274
   814.5000      8.1876      2.5441      0.1915      6.4153    155.3992     24.8226
   814.6000      8.1876      2.5237      0.1385      7.6528    152.4171     25.1048
   814.7000      8.1876      2.5033      0.1094      8.8914    148.5582     25.0128
   814.8000      8.1769      2.5012      0.1153      9.0162    146.2473     24.6006
   814.9000      8.1769      2.5166      0.1676      8.0879    146.2844     24.1318
   815.0000      8.1797      2.5422      0.1690      6.5340    147.0018     23.9139
   815.1000      8.1797      2.5685      0.1740      4.9386    147.9343     24.2470
   815.2000      8.1797      2.5779      0.1852      4.3698    149.4166     24.9071
   815.3000      8.1383      2.5638      0.1423      5.2222    151.4744     25.3894
   815.4000      8.1383      2.5431      0.1492      6.4769    152.6030     25.7556
   815.5000      8.1005      2.5314      0.1523      7.1875    150.2239     26.1740
   815.6000      8.1005      2.5312      0.0948      7.1978    145.6932     26.4653
   815.7000      8.1005      2.5419      0.1222      6.5508    142.9738     26.6929
   815.8000      8.0919      2.5579      0.1129      5.5828    141.8427     27.0911
   815.9000      8.0919      2.5683      0.1070      4.9541    140.3902     27.3797
   816.0000      8.0957      2.5649      0.0494      5.1573    138.8652     27.3102
   816.1000      8.0957      2.5509      0.0511      6.0051    137.9672     27.2611
   816.2000      8.0957      2.5440      0.0022      6.4257    136.5907     27.4541
   816.3000      8.0678      2.5619      0.0397      5.3420    133.9060     27.5786
