~Version Information
 VERS.                                  2.0 : CWLS LAS VERSION
 WRAP.                                   NO : WRAPING MODE
 SWARE .                MController 2.5.0QA : SOFTWARE VERSION
~Well Information
 WELL.                            Ray 34-06 : WELL
 COMP.    Pioneer Natural Resources USA Inc : COMPANY
 FLD.                      Purgatoire River : FIELD
 LOC.                  SWSE Sec06 T34S R65W : LOCATION
 DATE.                             05/25/06 : DATE(S) LOGGED
 SRVC.       Blanco Geological Services LLC : SERVICE COMPANY
 STAT.                             Colorado : STATE
 CNTY.                           Las Animas : COUNTY
 CTRY.                                  USA : COUNTRY
 API.                       05-071-08695-00 : API NUMBER
 STRT.FT                             347.00 : START DEPTH
 STOP.FT                            1270.00 : STOP DEPTH
 STEP.FT                               1.00 : DEPTH INCREMENT
 NULL.                                -9999 : NULL VALUE
~Curve information
 DEPTH.FT                                   :
 ROP.MIN/FT                                 :
 GAS.UNITS                                  :
~ASCII Log data
# ...
       947.0         0.17        217.7 
       948.0         0.30        213.5 
       949.0         0.27        207.0 
       950.0         0.20        190.5 
       951.0         0.17        190.5 
       952.0        26.83       2176.3 
       953.0         0.33        440.0 
       954.0         0.37        205.9 
       955.0         0.33        201.8 
       956.0         0.43        204.0 
       957.0         0.37        204.3 
       958.0         0.35        199.0 
       959.0         0.27        200.5 
       960.0         0.23        200.4 
       961.0         0.33        201.4 
       962.0         0.17        204.3 
       963.0         0.27        204.7 
       964.0         0.33        204.0 
       965.0         0.33        191.9 
       966.0         0.37        183.8 
       967.0         0.33        184.7 
       968.0         0.17        200.2 
       969.0         0.20        208.4 
       970.0         0.25        213.7 
       971.0         0.17        207.6 
       972.0         0.23        189.1 
       973.0         0.23        189.1 
       974.0         0.27        183.5 
       975.0         0.17        166.8 
       976.0         0.23        171.5 
       977.0         0.20        171.5 
       978.0         0.23        183.4 
       979.0         0.23        177.6 
       980.0         0.23        169.6 
       981.0         0.53        161.1 
       982.0         8.88       1663.5 
       983.0         0.37       1191.8 
       984.0         0.43        776.7 
       985.0         0.40        551.7 
       986.0         0.37        534.5 
       987.0         0.35        515.0 
       988.0         0.23        484.3 
       989.0         0.27        484.6 
       990.0         0.17        471.2 
       991.0         0.27        442.5 
       992.0         0.23        440.0 
       993.0         0.27        440.0 
       994.0         0.23        193.6 
       995.0         0.20        194.2 
       996.0         0.10        189.8 
       997.0         0.27        189.1 
       998.0         0.30        189.3 
       999.0         0.33        188.6 
      1000.0         0.28        185.0 
      1001.0         0.30        182.9 
      1002.0         0.33        173.1 
      1003.0         0.20        168.8 
      1004.0         0.30        168.5 
      1005.0         0.37        161.9 
      1006.0         0.33        182.7 
      1007.0         0.37        189.5 
      1008.0         0.27        196.7 
      1009.0         0.33        202.7 
      1010.0         0.30        203.7 
      1011.0         0.35        202.9 
      1012.0         7.93       1505.5 
      1013.0         0.50        655.5 
      1014.0         0.47        511.9 
      1015.0         0.47        463.1 
      1016.0         0.55        440.0 
      1017.0         0.43        181.0 
      1018.0         0.53        192.6 
      1019.0         0.37        195.1 
      1020.0         0.33        188.1 
      1021.0         0.33        170.0 
      1022.0         0.43        151.4 
      1023.0         0.37        162.7 
      1024.0         0.30        163.1 
      1025.0         0.25        159.0 
      1026.0         0.33        156.5 
      1027.0         0.33        164.6 
      1028.0         0.33        178.7 
      1029.0         0.43        181.9 
      1030.0         0.30        177.9 
      1031.0         0.40        178.7 
      1032.0         0.43        190.0 
      1033.0         0.40        203.5 
      1034.0         0.45        209.2 
      1035.0         0.47        209.6 
      1036.0         0.40        209.2 
      1037.0         0.43        206.9 
      1038.0         0.40        200.6 
      1039.0         0.47        197.4 
      1040.0         0.43        190.3 
      1041.0         0.57        200.1 
      1042.0         6.50       1585.0 
      1043.0         0.35        589.4 
      1044.0         0.33        526.4 
      1045.0         0.30        563.8 
      1046.0         0.20        595.8 
      1047.0         0.13        595.8 
      1048.0         0.13        601.6 
      1049.0         0.17        600.9 
      1050.0         0.30        569.9 
      1051.0         0.33        529.1 
      1052.0         0.27        482.6 
      1053.0         0.20        474.9 
      1054.0         0.10        469.8 
      1055.0         0.17        460.0 
      1056.0         0.27        457.0 
      1057.0         0.23        459.4 
      1058.0         0.28        448.9 
      1059.0         0.27        440.0 
      1060.0         0.27        180.1 
      1061.0         0.27        181.8 
      1062.0         0.20        184.1 
      1063.0         0.23        191.8 
      1064.0         0.23        197.2 
      1065.0         0.27        198.2 
      1066.0         0.23        199.1 
      1067.0         0.27        198.4 
      1068.0         0.27        198.1 
      1069.0         0.30        197.1 
      1070.0         0.37        195.1 
      1071.0         0.32        174.2 
      1072.0         8.70       1273.4 
      1073.0         0.30        732.6 
      1074.0         0.23        697.2 
      1075.0         0.27        672.3 
      1076.0         0.28        668.3 
      1077.0         0.43        599.5 
      1078.0         0.43        548.0 
      1079.0         0.33        583.4 
      1080.0         0.27        680.4 
      1081.0         0.27        756.5 
      1082.0         0.23        791.2 
      1083.0         0.27        834.0 
      1084.0         0.23        846.8 
      1085.0         0.23        839.4 
      1086.0         0.13        823.9 
      1087.0         0.30        817.9 
      1088.0         0.32        808.8 
      1089.0         0.33        804.4 
      1090.0         0.33        800.7 
      1091.0         0.37        796.6 
      1092.0         0.43        775.1 
      1093.0         0.40        776.4 
      1094.0         0.33        785.8 
      1095.0         0.23        757.2 
      1096.0         0.13        748.8 
      1097.0         0.37        733.6 
      1098.0         0.42        730.3 
      1099.0         0.40        785.5 
      1100.0         0.40        825.9 
      1101.0         0.40        804.7 
      1102.0         6.97       2167.5 
      1103.0         0.33       1154.8 
      1104.0         0.23       1073.2 
      1105.0         0.40        968.8 
      1106.0         0.47        901.1 
      1107.0         0.48        863.3 
      1108.0         0.40        814.5 
      1109.0         0.33        903.4 
      1110.0         0.40        950.9 
      1111.0         0.37        953.0 
      1112.0         0.40        890.3 
      1113.0         0.40        825.9 
      1114.0         0.43        769.3 
      1115.0         0.55        772.7 
      1116.0         0.37        666.6 
      1117.0         0.17        679.0 
      1118.0         0.33        698.2 
      1119.0         0.43        724.5 
      1120.0         0.43        746.1 
      1121.0         0.50        763.3 
      1122.0         0.47        763.6 
      1123.0         0.47        740.0 
      1124.0         0.48        730.6 
      1125.0         0.50        720.1 
      1126.0         0.50        723.5 
      1127.0         0.52        807.1 
      1128.0         0.53        836.7 
      1129.0         1.18        746.8 
      1130.0         0.27        756.9 
      1131.0         0.28        679.7 
      1132.0         5.40       1881.5 
      1133.0         0.50       1055.7 
      1134.0         0.52        944.2 
      1135.0         1.05        874.5 
      1136.0         0.42        799.7 
      1137.0         0.48        781.5 
      1138.0         0.45        773.7 
      1139.0         0.57        767.7 
      1140.0         0.35        743.1 
      1141.0         0.52        735.6 
      1142.0         0.53        734.6 
      1143.0         0.43        719.8 
      1144.0         0.25        716.8 
      1145.0         0.42        722.5 
      1146.0         0.22        710.7 
