~Version Information
VERS.                      2.0: CWLS Log ASCII Standard - VERSION 2.0
WRAP.                       NO: One line per depth step
~Well Information Block
STRT.FT               555.0000: 
STOP.FT              2322.2000: 
STEP.FT                 0.1000: 
NULL.                -999.2500: 
COMP.          Pioneer Natural Resources: COMPANY
WELL.          Fittipaldi 21-12: WELL
FLD.           Purgatoire River: FIELD
LOC.           207' FNL & 2110' FWL--: LOCATION
CNTY.               Las Animas: COUNTY
SRVC.                Patterson: SERVICE COMPANY
DATE.          Wed Mar 22 07:11:06 2006: LOG DATE
UWI.           05 071 08492 00: UNIQUE WELL ID
STAT.                 Colorado: STATE
~Curve Information Block
DEPT.FT            0 000 00 00: Depth
DCAL.in                       : CDL Caliper
RHOB.g/cc                     : CDL Bulk Density
RHOC.g/cc                     : CDL Density Correction
DPOR.pu                       : CDL Density Porosity
NPOR.pu                       : Neutron Porosity
GR.GAPI                       : Gamma Ray
~Parameter Information Block
~A  Depth       DCAL        RHOB        RHOC        DPOR        NPOR         GR     
# ...
  1486.2000      8.0286      2.5486     -0.0249      6.1449     19.6733     43.8540
  1486.3000      8.0318      2.5222     -0.0719      7.7477     19.4929     41.7380
  1486.4000      8.0318      2.5199      0.0232      7.8866     19.5756     42.8066
  1486.5000      8.0312      2.5278      0.0197      7.4089     19.7881     44.3810
  1486.6000      8.0312      2.5255      0.0218      7.5457     19.9407     43.5548
  1486.7000      8.0312      2.5177      0.0140      8.0211     19.7858     41.0834
  1486.8000      8.0310      2.5217      0.0202      7.7728     19.4703     40.7867
  1486.9000      8.0310      2.5339      0.0439      7.0375     19.4390     42.8841
  1487.0000      8.0311      2.5329      0.0939      7.0957     19.7216     42.5743
  1487.1000      8.0311      2.5211      0.0619      7.8109     19.9460     38.6558
  1487.2000      8.0311      2.5126      0.0728      8.3288     20.0502     35.3350
  1487.3000      8.0305      2.5036      0.0866      8.8723     20.1732     34.8736
  1487.4000      8.0305      2.5016      0.0115      8.9953     20.3372     35.4313
  1487.5000      8.0294      2.5204      0.0683      7.8561     20.6087     36.7998
  1487.6000      8.0294      2.5423      0.0791      6.5274     20.8572     39.9915
  1487.7000      8.0294      2.5437      0.0952      6.4414     20.7617     43.5545
  1487.8000      8.0297      2.5276      0.0933      7.4160     20.4842     44.2837
  1487.9000      8.0297      2.5152      0.0430      8.1690     20.4671     40.8204
  1488.0000      8.0302      2.5117      0.1064      8.3806     20.8433     36.5693
  1488.1000      8.0302      2.5021      0.0257      8.9614     21.3798     36.0281
  1488.2000      8.0302      2.4888      0.0616      9.7726     21.5626     40.0796
  1488.3000      8.0296      2.4860      0.0664      9.9419     21.2527     44.8810
  1488.4000      8.0296      2.4934      0.0699      9.4912     20.9182     46.4809
  1488.5000      8.0281      2.4957      0.0975      9.3523     20.6525     45.7588
  1488.6000      8.0281      2.4830      0.0524     10.1193     20.3772     44.3983
  1488.7000      8.0281      2.4675      0.0227     11.0586     20.5134     41.0075
  1488.8000      8.0274      2.4619      0.0440     11.4001     21.0446     35.7620
  1488.9000      8.0274      2.4649      0.0162     11.2194     21.3235     32.6336
  1489.0000      8.0262      2.4770      0.0121     10.4834     21.2257     32.9576
  1489.1000      8.0262      2.4975      0.0759      9.2428     21.0161     34.8760
  1489.2000      8.0262      2.5111      0.1063      8.4186     20.6032     36.6712
  1489.3000      8.0215      2.5136      0.0354      8.2695     20.0474     37.1679
  1489.4000      8.0215      2.5216      0.0514      7.7805     19.6659     35.7357
  1489.5000      8.0139      2.5284      0.1035      7.3703     19.5461     33.6873
  1489.6000      8.0139      2.5150      0.0389      8.1836     19.7419     33.8004
  1489.7000      8.0139      2.4887      0.0798      9.7768     20.0084     35.2905
  1489.8000      8.0092      2.4655      0.0342     11.1847     20.0224     34.6343
  1489.9000      8.0092      2.4558      0.0223     11.7668     20.0854     32.3346
  1490.0000      8.0109      2.4621      0.0577     11.3854     20.3718     32.7837
  1490.1000      8.0109      2.4780      0.0285     10.4217     20.5437     35.8880
  1490.2000      8.0109      2.4983      0.0488      9.1915     20.5306     37.0683
  1490.3000      8.0167      2.5195      0.0401      7.9080     20.7369     35.5224
  1490.4000      8.0167      2.5350      0.0443      6.9715     21.0688     35.3945
  1490.5000      8.0219      2.5326      0.0840      7.1175     20.7364     38.2032
  1490.6000      8.0219      2.5038      0.0633      8.8607     19.7149     40.1222
  1490.7000      8.0219      2.4612      0.0142     11.4431     19.0746     38.9798
  1490.8000      8.0249      2.4283      0.0412     13.4350     19.3251     36.6027
  1490.9000      8.0249      2.4215     -0.0003     13.8464     19.8570     34.3832
  1491.0000      8.0271      2.4422      0.0112     12.5960     20.1884     32.9473
  1491.1000      8.0271      2.4638      0.0826     11.2867     20.5806     32.4249
  1491.2000      8.0271      2.4630      0.0285     11.3310     20.9323     33.0977
  1491.3000      8.0295      2.4576      0.0227     11.6601     20.6366     35.7997
  1491.4000      8.0295      2.4678      0.0858     11.0406     19.9786     38.8821
  1491.5000      8.0303      2.4887      0.0491      9.7747     19.8159     39.3231
  1491.6000      8.0303      2.5119      0.1027      8.3712     20.1301     38.1392
  1491.7000      8.0303      2.5312      0.0945      7.1977     20.3398     38.1496
  1491.8000      8.0288      2.5377      0.1237      6.8059     20.3256     39.1154
  1491.9000      8.0288      2.5226      0.0966      7.7197     20.1143     39.2201
  1492.0000      8.0289      2.4951      0.0295      9.3870     19.8556     38.8225
  1492.1000      8.0289      2.4757      0.0489     10.5631     19.6241     38.5676
  1492.2000      8.0289      2.4745      0.0043     10.6376     19.1619     37.6124
  1492.3000      8.0305      2.4915      0.0582      9.6036     18.6906     36.6233
  1492.4000      8.0305      2.5217      0.0625      7.7769     18.7257     37.9482
  1492.5000      8.0312      2.5593      0.0938      5.4977     19.3581     42.6479
  1492.6000      8.0312      2.5951      0.1048      3.3283     20.1438     49.3569
  1492.7000      8.0312      2.6215      0.0765      1.7254     20.5943     55.0350
  1492.8000      8.0312      2.6382      0.0685      0.7165     20.7620     56.7064
  1492.9000      8.0312      2.6427      0.0667      0.4408     20.9548     55.2910
  1493.0000      8.0302      2.6302      0.0562      1.2009     21.3811     53.7812
  1493.1000      8.0302      2.6048      0.0380      2.7400     21.8820     53.1680
  1493.2000      8.0302      2.5866     -0.0208      3.8396     22.0471     53.7724
  1493.3000      8.0301      2.5892      0.0436      3.6851     22.0187     55.4685
  1493.4000      8.0301      2.6010     -0.0015      2.9668     22.3044     56.6742
  1493.5000      8.0296      2.6026      0.0691      2.8741     22.8701     57.2369
  1493.6000      8.0296      2.5864      0.0151      3.8565     23.1690     57.4445
  1493.7000      8.0296      2.5645      0.0285      5.1823     23.0234     57.2921
  1493.8000      8.0244      2.5547     -0.0099      5.7774     22.8944     57.6476
  1493.9000      8.0244      2.5711      0.0065      4.7828     23.0859     59.0167
  1494.0000      8.0153      2.6152      0.0212      2.1107     23.3232     61.6028
  1494.1000      8.0153      2.6624      0.0822     -0.7503     23.2652     63.8342
  1494.2000      8.0153      2.6805      0.0602     -1.8510     23.0467     63.9823
  1494.3000      8.0106      2.6664      0.0919     -0.9969     23.2190     64.1635
  1494.4000      8.0106      2.6353      0.0612      0.8900     23.6908     67.3996
  1494.5000      8.0114      2.6043      0.0001      2.7692     23.7603     74.4563
  1494.6000      8.0114      2.5950     -0.0047      3.3324     23.3801     81.1813
  1494.7000      8.0114      2.6124      0.0664      2.2794     23.1553     82.9700
  1494.8000      8.0166      2.6362      0.0462      0.8335     23.4966     82.3253
  1494.9000      8.0166      2.6424      0.0962      0.4613     24.1563     82.1925
  1495.0000      8.0241      2.6257      0.0409      1.4722     24.3512     81.3595
  1495.1000      8.0241      2.6112      0.0072      2.3544     23.9681     78.7796
  1495.2000      8.0241      2.6153      0.0242      2.1033     23.4964     75.9669
  1495.3000      8.0284      2.6244      0.0665      1.5509     23.1160     75.3251
  1495.4000      8.0284      2.6231      0.0551      1.6326     22.9099     78.9356
  1495.5000      8.0275      2.6122      0.0427      2.2898     22.9075     84.7357
  1495.6000      8.0275      2.5998      0.0179      3.0434     22.9844     86.3619
  1495.7000      8.0275      2.5890      0.0421      3.6965     23.1752     83.0687
