~Version Information
VERS.                      2.0: CWLS Log ASCII Standard - VERSION 2.0
WRAP.                       NO: One line per depth step
~Well Information Block
STRT.FT                 0.0000: 
STOP.FT              2072.7500: 
STEP.FT                 0.2500: 
NULL.                -999.2500: 
COMP.          Pioneer Natural Resources: COMPANY
WELL.          Greenwood 43-29 Tr: WELL
FLD.           Purgatorie River: FIELD
LOC.           1478' FSL & 744' FEL: LOCATION
STAT.                 Colorado: State
CNTY.               Las Animas: COUNTY
CTRY. USA : Country
SECT. 29 : Section
TOWN. 32S : Township
RANG. 67W : Range
SRVC.                Patterson: SERVICE COMPANY
DATE.          Tue Sep 06 12:54:40 2005: LOG DATE
API. 05-071-08478                          : UNIQUE WELL ID
~Curve Information Block
DEPT.FT            0 000 00 00: Depth
GR.GAPI                       : Gamma Ray
CCL.                          : Casing Collar Locator
TT3.usec                      : CBL 3' Travel Time
AMP3.mV                       : CBL 3' Amplitude
~Parameter Information Block
~A  Depth        GR         CCL         TT3         AMP3    
# ...
   536.0000     79.6137      0.0000    832.3860     12.6916
   536.2500     76.7350      0.0000    861.2845     12.6531
   536.5000     77.0358      0.0000    872.2967     12.6433
   536.7500     79.6430      0.0000    872.1417     12.6802
   537.0000     82.6128      0.0000    860.5897     12.7471
   537.2500     84.3387      0.0000    829.9999     12.8133
   537.5000     84.7305      0.0000    786.8226     12.8718
   537.7500     84.8944      0.0000    764.9932     12.9240
   538.0000     85.7691      0.0000    788.3215     12.9633
   538.2500     87.2277      0.0000    834.7683     12.9980
   538.5000     88.3746      0.0000    869.8860     13.0584
   538.7500     88.4280      0.0000    883.6168     13.1644
   539.0000     87.2352      0.0000    880.8282     13.3003
   539.2500     85.2778      0.0000    861.5995     13.4387
   539.5000     83.4399      0.0000    812.7351     13.5712
   539.7500     82.5597      0.0000    722.9529     13.6868
   540.0000     83.0354      0.0000    615.0659     13.7525
   540.2500     84.7860      0.0000    542.6513     13.7482
   540.5000     87.2167      0.0000    547.0426     13.6898
   540.7500     89.1404      0.0000    628.5760     13.6060
   541.0000     89.2894      0.0000    743.2735     13.5260
   541.2500     87.4094      0.0000    831.8719     13.4869
   541.5000     84.6993      0.0000    870.8125     13.5139
   541.7500     82.9550      0.0000    878.2249     13.5951
   542.0000     83.2204      0.0000    876.9781     13.6870
   542.2500     85.2156      0.0000    875.8474     13.7387
   542.5000     87.8663      0.0000    875.4952     13.7273
   542.7500     90.1141      0.0000    875.3705     13.6795
   543.0000     91.3042      0.0000    875.2721     13.6403
   543.2500     91.4048      0.0000    875.1678     13.6214
   543.5000     91.1592      0.0000    875.0857     13.6009
   543.7500     91.4963      0.0000    875.0720     13.5693
   544.0000     92.4639      0.0000    875.1130     13.5501
   544.2500     93.2296      0.0000    875.1450     13.5718
   544.5000     93.3356      0.0000    875.1457     13.6324
   544.7500     93.2822      0.0000    875.0972     13.7058
   545.0000     93.4905      0.0000    874.6930     13.7671
   545.2500     93.2458      0.0000    871.9197     13.7994
   545.5000     91.2302      0.0000    859.7054     13.8001
   545.7500     87.0717      0.0000    826.0627     13.7959
   546.0000     82.0861      0.0000    767.9413     13.8283
   546.2500     78.2988      0.0000    700.5433     13.9105
   546.5000     76.7285      0.0000    636.8391     14.0112
   546.7500     76.7791      0.0000    584.6382     14.0874
   547.0000     77.1316      0.0000    572.3364     14.1175
   547.2500     76.8188      0.0000    618.5999     14.1098
   547.5000     75.4396      0.0000    677.9180     14.0922
   547.7500     72.9298      0.0000    677.1116     14.0839
   548.0000     69.5354      0.0000    603.2227     14.0823
   548.2500     65.7951      0.0000    506.7013     14.0767
   548.5000     62.3095      0.0000    434.9681     14.0546
   548.7500     59.4476      0.0000    403.1807     13.9973
   549.0000     57.1705      0.0000    403.4821     13.9014
   549.2500     55.1565      0.0000    416.9139     13.8017
   549.5000     53.2239      0.0000    430.9361     13.7307
   549.7500     51.5794      0.0000    453.6661     13.6697
   550.0000     50.6506      0.0000    508.3644     13.5791
   550.2500     50.6844      0.0000    601.0494     13.4472
   550.5000     51.3437      0.0000    685.0323     13.2927
   550.7500     51.6169      0.0000    696.0779     13.1495
   551.0000     50.3732      0.0000    634.4796     13.0492
   551.2500     47.3524      0.0000    561.1465     12.9992
   551.5000     43.6380      0.0000    518.7896     12.9788
   551.7500     40.9600      0.0000    506.5023     12.9617
   552.0000     40.4259      0.0000    514.1147     12.9394
   552.2500     41.9088      0.0000    541.4641     12.9219
   552.5000     44.3905      0.0000    580.3126     12.9146
   552.7500     46.5924      0.0000    598.7695     12.9117
   553.0000     47.5774      0.0000    574.0386     12.9067
   553.2500     47.3758      0.0000    526.3167     12.8842
   553.5000     47.1916      0.0000    491.7079     12.8155
   553.7500     48.7068      0.0000    491.3529     12.6859
   554.0000     52.9072      0.0000    537.9522     12.5030
   554.2500     59.2544      0.0000    632.5932     12.2823
   554.5000     65.8699      0.0000    744.3658     12.0535
   554.7500     70.8329      0.0000    827.3813     11.8517
   555.0000     73.5637      0.0000    865.7471     11.6791
   555.2500     74.9210      0.0000    876.2552     11.5175
   555.5000     76.0962      0.0000    877.5745     11.3661
   555.7500     77.6758      0.0000    877.1603     11.2281
   556.0000     79.6933      0.0000    875.7993     11.0975
   556.2500     82.1423      0.0000    871.9821     10.9737
   556.5000     85.1028      0.0000    864.4758     10.8603
   556.7500     88.4811      0.0000    854.8659     10.7603
   557.0000     91.8876      0.0000    846.7810     10.6839
   557.2500     94.7588      0.0000    842.0985     10.6375
   557.5000     96.5520      0.0000    840.0208     10.6100
   557.7500     96.9822      0.0000    839.2552     10.5846
   558.0000     96.1866      0.0000    839.3443     10.5548
   558.2500     94.6753      0.0000    840.7971     10.5246
   558.5000     93.2344      0.0000    845.0285     10.4996
   558.7500     92.8860      0.0000    852.9887     10.4747
   559.0000     94.5125      0.0000    862.7740     10.4353
   559.2500     98.0901      0.0000    870.5628     10.3798
   559.5000    102.3122      0.0000    874.6447     10.3304
   559.7500    105.2158      0.0000    876.2094     10.3097
   560.0000    105.3166      0.0000    876.8130     10.3075
   560.2500    102.2983      0.0000    877.0938     10.2840
   560.5000     96.9689      0.0000    877.1621     10.2218
   560.7500     90.8324      0.0000    876.9285     10.1522
   561.0000     85.5102      0.0000    875.9089     10.1197
   561.2500     82.0987      0.0000    873.2095     10.1391
   561.5000     80.7931      0.0000    868.7706     10.1826
   561.7500     81.0176      0.0000    864.5045     10.2096
   562.0000     81.8057      0.0000    862.7502     10.2104
   562.2500     82.2250      0.0000    864.4487     10.2102
   562.5000     81.8747      0.0000    868.8611     10.2348
   562.7500     81.1341      0.0000    873.5815     10.2782
   563.0000     80.7919      0.0000    876.4721     10.3089
   563.2500     81.3904      0.0000    877.4396     10.3060
   563.5000     82.8385      0.0000    877.4811     10.2783
   563.7500     84.3829      0.0000    877.3315     10.2429
   564.0000     84.8460      0.0000    876.6683     10.1882
   564.2500     83.2956      0.0000    872.4783     10.0668
   564.5000     79.8596      0.0000    857.3223      9.8706
   564.7500     75.8283      0.0000    827.2338      9.7178
   565.0000     72.8418      0.0000    807.3005      9.6612
   565.2500     71.9045      0.0000    850.0577      9.3918
   565.5000     72.9157      0.0000    963.9792      8.6560
   565.7500     74.8199      0.0000   1080.1689      7.8275
   566.0000     76.1917      0.0000   1135.0272      7.3947
   566.2500     76.0574      0.0000   1134.9884      7.3441
   566.5000     74.5138     -1.0000   1127.5077      7.4200
   566.7500     72.5056      0.0000   1141.9923      7.4843
   567.0000     70.8593      0.0000   1163.7742      7.5285
   567.2500     69.7597      0.0000   1156.1080      7.6657
   567.5000     69.3612      0.0000   1087.6727      8.1712
   567.7500     70.3202      0.0000    960.9851      9.1673
   568.0000     73.0547      0.0000    834.4465     10.2047
   568.2500     76.7753      0.0000    764.2100     10.8093
   568.5000     79.9372      0.0000    742.3849     11.1751
   568.7500     81.6083      0.0000    748.5511     11.5735
   569.0000     82.0148      0.0000    782.8921     11.8651
   569.2500     81.9365      0.0000    826.9492     11.9233
