~Version Information
VERS.                      2.0: CWLS Log ASCII Standard - VERSION 2.0
WRAP.                       NO: One line per depth step
~Well Information Block
STRT.FT                 8.2500: 
STOP.FT              1156.2500: 
STEP.FT                 0.2500: 
NULL.                -999.2500: 
COMP.          Pioneer Natural Resources: COMPANY
WELL.              Davida 34-8: WELL
FLD.           Purgatoire River: FIELD
LOC.           418' FSL & 1923' FEL: LOCATION
CNTY.               Las Animas: COUNTY
SRVC.                Patterson: SERVICE COMPANY
DATE.          Thu Mar 30 09:09:42 2006: LOG DATE
UWI.           05 071 08722 00: UNIQUE WELL ID
STAT.                 Colorado: STATE
~Curve Information Block
DEPT.FT            0 000 00 00: Depth
GR.GAPI                       : Gamma Ray
CCL.                          : Casing Collar Locator
TT3.usec                      : CBL 3' Travel Time
AMP3.mV                       : CBL 3' Amplitude
~Parameter Information Block
~A  Depth        GR         CCL         TT3         AMP3    
# ...
   678.2500    115.3402      0.0000    706.4875      7.0246
   678.5000    108.1606      0.0000    699.3486      6.9567
   678.7500    102.7629      0.0000    692.7712      6.8759
   679.0000     99.9744      0.0000    688.6480      6.7702
   679.2500     99.8166      0.0000    687.8370      6.6456
   679.5000    101.0936      0.0000    689.9687      6.5217
   679.7500    102.3164      0.0000    694.4250      6.4084
   680.0000    103.3364      0.0000    700.9889      6.2970
   680.2500    105.5458      0.0000    709.2490      6.1770
   680.5000    110.2278      0.0000    717.9985      6.0549
   680.7500    117.1003      0.0000    725.8441      5.9488
   681.0000    124.5837      0.0000    732.3923      5.8671
   681.2500    130.9075      0.0000    738.4626      5.7966
   681.5000    134.7057      0.0000    744.6891      5.7133
   681.7500    135.2142      0.0000    749.9504      5.6044
   682.0000    132.6415      0.0000    752.0971      5.4791
   682.2500    128.3559      0.0000    750.9011      5.3591
   682.5000    124.2781      0.0000    749.3259      5.2590
   682.7500    121.8416      0.0000    750.4150      5.1778
   683.0000    121.4623      0.0000    753.2445      5.1060
   683.2500    122.7306      0.0000    753.3015      5.0379
   683.5000    124.7368      0.0000    747.0002      4.9778
   683.7500    126.2449      0.0000    735.0180      4.9374
   684.0000    126.0691      0.0000    721.2365      4.9293
   684.2500    123.6769      0.0000    709.4837      4.9593
   684.5000    119.4038      0.0000    701.7359      5.0234
   684.7500    114.0185      0.0000    698.3728      5.1132
   685.0000    108.2393      0.0000    698.7512      5.2225
   685.2500    102.6747      0.0000    701.5667      5.3479
   685.5000     97.9129      0.0000    705.5694      5.4825
   685.7500     94.3845      0.0000    710.0659      5.6142
   686.0000     92.1659      0.0000    714.3994      5.7352
   686.2500     91.0789      0.0000    717.2896      5.8491
   686.5000     90.8091      0.0000    717.4578      5.9655
   686.7500     90.7202      0.0000    714.9382      6.0853
   687.0000     89.9664      0.0000    711.2533      6.1942
   687.2500     88.3853      0.0000    708.1828      6.2687
   687.5000     87.0649      0.0000    706.7279      6.2928
   687.7500     87.4182      0.0000    707.2745      6.2704
   688.0000     89.6681      0.0000    710.3220      6.2223
   688.2500     92.4389      0.0000    716.5684      6.1699
   688.5000     93.6674      0.0000    725.9662      6.1221
   688.7500     91.8042      0.0000    736.8552      6.0773
   689.0000     86.4765      0.0000    746.7097      6.0339
   689.2500     78.4953      0.0000    753.9843      5.9953
   689.5000     69.5639      0.0000    758.5647      5.9686
   689.7500     61.8576      0.0000    760.3054      5.9598
   690.0000     57.1015      0.0000    758.1966      5.9700
   690.2500     55.3275      0.0000    751.4971      5.9961
   690.5000     54.6710      0.0000    741.1349      6.0341
   690.7500     52.9520      0.0000    729.7044      6.0814
   691.0000     49.5204      0.0000    720.2394      6.1358
   691.2500     45.4514      0.0000    714.9498      6.1897
   691.5000     42.3003      0.0000    714.8223      6.2312
   691.7500     41.0113      0.0000    719.8174      6.2498
   692.0000     41.7033      0.0000    728.8111      6.2412
   692.2500     43.8861      0.0000    739.4467      6.2090
   692.5000     46.6763      0.0000    748.8831      6.1631
   692.7500     49.0383      0.0000    755.2640      6.1152
   693.0000     50.1695      0.0000    758.3571      6.0739
   693.2500     49.8866      0.0000    758.7491      6.0419
   693.5000     48.7127      0.0000    756.6179      6.0174
   693.7500     47.6050      0.0000    751.4156      5.9976
   694.0000     47.4645      0.0000    742.7976      5.9806
   694.2500     48.7066      0.0000    731.5562      5.9623
   694.5000     51.2169      0.0000    718.9531      5.9333
   694.7500     54.7755      0.0000    705.6086      5.8844
   695.0000     59.5050      0.0000    692.9189      5.8192
   695.2500     65.7759      0.0000    685.2528      5.7587
   695.5000     73.5560      0.0000    687.3572      5.7269
   695.7500     81.8708      0.0000    698.5103      5.7279
   696.0000     89.0888      0.0000    711.9902      5.7390
   696.2500     94.0478      0.0000    721.2864      5.7306
   696.5000     97.1566      0.0000    725.0773      5.6915
   696.7500    100.2410      0.0000    726.2974      5.6350
   697.0000    104.8352      0.0000    728.2620      5.5810
   697.2500    110.5118      0.0000    731.8511      5.5373
   697.5000    115.3029      0.0000    735.4435      5.4969
   697.7500    117.8929      0.0000    737.4998      5.4527
   698.0000    118.9411      0.0000    738.8306      5.4142
   698.2500    120.0946      0.0000    741.6195      5.4063
   698.5000    122.0503      0.0000    746.8207      5.4453
   698.7500    123.7134      0.0000    753.6409      5.5190
   699.0000    123.0394      0.0000    761.0746      5.5924
   699.2500    118.7598      0.0000    768.6055      5.6350
   699.5000    111.6551      0.0000    775.4504      5.6425
   699.7500    104.2713      0.0000    780.2287      5.6324
   700.0000     99.1462      0.0000    781.8258      5.6249
   700.2500     97.1629      0.0000    780.2122      5.6246
   700.5000     97.6095      0.0000    776.3411      5.6173
   700.7500     99.4917      0.0000    771.5298      5.5854
   701.0000    102.2687      0.0000    766.5242      5.5283
   701.2500    105.4698      0.0000    760.1634      5.4666
   701.5000    108.3832      0.0000    749.1400      5.4275
   701.7500    110.5630      0.0000    730.6392      5.4243
   702.0000    112.2973      0.0000    705.6915      5.4490
   702.2500    114.2409      0.0000    678.9086      5.4787
   702.5000    116.5730      0.0000    655.2714      5.4921
   702.7500    118.5987      0.0000    638.5673      5.4841
   703.0000    119.2986      0.0000    632.0011      5.4696
   703.2500    118.3991      0.0000    637.5750      5.4718
   703.5000    116.7439      0.0000    654.2531      5.5064
   703.7500    115.4185      0.0000    677.7253      5.5736
   704.0000    114.7097      0.0000    701.5815      5.6635
   704.2500    114.1840      0.0000    718.7967      5.7703
   704.5000    113.5672      0.0000    724.3250      5.9015
   704.7500    113.1003      0.0000    718.0082      6.0628
   705.0000    112.9285      0.0000    704.8602      6.2229
   705.2500    112.5404      0.0000    692.5640      6.3021
   705.5000    111.2300      0.0000    688.3530      6.2280
   705.7500    109.0094      0.0000    696.0293      6.0133
   706.0000    106.5775      0.0000    713.5388      5.7582
   706.2500    104.4345      0.0000    733.7296      5.5646
   706.5000    102.4505      0.0000    749.3228      5.4618
   706.7500    100.3437      0.0000    757.8008      5.4190
   707.0000     98.3727      0.0000    761.5171      5.3996
   707.2500     97.5880      0.0000    763.7861      5.3918
   707.5000     99.3704      0.0000    765.4970      5.4066
   707.7500    104.3619      0.0000    764.8479      5.4593
   708.0000    111.6378      0.0000    759.5012      5.5387
   708.2500    119.0586      0.0000    749.6996      5.6020
   708.5000    124.5988      0.0000    739.9030      5.6183
   708.7500    127.4208      0.0000    736.4124      5.6086
   709.0000    127.9531      0.0000    742.3029      5.6170
   709.2500    127.2831      0.0000    754.7674      5.6561
   709.5000    126.4642      0.0000    767.3312      5.7008
   709.7500    126.0972      0.0000    774.1306      5.7238
   710.0000    126.3631      0.0000    772.2803      5.7154
   710.2500    127.3948      0.0000    761.7610      5.6769
   710.5000    129.4124      0.0000    745.0266      5.6154
   710.7500    132.2806      0.0000    727.0075      5.5472
   711.0000    134.9883      0.0000    713.6473      5.4951
   711.2500    136.0347      0.0000    708.7409      5.4672
   711.5000    134.7305      0.0000    711.9866      5.4447
