~Version Information
VERS.                      2.0: CWLS Log ASCII Standard - VERSION 2.0
WRAP.                       NO: One line per depth step
~Well Information Block
STRT.FT               -16.2500: 
STOP.FT               938.7500: 
STEP.FT                 0.2500: 
NULL.                -999.2500: 
COMP.          XTO Energy Inc.: COMPANY
WELL.          Golden Eagle 20-04: WELL
FLD.           Purgatrorie River: FIELD
LOC.           702' FNL & 487' FWL--: LOCATION
STAT.                       CO: PROVINCE
CNTY.               Las Animas: COUNTY
CTRY. USA : Country
SECT. 20 : Section 
TOWN. 33S : Township
RANG. 67W : Range
SRVC.          Patterson Wireline: SERVICE COMPANY
DATE.          Mon Dec 05 10:32:54 2005: LOG DATE
API.           05 071 08599 00: UNIQUE WELL ID
~Curve Information Block
DEPT.FT            0 000 00 00: Depth
CCL.                          : Casing Collar Locator
TT3.usec                      : CBL 3' Travel Time
AMP3.mV                       : CBL 3' Amplitude
GR.GAPI                       : Gamma Ray
~Parameter Information Block
~A  Depth       CCL         TT3         AMP3         GR     
# ...
   419.2500      0.0000    658.0234      8.7802    155.0448
   419.5000      0.0000    657.6343      8.8270    153.3227
   419.7500      0.0000    657.1746      8.8593    150.6115
   420.0000      0.0000    656.2952      8.8678    148.2214
   420.2500      0.0000    654.2202      8.8606    147.3082
   420.5000      0.0000    650.0564      8.8569    147.8377
   420.7500      0.0000    643.8951      8.8749    148.6273
   421.0000      0.0000    637.8674      8.9248    148.4033
   421.2500      0.0000    635.2748      9.0034    146.6062
   421.5000      0.0000    637.7574      9.0870    143.4527
   421.7500      0.0000    643.6545      9.1337    139.7832
   422.0000      0.0000    649.6907      9.1008    136.9770
   422.2500      0.0000    653.7382      8.9664    136.6963
   422.5000      0.0000    655.6052      8.7393    140.0974
   422.7500      0.0000    656.0457      8.4607    146.6520
   423.0000      0.0000    655.8624      8.1996    153.8468
   423.2500      0.0000    655.7307      8.0284    158.8133
   423.5000      0.0000    656.2475      7.9788    160.5991
   423.7500      0.0000    657.7852      8.0226    160.4942
   424.0000      0.0000    660.2034      8.1071    160.1059
   424.2500      0.0000    662.7672      8.2010    159.6079
   424.5000      0.0000    664.6127      8.2915    158.0775
   424.7500      0.0000    665.3673      8.3548    154.9612
   425.0000      0.0000    665.1575      8.3558    150.8122
   425.2500      0.0000    664.1561      8.2758    146.7416
   425.5000      0.0000    662.6052      8.1176    143.2772
   425.7500      0.0000    661.1542      7.8879    139.7551
   426.0000      0.0000    660.4690      7.5971    134.8953
   426.2500      0.0000    660.3455      7.2718    127.9453
   426.5000      0.0000    659.7289      6.9492    119.1371
   426.7500      0.0000    657.8135      6.6608    109.3657
   427.0000      0.0000    654.7540      6.4339    100.0563
   427.2500      0.0000    651.0621      6.3055     93.0824
   427.5000      0.0000    646.8016      6.3242     89.7324
   427.7500      0.0000    641.9954      6.5281     89.3170
   428.0000      0.0000    637.7021      6.9064     89.2453
   428.2500      0.0000    635.8370      7.3816     86.8206
   428.5000      0.0000    637.3743      7.8393     81.0753
   428.7500      0.0000    641.0949      8.1921     73.1567
   429.0000      0.0000    644.4565      8.4241     65.3015
   429.2500      0.0000    645.1904      8.5818     59.2273
   429.5000      0.0000    641.8196      8.7215     55.0807
   429.7500      0.0000    633.6085      8.8630     51.7606
   430.0000      0.0000    621.1713      8.9863     48.2135
   430.2500      0.0000    607.0569      9.0610     44.4521
   430.5000      0.0000    594.8265      9.0732     41.4932
   430.7500      0.0000    587.1190      9.0293     40.4669
   431.0000      0.0000    584.8411      8.9460     41.7446
   431.2500      0.0000    587.9954      8.8408     44.5711
   431.5000      0.0000    596.3948      8.7285     47.2967
   431.7500      0.0000    609.0189      8.6199     48.3104
   432.0000      0.0000    623.2149      8.5253     47.2064
   432.2500      0.0000    635.4745      8.4593     44.9128
   432.5000      0.0000    643.2483      8.4401     42.5146
   432.7500      0.0000    645.6599      8.4840     40.2875
   433.0000      0.0000    642.6534      8.5982     38.0594
   433.2500      0.0000    634.3405      8.7769     36.2020
   433.5000      0.0000    621.7188      8.9973     36.0911
   433.7500      0.0000    607.5443      9.2195     39.5286
   434.0000      0.0000    595.6256      9.3960     47.3942
   434.2500      0.0000    589.0357      9.4931     58.6917
   434.5000      0.0000    589.1775      9.5092     71.1800
   434.7500      0.0000    595.9015      9.4737     83.0083
   435.0000      0.0000    607.2792      9.4256     93.4412
   435.2500      0.0000    618.8583      9.3902    102.1360
   435.5000      0.0000    624.1305      9.3740    108.5666
   435.7500      0.0000    617.3441      9.3788    112.7371
   436.0000      0.0000    597.3917      9.4155    116.0165
   436.2500      0.0000    569.5345      9.5016    120.2733
   436.5000      0.0000    542.4891      9.6494    125.9638
   436.7500      0.0000    522.8080      9.8560    131.7489
   437.0000      0.0000    511.7530     10.1020    136.1050
   437.2500      0.0000    506.8202     10.3546    138.7341
   437.5000      0.0000    505.0667     10.5755    140.4623
   437.7500      0.0000    505.0802     10.7286    142.3543
   438.0000      0.0000    507.2692     10.7873    144.8075
   438.2500      0.0000    513.3893     10.7416    147.0480
   438.5000      0.0000    525.2908     10.6069    147.7810
   438.7500      0.0000    542.7033     10.4263    146.6662
   439.0000      0.0000    561.7908     10.2550    144.6449
   439.2500      0.0000    576.9135     10.1357    142.5665
   439.5000      0.0000    584.7009     10.0814    140.2486
   439.7500      0.0000    585.7675     10.0788    137.3581
   440.0000      0.0000    581.9453     10.1060    134.5251
   440.2500      0.0000    573.1172     10.1461    132.7070
   440.5000      0.0000    558.4579     10.1876    131.4839
   440.7500      0.0000    540.5593     10.2133    128.7160
   441.0000      0.0000    526.5366     10.1850    122.4417
   441.2500      0.0000    524.0753     10.0380    113.1197
   441.5000      0.0000    536.5407      9.6985    103.8381
   441.7500      0.0000    561.1492      9.1266     98.4184
   442.0000      0.0000    590.5297      8.3598     99.1701
   442.2500      0.0000    616.5534      7.5235    105.7939
   442.5000      0.0000    634.3883      6.7894    115.7523
   442.7500      0.0000    643.9084      6.2973    125.6190
   443.0000      0.0000    647.8123      6.0905    132.5451
   443.2500      0.0000    648.9340      6.1135    135.3216
   443.5000      0.0000    649.0145      6.2636    134.7859
   443.7500      0.0000    648.8499      6.4401    133.2945
   444.0000      0.0000    648.7535      6.5596    133.3253
   444.2500      0.0000    648.7963      6.5550    136.0229
   444.5000      0.0000    648.9066      6.3893    140.7457
   444.7500      0.0000    648.9696      6.0813    145.8990
   445.0000      0.0000    648.9344      5.7044    150.1900
   445.2500      0.0000    648.8422      5.3351    153.3131
   445.5000      0.0000    648.7708      4.9945    155.8366
   445.7500      0.0000    648.7520      4.6556    158.3469
   446.0000      0.0000    648.7461      4.3044    160.2006
   446.2500      0.0000    648.6997      3.9683    159.0908
   446.5000      0.0000    648.6095      3.6781    152.3558
   446.7500      0.0000    648.5398      3.4343    139.0242
   447.0000      0.0000    648.6281      3.2248    120.6148
   447.2500      0.0000    649.1246      3.0556    100.2629
   447.5000      0.0000    650.3172      2.9507     81.3649
   447.7500      0.0000    652.1743      2.9265     66.6459
   448.0000      0.0000    653.9814      2.9775     57.6867
   448.2500      0.0000    654.6304      3.0833     54.9038
   448.5000      0.0000    653.5731      3.2267     57.9189
   448.7500      0.0000    651.3607      3.4054     65.8666
   449.0000      0.0000    648.9957      3.6276     77.2575
   449.2500      0.0000    646.7736      3.9087     89.7762
   449.5000      0.0000    643.6830      4.2867    100.8001
   449.7500      0.0000    637.6229      4.8379    108.5204
   450.0000      0.0000    626.6032      5.6410    112.5164
   450.2500      0.0000    610.9006      6.6802    113.3635
   450.5000      0.0000    594.5823      7.7668    112.0990
   450.7500      0.0000    583.8104      8.5994    109.9408
   451.0000      0.0000    582.4590      8.9568    107.8207
   451.2500      0.0000    589.6139      8.8511    105.8948
   451.5000      0.0000    601.6675      8.4781    103.7323
   451.7500      0.0000    615.8716      8.0292    101.0587
   452.0000      0.0000    631.0316      7.5876     98.1347
   452.2500      0.0000    645.7847      7.1810     95.3648
   452.5000      0.0000    657.4330      6.8570     92.8947
