~Version Information
VERS.                      2.0: CWLS Log ASCII Standard - VERSION 2.0
WRAP.                       NO: One line per depth step
~Well Information Block
STRT.FT                 0.0000: 
STOP.FT              1238.2500: 
STEP.FT                 0.2500: 
NULL.                -999.2500: 
COMP.          Pioneer Natural Resources: COMPANY
WELL.                 Ray 34-6: WELL
FLD.           Purgatoire River: FIELD
LOC.           684' FSL & 2254' FEL: LOCATION
CNTY.               Las Animas: COUNTY
SRVC.                         : SERVICE COMPANY
DATE.          Fri Jun 23 09:23:24 2006: LOG DATE
UWI.           05 071 08695 00: UNIQUE WELL ID
STAT.                       CO: STATE
~Curve Information Block
DEPT.FT            0 000 00 00: Depth
GR.GAPI                       : Gamma Ray
CCL.                          : Casing Collar Locator
TT3.usec                      : CBL 3' Travel Time
AMP3.mV                       : CBL 3' Amplitude
~Parameter Information Block
~A  Depth        GR         CCL         TT3         AMP3    
# ...
   469.0000     90.0152      0.0000    754.6481      7.3771
   469.2500     87.5836      0.0000    749.0454      7.4262
   469.5000     84.2363      0.0000    743.3686      7.5080
   469.7500     80.7221      0.0000    739.1725      7.6176
   470.0000     77.6504      0.0000    737.6412      7.7471
   470.2500     74.9591      0.0000    740.3618      7.8794
   470.5000     72.3753      0.0000    747.9738      7.9843
   470.7500     70.1473      0.0000    757.8607      8.0322
   471.0000     68.9280      0.0000    764.8235      8.0218
   471.2500     68.9799      0.0000    764.9745      7.9855
   471.5000     69.8222      0.0000    759.0317      7.9597
   471.7500     70.6999      0.0000    751.9366      7.9556
   472.0000     71.0891      0.0000    749.4158      7.9613
   472.2500     70.6947      0.0000    754.4410      7.9632
   472.5000     69.4145      0.0000    765.8513      7.9547
   472.7500     67.6347      0.0000    779.4739      7.9315
   473.0000     66.3252      0.0000    790.6801      7.8907
   473.2500     66.5823      0.0000    796.7553      7.8342
   473.5000     69.0195      0.0000    797.7974      7.7682
   473.7500     73.4283      0.0000    795.9233      7.6996
   474.0000     78.8273      0.0000    793.5390      7.6353
   474.2500     83.9447      0.0000    791.9843      7.5873
   474.5000     87.9149      0.0000    791.4089      7.5716
   474.7500     90.4831      0.0000    791.4271      7.5953
   475.0000     91.6374      0.0000    791.6978      7.6469
   475.2500     91.5968      0.0000    792.0903      7.7066
   475.5000     91.1491      0.0000    792.7261      7.7647
   475.7500     91.0515      0.0000    794.0793      7.8229
   476.0000     90.8652      0.0000    796.9820      7.8800
   476.2500     89.2340      0.0000    802.1787      7.9249
   476.5000     85.5879      0.0000    809.4106      7.9477
   476.7500     80.8614      0.0000    816.8115      7.9513
   477.0000     76.3563      0.0000    821.5485      7.9475
   477.2500     72.6621      0.0000    821.5582      7.9485
   477.5000     69.9287      0.0000    817.0870      7.9659
   477.7500     68.4237      0.0000    810.8431      8.0047
   478.0000     68.2886      0.0000    806.5709      8.0492
   478.2500     69.1142      0.0000    806.9670      8.0632
   478.5000     70.1847      0.0000    812.3015      8.0187
   478.7500     71.0551      0.0000    820.8463      7.9259
   479.0000     71.8357      0.0000    830.9383      7.8262
   479.2500     72.9469      0.0000    843.2123      7.7570
   479.5000     74.4892      0.0000    860.3015      7.7255
   479.7500     76.0292      0.0000    882.7384      7.7091
   480.0000     77.5046      0.0000    904.7986      7.6674
   480.2500     79.9991      0.0000    917.2733      7.5533
   480.5000     84.6914      0.0000    916.8610      7.3317
   480.7500     91.0895      0.0000    910.6306      7.0112
   481.0000     97.1217      0.0000    908.6831      6.6597
   481.2500    100.8742      0.0000    914.9590      6.3742
   481.5000    101.5567      0.0000    927.7644      6.2222
   481.7500     99.0059      0.0000    945.3671      6.2098
   482.0000     93.4088      1.6840    965.6958      6.2918
   482.2500     85.9779     -2.0000    982.5804      6.4009
   482.5000     79.0904      0.0000    988.6771      6.4913
   482.7500     74.9965      0.0000    982.6245      6.5892
   483.0000     74.4687      0.0000    968.4282      6.7808
   483.2500     76.6889      0.0000    948.5753      7.0992
   483.5000     80.0498      0.0000    923.5369      7.4315
   483.7500     83.0612      0.0000    897.4240      7.5979
   484.0000     84.9005      0.0000    878.3356      7.5321
   484.2500     85.5070      0.0000    872.0422      7.3318
   484.5000     85.4113      0.0000    877.0553      7.1310
   484.7500     85.3123      0.0000    885.6793      6.9820
   485.0000     85.4433      0.0000    889.9409      6.8691
   485.2500     85.3979      0.0000    887.1903      6.7746
   485.5000     84.7083      0.0000    878.9320      6.7034
   485.7500     83.3955      0.0000    865.2939      6.6631
   486.0000     81.9694      0.0000    844.7202      6.6450
   486.2500     81.1946      0.0000    818.9025      6.6264
   486.5000     81.8189      0.0000    793.7155      6.5906
   486.7500     84.0648      0.0000    774.8510      6.5437
   487.0000     87.0901      0.0000    764.7250      6.5051
   487.2500     89.2585      0.0000    763.7440      6.4854
   487.5000     89.5274      0.0000    773.1147      6.4772
   487.7500     88.8014      0.0000    795.9577      6.4646
   488.0000     89.4756      0.0000    836.0071      6.4362
   488.2500     93.0845      0.0000    894.4067      6.3893
   488.5000     98.6366      0.0000    965.4262      6.3285
   488.7500    103.8306      0.0000   1033.5375      6.2635
   489.0000    107.6327      0.0000   1077.2073      6.2070
   489.2500    110.9742      0.0000   1080.9296      6.1694
   489.5000    115.1628      0.0000   1046.4344      6.1532
   489.7500    120.3767      0.0000    991.7025      6.1522
   490.0000    125.6259      0.0000    937.9827      6.1555
   490.2500    129.6259      0.0000    896.9921      6.1532
   490.5000    131.7270      0.0000    868.4988      6.1441
   490.7500    132.2054      0.0000    846.6987      6.1405
   491.0000    131.6895      0.0000    827.1770      6.1572
   491.2500    130.7148      0.0000    809.4059      6.1883
   491.5000    129.9976      0.0000    795.5961      6.2031
   491.7500    130.4041      0.0000    788.9103      6.1756
   492.0000    132.1488      0.0000    791.6171      6.1082
   492.2500    134.5293      0.0000    802.6790      6.0154
   492.5000    136.6958      0.0000    817.0610      5.8986
   492.7500    138.2267      0.0000    828.7654      5.7528
   493.0000    139.0220      0.0000    834.7391      5.5896
   493.2500    139.1583      0.0000    835.1059      5.4400
   493.5000    138.6982      0.0000    831.3506      5.3332
   493.7500    137.1748      0.0000    826.7629      5.2774
   494.0000    133.4934      0.0000    827.0581      5.2553
   494.2500    126.7797      0.0000    836.3287      5.2338
   494.5000    117.3472      0.0000    851.4852      5.1883
   494.7500    106.6616      0.0000    863.2037      5.1215
   495.0000     96.4784      0.0000    863.9711      5.0559
   495.2500     88.3235      0.0000    855.0984      5.0101
   495.5000     83.4837      0.0000    845.6643      4.9850
   495.7500     82.7316      0.0000    844.0876      4.9681
   496.0000     85.8581      0.0000    850.7011      4.9486
   496.2500     91.8364      0.0000    859.3293      4.9261
   496.5000     99.4604      0.0000    865.4792      4.9051
   496.7500    107.3689      0.0000    870.4023      4.8803
   497.0000    113.5319      0.0000    876.7501      4.8381
   497.2500    115.7562      0.0000    883.2669      4.7753
   497.5000    113.3828      0.0000    885.7966      4.7093
   497.7500    108.0279      0.0000    882.0920      4.6643
   498.0000    102.2353      0.0000    873.9946      4.6514
   498.2500     97.5867      0.0000    865.4855      4.6674
   498.5000     94.1351      0.0000    859.7496      4.7042
   498.7500     91.2060      0.0000    858.0894      4.7548
   499.0000     88.4144      0.0000    860.6841      4.8101
   499.2500     86.1614      0.0000    867.3984      4.8573
   499.5000     85.7809      0.0000    877.5030      4.8854
   499.7500     89.2217      0.0000    888.7265      4.8922
   500.0000     97.6248      0.0000    896.7925      4.8867
   500.2500    109.6814      0.0000    896.1815      4.8842
   500.5000    121.9691      0.0000    882.8461      4.8992
   500.7500    131.3179      0.0000    858.6553      4.9385
   501.0000    136.4051      0.0000    834.0200      4.9984
   501.2500    136.9646      0.0000    824.2537      5.0688
   501.5000    132.6169      0.0000    840.5126      5.1414
   501.7500    123.5178      0.0000    880.9429      5.2167
   502.0000    111.5300      0.0000    927.5616      5.3037
   502.2500     99.4185      0.0000    953.5213      5.4076
