~Version Information
VERS.                      2.0: CWLS Log ASCII Standard - VERSION 2.0
WRAP.                       NO: One line per depth step
~Well Information Block
STRT.FT               230.0000: 
STOP.FT              1028.0000: 
STEP.FT                 0.2500: 
NULL.                -999.2500: 
COMP.          Pioneer Natural Resources: COMPANY
WELL.              Gough 14-29: WELL
FLD.           Purgatoire River: FIELD
LOC.           1199' FSL & 676' FWL: LOCATION
PROV.                 Colorado: PROVINCE
CNTY.               Las Animas: COUNTRY
SRVC.                Patterson: SERVICE COMPANY
DATE.          Thu Dec 22 16:27:18 2005: LOG DATE
UWI.           05 071 08612 00: UNIQUE WELL ID
~Curve Information Block
DEPT.FT            0 000 00 00: Depth
SN.Ohm-m                      : IEL Short Normal
SP.mV                         : IEL Spontaneous Potential
DIR.Ohm-m                     : IEL Induction Resistivity
GR.GAPI                       : Gamma Ray
~Parameter Information Block
SNDERRM.mmho-m         10.0000: Medium Sonde Error Correction
~A  Depth        SN          SP         DIR          GR     
# ...
   531.5000     17.0569    -32.3565     10.2146    141.9261
   531.7500     16.7919    -32.3402     10.1684    142.5309
   532.0000     16.4382    -32.2860     10.1736    144.0621
   532.2500     16.0412    -32.2040     10.2408    144.8859
   532.5000     15.7161    -32.1128     10.3795    144.6005
   532.7500     15.5513    -32.0278     10.5942    143.2936
   533.0000     15.4872    -31.9531     10.8804    140.5963
   533.2500     15.4336    -31.8826     11.2230    138.6881
   533.5000     15.4326    -31.8125     11.5997    134.9429
   533.7500     15.5962    -31.7515     11.9892    131.1098
   534.0000     16.0050    -31.7175     12.3785    123.3512
   534.2500     16.6787    -31.7258     12.7655    117.8744
   534.5000     17.5323    -31.7804     13.1565    111.2766
   534.7500     18.4057    -31.8726     13.5628    108.3626
   535.0000     19.2161    -31.9814     13.9983    105.4254
   535.2500     20.0140    -32.0785     14.4732    103.8817
   535.5000     20.8214    -32.1379     14.9830    102.1690
   535.7500     21.5259    -32.1476     15.4999    101.7191
   536.0000     22.0036    -32.1136     15.9782    102.0913
   536.2500     22.2554    -32.0569     16.3768    102.6799
   536.5000     22.3511    -32.0052     16.6809    103.6451
   536.7500     22.3059    -31.9835     16.9034    104.5042
   537.0000     22.1041    -32.0055     17.0645    106.5824
   537.2500     21.7816    -32.0677     17.1735    108.3431
   537.5000     21.4321    -32.1515     17.2271    110.3391
   537.7500     21.1908    -32.2302     17.2202    110.4833
   538.0000     21.1654    -32.2791     17.1555    108.8154
   538.2500     21.2989    -32.2829     17.0459    107.3538
   538.5000     21.3664    -32.2372     16.9109    106.9130
   538.7500     21.2133    -32.1489     16.7729    108.6404
   539.0000     20.8876    -32.0374     16.6512    113.8649
   539.2500     20.5069    -31.9320     16.5516    117.9029
   539.5000     20.1766    -31.8626     16.4563    122.2333
   539.7500     19.9868    -31.8501     16.3198    122.8901
   540.0000     19.9238    -31.9042     16.0829    120.0483
   540.2500     19.8764    -32.0235     15.7033    116.0359
   540.5000     19.8322    -32.1929     15.1879    108.3870
   540.7500     19.8612    -32.3840     14.5981    103.3063
   541.0000     19.8866    -32.5631     14.0200     97.4005
   541.2500     19.7701    -32.7036     13.5205     95.3272
   541.5000     19.5396    -32.7944     13.1225     95.8250
   541.7500     19.2914    -32.8418     12.8097     98.7341
   542.0000     19.0249    -32.8687     12.5505    106.5333
   542.2500     18.6670    -32.9094     12.3219    113.3970
   542.5000     18.2024    -33.0002     12.1161    124.7832
   542.7500     17.7500    -33.1719     11.9297    132.1384
   543.0000     17.4238    -33.4454     11.7507    141.0427
   543.2500     17.1187    -33.8295     11.5583    144.7555
   543.5000     16.6066    -34.3148     11.3363    146.7998
   543.7500     15.8986    -34.8683     11.0866    146.5206
   544.0000     15.2420    -35.4357     10.8305    145.3923
   544.2500     14.7792    -35.9553     10.5961    144.8031
   544.5000     14.4610    -36.3767     10.4044    144.0858
   544.7500     14.1902    -36.6743     10.2645    143.3746
   545.0000     13.9548    -36.8515     10.1768    141.9122
   545.2500     13.8691    -36.9357     10.1396    141.1427
   545.5000     14.0984    -36.9685     10.1521    141.2015
   545.7500     14.6519    -36.9906     10.2117    142.0247
   546.0000     15.1943    -37.0312     10.3107    142.9949
   546.2500     15.3815    -37.1028     10.4340    142.2554
   546.5000     15.3252    -37.1998     10.5625    138.0319
   546.7500     15.2624    -37.3000     10.6791    133.7861
   547.0000     15.1307    -37.3719     10.7737    127.8928
   547.2500     14.8615    -37.3888     10.8460    125.6034
   547.5000     14.6510    -37.3410     10.9018    125.1494
   547.7500     14.7339    -37.2399     10.9495    126.1964
   548.0000     15.1582    -37.1121     10.9967    127.9936
   548.2500     15.7812    -36.9896     11.0487    128.4037
   548.5000     16.2947    -36.9018     11.1078    127.2830
   548.7500     16.3878    -36.8668     11.1717    125.7940
   549.0000     16.0691    -36.8836     11.2326    123.5236
   549.2500     15.6422    -36.9320     11.2780    122.2435
   549.5000     15.3388    -36.9811     11.2950    120.6319
   549.7500     15.1996    -37.0049     11.2765    119.9604
   550.0000     15.1856    -36.9924     11.2248    120.3913
   550.2500     15.2308    -36.9505     11.1505    121.9545
   550.5000     15.3112    -36.8968     11.0672    125.7724
   550.7500     15.4456    -36.8494     10.9874    128.5049
   551.0000     15.5705    -36.8183     10.9207    131.1377
   551.2500     15.5293    -36.8033     10.8751    131.0978
   551.5000     15.2623    -36.8002     10.8560    128.0937
   551.7500     14.9077    -36.8083     10.8671    124.8864
   552.0000     14.6502    -36.8354     10.9111    120.5318
   552.2500     14.5642    -36.8943     10.9927    118.9726
   552.5000     14.5944    -36.9957     11.1200    118.7043
   552.7500     14.6327    -37.1398     11.3023    119.1077
   553.0000     14.6390    -37.3133     11.5432    119.3077
   553.2500     14.6626    -37.4928     11.8334    119.0075
   553.5000     14.7990    -37.6527     12.1481    117.9934
   553.7500     15.1485    -37.7711     12.4536    116.5924
   554.0000     15.7277    -37.8353     12.7220    112.3664
   554.2500     16.3995    -37.8434     12.9440    108.0955
   554.5000     16.9371    -37.8049     13.1316    100.9452
   554.7500     17.2486    -37.7366     13.3064     96.7722
   555.0000     17.4938    -37.6589     13.4861     92.7487
   555.2500     17.8593    -37.5903     13.6785     92.1383
   555.5000     18.3294    -37.5394     13.8837     95.0410
   555.7500     18.7654    -37.5003     14.0984     99.3846
   556.0000     19.0595    -37.4582     14.3168    107.9285
   556.2500     19.1872    -37.4024     14.5279    113.6558
   556.5000     19.1945    -37.3358     14.7144    120.6195
   556.7500     19.0980    -37.2722     14.8568    123.8469
   557.0000     18.8572    -37.2246     14.9364    126.5118
   557.2500     18.5191    -37.1996     14.9326    126.7462
   557.5000     18.2218    -37.2001     14.8220    124.9755
   557.7500     18.0548    -37.2289     14.5907    123.1327
   558.0000     18.0609    -37.2829     14.2532    121.3529
   558.2500     18.2680    -37.3486     13.8562    121.5736
   558.5000     18.6262    -37.4065     13.4594    123.7056
   558.7500     18.9845    -37.4434     13.1119    125.4923
   559.0000     19.2051    -37.4579     12.8428    127.4776
   559.2500     19.2227    -37.4549     12.6667    128.2175
   559.5000     18.9535    -37.4376     12.5923    129.0220
   559.7500     18.3850    -37.4073     12.6270    129.6541
   560.0000     17.7707    -37.3677     12.7756    130.9301
   560.2500     17.4811    -37.3276     13.0381    132.0792
   560.5000     17.6351    -37.2972     13.4100    134.0740
   560.7500     18.0229    -37.2836     13.8851    135.0526
   561.0000     18.4338    -37.2877     14.4588    135.0260
   561.2500     18.8731    -37.3044     15.1284    134.0299
   561.5000     19.4165    -37.3241     15.8898    131.6424
   561.7500     20.1343    -37.3375     16.7364    129.3239
   562.0000     21.2061    -37.3348     17.6628    123.6383
   562.2500     22.8918    -37.3020     18.6738    117.9724
   562.5000     25.3393    -37.2218     19.7914    107.1552
   562.7500     28.5164    -37.0801     21.0540     98.9679
   563.0000     32.3019    -36.8743     22.5076     85.8523
   563.2500     36.5557    -36.6139     24.1962     76.8584
   563.5000     41.0338    -36.3172     26.1590     64.1041
   563.7500     45.3147    -36.0060     28.4263     56.9817
   564.0000     48.9407    -35.6994     30.9960     49.2306
   564.2500     51.5743    -35.4038     33.7767     45.7858
   564.5000     53.0323    -35.1088     36.5238     42.2455
   564.7500     53.2962    -34.7945     38.8608     40.8113
