~Version Information
VERS.                      2.0: CWLS Log ASCII Standard - VERSION 2.0
WRAP.                       NO: One line per depth step
~Well Information Block
STRT.FT                -8.0000: 
STOP.FT              2135.0000: 
STEP.FT                 0.2500: 
NULL.                -999.2500: 
COMP.          Pioneer Natural Resources: COMPANY
WELL.             AMX 13-13 Tr: WELL
FLD.           Purgatorie River: FIELD
LOC.           2401' FSL & 895' FWL--: LOCATION
PROV.                       CO: PROVINCE
CNTY.               Las Animas: COUNTRY
SRVC.          Patterson Wireline: SERVICE COMPANY
DATE.          Thu Jan 05 10:37:28 2006: LOG DATE
UWI.           05 071 08631 00: UNIQUE WELL ID
~Curve Information Block
DEPT.FT            0 000 00 00: Depth
CCL.                          : Casing Collar Locator
TT3.usec                      : CBL 3' Travel Time
AMP3.mV                       : CBL 3' Amplitude
GR.GAPI                       : Gamma Ray
~Parameter Information Block
~A  Depth       CCL         TT3         AMP3         GR     
# ...
   963.5000      0.0000    712.1971     15.3358    105.9283
   963.7500      0.0000    716.2552     15.2451    108.3124
   964.0000      0.0000    719.7116     15.1259    111.4435
   964.2500      0.0000    722.9019     14.9169    115.1635
   964.5000      0.0000    725.7964     14.5326    119.1362
   964.7500      0.0000    727.8206     13.8980    123.7437
   965.0000      0.0000    728.5828     12.9779    130.0523
   965.2500      0.0000    728.5256     11.8147    137.9719
   965.5000      0.0000    729.0984     10.5682    145.0409
   965.7500      0.0000    732.3377      9.4764    148.0168
   966.0000      0.0000    739.6179      8.7044    145.6135
   966.2500      0.0000    750.3337      8.2394    139.3861
   966.5000      0.0000    762.0732      7.9810    132.1239
   966.7500      0.0000    772.1858      7.8902    125.5976
   967.0000      0.0000    778.8675      7.9822    119.7368
   967.2500      0.0000    780.8773      8.2228    113.7551
   967.5000      0.0000    776.7196      8.5232    107.8164
   967.7500      0.0000    763.6432      8.8346    103.4383
   968.0000      0.0000    737.0890      9.2305    102.3029
   968.2500      0.0000    693.3573      9.8974    104.6856
   968.5000      0.0000    636.0872     10.9712    108.8673
   968.7500      0.0000    578.6240     12.3198    112.2002
   969.0000      0.0000    534.0547     13.5919    113.1946
   969.2500      0.0000    501.8432     14.5838    112.5607
   969.5000      0.0000    470.1141     15.4317    112.0080
   969.7500      0.0000    432.6183     16.3278    112.5287
   970.0000      0.0000    397.8557     17.1982    114.3440
   970.2500      0.0000    380.9088     17.7865    117.7543
   970.5000      0.0000    392.0344     17.9455    123.0712
   970.7500      0.0000    433.0021     17.7488    129.8562
   971.0000      0.0000    497.2290     17.3812    136.6846
   971.2500      0.0000    570.5278     16.9972    141.8556
   971.5000      0.0000    636.1437     16.6655    144.5330
   971.7500      0.0000    683.0264     16.3902    145.2242
   972.0000      0.0000    709.5823     16.1541    144.7643
   972.2500      0.0000    719.9556     15.9436    143.1563
   972.5000      0.0000    717.9745     15.7525    140.2905
   972.7500      0.0000    705.0682     15.5697    137.3668
   973.0000      0.0000    683.8665     15.3651    136.1127
   973.2500      0.0000    662.8101     15.0923    136.4002
   973.5000      0.0000    653.8918     14.7200    135.9816
   973.7500      0.0000    663.0359     14.2637    133.1588
   974.0000      0.0000    684.3180     13.7817    128.8209
   974.2500      0.0000    705.9727     13.3393    125.1496
   974.5000      0.0000    720.4240     12.9818    122.8264
   974.7500      0.0000    727.2992     12.7352    120.2727
   975.0000      0.0000    729.6883     12.6144    115.6202
   975.2500      0.0000    730.2733     12.6227    108.8327
   975.5000      0.0000    730.2277     12.7481    101.7489
   975.7500      0.0000    729.4069     12.9636     96.6935
   976.0000      0.0000    726.0345     13.2397     95.3342
   976.2500      0.0000    715.5976     13.5634     98.1992
   976.5000      0.0000    690.5255     13.9402    104.4768
   976.7500      0.0000    643.7125     14.3658    112.2986
   977.0000      0.0000    575.8253     14.7867    119.7816
   977.2500      0.0000    499.6760     15.0991    126.0238
   977.5000      0.0000    434.4297     15.2046    130.9306
   977.7500      0.0000    393.6293     15.0745    134.0518
   978.0000      0.0000    379.2588     14.7667    134.2217
   978.2500      0.0000    386.7071     14.3837    131.1153
   978.5000      0.0000    412.9601     14.0157    126.8269
   978.7500      0.0000    458.0451     13.7080    124.8036
   979.0000      0.0000    518.1899     13.4654    126.8446
   979.2500      0.0000    579.3019     13.2734    131.5265
   979.5000      0.0000    620.8692     13.1168    135.6649
   979.7500      0.0000    629.6984     12.9866    136.9678
   980.0000      0.0000    611.0644     12.8795    135.1503
   980.2500      0.0000    584.8571     12.7968    131.1001
   980.5000      0.0000    567.9061     12.7443    125.7756
   980.7500      0.0000    560.2265     12.7276    120.0636
   981.0000      0.0000    550.7339     12.7430    115.1573
   981.2500      0.0000    532.9132     12.7787    112.4846
   981.5000      0.0000    508.7354     12.8280    112.9507
   981.7500      0.0000    480.8657     12.8935    116.1381
   982.0000      0.0000    450.0980     12.9710    120.2825
   982.2500      0.0000    419.8943     13.0383    123.2679
   982.5000      0.0000    396.3706     13.0671    124.0190
   982.7500      0.0000    383.3513     13.0414    123.2649
   983.0000      0.0000    380.8953     12.9630    122.8666
   983.2500      0.0000    388.4105     12.8470    123.9280
   983.5000      0.0000    406.9155     12.7155    125.5800
   983.7500      0.0000    437.7838     12.5875    126.1773
   984.0000      0.0000    479.6964     12.4727    125.4467
   984.2500      0.0000    527.4703     12.3759    124.6122
   984.5000      0.0000    573.5196     12.2996    124.5983
   984.7500      0.0000    609.9147     12.2399    125.1639
   985.0000      0.0000    631.5553     12.1819    125.9107
   985.2500      0.0000    641.1108     12.1046    127.1893
   985.5000      0.0000    648.9689     11.9919    129.4212
   985.7500      0.0000    664.0018     11.8438    131.8951
   986.0000      0.0000    685.3073     11.6792    132.9181
   986.2500      0.0000    705.3217     11.5299    131.4211
   986.5000      0.0000    718.5840     11.4271    128.1225
   986.7500      0.0000    725.1249     11.3889    124.8221
   987.0000      0.0000    727.6531     11.4184    122.7531
   987.2500      0.0000    728.4708     11.5082    121.8826
   987.5000      0.0000    728.6696     11.6426    121.5040
   987.7500      0.0000    728.5796     11.7991    120.9305
   988.0000      0.0000    727.8798     11.9596    119.5787
   988.2500      0.0000    724.9910     12.1209    116.9457
   988.5000      0.0000    715.8851     12.2909    113.0397
   988.7500      0.0000    693.8455     12.4745    108.9945
   989.0000      0.0000    652.5986     12.6694    106.8135
   989.2500      0.0000    592.9863     12.8679    107.8197
   989.5000      0.0000    527.4611     13.0563    111.2737
   989.7500      0.0000    476.1364     13.2129    115.0436
   990.0000      0.0000    456.6350     13.3171    117.8069
   990.2500      0.0000    475.7589     13.3579    120.0431
   990.5000      0.0000    526.6929     13.3331    122.6396
   990.7500      0.0000    591.5889     13.2460    125.3040
   991.0000      0.0000    649.9625     13.1093    127.1186
   991.2500      0.0000    689.2910     12.9430    128.1607
   991.5000      0.0000    709.3920     12.7589    129.5679
   991.7500      0.0000    717.6505     12.5546    132.0389
   992.0000      0.0000    721.3658     12.3310    135.0224
   992.2500      0.0000    724.0484     12.1120    137.3352
   992.5000      0.0000    726.2283     11.9385    138.0261
   992.7500      0.0000    727.5350     11.8495    136.9691
   993.0000      0.0000    727.4540     11.8697    135.2551
   993.2500      0.0000    724.4940     12.0098    134.7379
   993.5000      0.0000    714.8579     12.2670    136.6429
   993.7500      0.0000    692.6038     12.6229    140.5913
   994.0000      0.0000    653.9161     13.0372    145.0141
   994.2500      0.0000    604.1191     13.4445    148.4177
   994.5000      0.0000    559.4329     13.7656    150.2615
   994.7500      0.0000    537.8125     13.9292    150.7266
   995.0000      0.0000    546.7769     13.8934    149.8861
   995.2500      0.0000    580.4241     13.6548    147.3159
   995.5000      0.0000    625.3604     13.2523    142.5030
   995.7500      0.0000    667.7521     12.7624    135.5504
   996.0000      0.0000    698.2940     12.2827    127.6017
   996.2500      0.0000    714.2430     11.9087    120.6500
   996.5000      0.0000    717.2156     11.7080    116.5796
   996.7500      0.0000    709.3783     11.6982    116.1643
