~Version Information
VERS.                      2.0: CWLS Log ASCII Standard - VERSION 2.0
WRAP.                       NO: One line per depth step
~Well Information Block
STRT.FT               233.8000: 
STOP.FT              1692.5000: 
STEP.FT                 0.1000: 
NULL.                -999.2500: 
COMP.          Pioneer Natural Resources: COMPANY
WELL.            Relay 12-7 Tr: WELL
FLD.           Purgatoire River: FIELD
LOC.           2025' FNL & 790' FWL: LOCATION
PROV.                 Colorado: PROVINCE
CNTY.               Las Animas: COUNTRY
SRVC.                Patterson: SERVICE COMPANY
DATE.          Mon Jan 16 13:23:17 2006: LOG DATE
UWI.           05 071 08603 00: UNIQUE WELL ID
~Curve Information Block
DEPT.FT            0 000 00 00: Depth
DCAL.in                       : CDL Caliper
RHOB.g/cc                     : CDL Bulk Density
RHOC.g/cc                     : CDL Density Correction
DPOR.pu                       : CDL Density Porosity
GR.GAPI                       : Gamma Ray
~Parameter Information Block
~A  Depth       DCAL        RHOB        RHOC        DPOR         GR     
# ...
   827.4000      8.0015      2.5187      0.0880      7.9580     94.5168
   827.5000      7.9801      2.5193      0.0969      7.9239     97.4142
   827.6000      7.9801      2.5104      0.0628      8.4602    104.5278
   827.7000      7.9801      2.5022      0.0831      8.9557    110.2905
   827.8000      7.9482      2.4991      0.0943      9.1460    111.7709
   827.9000      7.9482      2.5038      0.1101      8.8595    109.2143
   828.0000      7.9142      2.5212      0.1476      7.8083    108.2648
   828.1000      7.9142      2.5429      0.1650      6.4917    114.1218
   828.2000      7.9142      2.5602      0.1719      5.4407    122.4995
   828.3000      7.8855      2.5699      0.1902      4.8545    128.6869
   828.4000      7.8855      2.5631      0.1884      5.2658    132.8688
   828.5000      7.9257      2.5409      0.1323      6.6139    137.2946
   828.6000      7.9257      2.5158      0.1108      8.1361    142.0291
   828.7000      7.9257      2.4987      0.1052      9.1723    143.1122
   828.8000      7.9470      2.4992      0.0625      9.1409    139.6387
   828.9000      7.9470      2.5100      0.1618      8.4841    135.5884
   829.0000      7.9875      2.5099      0.1188      8.4921    134.0959
   829.1000      7.9875      2.5075      0.1097      8.6392    134.6850
   829.2000      7.9875      2.5239      0.1789      7.6432    137.3471
   829.3000      8.0309      2.5458      0.2198      6.3167    142.9511
   829.4000      8.0309      2.5542      0.1703      5.8039    150.2807
   829.5000      8.0372      2.5571      0.1739      5.6332    155.9007
   829.6000      8.0372      2.5640      0.1576      5.2113    156.0114
   829.7000      8.0372      2.5766      0.1367      4.4458    154.4241
   829.8000      8.0116      2.6006      0.1351      2.9928    156.0857
   829.9000      8.0116      2.6345      0.1479      0.9399    156.1505
   830.0000      8.0145      2.6573      0.2077     -0.4442    153.7530
   830.1000      8.0145      2.6555      0.1111     -0.3329    152.0037
   830.2000      8.0145      2.6417      0.1501      0.5023    148.3297
   830.3000      8.0373      2.6279      0.1427      1.3388    140.7193
   830.4000      8.0373      2.6196      0.0517      1.8436    131.3537
   830.5000      8.0120      2.6132      0.0733      2.2333    127.1836
   830.6000      8.0120      2.5872      0.0006      3.8067    132.6418
   830.7000      8.0120      2.5405     -0.0566      6.6379    142.6366
   830.8000      8.0568      2.5058     -0.1185      8.7381    149.8834
   830.9000      8.0568      2.5040      0.0063      8.8499    152.8887
   831.0000      8.1183      2.5205      0.0136      7.8464    153.1703
   831.1000      8.1183      2.5372      0.0233      6.8365    152.0351
   831.2000      8.1183      2.5496      0.0304      6.0833    151.5833
   831.3000      8.1429      2.5509      0.0353      6.0078    155.0843
   831.4000      8.1429      2.5316      0.0784      7.1770    161.6135
   831.5000      8.0841      2.5053     -0.0186      8.7725    165.2617
   831.6000      8.0841      2.4902      0.0348      9.6855    164.5802
   831.7000      8.0841      2.4789      0.0255     10.3700    162.9030
   831.8000      8.0525      2.4705     -0.0959     10.8764    163.7232
   831.9000      8.0525      2.4809     -0.0438     10.2500    167.2363
   832.0000      8.1576      2.5068      0.0681      8.6803    169.5460
   832.1000      8.1576      2.5246      0.0999      7.5990    167.6482
   832.2000      8.1576      2.5187      0.1413      7.9595    162.1500
   832.3000      8.2402      2.5006      0.0643      9.0557    159.6119
   832.4000      8.2402      2.4969      0.1392      9.2764    163.8702
   832.5000      8.2550      2.5126      0.1270      8.3248    168.0883
   832.6000      8.2550      2.5269      0.0951      7.4611    166.9935
   832.7000      8.2550      2.5224      0.0688      7.7324    163.3991
   832.8000      8.2467      2.5106      0.0578      8.4473    161.0690
   832.9000      8.2467      2.5104      0.0838      8.4605    162.3936
   833.0000      8.1869      2.5107      0.1204      8.4407    165.5564
   833.1000      8.1869      2.4907      0.0664      9.6571    166.8793
   833.2000      8.1869      2.4687      0.0019     10.9861    166.7967
   833.3000      8.1834      2.4808      0.0327     10.2548    165.8222
   833.4000      8.1834      2.5165      0.0872      8.0924    163.8122
   833.5000      8.1932      2.5377      0.0391      6.8031    162.0685
   833.6000      8.1932      2.5333      0.0528      7.0733    162.7295
   833.7000      8.1932      2.5113      0.0204      8.4048    167.0714
   833.8000      8.1472      2.4827      0.0437     10.1388    168.5726
   833.9000      8.1472      2.4664     -0.0298     11.1296    158.8498
   834.0000      8.1986      2.4772     -0.0181     10.4728    143.4730
   834.1000      8.1986      2.5025     -0.0018      8.9372    135.4148
   834.2000      8.1986      2.5223      0.0166      7.7373    136.6777
   834.3000      8.1889      2.5310      0.0131      7.2102    139.8548
   834.4000      8.1889      2.5328     -0.0229      7.1029    140.7202
   834.5000      8.2099      2.5325      0.0227      7.1193    138.8085
   834.6000      8.2099      2.5292     -0.0155      7.3187    133.4806
   834.7000      8.2099      2.5232      0.0100      7.6855    128.8256
   834.8000      8.2006      2.5192     -0.0007      7.9292    128.4812
   834.9000      8.2006      2.5247     -0.0279      7.5940    128.5945
   835.0000      8.1774      2.5429      0.0330      6.4931    126.1898
   835.1000      8.1774      2.5589      0.0710      5.5207    122.5231
   835.2000      8.1774      2.5559      0.0456      5.7012    115.1697
   835.3000      8.1331      2.5356      0.0440      6.9347    105.2904
   835.4000      8.1331      2.5087      0.0326      8.5664    103.1907
   835.5000      8.1240      2.4881     -0.0310      9.8148    111.6483
   835.6000      8.1240      2.4786      0.0163     10.3875    121.8818
   835.7000      8.1240      2.4663     -0.0029     11.1361    128.8137
   835.8000      8.1608      2.4461     -0.0593     12.3562    134.3978
   835.9000      8.1608      2.4389     -0.0835     12.7927    136.8892
   836.0000      8.1372      2.4585     -0.0395     11.6047    131.3438
   836.1000      8.1372      2.4881      0.0029      9.8121    123.2723
   836.2000      8.1372      2.5065     -0.0239      8.6949    120.9327
   836.3000      8.0788      2.5111      0.0565      8.4206    119.9178
   836.4000      8.0788      2.5140      0.0068      8.2425    113.3303
   836.5000      8.0456      2.5367      0.0224      6.8638    103.8622
   836.6000      8.0456      2.5777      0.1006      4.3813     98.2948
   836.7000      8.0456      2.6084      0.0833      2.5192     98.2123
   836.8000      7.9866      2.6179      0.1051      1.9437     99.0920
   836.9000      7.9866      2.6195      0.1009      1.8458     99.3639
   837.0000      7.9284      2.6211      0.1370      1.7490    102.8855
   837.1000      7.9284      2.6128      0.1375      2.2552    107.2171
   837.2000      7.9284      2.5929      0.0932      3.4597    107.1030
   837.3000      7.8342      2.5784      0.0948      4.3392    106.1332
   837.4000      7.8342      2.5691      0.1210      4.9041    107.2977
   837.5000      7.7929      2.5512      0.1004      5.9872    108.7250
   837.6000      7.7929      2.5269      0.1099      7.4626    112.1416
   837.7000      7.7929      2.5031      0.0651      8.9012    119.4561
   837.8000      7.8650      2.4840      0.0992     10.0627    126.7000
   837.9000      7.8650      2.4814      0.0641     10.2184    131.1239
   838.0000      7.9354      2.5018      0.0776      8.9795    132.8337
   838.1000      7.9354      2.5239      0.0973      7.6443    129.9023
   838.2000      7.9354      2.5283      0.0672      7.3754    126.0701
   838.3000      7.9838      2.5273      0.0846      7.4347    127.4420
   838.4000      7.9838      2.5347      0.0543      6.9898    132.6459
   838.5000      7.9759      2.5382      0.1146      6.7753    136.6146
