~Version Information
VERS.                      2.0: CWLS Log ASCII Standard - VERSION 2.0
WRAP.                       NO: One line per depth step
~Well Information Block
STRT.FT                -8.0000: 
STOP.FT              1472.2500: 
STEP.FT                 0.2500: 
NULL.                -999.2500: 
COMP.          Pioneer Natural Resources: COMPANY
WELL.           Amore 32-09 Tr: WELL
FLD.           Purgatoire River: FIELD
LOC.           1941' FNL & 2297' FEL--: LOCATION
PROV.                       CO: PROVINCE
CNTY.               Las Animas: COUNTRY
SRVC.          Patterson Wireline: SERVICE COMPANY
DATE.          Tue Nov 22 11:37:00 2005: LOG DATE
UWI.           05 071 08584 00: UNIQUE WELL ID
~Curve Information Block
DEPT.FT            0 000 00 00: Depth
CCL.                          : Casing Collar Locator
TT3.usec                      : CBL 3' Travel Time
AMP3.mV                       : CBL 3' Amplitude
GR.GAPI                       : Gamma Ray
~Parameter Information Block
~A  Depth       CCL         TT3         AMP3         GR     
# ...
   193.0000      0.0000    791.6248      9.4586     55.0750
   193.2500      0.0000    791.6407      9.2170     53.3135
   193.5000      0.0000    791.5792      9.0625     51.9295
   193.7500      0.0000    791.2697      8.9804     51.1730
   194.0000      0.0000    790.3620      8.9314     51.0807
   194.2500      0.0000    788.3573      8.8838     51.5934
   194.5000      0.0000    784.8865      8.8244     52.3455
   194.7500      0.0000    780.1060      8.7510     52.6905
   195.0000      0.0000    774.8292      8.6625     52.2343
   195.2500      0.0000    770.2383      8.5591     51.3293
   195.5000      0.0000    767.4334      8.4474     50.9003
   195.7500      0.0000    766.9636      8.3395     51.6144
   196.0000      0.0000    768.3792      8.2420     53.1170
   196.2500      0.0000    770.1644      8.1501     54.2591
   196.5000      0.0000    770.3814      8.0556     54.1778
   196.7500      0.0000    767.8815      7.9634     52.9388
   197.0000      0.0000    763.3228      7.8929     51.1429
   197.2500      0.0000    758.9988      7.8617     49.3392
   197.5000      0.0000    757.4097      7.8683     47.8803
   197.7500      0.0000    759.7191      7.8955     46.9164
   198.0000      0.0000    764.9882      7.9263     46.4447
   198.2500      0.0000    770.4824      7.9559     46.6181
   198.5000      0.0000    773.2229      7.9873     47.8739
   198.7500      0.0000    772.1607      8.0207     50.4542
   199.0000      0.0000    769.1216      8.0490     54.0488
   199.2500      0.0000    767.2196      8.0631     58.2800
   199.5000      0.0000    768.0923      8.0592     63.1552
   199.7500      0.0000    770.7761      8.0429     68.3634
   200.0000      0.0000    773.2709      8.0301     72.3739
   200.2500      0.0000    774.7863      8.0396     73.2063
   200.5000      0.0000    776.1807      8.0816     70.3666
   200.7500      0.0000    778.5995      8.1494     65.5518
   201.0000      0.0000    782.1666      8.2195     61.2623
   201.2500      0.0000    785.9594      8.2617     58.9245
   201.5000      0.0000    788.9230      8.2557     58.2469
   201.7500      0.0000    790.6140      8.2043     58.1398
   202.0000      0.0000    791.1464      8.1263     58.1259
   202.2500      0.0000    790.6509      8.0389     58.7390
   202.5000      0.0000    788.9417      7.9504     60.4567
   202.7500      0.0000    785.7079      7.8696     62.4795
   203.0000      0.0000    780.9501      7.8101     63.1102
   203.2500      0.0000    775.1072      7.7785     61.5198
   203.5000      0.0000    768.8155      7.7631     58.7112
   203.7500      0.0000    762.7312      7.7459     56.4198
   204.0000      0.0000    757.5327      7.7248     55.3697
   204.2500      0.0000    753.7373      7.7171     54.9796
   204.5000      0.0000    751.4057      7.7416     54.5420
   204.7500      0.0000    750.1648      7.8010     54.2239
   205.0000      0.0000    749.5266      7.8793     54.8406
   205.2500      0.0000    749.1392      7.9513     56.7415
   205.5000      0.0000    748.8310      7.9978     58.9235
   205.7500      0.0000    748.5524      8.0136     59.5546
   206.0000      0.0000    748.3142      8.0024     57.6980
   206.2500      0.0000    748.1355      7.9677     54.3325
   206.5000      0.0000    748.0206      7.9190     51.4840
   206.7500      0.0000    747.9603      7.8836     50.6428
   207.0000      0.0000    747.9492      7.8957     51.9686
   207.2500      0.0000    748.0013      7.9677     54.3146
   207.5000      0.0000    748.1829      8.0807     55.7726
   207.7500      0.0000    748.7015      8.2045     54.9705
   208.0000      0.0000    750.0572      8.3224     52.4534
   208.2500      0.0000    753.0787      8.4307     50.4311
   208.5000      0.0000    758.5343      8.5259     50.7068
   208.7500      0.0000    766.3357      8.6014     53.1157
   209.0000      0.0000    775.0978      8.6523     56.1802
   209.2500      0.0000    782.8185      8.6771     58.7134
   209.5000      0.0000    788.1888      8.6783     60.2704
   209.7500      0.0000    791.2070      8.6665     60.5739
   210.0000      0.0000    792.6738      8.6577     59.3658
   210.2500      0.0000    793.3814      8.6619     56.9164
   210.5000      0.0000    793.7526      8.6731     54.1722
   210.7500      0.0000    793.9276      8.6726     52.1698
   211.0000      0.0000    793.9540      8.6399     51.4257
   211.2500      0.0000    793.8816      8.5609     51.8186
   211.5000      0.0000    793.7599      8.4338     52.7271
   211.7500      0.0000    793.6062      8.2695     53.3382
   212.0000      0.0000    793.3768      8.0865     53.2668
   212.2500      0.0000    792.8952      7.9038     52.9594
   212.5000      0.0000    791.7097      7.7412     53.2508
   212.7500      0.0000    789.0630      7.6209     54.4405
   213.0000      0.0000    784.3244      7.5603     55.8339
   213.2500      0.0000    777.8151      7.5565     56.2148
   213.5000      0.0000    771.0503      7.5780     54.8874
   213.7500      0.0000    765.3572      7.5737     52.4866
   214.0000      0.0000    760.0692      7.5045     50.8284
   214.2500      0.0000    753.6956      7.3792     51.7852
   214.5000      0.0000    749.1393      7.2451     55.9461
   214.7500      0.0000    757.2817      7.1267     62.1765
   215.0000      0.0000    790.7307      6.9970     68.4196
   215.2500      0.0000    850.1420      6.8309     72.7876
   215.5000      0.0000    919.0443      6.6572     73.9255
   215.7500      0.0000    976.1625      6.5314     71.0603
   216.0000      0.0000   1011.2448      6.4802     64.5794
   216.2500     -2.0000   1026.6460      6.4961     56.5108
   216.5000      0.0000   1027.8394      6.5723     49.7291
   216.7500      0.0000   1016.2656      6.7324     46.2607
   217.0000      0.0000    988.8430      7.0245     46.3300
   217.2500      0.0000    943.3439      7.4648     48.7728
   217.5000      0.0000    885.8409      7.9689     51.9339
   217.7500      0.0000    830.4831      8.3764     54.2654
   218.0000      0.0000    789.6265      8.5880     54.8558
   218.2500      0.0000    766.0968      8.6514     54.0778
   218.5000      0.0000    755.2043      8.6812     53.5732
   218.7500      0.0000    750.9600      8.7381     54.9396
   219.0000      0.0000    749.4440      8.8151     58.0950
   219.2500      0.0000    748.8521      8.8937     61.2931
   219.5000      0.0000    748.5469      8.9700     63.0366
   219.7500      0.0000    748.3412      9.0477     63.5503
   220.0000      0.0000    748.2018      9.1354     64.0174
   220.2500      0.0000    748.1667      9.2510     64.9208
   220.5000      0.0000    748.2545      9.4050     65.7818
   220.7500      0.0000    748.4216      9.5775     66.1296
   221.0000      0.0000    748.5917      9.7224     65.8818
   221.2500      0.0000    748.7332      9.7999     64.7739
   221.5000      0.0000    748.8760      9.7991     62.2538
   221.7500      0.0000    749.0443      9.7323     58.2953
   222.0000      0.0000    749.2037      9.6204     53.8444
   222.2500      0.0000    749.2856      9.4865     50.1903
   222.5000      0.0000    749.2462      9.3538     48.2249
   222.7500      0.0000    749.0956      9.2439     48.3734
   223.0000      0.0000    748.8952      9.1719     50.7054
   223.2500      0.0000    748.7377      9.1400     54.6983
   223.5000      0.0000    748.7116      9.1317     59.0918
   223.7500      0.0000    748.8563      9.1156     62.3593
   224.0000      0.0000    749.1422      9.0612     63.4015
   224.2500      0.0000    749.4952      8.9600     61.9876
   224.5000      0.0000    749.8457      8.8339     59.0656
   224.7500      0.0000    750.1615      8.7177     56.6651
   225.0000      0.0000    750.4364      8.6325     56.7871
   225.2500      0.0000    750.6480      8.5764     59.8731
   225.5000      0.0000    750.7441      8.5343     64.3632
   225.7500      0.0000    750.6946      8.4942     67.8230
   226.0000      0.0000    750.5477      8.4584     68.6828
   226.2500      0.0000    750.4048      8.4448     67.1354
