~Version Information
VERS.                      2.0: CWLS Log ASCII Standard - VERSION 2.0
WRAP.                       NO: One line per depth step
~Well Information Block
STRT.FT               480.0000: 
STOP.FT              1946.0000: 
STEP.FT                 0.1000: 
NULL.                -999.2500: 
COMP.          XTO Energy Inc.: COMPANY
WELL.          Golden Eagle 19-15: WELL
FLD.           Purgatoire River: FIELD
LOC.           1121' FSL & 2332' FEL--: LOCATION
CNTY.               Las Animas: COUNTY
SRVC.                Patterson: SERVICE COMPANY
DATE.          Mon Mar 13 10:27:20 2006: LOG DATE
UWI.           05 071 08717 00: UNIQUE WELL ID
STAT.                 Colorado: STATE
~Curve Information Block
DEPT.FT            0 000 00 00: Depth
DCAL.in                       : CDL Caliper
RHOB.g/cc                     : CDL Bulk Density
RHOC.g/cc                     : CDL Density Correction
DPOR.pu                       : CDL Density Porosity
NPOR.pu                       : Neutron Porosity
GR.GAPI                       : Gamma Ray
~Parameter Information Block
~A  Depth       DCAL        RHOB        RHOC        DPOR        NPOR         GR     
# ...
  1814.4000      7.8081      2.5602      0.0479      5.4410     22.2436     87.2508
  1814.5000      7.8070      2.5191     -0.0357      7.9354     22.3901     88.7208
  1814.6000      7.8070      2.4877     -0.0402      9.8368     22.6261     89.2637
  1814.7000      7.8070      2.4843      0.0194     10.0399     23.3106     88.9455
  1814.8000      7.8069      2.5007      0.0067      9.0468     24.3458     89.9474
  1814.9000      7.8069      2.5345      0.0196      6.9993     25.1976     91.8461
  1815.0000      7.8073      2.5805      0.0745      4.2091     25.6220     95.6760
  1815.1000      7.8073      2.6076      0.1228      2.5704     25.6686     99.2079
  1815.2000      7.8073      2.5983      0.0652      3.1345     25.5332     98.7547
  1815.3000      7.8068      2.5780      0.0452      4.3656     25.4116     99.4639
  1815.4000      7.8068      2.5687      0.0768      4.9253     25.2004    106.2476
  1815.5000      7.8059      2.5606      0.0980      5.4163     25.0223    113.0887
  1815.6000      7.8059      2.5446      0.0687      6.3881     24.9848    114.6864
  1815.7000      7.8059      2.5317      0.0514      7.1676     24.6640    113.0830
  1815.8000      7.8065      2.5278      0.0734      7.4090     24.0794    110.0281
  1815.9000      7.8065      2.5276      0.0421      7.4208     23.7505    106.6958
  1816.0000      7.8066      2.5320      0.0747      7.1493     23.7244    103.8704
  1816.1000      7.8066      2.5419      0.0650      6.5534     23.7269    103.6867
  1816.2000      7.8066      2.5521      0.0679      5.9319     23.7640    108.0880
  1816.3000      7.8052      2.5527      0.0722      5.8964     23.9726    112.7885
  1816.4000      7.8052      2.5349      0.0282      6.9778     24.4003    113.3587
  1816.5000      7.8045      2.4990      0.0310      9.1507     24.8469    112.0318
  1816.6000      7.8045      2.4521     -0.0228     11.9951     25.0201    109.4495
  1816.7000      7.8045      2.4067     -0.0007     14.7460     25.1340    103.6107
  1816.8000      7.8031      2.3754     -0.0092     16.6418     25.2263    100.6554
  1816.9000      7.8031      2.3696     -0.0170     16.9911     24.9331    104.1477
  1817.0000      7.8018      2.3918      0.0145     15.6478     24.7472    110.0771
  1817.1000      7.8018      2.4370     -0.0040     12.9103     25.1551    116.9290
  1817.2000      7.8018      2.4980      0.0914      9.2120     25.6464    124.1514
  1817.3000      7.8017      2.5505      0.1810      6.0299     25.6796    128.3056
  1817.4000      7.8017      2.5704      0.1887      4.8220     25.0746    123.9048
  1817.5000      7.8026      2.5652      0.1863      5.1376     24.1314    112.0698
  1817.6000      7.8026      2.5608      0.2064      5.4032     23.4847    101.5652
  1817.7000      7.8026      2.5706      0.1984      4.8102     22.9990     98.2542
  1817.8000      7.8044      2.5891      0.0990      3.6930     22.1834     99.6628
  1817.9000      7.8044      2.6055      0.0565      2.6966     21.4983    101.2157
  1818.0000      7.8053      2.6086      0.1141      2.5065     21.4128     99.9839
  1818.1000      7.8053      2.5945      0.0631      3.3612     21.6673     95.7211
  1818.2000      7.8053      2.5755      0.0361      4.5155     21.8601     90.0836
  1818.3000      7.8051      2.5639      0.0424      5.2177     21.8761     83.3607
  1818.4000      7.8051      2.5642     -0.0088      5.2002     21.9727     78.8893
  1818.5000      7.8032      2.5722      0.0539      4.7141     22.2410     80.6159
  1818.6000      7.8032      2.5781      0.0310      4.3574     22.4576     88.5244
  1818.7000      7.8032      2.5838      0.0300      4.0112     22.6327     98.5095
  1818.8000      7.7984      2.5874      0.0671      3.7910     22.7409    104.7191
  1818.9000      7.7984      2.5707      0.0743      4.8043     22.7730    106.4956
  1819.0000      7.7937      2.5358      0.0423      6.9187     22.9374    109.8119
  1819.1000      7.7937      2.5152      0.0137      8.1698     23.3721    119.5120
  1819.2000      7.7937      2.5216      0.0520      7.7799     24.0919    130.8641
  1819.3000      7.7910      2.5325      0.0296      7.1227     25.0163    137.1475
  1819.4000      7.7910      2.5315      0.0612      7.1824     25.8204    138.3267
  1819.5000      7.7918      2.5189      0.0466      7.9446     26.0453    132.7292
  1819.6000      7.7918      2.4992      0.0583      9.1412     25.7722    122.5308
  1819.7000      7.7918      2.4828      0.0502     10.1318     25.3892    118.5425
  1819.8000      7.7960      2.4804      0.0522     10.2774     24.9915    123.3277
  1819.9000      7.7960      2.4923      0.0561      9.5593     24.7006    129.2076
  1820.0000      7.8010      2.5143      0.0531      8.2241     24.6889    129.8489
  1820.1000      7.8010      2.5344      0.0604      7.0047     24.7231    124.5197
  1820.2000      7.8010      2.5342      0.0767      7.0198     24.4768    118.4955
  1820.3000      7.8049      2.5185      0.0259      7.9699     23.9913    116.3878
  1820.4000      7.8049      2.5099      0.0910      8.4884     23.4612    113.2452
  1820.5000      7.8072      2.5136      0.0398      8.2651     22.8119    107.1362
  1820.6000      7.8072      2.5213      0.0626      7.8015     21.8973    110.4348
  1820.7000      7.8072      2.5291      0.0601      7.3259     21.0831    122.0793
  1820.8000      7.8076      2.5435      0.0470      6.4571     20.9056    124.2806
  1820.9000      7.8076      2.5629      0.0901      5.2777     21.0912    116.9790
  1821.0000      7.8047      2.5775      0.0744      4.3964     21.0253    112.9718
  1821.1000      7.8047      2.5903      0.0983      3.6156     20.8376    112.8410
  1821.2000      7.8047      2.6054      0.0993      2.7010     20.9768    108.7571
  1821.3000      7.7989      2.6084      0.1382      2.5241     21.4919    101.5752
  1821.4000      7.7989      2.5825      0.1105      4.0909     22.3820    100.6415
  1821.5000      7.7948      2.5404      0.0432      6.6450     23.5656    109.2734
  1821.6000      7.7948      2.5124      0.0230      8.3387     24.4246    119.7960
  1821.7000      7.7948      2.5112      0.0348      8.4132     24.6639    125.5973
  1821.8000      7.7943      2.5266      0.0697      7.4791     24.7726    129.6917
  1821.9000      7.7943      2.5483      0.0582      6.1609     24.9585    134.4079
  1822.0000      7.7964      2.5714      0.0950      4.7656     25.1255    137.1976
  1822.1000      7.7964      2.5817      0.1122      4.1379     25.3504    135.1506
  1822.2000      7.7964      2.5709      0.0829      4.7928     25.4431    131.3343
  1822.3000      7.8004      2.5517      0.0863      5.9563     25.2262    129.3719
  1822.4000      7.8004      2.5363      0.1042      6.8925     24.9786    125.5958
  1822.5000      7.8003      2.5232      0.0808      7.6829     24.7733    119.4128
  1822.6000      7.8003      2.5166      0.0434      8.0860     24.5206    119.2059
  1822.7000      7.8003      2.5233      0.0311      7.6814     24.4706    126.9486
  1822.8000      7.7925      2.5254      0.1153      7.5505     24.6112    131.4308
  1822.9000      7.7925      2.5028      0.0536      8.9221     24.6749    125.8473
  1823.0000      7.7873      2.4737     -0.0129     10.6848     24.6409    118.4980
  1823.1000      7.7873      2.4628     -0.0029     11.3433     24.6706    120.9670
  1823.2000      7.7873      2.4674      0.0208     11.0664     24.8401    133.1149
  1823.3000      7.7880      2.4773      0.0502     10.4679     24.9674    144.2942
  1823.4000      7.7880      2.4892      0.0565      9.7467     24.7113    144.9929
  1823.5000      7.7881      2.4955      0.1055      9.3630     24.0681    133.7831
  1823.6000      7.7881      2.4806      0.0944     10.2693     23.6288    119.0043
  1823.7000      7.7881      2.4478      0.0497     12.2570     23.5878    111.7595
  1823.8000      7.7841      2.4293     -0.0309     13.3734     23.5589    113.6673
  1823.9000      7.7841      2.4439      0.0687     12.4894     23.2961    119.4406
