~Version Information
VERS.                      2.0: CWLS Log ASCII Standard - VERSION 2.0
WRAP.                       NO: One line per depth step
~Well Information Block
STRT.FT               800.0000: 
STOP.FT              3500.0000: 
STEP.FT                 0.1000: 
NULL.                -999.2500: 
COMP.          Pioneer Natural Resources: COMPANY
WELL.          Cordillera 34-7: WELL
FLD.           Purgatoire River: FIELD
LOC.           598' FSL & 1770' FEL--: LOCATION
PROV.                 Colorado: PROVINCE
CNTY.               Las Animas: COUNTRY
SRVC.                Patterson: SERVICE COMPANY
DATE.          Fri Oct 28 07:22:44 2005: LOG DATE
UWI.           05 071 08552 00: UNIQUE WELL ID
~Curve Information Block
DEPT.FT            0 000 00 00: Depth
DCAL.in                       : CDL Caliper
RHOB.g/cc                     : CDL Bulk Density
RHOC.g/cc                     : CDL Density Correction
DPOR.pu                       : CDL Density Porosity
NPOR.pu                       : Neutron Porosity
GR.GAPI                       : Gamma Ray
~Parameter Information Block
~A  Depth       DCAL        RHOB        RHOC        DPOR        NPOR         GR     
# ...
  1692.8000      8.0438      2.5513      0.1009      5.9805     30.1495    128.9423
  1692.9000      8.0438      2.5578      0.1067      5.5854     29.3067    129.3497
  1693.0000      8.0465      2.5596      0.0685      5.4780     28.0249    132.9378
  1693.1000      8.0465      2.5617      0.0580      5.3498     27.6467    135.0631
  1693.2000      8.0465      2.5704      0.0792      4.8245     28.3059    130.1130
  1693.3000      8.0513      2.5900      0.0701      3.6378     29.0585    123.6785
  1693.4000      8.0513      2.6120      0.1068      2.3050     29.7335    123.4807
  1693.5000      8.0530      2.6140      0.1047      2.1838     30.3521    128.2008
  1693.6000      8.0530      2.5896      0.0930      3.6592     30.6496    130.6283
  1693.7000      8.0530      2.5578      0.0348      5.5902     30.8383    129.4955
  1693.8000      8.0505      2.5349      0.0798      6.9755     31.2665    130.3605
  1693.9000      8.0505      2.5176      0.0810      8.0234     31.7344    135.8466
  1694.0000      8.0474      2.4970      0.0725      9.2716     31.9409    142.1843
  1694.1000      8.0474      2.4708      0.0707     10.8615     32.1777    145.4167
  1694.2000      8.0474      2.4424      0.0330     12.5792     32.7310    144.0556
  1694.3000      8.0460      2.4172      0.0319     14.1068     33.4652    139.4023
  1694.4000      8.0460      2.3883      0.0711     15.8628     33.9818    137.8442
  1694.5000      8.0453      2.3428      0.0488     18.6154     33.7790    142.3624
  1694.6000      8.0453      2.2892     -0.0293     21.8658     33.2553    145.9648
  1694.7000      8.0453      2.2462     -0.0125     24.4756     33.3554    143.0084
  1694.8000      8.0437      2.2172     -0.0128     26.2287     33.8344    138.7718
  1694.9000      8.0437      2.2012     -0.0477     27.1995     33.9767    140.7816
  1695.0000      8.0421      2.1991      0.0014     27.3261     33.9823    150.5868
  1695.1000      8.0421      2.2074      0.0276     26.8248     34.1934    161.6663
  1695.2000      8.0421      2.2225      0.0729     25.9079     34.3326    164.0418
  1695.3000      8.0415      2.2378      0.1098     24.9803     34.0359    159.6617
  1695.4000      8.0415      2.2461      0.1397     24.4813     33.4078    157.8204
  1695.5000      8.0417      2.2498      0.1217     24.2546     33.2195    159.4662
  1695.6000      8.0417      2.2560      0.1124     23.8813     33.8549    159.8984
  1695.7000      8.0417      2.2641      0.1090     23.3850     34.5584    158.0255
  1695.8000      8.0403      2.2711      0.0884     22.9625     34.7259    157.4309
  1695.9000      8.0403      2.2838      0.0273     22.1961     34.4489    157.1889
  1696.0000      8.0360      2.3087      0.0717     20.6837     33.7755    154.1949
  1696.1000      8.0360      2.3368      0.1024     18.9800     32.8113    150.8071
  1696.2000      8.0360      2.3596      0.0778     17.6015     32.2551    148.8403
  1696.3000      8.0343      2.3815      0.0701     16.2716     32.4691    147.3878
  1696.4000      8.0343      2.4064      0.1097     14.7660     32.6195    150.0578
  1696.5000      8.0383      2.4306      0.0855     13.2941     32.0627    158.6408
  1696.6000      8.0383      2.4547      0.1047     11.8369     31.3855    165.5561
  1696.7000      8.0383      2.4807      0.0968     10.2626     31.0165    165.8539
  1696.8000      8.0401      2.5038      0.1058      8.8627     30.5614    164.5599
  1696.9000      8.0401      2.5177      0.0684      8.0157     29.8310    161.8548
  1697.0000      8.0349      2.5229      0.1066      7.7032     29.1875    154.4304
  1697.1000      8.0349      2.5233      0.0986      7.6802     29.0057    149.4426
  1697.2000      8.0349      2.5269      0.0805      7.4578     29.0861    151.6119
  1697.3000      8.0270      2.5361      0.0921      6.9012     28.7787    156.7847
  1697.4000      8.0270      2.5418      0.0971      6.5565     28.1294    159.0082
  1697.5000      8.0228      2.5441      0.0666      6.4193     27.7698    154.2427
  1697.6000      8.0228      2.5545      0.0868      5.7855     28.0608    148.0104
  1697.7000      8.0228      2.5729      0.0873      4.6716     28.8701    143.3997
  1697.8000      8.0222      2.5829      0.1185      4.0645     29.4302    133.6796
  1697.9000      8.0222      2.5785      0.0665      4.3348     28.9401    125.9010
  1698.0000      8.0216      2.5763      0.0248      4.4675     27.7048    132.0836
  1698.1000      8.0216      2.5883      0.0579      3.7377     26.8110    141.8577
  1698.2000      8.0216      2.6041      0.0730      2.7794     26.9646    142.9015
  1698.3000      8.0177      2.6085      0.0829      2.5122     27.8722    140.6696
  1698.4000      8.0177      2.6029      0.0613      2.8534     28.8570    140.5746
  1698.5000      8.0089      2.6018      0.0512      2.9214     29.5321    138.9082
  1698.6000      8.0089      2.6079      0.0596      2.5501     29.9694    133.0596
  1698.7000      8.0089      2.6128      0.0368      2.2573     30.3532    127.8010
  1698.8000      7.9983      2.6202      0.0132      1.8060     30.5107    127.1257
  1698.9000      7.9983      2.6465      0.0256      0.2117     30.2545    128.4509
  1699.0000      7.9934      2.6937      0.0945     -2.6461     29.5064    126.7300
  1699.1000      7.9934      2.7414      0.1168     -5.5400     28.4322    120.1259
  1699.2000      7.9934      2.7713      0.0826     -7.3506     27.7151    111.6583
  1699.3000      7.9936      2.7747      0.0995     -7.5556     27.9912    107.2662
  1699.4000      7.9936      2.7564      0.0482     -6.4469     28.9701    107.3190
  1699.5000      7.9937      2.7361      0.0264     -5.2200     29.7367    108.1217
  1699.6000      7.9937      2.7205      0.0138     -4.2728     30.1707    110.4993
  1699.7000      7.9937      2.7047      0.0302     -3.3178     30.5712    117.6778
  1699.8000      7.9920      2.6996     -0.0318     -3.0059     30.4985    128.2761
  1699.9000      7.9920      2.7111      0.0377     -3.7041     29.7583    137.0724
  1700.0000      7.9900      2.7065      0.0976     -3.4223     29.1760    141.7911
  1700.1000      7.9900      2.6625      0.0344     -0.7574     29.1446    143.6571
  1700.2000      7.9900      2.6117      0.0170      2.3207     28.9234    145.1442
  1700.3000      7.9890      2.5888      0.0276      3.7106     28.1407    147.1187
  1700.4000      7.9890      2.5840      0.0403      4.0004     27.5583    146.6131
  1700.5000      7.9888      2.5742      0.0416      4.5965     28.0369    140.6961
  1700.6000      7.9888      2.5636      0.0198      5.2349     29.0405    131.5200
  1700.7000      7.9888      2.5693      0.0560      4.8937     29.1371    125.1441
  1700.8000      7.9903      2.5845      0.0789      3.9697     28.5292    126.3701
  1700.9000      7.9903      2.5933      0.0568      3.4339     28.5498    131.7917
  1701.0000      7.9921      2.5928      0.0823      3.4656     28.9122    134.8964
  1701.1000      7.9921      2.5827      0.0703      4.0802     28.5851    133.3947
  1701.2000      7.9921      2.5737      0.0053      4.6263     27.9037    128.7173
  1701.3000      7.9974      2.5800      0.0714      4.2423     27.5753    124.0547
  1701.4000      7.9974      2.5947      0.0540      3.3540     27.7320    122.5330
  1701.5000      8.0085      2.6063      0.0561      2.6492     28.3634    124.0464
  1701.6000      8.0085      2.6054      0.0790      2.7003     29.0115    126.6202
  1701.7000      8.0085      2.5901      0.0488      3.6279     29.2626    131.9682
  1701.8000      8.0197      2.5790      0.0044      4.3049     29.3542    139.3938
  1701.9000      8.0197      2.5857      0.0143      3.8970     29.2470    141.3189
  1702.0000      8.0231      2.5953      0.0456      3.3180     28.6992    134.3791
  1702.1000      8.0231      2.5857      0.0542      3.8987     28.1120    126.0040
  1702.2000      8.0231      2.5579      0.0312      5.5803     28.0705    123.9121
  1702.3000      8.0215      2.5349     -0.0126      6.9758     28.9645    128.3040
