~Version Information
VERS.                      2.0: CWLS Log ASCII Standard - VERSION 2.0
WRAP.                       NO: One line per depth step
~Well Information Block
STRT.FT               505.0000: 
STOP.FT               770.5000: 
STEP.FT                 0.1000: 
NULL.                -999.2500: 
COMP.          Pioneer Natural Resources: COMPANY
WELL.                Zed 11-23: WELL
FLD.           Purgatoire River: FIELD
LOC.           641' FNL & 952' FWL: LOCATION
CNTY.               Las Animas: COUNTY
SRVC.                Patterson: SERVICE COMPANY
DATE.          Mon Feb 27 07:12:43 2006: LOG DATE
UWI.           05 071 08702 00: UNIQUE WELL ID
STAT.                 Colorado: STATE
~Curve Information Block
DEPT.FT            0 000 00 00: Depth
DCAL.in                       : CDL Caliper
RHOB.g/cc                     : CDL Bulk Density
RHOC.g/cc                     : CDL Density Correction
DPOR.pu                       : CDL Density Porosity
GR.GAPI                       : Gamma Ray
NPOR.pu                       : Neutron Porosity
~Parameter Information Block
~A  Depth       DCAL        RHOB        RHOC        DPOR         GR         NPOR    
# ...
   687.4000      7.9401      2.4309      0.0562     13.2817     73.0596     25.4747
   687.5000      7.9437      2.4203      0.0241     13.9194     76.0869     25.5671
   687.6000      7.9437      2.4189      0.0211     14.0064     77.3037     25.2196
   687.7000      7.9437      2.4378      0.0585     12.8578     74.9114     25.0621
   687.8000      7.9490      2.4619      0.0916     11.3988     73.0645     26.0182
   687.9000      7.9490      2.4673      0.0632     11.0738     76.2010     27.1949
   688.0000      7.9419      2.4542      0.0577     11.8685     81.0544     27.1300
   688.1000      7.9419      2.4432      0.0503     12.5353     82.5018     26.2817
   688.2000      7.9419      2.4491      0.0159     12.1746     81.0819     25.9845
   688.3000      7.9300      2.4684      0.0551     11.0090     81.0172     26.3098
   688.4000      7.9300      2.4747      0.0723     10.6239     85.1522     26.4795
   688.5000      7.9352      2.4560      0.0423     11.7594     92.6230     26.2457
   688.6000      7.9352      2.4398     -0.0155     12.7371     97.5083     26.1651
   688.7000      7.9352      2.4453      0.0304     12.4034     94.5996     26.4350
   688.8000      7.9399      2.4544      0.0490     11.8525     86.5567     26.5541
   688.9000      7.9399      2.4492      0.0440     12.1693     78.5747     26.2587
   689.0000      7.9369      2.4345     -0.0127     13.0586     74.3476     25.8741
   689.1000      7.9369      2.4242      0.0117     13.6869     74.5995     25.4440
   689.2000      7.9369      2.4231      0.0162     13.7494     76.0697     24.9710
   689.3000      7.9352      2.4264      0.0657     13.5518     75.4652     24.6399
   689.4000      7.9352      2.4250      0.0630     13.6338     72.7109     24.5143
   689.5000      7.9395      2.4160      0.0486     14.1791     72.4127     24.8068
   689.6000      7.9395      2.4079      0.0334     14.6710     78.6616     25.6253
   689.7000      7.9395      2.4117      0.0056     14.4411     85.7096     26.3052
   689.8000      7.9352      2.4266      0.0387     13.5413     85.0488     26.4425
   689.9000      7.9352      2.4367      0.0472     12.9243     78.9695     26.3363
   690.0000      7.9358      2.4340      0.0250     13.0897     73.3289     25.7060
   690.1000      7.9358      2.4281      0.0415     13.4462     70.4751     24.2158
   690.2000      7.9358      2.4152      0.0411     14.2276     72.7190     23.0507
   690.3000      7.9555      2.3841      0.0122     16.1177     79.4304     23.5826
   690.4000      7.9555      2.3539     -0.0364     17.9484     84.4673     25.6032
   690.5000      7.9345      2.3461      0.0005     18.4187     83.0128     27.3320
   690.6000      7.9345      2.3494     -0.0095     18.2184     78.4789     27.5087
   690.7000      7.9345      2.3528     -0.0001     18.0144     77.1244     26.6689
   690.8000      7.9387      2.3662      0.0202     17.2013     79.2963     25.8251
   690.9000      7.9387      2.3929      0.0715     15.5847     81.0801     25.7096
   691.0000      7.9394      2.4164      0.0658     14.1587     80.5630     26.1046
   691.1000      7.9394      2.4218      0.0642     13.8300     79.0345     26.4026
   691.2000      7.9394      2.4139      0.0372     14.3088     80.6251     26.8695
   691.3000      7.9379      2.4081      0.0100     14.6628     86.7093     27.4422
   691.4000      7.9379      2.4108     -0.0003     14.4956     88.7450     27.4725
   691.5000      7.9400      2.4205      0.0005     13.9118     82.9243     27.1556
   691.6000      7.9400      2.4352      0.0460     13.0190     77.6206     27.3220
   691.7000      7.9400      2.4498      0.0743     12.1325     77.5467     28.1050
   691.8000      7.9407      2.4507      0.0884     12.0772     80.1505     28.5011
   691.9000      7.9407      2.4326      0.0523     13.1738     83.4172     27.7578
   692.0000      7.9398      2.4155     -0.0022     14.2112     86.7740     26.6087
   692.1000      7.9398      2.4131      0.0467     14.3603     87.0800     26.1375
   692.2000      7.9398      2.4101      0.0462     14.5412     83.7904     26.4243
   692.3000      7.9401      2.3982     -0.0049     15.2626     80.7709     26.7265
   692.4000      7.9401      2.3876      0.0371     15.9035     79.1135     26.4976
   692.5000      7.9434      2.3813      0.0032     16.2842     77.5126     25.9559
   692.6000      7.9434      2.3758      0.0215     16.6154     74.8232     25.9954
   692.7000      7.9434      2.3744      0.0024     16.7043     72.9272     26.3712
   692.8000      7.9427      2.3824      0.0154     16.2175     75.8485     25.8716
   692.9000      7.9427      2.3959      0.0512     15.3987     78.6401     24.6536
   693.0000      7.9383      2.4052      0.0726     14.8369     74.2900     24.0464
   693.1000      7.9383      2.4058      0.0401     14.8013     69.8631     24.8879
   693.2000      7.9383      2.4026     -0.0013     14.9917     71.9406     26.4433
   693.3000      7.9403      2.4036      0.0075     14.9330     76.7396     27.1191
   693.4000      7.9403      2.4093      0.0168     14.5876     82.4556     26.7152
   693.5000      7.9393      2.4129      0.0421     14.3726     88.7814     26.4649
   693.6000      7.9393      2.4133      0.0326     14.3483     93.7284     26.9660
   693.7000      7.9393      2.4198     -0.0204     13.9485     95.9183     27.6236
   693.8000      7.9430      2.4363     -0.0170     12.9524     94.7587     27.6551
   693.9000      7.9430      2.4528      0.0454     11.9497     93.8576     27.3008
   694.0000      7.9409      2.4613      0.0302     11.4357     96.7330     27.1513
   694.1000      7.9409      2.4678      0.0403     11.0431    103.0337     27.0030
   694.2000      7.9409      2.4758     -0.0019     10.5590    111.4622     26.5541
   694.3000      7.9422      2.4740      0.0506     10.6692    116.7141     25.8593
   694.4000      7.9422      2.4560     -0.0154     11.7556    116.5642     25.4564
   694.5000      7.9406      2.4356      0.0293     12.9922    117.3706     25.8226
   694.6000      7.9406      2.4187     -0.0017     14.0182    121.5186     26.2786
   694.7000      7.9406      2.3959      0.0262     15.3979    124.6534     26.5816
   694.8000      7.9402      2.3734     -0.0233     16.7642    125.6592     27.4190
   694.9000      7.9402      2.3702      0.0032     16.9581    125.6996     28.4038
   695.0000      7.9396      2.3833     -0.0026     16.1646    125.4096     28.8097
   695.1000      7.9396      2.3968     -0.0265     15.3443    124.9571     28.9114
   695.2000      7.9396      2.4100     -0.0148     14.5430    128.4990     28.7359
   695.3000      7.9361      2.4255      0.0365     13.6052    140.3009     28.0681
   695.4000      7.9361      2.4361      0.0601     12.9664    153.5217     27.4820
   695.5000      7.9231      2.4334      0.0723     13.1267    157.1824     27.4487
   695.6000      7.9231      2.4240     -0.0039     13.6985    149.3020     27.9007
   695.7000      7.9231      2.4251      0.0403     13.6320    137.3336     28.7410
   695.8000      7.9323      2.4368      0.0608     12.9214    126.6491     29.2261
   695.9000      7.9323      2.4415      0.0231     12.6357    116.8961     28.7859
   696.0000      7.9386      2.4348      0.0032     13.0407    110.6996     28.0484
   696.1000      7.9386      2.4317      0.0184     13.2319    111.0034     27.3585
   696.2000      7.9386      2.4364      0.0240     12.9425    116.9112     26.5792
   696.3000      7.9403      2.4381      0.0440     12.8410    123.3902     26.2269
   696.4000      7.9403      2.4331      0.0148     13.1472    125.8368     26.7178
   696.5000      7.9408      2.4280      0.0646     13.4568    125.6710     27.5049
   696.6000      7.9408      2.4269      0.0266     13.5186    124.0258     27.8054
   696.7000      7.9408      2.4293      0.0565     13.3779    123.5528     27.7718
   696.8000      7.9369      2.4343      0.0447     13.0754    127.5287     27.9383
   696.9000      7.9369      2.4436      0.0560     12.5110    128.4443     28.0050
