~Version Information
VERS.                      2.0: CWLS Log ASCII Standard - VERSION 2.0
WRAP.                       NO: One line per depth step
~Well Information Block
STRT.FT                -8.7500: 
STOP.FT              1860.5000: 
STEP.FT                 0.2500: 
NULL.                -999.2500: 
COMP.          Pioneer Natural Resources: COMPANY
WELL.          Cortina 23-25 Tr: WELL
FLD.           Purgatorie River: FIELD
LOC.           --2521' FSL & 2345' FWL------: LOCATION
STAT.                       CO: PROVINCE
CNTY.               Las Animas: COUNTY
CTRY. USA : country
SECT. 25 : Section
TOWN. 32S : Township
RANG. 67W : Range
SRVC.          Patterson Wireline: SERVICE COMPANY
DATE.          Thu Sep 29 11:30:45 2005: LOG DATE
API.           05 071 08534 00: UNIQUE WELL ID
~Curve Information Block
DEPT.FT            0 000 00 00: Depth
CCL.                          : Casing Collar Locator
TT3.usec                      : CBL 3' Travel Time
AMP3.mV                       : CBL 3' Amplitude
GR.GAPI                       : Gamma Ray
~Parameter Information Block
~A  Depth       CCL         TT3         AMP3         GR     
# ...
  1230.7500      0.0000    716.9660      9.6177     54.3464
  1231.0000      0.0000    722.4684      9.4488     53.8052
  1231.2500      0.0000    727.1930      9.3927     53.5781
  1231.5000      0.0000    730.0779      9.4075     53.6048
  1231.7500      0.0000    732.0969      9.4452     53.2663
  1232.0000      0.0000    734.5836      9.4666     51.6523
  1232.2500      0.0000    737.8007      9.4524     48.5099
  1232.5000      0.0000    741.2104      9.4069     44.9000
  1232.7500      0.0000    744.4260      9.3537     42.7739
  1233.0000      0.0000    747.2061      9.3247     43.7307
  1233.2500      0.0000    748.6094      9.3442     48.0443
  1233.5000      0.0000    746.8926      9.4189     54.6132
  1233.7500      0.0000    740.8522      9.5409     61.5283
  1234.0000      0.0000    731.3195      9.6963     66.8146
  1234.2500      0.0000    721.1040      9.8620     69.1943
  1234.5000      0.0000    713.4487      9.9990     68.5683
  1234.7500      0.0000    710.4766     10.0648     65.9563
  1235.0000      0.0000    712.5978     10.0480     62.8840
  1235.2500      0.0000    718.6273      9.9857     60.4730
  1235.5000      0.0000    726.2443      9.9367     58.8441
  1235.7500      0.0000    732.8837      9.9367     57.5104
  1236.0000      0.0000    736.7556      9.9764     56.3742
  1236.2500      0.0000    737.2658     10.0161     55.9472
  1236.5000      0.0000    734.7504     10.0168     56.5324
  1236.7500      0.0000    730.0510      9.9690     57.6966
  1237.0000      0.0000    724.1659      9.8964     58.6938
  1237.2500      0.0000    717.9852      9.8369     59.0727
  1237.5000      0.0000    712.3536      9.8188     58.9533
  1237.7500      0.0000    708.3677      9.8485     59.0215
  1238.0000      0.0000    707.2982      9.9016     60.0583
  1238.2500      0.0000    709.8901      9.9229     62.1476
  1238.5000      0.0000    715.5310      9.8604     64.5190
  1238.7500      0.0000    722.0366      9.7143     66.4767
  1239.0000      0.0000    726.5439      9.5434     68.4133
  1239.2500      0.0000    727.1755      9.4161     71.7417
  1239.5000      0.0000    724.2018      9.3622     77.8640
  1239.7500      0.0000    719.5806      9.3636     87.1531
  1240.0000      0.0000    715.1683      9.3656     98.6395
  1240.2500      0.0000    711.4895      9.2781    110.4926
  1240.5000      0.0000    708.3638      8.9821    120.8296
  1240.7500      0.0000    706.4310      8.3818    128.3438
  1241.0000      0.0000    707.6860      7.4905    132.6528
  1241.2500      0.0000    714.6885      6.4617    134.2922
  1241.5000      0.0000    729.1899      5.5066    134.0620
  1241.7500      0.0000    751.3124      4.7647    131.9300
  1242.0000      0.0000    779.6360      4.2442    126.5228
  1242.2500      0.0000    810.5809      3.8612    116.2174
  1242.5000      2.0000    836.7857      3.5186    101.2677
  1242.7500      0.0000    848.6653      3.1600     84.7009
  1243.0000      0.0000    840.9865      2.7776     70.6304
  1243.2500      0.0000    817.3016      2.3936     61.4668
  1243.5000      0.0000    786.8846      2.0438     56.7183
  1243.7500      0.0000    759.8519      1.7689     54.1551
  1244.0000      0.0000    746.0053      1.5968     51.7735
  1244.2500      0.0000    753.7209      1.5238     48.7889
  1244.5000      0.0000    785.0136      1.5216     45.4490
  1244.7500      0.0000    830.6433      1.5658     42.5544
  1245.0000      0.0000    872.3029      1.6488     41.1037
  1245.2500      0.0000    893.9608      1.7610     41.9253
  1245.5000      0.0000    894.1577      1.8741     45.4571
  1245.7500      0.0000    887.1186      1.9566     51.7497
  1246.0000      0.0000    890.4800      2.0005     60.1582
  1246.2500      0.0000    911.0703      2.0255     68.9712
  1246.5000      0.0000    940.8193      2.0589     76.0760
  1246.7500      0.0000    964.7980      2.1248     80.4744
  1247.0000      0.0000    973.1898      2.2479     82.9391
  1247.2500      0.0000    965.6947      2.4539     85.1518
  1247.5000      0.0000    945.6817      2.7506     88.5620
  1247.7500      0.0000    914.6117      3.1125     94.0313
  1248.0000      0.0000    874.8732      3.4864    101.8250
  1248.2500      0.0000    833.6971      3.8232    111.2433
  1248.5000      0.0000    799.5909      4.1137    120.5286
  1248.7500      0.0000    776.2666      4.4050    127.9307
  1249.0000      0.0000    761.8754      4.7756    133.0702
  1249.2500      0.0000    752.1570      5.2757    136.9384
  1249.5000      0.0000    743.0884      5.8803    140.5034
  1249.7500      0.0000    732.5912      6.5003    143.4585
  1250.0000      0.0000    721.3330      7.0362    144.3443
  1250.2500      0.0000    711.6055      7.4229    141.9266
  1250.5000      0.0000    705.0651      7.6418    136.6028
  1250.7500      0.0000    701.7167      7.7189    130.5390
  1251.0000      0.0000    700.5364      7.7156    126.3025
  1251.2500      0.0000    700.4282      7.7039    124.9988
  1251.5000      0.0000    700.6514      7.7270    125.3160
  1251.7500      0.0000    700.9011      7.7791    124.3436
  1252.0000      0.0000    701.3186      7.8256    119.9366
  1252.2500      0.0000    702.3521      7.8403    112.8282
  1252.5000      0.0000    704.3412      7.8199    106.2670
  1252.7500      0.0000    707.1434      7.7714    103.2206
  1253.0000      0.0000    710.3969      7.7047    103.8717
  1253.2500      0.0000    714.1669      7.6341    105.8325
  1253.5000      0.0000    718.7657      7.5715    106.5913
  1253.7500      0.0000    723.5963      7.5148    105.6958
  1254.0000      0.0000    726.6963      7.4517    104.8639
  1254.2500      0.0000    726.0189      7.3747    106.4877
  1254.5000      0.0000    721.2008      7.2910    112.0029
  1254.7500      0.0000    713.9918      7.2249    120.9873
  1255.0000      0.0000    706.9963      7.2164    131.1514
  1255.2500      0.0000    701.9818      7.3033    139.3568
  1255.5000      0.0000    699.2161      7.4895    143.2188
  1255.7500      0.0000    698.0230      7.7333    142.1764
  1256.0000      0.0000    697.6234      7.9766    137.5814
  1256.2500      0.0000    697.5325      8.1805    132.0647
  1256.5000      0.0000    697.5608      8.3267    128.3272
  1256.7500      0.0000    697.7281      8.4000    127.9119
  1257.0000      0.0000    698.2071      8.3911    130.8924
  1257.2500      0.0000    699.2887      8.3141    136.3743
  1257.5000      0.0000    701.2471      8.2099    142.8341
  1257.7500      0.0000    703.9541      8.1228    148.4072
  1258.0000      0.0000    706.5052      8.0730    151.7251
  1258.2500      0.0000    707.5513      8.0490    152.5269
  1258.5000      0.0000    706.4044      8.0233    151.1254
  1258.7500      0.0000    703.7374      7.9779    147.8047
  1259.0000      0.0000    700.9547      7.9139    143.2293
  1259.2500      0.0000    699.0255      7.8394    138.9406
  1259.5000      0.0000    698.1031      7.7574    136.7093
  1259.7500      0.0000    698.0323      7.6724    137.2348
  1260.0000      0.0000    698.9756      7.6035    139.4765
  1260.2500      0.0000    701.5582      7.5804    141.2346
  1260.5000      0.0000    706.3263      7.6181    140.5955
  1260.7500      0.0000    712.7646      7.6950    137.1367
  1261.0000      0.0000    718.8046      7.7633    131.9836
  1261.2500      0.0000    721.6616      7.7849    126.7348
  1261.5000      0.0000    719.1705      7.7649    122.0478
  1261.7500      0.0000    709.5124      7.7491    117.1320
  1262.0000      0.0000    689.3870      7.7880    111.0377
  1262.2500      0.0000    654.3967      7.8992    104.6489
  1262.5000      0.0000    603.9380      8.0627    100.8347
  1262.7500      0.0000    545.9593      8.2513    102.0376
  1263.0000      0.0000    494.8472      8.4552    107.6445
  1263.2500      0.0000    464.0026      8.6719    113.8441
  1263.5000      0.0000    460.8442      8.8747    116.2628
  1263.7500      0.0000    486.3954      9.0097    113.0610
  1264.0000      0.0000    534.9050      9.0388    105.8642
