~Version Information
VERS.                      2.0: CWLS Log ASCII Standard - VERSION 2.0
WRAP.                       NO: One line per depth step
~Well Information Block
STRT.FT                10.0000: 
STOP.FT               743.5000: 
STEP.FT                 0.1000: 
NULL.                -999.2500: 
COMP.          Pioneer Natural Resources: COMPANY
WELL.                Mia 21-18: WELL
FLD.           Purgatorie River: FIELD
LOC.           1067' FNL & 1824' FWL: LOCATION
PROV.                 Colorado: PROVINCE
CNTY.               Las Animas: COUNTRY
SRVC.                Patterson: SERVICE COMPANY
DATE.          Tue Nov 22 15:40:03 2005: LOG DATE
UWI.           05-071-08559               : UNIQUE WELL ID
~Curve Information Block
DEPT.FT            0 000 00 00: Depth
DCAL.in                       : CDL Caliper
RHOB.g/cc                     : CDL Bulk Density
RHOC.g/cc                     : CDL Density Correction
DPOR.pu                       : CDL Density Porosity
GR.GAPI                       : Gamma Ray
NPOR.pu                       : Neutron Porosity
~Parameter Information Block
~A  Depth       DCAL        RHOB        RHOC        DPOR         GR         NPOR    
# ...
   394.0000      8.0886      2.5944      0.0916      3.3683    141.4026     17.8436
   394.1000      8.0886      2.6047      0.0670      2.7469    134.9342     19.3780
   394.2000      8.0886      2.6100      0.0850      2.4269    127.6381     23.1477
   394.3000      8.0534      2.6133      0.0652      2.2214    121.2450     25.7928
   394.4000      8.0534      2.6258      0.0723      1.4666    112.3137     26.1712
   394.5000      8.0721      2.6488      0.0913      0.0701    102.8050     24.7834
   394.6000      8.0721      2.6762      0.0758     -1.5907     96.6723     22.1006
   394.7000      8.0721      2.7138      0.0362     -3.8660     93.8240     20.1262
   394.8000      8.0401      2.7769      0.0311     -7.6925     92.2940     20.4041
   394.9000      8.0401      2.8628      0.0901    -12.8966     89.1435     21.8323
   395.0000      7.9996      2.9418      0.1409    -17.6824     83.3821     22.3518
   395.1000      7.9996      2.9881      0.1234    -20.4931     77.4998     22.1195
   395.2000      7.9996      3.0018      0.1014    -21.3222     73.1834     22.0933
   395.3000      8.0085      2.9966      0.0697    -21.0049     69.1995     21.6117
   395.4000      8.0085      2.9780      0.0837    -19.8804     64.4975     19.7053
   395.5000      7.9987      2.9407     -0.0258    -17.6161     60.0441     17.5337
   395.6000      7.9987      2.8858     -0.0442    -14.2897     56.5049     16.9720
   395.7000      7.9987      2.8224     -0.0695    -10.4504     53.6619     17.7681
   395.8000      8.0027      2.7635     -0.0729     -6.8769     52.5148     17.8694
   395.9000      8.0027      2.7168     -0.0368     -4.0477     52.9348     17.2514
   396.0000      7.9765      2.6757      0.0163     -1.5574     53.6685     17.5059
   396.1000      7.9765      2.6315      0.0010      1.1182     55.7975     18.5067
   396.2000      7.9765      2.5938      0.0318      3.4054     59.2302     19.3089
   396.3000      7.9628      2.5798      0.0058      4.2516     61.4630     19.5519
   396.4000      7.9628      2.5927      0.0150      3.4756     62.1783     19.3688
   396.5000      8.0050      2.6129      0.0889      2.2465     62.6040     19.1797
   396.6000      8.0050      2.6192      0.0334      1.8638     63.2581     18.5241
   396.7000      8.0050      2.6092      0.0848      2.4745     64.3956     16.1315
   396.8000      7.9681      2.5915      0.0797      3.5455     64.5731     13.3956
   396.9000      7.9681      2.5754      0.0356      4.5195     63.3457     12.9867
   397.0000      8.0279      2.5593      0.0677      5.4961     62.5381     15.4180
   397.1000      8.0279      2.5333      0.0225      7.0725     64.4231     18.5187
   397.2000      8.0279      2.5055     -0.0114      8.7547     69.9549     19.7731
   397.3000      8.0290      2.4959      0.0256      9.3397     74.0320     20.1359
   397.4000      8.0290      2.5056      0.0562      8.7534     71.8343     21.0991
   397.5000      8.0079      2.5128      0.1213      8.3163     67.6809     22.2483
   397.6000      8.0079      2.4971      0.0990      9.2691     65.9779     22.4447
   397.7000      8.0079      2.4684      0.0588     11.0070     65.5550     21.5000
   397.8000      8.0030      2.4517      0.0862     12.0181     66.4178     20.5777
   397.9000      8.0030      2.4582      0.0679     11.6215     66.9270     20.5992
   398.0000      8.0163      2.4810      0.0975     10.2399     63.9655     21.2547
   398.1000      8.0163      2.5038      0.0783      8.8594     59.9372     22.0225
   398.2000      8.0163      2.5164      0.0983      8.0940     58.1287     22.2573
   398.3000      8.0253      2.5108      0.1163      8.4357     57.8575     20.8672
   398.4000      8.0253      2.4813      0.0916     10.2227     58.8441     18.2886
   398.5000      8.0544      2.4425     -0.0005     12.5765     61.5404     16.9940
   398.6000      8.0544      2.4191      0.0407     13.9968     63.9646     18.1845
   398.7000      8.0544      2.4246     -0.0069     13.6584     64.0224     20.5419
   398.8000      8.0927      2.4525      0.0825     11.9702     62.9505     21.9459
   398.9000      8.0927      2.4772      0.0570     10.4718     62.0484     21.7295
   399.0000      8.0982      2.4884      0.0390      9.7964     60.2841     20.4986
   399.1000      8.0982      2.4974      0.0566      9.2473     58.5461     19.8701
   399.2000      8.0982      2.5118      0.0732      8.3728     57.8013     20.7621
   399.3000      8.0752      2.5219      0.1227      7.7620     56.6107     21.9246
   399.4000      8.0752      2.5219      0.0737      7.7639     54.0361     21.9319
   399.5000      8.0724      2.5282      0.0721      7.3808     50.3144     21.2551
   399.6000      8.0724      2.5536      0.0742      5.8409     46.2565     20.8400
   399.7000      8.0724      2.5961      0.1186      3.2661     43.5931     20.7017
   399.8000      8.0522      2.6468      0.1287      0.1954     43.8304     20.0638
   399.9000      8.0522      2.6827      0.1405     -1.9822     44.3672     18.6661
   400.0000      8.0144      2.6800      0.1324     -1.8166     41.6947     17.4001
   400.1000      8.0144      2.6563      0.0389     -0.3804     37.6544     17.1930
   400.2000      8.0144      2.6545      0.0579     -0.2722     35.1990     17.9555
   400.3000      7.9895      2.6811      0.0850     -1.8829     34.3154     18.4670
   400.4000      7.9895      2.7039      0.1056     -3.2665     33.9088     18.0429
   400.5000      7.9003      2.7037      0.0718     -3.2533     34.2309     17.6197
   400.6000      7.9003      2.6961      0.0304     -2.7925     36.2814     17.7449
   400.7000      7.9003      2.6975      0.0306     -2.8765     38.0737     17.6520
   400.8000      7.9157      2.7004      0.0006     -3.0539     38.3352     16.9127
   400.9000      7.9157      2.6903      0.0361     -2.4448     39.0573     16.1140
   401.0000      8.0110      2.6746     -0.0289     -1.4924     40.8580     16.0255
   401.1000      8.0110      2.6707     -0.0284     -1.2557     41.3429     16.7011
   401.2000      8.0110      2.6681      0.0776     -1.0979     39.6736     17.3215
   401.3000      8.0677      2.6475      0.0137      0.1505     37.6376     17.4458
   401.4000      8.0677      2.6221     -0.0058      1.6903     36.2409     17.2678
   401.5000      8.0256      2.6167      0.0255      2.0167     35.4304     16.6668
   401.6000      8.0256      2.6322      0.0759      1.0773     35.4868     15.4803
   401.7000      8.0256      2.6488      0.1235      0.0721     37.1161     14.6044
   401.8000      7.9489      2.6491      0.1078      0.0522     38.8249     14.9502
   401.9000      7.9489      2.6306      0.0797      1.1758     38.5923     16.1586
   402.0000      7.9090      2.6061      0.0321      2.6596     37.9881     17.3975
   402.1000      7.9090      2.5905      0.0608      3.6036     37.9350     18.0452
   402.2000      7.9090      2.5792      0.0429      4.2887     37.0968     17.3510
   402.3000      7.8794      2.5586      0.0322      5.5368     36.2792     15.2277
   402.4000      7.8794      2.5244     -0.0006      7.6130     36.6442     13.2659
   402.5000      7.9192      2.4775      0.0524     10.4534     36.5024     13.1295
   402.6000      7.9192      2.4222     -0.0009     13.8051     35.3502     14.8926
   402.7000      7.9192      2.3730     -0.0276     16.7863     35.0121     16.9868
   402.8000      8.0084      2.3439     -0.0529     18.5498     36.4948     17.9738
   402.9000      8.0084      2.3373     -0.0284     18.9536     39.2904     18.0432
   403.0000      8.0623      2.3456      0.0158     18.4512     42.0440     17.9141
   403.1000      8.0623      2.3583      0.0412     17.6815     43.1736     18.1528
   403.2000      8.0623      2.3700      0.0759     16.9677     41.5147     18.6936
   403.3000      8.1027      2.3779      0.1199     16.4927     38.6107     18.9151
   403.4000      8.1027      2.3814      0.1171     16.2818     37.4598     18.8883
   403.5000      8.0418      2.3816      0.1047     16.2695     37.5475     18.9314
