~Version Information
 VERS.                                  2.0 : CWLS LAS VERSION
 WRAP.                                   NO : WRAPING MODE
 SWARE .                  MController 2.6.3 : SOFTWARE VERSION
~Well Information
 WELL.                          Lucky 21-36 : WELL
 COMP.    Pioneer Natural Resources USA Inc : COMPANY
 FLD.                      Purgatoire River : FIELD
 LOC.                NE/NW Sec 36 T32S R65W : LOCATION
 DATE.                           07/07/2008 : DATE(S) LOGGED
 SRVC.        Ismay Geological Services Ltd : SERVICE COMPANY
 STAT.                                   CO : STATE
 CNTY.                           Las Animas : COUNTY
 CTRY.                                  USA : COUNTRY
 API.                       05-071-08456-00 : API NUMBER
 STRT.FT                             441.00 : START DEPTH
 STOP.FT                            1450.00 : STOP DEPTH
 STEP.FT                               1.00 : DEPTH INCREMENT
 NULL.                                -9999 : NULL VALUE
~Curve information
 DEPTH.FT                                   :
 ROP.MIN/FT                                 :
 GAS.UNITS                                  :
~ASCII Log data
# ...
      841.00         0.23          4.5 
      842.00         0.27          4.6 
      843.00         0.20          4.8 
      844.00         0.17          4.1 
      845.00         0.23          4.2 
      846.00         0.17          4.1 
      847.00         0.20          4.9 
      848.00         0.20          4.3 
      849.00         0.23          4.6 
      850.00         0.20          4.5 
      851.00         0.23          4.4 
      852.00         0.23          4.5 
      853.00         0.20          4.6 
      854.00         0.20          3.6 
      855.00         0.22          4.6 
      856.00         0.23          3.6 
      857.00         0.23          4.8 
      858.00         0.20          5.0 
      859.00         0.20          3.3 
      860.00         0.27          4.6 
      861.00         2.15          4.9 
      862.00         0.23          4.4 
      863.00         0.30          4.5 
      864.00         0.27          4.3 
      865.00         0.23          4.5 
      866.00         0.30          4.3 
      867.00         0.27          4.5 
      868.00         0.23          3.3 
      869.00         0.20          4.2 
      870.00         0.27          4.3 
      871.00         0.20          4.3 
      872.00         0.23          4.5 
      873.00         0.23          3.9 
      874.00         0.20          4.5 
      875.00         0.18          4.1 
      876.00         0.20          3.4 
      877.00         0.20          4.3 
      878.00         0.17          4.4 
      879.00         0.20          3.7 
      880.00         0.17          4.3 
      881.00         0.17          4.3 
      882.00         0.20          4.1 
      883.00         0.20          4.3 
      884.00         0.23          4.8 
      885.00         0.30          4.1 
      886.00         0.33          4.7 
      887.00         0.17          5.3 
      888.00         0.17          5.1 
      889.00         0.20          4.1 
      890.00         0.20          3.9 
      891.00         2.15          5.0 
      892.00         0.37          4.8 
      893.00         0.33          4.5 
      894.00         0.27          5.1 
      895.00         0.20          4.2 
      896.00         0.22          4.1 
      897.00         0.23          4.3 
      898.00         0.33          4.1 
      899.00         0.20          4.1 
      900.00         0.17          2.5 
      901.00         0.20          3.6 
      902.00         0.23          3.9 
      903.00         0.23          2.9 
      904.00         0.40          4.1 
      905.00         0.23          3.8 
      906.00         0.23          3.6 
      907.00         0.23          3.8 
      908.00         0.20          3.9 
      909.00         0.23          3.1 
      910.00         0.18          3.8 
      911.00         0.20          3.8 
      912.00         0.20          3.3 
      913.00         0.17          4.4 
      914.00         0.17          4.4 
      915.00         0.17          3.6 
      916.00         0.13          2.8 
      917.00         0.17          3.6 
      918.00         0.20          3.3 
      919.00         0.23          3.5 
      920.00         0.20          4.0 
      921.00         0.23          4.1 
      922.00         1.98          5.0 
      923.00         0.30          4.3 
      924.00         0.17          4.6 
      925.00         0.27          4.4 
      926.00         0.27          4.1 
      927.00         0.33          4.5 
      928.00         0.23          5.0 
      929.00         0.20          3.8 
      930.00         0.23          4.7 
      931.00         0.23          4.9 
      932.00         0.27          4.3 
      933.00         0.35          4.3 
      934.00         0.23          4.8 
      935.00         0.23          3.9 
      936.00         0.23          4.9 
      937.00         0.23          4.2 
      938.00         0.23          4.1 
      939.00         0.23          4.6 
      940.00         0.27          4.9 
      941.00         0.23          5.0 
      942.00         0.23          4.8 
      943.00         0.20          4.4 
      944.00         0.20          5.1 
      945.00         0.20          4.6 
      946.00         0.20          4.6 
      947.00         0.13          4.7 
      948.00         0.18          4.7 
      949.00         0.13          4.8 
      950.00         0.23          5.2 
      951.00         1.70          6.1 
      952.00         0.30          4.5 
      953.00         0.27          5.7 
      954.00         0.27          5.3 
      955.00         0.20          5.6 
      956.00         0.22          3.9 
      957.00         0.23          5.3 
      958.00         0.57          5.5 
      959.00         0.40          5.4 
      960.00         0.30          4.8 
      961.00         0.27          5.2 
      962.00         0.20          5.6 
      963.00         0.23          5.7 
      964.00         0.20          5.5 
      965.00         0.23          4.4 
      966.00         0.23          5.1 
      967.00         0.20          5.7 
      968.00         0.22          5.6 
      969.00         0.23          5.2 
      970.00         0.20          5.7 
      971.00         0.27          5.5 
      972.00         0.27          5.7 
      973.00         0.23          5.3 
      974.00         0.27          4.3 
      975.00         0.27          5.5 
      976.00         0.27          5.5 
      977.00         0.23          6.3 
      978.00         0.27          5.7 
      979.00         0.30          5.9 
      980.00         0.20          5.6 
      981.00         1.88          6.8 
      982.00         0.33          6.2 
      983.00         0.27          6.6 
      984.00         0.30          6.4 
      985.00         0.30          6.2 
      986.00         0.30          6.5 
      987.00         0.25          6.6 
      988.00         0.20          5.9 
      989.00         0.23          6.0 
      990.00         0.50          6.4 
      991.00         0.27          6.0 
      992.00         0.23          6.2 
      993.00         0.20          6.6 
      994.00         0.20          6.9 
      995.00         0.20          6.9 
      996.00         0.20          6.9 
      997.00         0.17          6.9 
      998.00         0.20          7.6 
      999.00         0.17          7.4 
     1000.00         0.17          7.3 
     1001.00         0.20          7.0 
     1002.00         0.22          7.1 
     1003.00         0.17          6.7 
     1004.00         0.37          6.0 
     1005.00         0.23          5.9 
     1006.00         0.23          6.2 
     1007.00         0.17          6.7 
     1008.00         0.27          6.9 
     1009.00         0.27          5.7 
     1010.00         0.17          6.6 
     1011.00         2.12          7.7 
     1012.00         0.30          7.3 
     1013.00         0.27          7.4 
     1014.00         0.23          7.3 
     1015.00         0.17          7.3 
     1016.00         0.20          7.0 
     1017.00         0.17          6.9 
     1018.00         0.17          6.8 
     1019.00         0.17          6.5 
     1020.00         0.17          7.4 
     1021.00         0.20          7.3 
     1022.00         0.20          7.4 
     1023.00         0.17          7.4 
     1024.00         0.20          6.8 
     1025.00         0.22          7.1 
     1026.00         0.17          6.0 
     1027.00         0.20          6.9 
     1028.00         0.17          7.3 
     1029.00         0.17          7.3 
     1030.00         0.17          6.4 
     1031.00         0.17          7.5 
     1032.00         0.17          7.3 
     1033.00         0.17          6.9 
     1034.00         0.17          7.3 
     1035.00         0.23          7.9 
     1036.00         0.20          7.8 
     1037.00         0.20          6.8 
     1038.00         0.17          6.8 
     1039.00         0.17          7.3 
     1040.00         0.17          7.4 
