~Version Information
VERS.                      2.0: CWLS Log ASCII Standard - VERSION 2.0
WRAP.                       NO: One line per depth step
~Well Information Block
STRT.FT                -7.5000: 
STOP.FT              1350.7500: 
STEP.FT                 0.2500: 
NULL.                -999.2500: 
COMP.          Pioneer Natural Resources: COMPANY
WELL.            Gamma 13-3 Tr: WELL
FLD.           Purgatorie River: FIELD
LOC.           2127' FSL & 738' FWL: LOCATION
STAT.                       CO: State
CNTY.               Las Animas: COUNTY
CTRY.                      USA: Country
SECT.                        3: Section
TOWN.                      33S: Township
RANG.                      67W: Range
SRVC.          Patterson Wireline: SERVICE COMPANY
DATE.          Fri Sep 23 13:24:40 2005: LOG DATE
API.           05 071 08524 00: API
~Curve Information Block
DEPT.FT            0 000 00 00: Depth
CCL.                          : Casing Collar Locator
TT3.usec                      : CBL 3' Travel Time
AMP3.mV                       : CBL 3' Amplitude
GR.GAPI                       : Gamma Ray
~Parameter Information Block
~A  Depth       CCL         TT3         AMP3         GR     
# ...
    93.0000      0.0000    771.2774     15.3548     85.6726
    93.2500      0.0000    773.7346     15.3530     86.7318
    93.5000      0.0000    776.2940     15.3536     88.4156
    93.7500      0.0000    778.0380     15.3722     89.8041
    94.0000      0.0000    778.8481     15.4151     89.6147
    94.2500      0.0000    779.0146     15.4759     87.6847
    94.5000      0.0000    778.8348     15.5434     85.3807
    94.7500      0.0000    778.4771     15.6164     84.2871
    95.0000      0.0000    777.9366     15.7101     84.7411
    95.2500      0.0000    776.9395     15.8486     85.7341
    95.5000      0.0000    774.9841     16.0461     85.9501
    95.7500      0.0000    771.7392     16.2934     84.8057
    96.0000      0.0000    767.6525     16.5612     82.7445
    96.2500      0.0000    764.0985     16.8169     80.7575
    96.5000      0.0000    762.6561     17.0381     79.6339
    96.7500      0.0000    764.0327     17.2136     79.5755
    97.0000      0.0000    767.5270     17.3355     80.5543
    97.2500      0.0000    771.4327     17.3972     82.8430
    97.5000      0.0000    773.7205     17.4016     86.5565
    97.7500      0.0000    771.7704     17.3659     90.5766
    98.0000      0.0000    760.6674     17.3136     92.9710
    98.2500      0.0000    732.1835     17.2610     93.1806
    98.5000      0.0000    678.3506     17.2134     93.1305
    98.7500      0.0000    599.8204     17.1720     95.4349
    99.0000      0.0000    511.0136     17.1393    100.5398
    99.2500      0.0000    433.3773     17.1210    105.8163
    99.5000      0.0000    381.2401     17.1246    107.6553
    99.7500      0.0000    354.6380     17.1527    104.7365
   100.0000      0.0000    344.5095     17.1968     99.1474
   100.2500      0.0000    341.6756     17.2452     94.1979
   100.5000      0.0000    340.9662     17.3001     91.7179
   100.7500      0.0000    340.4037     17.3799     91.6931
   101.0000      0.0000    339.2136     17.4989     93.4793
   101.2500      0.0000    336.7409     17.6497     96.4759
   101.5000      0.0000    332.4054     17.8080     99.9511
   101.7500      0.0000    326.2786     17.9496    102.9263
   102.0000      0.0000    319.4701     18.0601    104.4913
   102.2500      0.0000    313.7192     18.1345    104.2215
   102.5000      0.0000    310.5079     18.1753    102.3102
   102.7500      0.0000    310.5705     18.1912     99.2982
   103.0000      0.0000    313.9211     18.1968     95.6304
   103.2500      0.0000    319.8209     18.2070     91.5308
   103.5000      0.0000    326.7250     18.2282     87.4266
   103.7500      0.0000    332.7989     18.2496     84.4813
   104.0000      0.0000    336.8273     18.2504     84.2838
   104.2500      0.0000    338.5434     18.2183     87.4039
   104.5000      0.0000    338.1498     18.1639     92.1731
   104.7500      0.0000    335.8464     18.1142     95.4462
   105.0000      0.0000    331.8892     18.0949     94.9607
   105.2500      0.0000    326.7820     18.1138     90.8687
   105.5000      0.0000    321.1968     18.1587     85.1230
   105.7500      0.0000    315.8369     18.2106     79.9032
   106.0000      0.0000    311.3836     18.2593     76.6696
   106.2500      0.0000    308.2938     18.3078     76.0334
   106.5000      0.0000    306.5569     18.3651     77.8045
   106.7500      0.0000    305.7750     18.4336     80.9914
   107.0000      0.0000    305.4945     18.5054     84.1706
   107.2500      0.0000    305.4206     18.5697     86.2425
   107.5000      0.0000    305.4096     18.6236     86.9317
   107.7500      0.0000    305.3885     18.6775     86.7191
   108.0000      0.0000    305.3232     18.7509     86.3749
   108.2500      0.0000    305.2138     18.8609     86.2716
   108.5000      0.0000    305.0906     19.0111     85.9071
   108.7500      0.0000    304.9872     19.1894     84.4028
   109.0000      0.0000    304.9160     19.3770     81.7499
   109.2500      0.0000    304.8598     19.5605     79.2882
   109.5000      0.0000    304.7905     19.7374     78.7118
   109.7500      0.0000    304.6961     19.9091     80.6899
   110.0000      0.0000    304.5930     20.0695     84.3890
   110.2500      0.0000    304.5088     20.2050     87.8137
   110.5000      0.0000    304.4602     20.3025     88.6189
   110.7500      0.0000    304.4492     20.3547     85.5047
   111.0000      0.0000    304.4753     20.3571     79.4333
   111.2500      0.0000    304.5415     20.3091     73.1486
   111.5000      0.0000    304.6452     20.2187     69.1476
   111.7500      0.0000    304.7706     20.1012     68.1243
   112.0000      0.0000    304.8951     19.9716     69.1764
   112.2500      0.0000    305.0014     19.8390     71.0039
   112.5000      0.0000    305.0848     19.7103     72.7410
   112.7500      0.0000    305.1563     19.5914     74.2139
   113.0000      0.0000    305.2706     19.4868     76.0369
   113.2500      0.0000    305.6016     19.3989     79.2610
   113.5000      0.0000    306.5573     19.3277     84.3311
   113.7500      0.0000    308.7744     19.2686     90.2840
   114.0000      0.0000    312.7256     19.2119     95.2519
   114.2500      0.0000    317.9539     19.1516     97.7647
   114.5000      0.0000    322.6730     19.0947     97.6056
   114.7500      0.0000    324.6066     19.0574     95.7067
   115.0000      0.0000    322.6923     19.0516     93.3035
   115.2500      0.0000    317.9846     19.0725     90.9321
   115.5000      0.0000    312.7663     19.0998     88.0202
   115.7500      0.0000    308.8801     19.1099     83.4630
   116.0000      0.0000    306.9649     19.0911     76.8228
   116.2500      0.0000    306.9654     19.0456     69.1323
   116.5000      0.0000    308.9181     18.9814     62.3594
   116.7500      0.0000    313.0399     18.9059     57.8358
   117.0000      0.0000    319.1119     18.8275     55.2715
   117.2500      0.0000    326.0090     18.7572     53.3043
   117.5000      0.0000    332.1295     18.7034     50.7580
   117.7500      0.0000    336.3902     18.6677     47.2888
   118.0000      0.0000    338.7419     18.6415     43.2301
   118.2500      0.0000    339.8173     18.6030     39.2713
   118.5000      0.0000    340.2999     18.5259     36.3181
   118.7500      0.0000    340.6310     18.4022     35.2109
   119.0000      0.0000    341.0722     18.2570     36.1592
   119.2500      0.0000    342.1384     18.1364     38.4621
   119.5000      0.0000    345.3231     18.0744     41.0873
   119.7500      0.0000    353.7411     18.0709     43.6647
   120.0000      0.0000    370.9773     18.0964     46.7316
   120.2500      0.0000    396.6486     18.1048     50.8900
   120.5000      0.0000    421.9570     18.0397     56.0798
   120.7500      0.0000    433.1819     17.8418     61.7702
   121.0000      0.0000    423.6349     17.4961     67.2923
   121.2500      0.0000    401.3202     17.0863     71.7915
   121.5000      0.0000    383.0391     16.7504     74.5365
   121.7500      0.0000    384.0933     16.5298     75.5127
   122.0000      0.0000    414.6305     16.3127     75.2245
   122.2500      0.0000    478.3757     15.9893     73.9368
   122.5000      0.0000    567.1447     15.6098     71.6382
   122.7500      0.0000    658.4656     15.3260     68.6415
   123.0000     -2.0000    725.1373     15.2312     65.6013
   123.2500      2.0000    749.1696     15.3122     62.8190
   123.5000      0.0000    727.8953     15.5127     59.9771
   123.7500      0.0000    672.6677     15.8060     56.8158
   124.0000      0.0000    603.5620     16.2312     53.7589
   124.2500      0.0000    538.4359     16.8665     51.4005
   124.5000      0.0000    482.9765     17.7241     49.5895
   124.7500      0.0000    433.7079     18.6713     47.5899
   125.0000      0.0000    388.9984     19.5074     45.1444
   125.2500      0.0000    352.5534     20.1077     42.9196
   125.5000      0.0000    327.9261     20.4535     41.8330
   125.7500      0.0000    314.5499     20.5700     42.2125
   126.0000      0.0000    309.2294     20.4996     43.6221
   126.2500      0.0000    309.3507     20.3096     45.3155
