~Version Information
 VERS.                                  2.0 : CWLS LAS VERSION
 WRAP.                                   NO : WRAPING MODE
 SWARE .                 MController 2.5.0J : SOFTWARE VERSION
~Well Information
 WELL.                         Kraft 17-23R : WELL
 COMP.                Petrogulf Corporation : COMPANY
 FLD.                      Purgatoire River : FIELD
 LOC.                NE/SW Sec 17 T33S R67W : LOCATION
 DATE.                          10/10-11/05 : DATE(S) LOGGED
 SRVC.       BLANCO Geological Services LLC : SERVICE COMPANY
 STAT.                                   CO : STATE
 CNTY.                           Las Animas : COUNTY
 CTRY.                                  USA : COUNTRY
 API.                       05-071-08560-00 : API NUMBER
 STRT.FT                             101.00 : START DEPTH
 STOP.FT                            1920.00 : STOP DEPTH
 STEP.FT                               1.00 : DEPTH INCREMENT
 NULL.                                -9999 : NULL VALUE
~Curve information
 DEPTH.FT                                   :
 ROP.MIN/FT                                 :
 GAS.UNITS                                  :
~ASCII Log data
# ...
      1501.0         0.23       1139.2 
      1502.0         0.33       1099.6 
      1503.0         0.33        985.9 
      1504.0         0.30        870.4 
      1505.0         0.20        776.8 
      1506.0         0.30        728.9 
      1507.0         0.33        663.5 
      1508.0         0.37        637.8 
      1509.0         0.20        624.4 
      1510.0         0.28        623.5 
      1511.0         0.23        624.1 
      1512.0         0.20        626.3 
      1513.0         0.27        631.7 
      1514.0         0.20        639.7 
      1515.0         0.23        649.8 
      1516.0         0.23        664.8 
      1517.0         0.27        677.4 
      1518.0         0.20        686.3 
      1519.0         0.20        693.0 
      1520.0         0.27        695.5 
      1521.0         0.30        698.1 
      1522.0         0.27        697.4 
      1523.0         0.25        693.6 
      1524.0         0.23        686.0 
      1525.0         0.23        679.7 
      1526.0         0.23        673.0 
      1527.0         0.23        668.2 
      1528.0         0.23        644.4 
      1529.0         0.27        577.5 
      1530.0         2.72       1264.0 
      1531.0         0.37       1002.4 
      1532.0         0.40        847.6 
      1533.0         0.40        712.0 
      1534.0         0.37        612.1 
      1535.0         0.37        572.7 
      1536.0         0.38        554.3 
      1537.0         0.33        544.8 
      1538.0         0.33        539.4 
      1539.0         0.27        546.1 
      1540.0         0.30        563.5 
      1541.0         0.33        583.2 
      1542.0         0.30        592.4 
      1543.0         0.30        596.8 
      1544.0         0.33        597.1 
      1545.0         0.23        600.6 
      1546.0         0.27        603.5 
      1547.0         0.32        607.3 
      1548.0         0.33        606.7 
      1549.0         0.37        595.2 
      1550.0         0.33        567.0 
      1551.0         0.33        550.2 
      1552.0         0.33        540.0 
      1553.0         0.30        533.7 
      1554.0         0.27        530.5 
      1555.0         0.28        530.5 
      1556.0         0.23        532.1 
      1557.0         0.27        532.4 
      1558.0         0.30        516.5 
      1559.0         0.23        491.5 
      1560.0         1.92       1302.1 
      1561.0         0.43       1261.7 
      1562.0         0.43       1064.0 
      1563.0         0.30        873.9 
      1564.0         0.30        758.4 
      1565.0         0.30        660.9 
      1566.0         0.27        609.8 
      1567.0         0.23        583.5 
      1568.0         0.30        574.0 
      1569.0         0.23        562.2 
      1570.0         0.20        555.3 
      1571.0         0.32        552.1 
      1572.0         0.30        551.8 
      1573.0         0.23        553.0 
      1574.0         0.23        552.4 
      1575.0         0.27        549.5 
      1576.0         0.27        550.5 
      1577.0         0.23        558.7 
      1578.0         0.23        577.2 
      1579.0         0.27        593.3 
      1580.0         0.23        599.4 
      1581.0         0.20        605.1 
      1582.0         0.20        625.7 
      1583.0         0.18        630.8 
      1584.0         0.20        634.3 
      1585.0         0.20        635.2 
      1586.0         0.23        629.8 
      1587.0         0.17        584.5 
      1588.0         0.23        550.8 
      1589.0         0.27        528.6 
      1590.0         2.82       1593.1 
      1591.0         0.23        970.4 
      1592.0         0.33        876.4 
      1593.0         0.27        733.9 
      1594.0         0.33        652.1 
      1595.0         0.17        599.7 
      1596.0         0.28        581.6 
      1597.0         0.30        573.7 
      1598.0         0.27        566.4 
      1599.0         0.23        561.9 
      1600.0         0.17        560.7 
      1601.0         0.27        557.5 
      1602.0         0.40        553.0 
      1603.0         0.20        546.7 
      1604.0         0.23        548.9 
      1605.0         0.20        549.9 
      1606.0         0.20        552.4 
      1607.0         0.23        553.0 
      1608.0         0.22        566.4 
      1609.0         0.17        589.5 
      1610.0         0.17        601.6 
      1611.0         0.17        610.8 
      1612.0         0.20        613.0 
      1613.0         0.20        609.2 
      1614.0         0.23        593.7 
      1615.0         0.17        579.1 
      1616.0         0.23        580.0 
      1617.0         0.20        568.3 
      1618.0         0.20        533.4 
      1619.0         0.20        516.9 
      1620.0         2.62       1800.3 
      1621.0         0.63       1432.8 
      1622.0         0.50        977.7 
      1623.0         0.42        744.1 
      1624.0         0.43        622.5 
      1625.0         0.43        573.7 
      1626.0         0.47        556.8 
      1627.0         0.60        549.2 
      1628.0         0.43        548.3 
      1629.0         0.23        543.8 
      1630.0         0.28        541.6 
      1631.0         0.23        536.5 
      1632.0         0.23        534.9 
      1633.0         0.23        532.7 
      1634.0         0.27        533.4 
      1635.0         0.27        532.7 
      1636.0         0.20        533.0 
      1637.0         0.27        534.0 
      1638.0         0.30        532.1 
      1639.0         0.27        529.9 
      1640.0         0.27        531.1 
      1641.0         0.32        530.5 
      1642.0         0.27        534.0 
      1643.0         0.33        538.1 
      1644.0         0.20        541.9 
      1645.0         0.23        545.7 
      1646.0         0.23        548.0 
      1647.0         0.23        540.7 
      1648.0         0.20        527.0 
      1649.0         0.20        508.9 
      1650.0         0.27        511.1 
      1651.0         0.27        576.2 
      1652.0         3.38       2611.9 
      1653.0         0.35        880.3 
      1654.0         0.33        697.1 
      1655.0         0.40        623.8 
      1656.0         0.50        582.2 
      1657.0         0.57        556.8 
      1658.0         0.37        553.4 
      1659.0         0.27        552.4 
      1660.0         0.23        551.1 
      1661.0         0.23        550.2 
      1662.0         0.25        549.5 
      1663.0         0.23        545.7 
      1664.0         0.23        543.8 
      1665.0         0.30        541.9 
      1666.0         0.27        540.7 
      1667.0         0.50        586.4 
      1668.0         0.37        632.7 
      1669.0         0.30        660.6 
      1670.0         0.27        678.1 
      1671.0         0.23        687.3 
      1672.0         0.23        685.4 
      1673.0         0.42        682.2 
      1674.0         0.30        669.5 
      1675.0         0.33        662.2 
      1676.0         0.30        663.2 
      1677.0         0.37        660.3 
      1678.0         0.33        652.7 
      1679.0         0.33        649.2 
      1680.0         0.33        649.8 
      1681.0         0.27        649.8 
      1682.0         2.85       1179.5 
      1683.0         0.27        963.4 
      1684.0         0.27        874.2 
      1685.0         0.30        794.9 
      1686.0         0.28        728.5 
      1687.0         0.23        675.9 
      1688.0         0.20        638.4 
      1689.0         0.27        607.0 
      1690.0         0.23        582.2 
      1691.0         0.27        567.3 
      1692.0         0.30        555.6 
      1693.0         0.27        545.4 
      1694.0         0.33        543.8 
      1695.0         0.27        542.2 
      1696.0         0.20        540.7 
      1697.0         0.27        541.3 
      1698.0         0.25        541.3 
      1699.0         0.23        541.9 
      1700.0         0.23        538.1 
