~Version Information
VERS.                      2.0: CWLS Log ASCII Standard - VERSION 2.0
WRAP.                       NO: One line per depth step
~Well Information Block
STRT.FT               575.0000: 
STOP.FT              1558.5000: 
STEP.FT                 0.2500: 
NULL.                -999.2500: 
COMP.          Pioneer Natural Resources: COMPANY
WELL.          McClaren 13-34 Tr: WELL
FLD.           Purgatoire River: FIELD
LOC.           1934' FSL & 826' FWL: LOCATION
PROV.                 Colorado: PROVINCE
CNTY.               Las Animas: COUNTRY
SRVC.                Patterson: SERVICE COMPANY
DATE.          Mon Jul 11 20:01:13 2005: LOG DATE
UWI.           05 071 08437 00: UNIQUE WELL ID
~Curve Information Block
DEPT.FT            0 000 00 00: Depth
SN.Ohm-m                      : IEL Short Normal
SP.mV                         : IEL Spontaneous Potential
DIR.Ohm-m                     : IEL Induction Resistivity
GR.GAPI                       : Gamma Ray
~Parameter Information Block
~A  Depth        SN          SP         DIR          GR     
# ...
  1513.0000     17.9391    211.9645     18.0635    124.6272
  1513.2500     18.8819    210.8426     18.6444    121.9078
  1513.5000     20.1145    209.8291     19.3182    113.4299
  1513.7500     21.5583    209.0810     20.0132    105.3025
  1514.0000     23.3372    208.7060     20.6577     91.4559
  1514.2500     25.7168    208.7597     21.2153     82.5008
  1514.5000     28.8013    209.2451     21.7081     71.5630
  1514.7500     32.2996    210.0915     22.2068     66.8470
  1515.0000     35.5509    211.1250     22.7914     64.4724
  1515.2500     37.7681    212.0850     23.5111     66.0731
  1515.5000     38.4730    212.7158     24.3606     72.7805
  1515.7500     37.8787    212.8895     25.2769     79.4486
  1516.0000     36.7198    212.6677     26.1550     90.4127
  1516.2500     35.5897    212.2518     26.8837     96.3614
  1516.5000     34.5507    211.8631     27.3890    100.1374
  1516.7500     33.4106    211.6380     27.6561     98.6875
  1517.0000     32.1602    211.5872     27.7082     92.7263
  1517.2500     31.0737    211.6215     27.5693     88.7612
  1517.5000     30.5109    211.6107     27.2519     87.0938
  1517.7500     30.5150    211.4417     26.7825     89.9611
  1518.0000     30.6507    211.0575     26.2247     98.5879
  1518.2500     30.5063    210.4777     25.6674    104.8796
  1518.5000     30.1240    209.8001     25.1873    111.8282
  1518.7500     29.7158    209.1696     24.8239    114.3505
  1519.0000     29.3304    208.7136     24.5819    115.9282
  1519.2500     28.9250    208.4776     24.4465    116.2032
  1519.5000     28.4249    208.4147     24.3953    116.4969
  1519.7500     27.7343    208.4384     24.4015    117.2809
  1520.0000     26.9263    208.4866     24.4352    120.0218
  1520.2500     26.2677    208.5440     24.4682    122.5238
  1520.5000     25.9102    208.6257     24.4784    125.4888
  1520.7500     25.7414    208.7572     24.4527    125.9414
  1521.0000     25.6221    208.9664     24.3897    123.9934
  1521.2500     25.5882    209.2769     24.3014    121.5713
  1521.5000     25.7430    209.6943     24.2102    117.7853
  1521.7500     26.0443    210.1962     24.1403    115.8044
  1522.0000     26.3072    210.7372     24.1066    114.0364
  1522.2500     26.4192    211.2695     24.1083    113.5794
  1522.5000     26.4398    211.7622     24.1267    113.6761
  1522.7500     26.4730    212.2040     24.1293    114.1636
  1523.0000     26.5195    212.5930     24.0847    115.6708
  1523.2500     26.4997    212.9329     23.9810    117.3916
  1523.5000     26.3760    213.2406     23.8320    120.9687
  1523.7500     26.1254    213.5467     23.6669    123.3259
  1524.0000     25.6806    213.8731     23.5150    124.8523
  1524.2500     25.0646    214.2176     23.3982    123.8913
  1524.5000     24.4681    214.5696     23.3308    120.7307
  1524.7500     24.0562    214.9371     23.3192    119.1348
  1525.0000     23.8215    215.3421     23.3597    119.3665
  1525.2500     23.7239    215.7888     23.4387    120.8491
  1525.5000     23.7760    216.2437     23.5358    122.5699
  1525.7500     23.9212    216.6455     23.6280    122.1448
  1526.0000     24.0662    216.9329     23.6949    118.8734
  1526.2500     24.2539    217.0714     23.7280    115.6475
  1526.5000     24.5872    217.0701     23.7413    110.7396
  1526.7500     25.0347    216.9803     23.7754    108.0739
  1527.0000     25.4684    216.8703     23.8864    105.6648
  1527.2500     25.8175    216.7918     24.1195    105.2508
  1527.5000     26.1080    216.7552     24.4841    106.0461
  1527.7500     26.3969    216.7319     24.9491    106.9068
  1528.0000     26.6660    216.6788     25.4658    107.1416
  1528.2500     26.8341    216.5585     25.9993    105.6931
  1528.5000     26.9428    216.3459     26.5422    100.3300
  1528.7500     27.1551    216.0308     27.1000     94.8752
  1529.0000     27.5248    215.6231     27.6642     85.3958
  1529.2500     27.9947    215.1505     28.1974     79.3939
  1529.5000     28.5388    214.6486     28.6391     72.4464
  1529.7500     29.1278    214.1476     28.9290     69.4454
  1530.0000     29.6957    213.6629     29.0403     66.8351
  1530.2500     30.2087    213.1967     28.9983     65.8625
  1530.5000     30.6296    212.7526     28.8682     65.0238
  1530.7500     30.8608    212.3523     28.7182     64.7903
  1531.0000     30.8325    212.0332     28.5907     65.0519
  1531.2500     30.5772    211.8177     28.4976     65.7961
  1531.5000     30.1729    211.6761     28.4323     67.8675
  1531.7500     29.7173    211.5198     28.3815     69.6718
  1532.0000     29.3270    211.2391     28.3351     72.3360
  1532.2500     29.0273    210.7631     28.2962     73.7529
  1532.5000     28.7747    210.0967     28.2828     75.0585
  1532.7500     28.6248    209.3099     28.3107     75.3324
  1533.0000     28.6367    208.4888     28.3684     74.9630
  1533.2500     28.7261    207.6867     28.4094     74.4452
  1533.5000     28.8360    206.9119     28.3748     73.9316
  1533.7500     29.0477    206.1492     28.2257     74.1849
  1534.0000     29.4241    205.3886     27.9557     76.0485
  1534.2500     29.9229    204.6459     27.5740     78.4094
  1534.5000     30.4537    203.9694     27.0800     83.2912
  1534.7500     30.9120    203.4380     26.4568     87.0623
  1535.0000     31.2026    203.1561     25.6900     93.0693
  1535.2500     31.2660    203.2428     24.7955     97.2549
  1535.5000     31.0654    203.8000     23.8334    103.7440
  1535.7500     30.5489    204.8528     22.8905    108.1546
  1536.0000     29.6063    206.3031     22.0485    115.0204
  1536.2500     28.1138    207.9542     21.3570    119.9696
  1536.5000     26.1100    209.6015     20.8254    127.9853
  1536.7500     23.8969    211.1238     20.4312    133.1457
  1537.0000     21.8610    212.5120     20.1374    138.4275
  1537.2500     20.2012    213.8215     19.9095    138.9310
  1537.5000     18.8858    215.0863     19.7259    134.5097
  1537.7500     17.7944    216.2668     19.5809    129.2607
  1538.0000     16.8829    217.2680     19.4833    121.0667
  1538.2500     16.3368    217.9996     19.4514    116.1827
  1538.5000     16.5345    218.4250     19.5058    107.2608
  1538.7500     17.7236    218.5807     19.6601     97.4558
  1539.0000     19.7228    218.5723     19.9184     74.5539
  1539.2500     21.9731    218.5408     20.2787     55.7151
  1539.5000     23.9025    218.6050     20.7417     29.2675
  1539.7500     25.2885    218.8112     21.3160     16.3456
  1540.0000     26.2793    219.1282     22.0158      5.3200
  1540.2500     27.1457    219.4873     22.8484      2.1159
  1540.5000     28.0906    219.8300     23.7887      0.4040
  1540.7500     29.1563    220.1339     24.7551      0.1098
  1541.0000     30.1681    220.4085     25.6128      0.0098
  1541.2500     30.8304    220.6756     26.2342      0.0000
  1541.5000     30.9796    220.9413     26.5793   -999.2500
  1541.7500     30.7383    221.1757     26.7149   -999.2500
  1542.0000     30.3679    221.3228     26.7433   -999.2500
  1542.2500     30.0884    221.3426     26.7131   -999.2500
  1542.5000     30.0483    221.2448     26.5977   -999.2500
  1542.7500     30.2179    221.0807     26.3523   -999.2500
  1543.0000     30.4241    220.9109     25.9904   -999.2500
  1543.2500     30.6153    220.7809     25.5972   -999.2500
  1543.5000     30.8528    220.7095     25.2701   -999.2500
  1543.7500     31.1374    220.6790     25.0435   -999.2500
  1544.0000     31.4324    220.6471     24.8631   -999.2500
  1544.2500     31.6910    220.5853     24.6194   -999.2500
  1544.5000     31.7839    220.5048     24.2130   -999.2500
  1544.7500     31.5119    220.4431     23.6030   -999.2500
  1545.0000     30.7556    220.4283     22.8106   -999.2500
  1545.2500     29.5538    220.4592     21.8944   -999.2500
  1545.5000     28.0336    220.5179     20.6345   -999.2500
  1545.7500     26.3894    220.6046     19.6983   -999.2500
  1546.0000     24.8598    220.7549     18.8113   -999.2500
  1546.2500     23.5688    221.0187     17.9843   -999.2500
