~Version Information
VERS.                      2.0: CWLS Log ASCII Standard - VERSION 2.0
WRAP.                       NO: One line per depth step
~Well Information Block
STRT.FT               340.0000: 
STOP.FT              2342.7500: 
STEP.FT                 0.2500: 
NULL.                -999.2500: 
COMP.          Pioneer Natural Resources: COMPANY
WELL.          Pinkerton 41-12: WELL
FLD.           Purgatoire River: FIELD
LOC.           1222' FNL & 670' FEL--: LOCATION
CNTY.               Las Animas: COUNTY
SRVC.                Patterson: SERVICE COMPANY
DATE.          Wed Mar 15 10:37:39 2006: LOG DATE
UWI.           05 071 08500 00: UNIQUE WELL ID
STAT.                 Colorado: STATE
~Curve Information Block
DEPT.FT            0 000 00 00: Depth
SN.Ohm-m                      : IEL Short Normal
SP.mV                         : IEL Spontaneous Potential
DIR.Ohm-m                     : IEL Induction Resistivity
GR.GAPI                       : Gamma Ray
~Parameter Information Block
~A  Depth        SN          SP         DIR          GR     
# ...
  1378.5000     38.4819     22.5891     24.3987     98.9198
  1378.7500     39.0622     22.2569     25.6378    108.8947
  1379.0000     39.1139     21.7143     26.5086    120.2259
  1379.2500     38.9916     20.9202     27.0720    124.9119
  1379.5000     39.0390     19.8658     27.4828    127.2655
  1379.7500     39.5010     18.5787     27.9237    125.5414
  1380.0000     40.4993     17.1191     28.5513    118.6007
  1380.2500     42.0546     15.5698     29.4739    112.2458
  1380.5000     44.0958     14.0235     30.7486    102.7208
  1380.7500     46.4447     12.5690     32.3783     97.3954
  1381.0000     48.8299     11.2807     34.3042     91.1983
  1381.2500     50.9612     10.2130     36.4043     87.9011
  1381.5000     52.6110      9.3975     38.5105     83.8245
  1381.7500     53.6494      8.8437     40.4411     81.8780
  1382.0000     54.0393      8.5411     42.0242     80.8052
  1382.2500     53.8091      8.4633     43.0939     81.4777
  1382.5000     53.0060      8.5730     43.4820     83.8177
  1382.7500     51.6590      8.8282     43.0546     85.3908
  1383.0000     49.7942      9.1889     41.7982     86.6016
  1383.2500     47.4829      9.6226     39.8689     86.6691
  1383.5000     44.8591     10.1075     37.5328     87.0093
  1383.7500     42.0875     10.6322     35.0503     88.5068
  1384.0000     39.3156     11.1926     32.6070     93.8798
  1384.2500     36.6416     11.7866     30.3160     99.3850
  1384.5000     34.1157     12.4083     28.2447    108.7857
  1384.7500     31.7674     13.0437     26.4291    114.4267
  1385.0000     29.6302     13.6688     24.8778    120.1154
  1385.2500     27.7433     14.2494     23.5786    121.8022
  1385.5000     26.1436     14.7446     22.5101    122.1033
  1385.7500     24.8647     15.1113     21.6531    121.6745
  1386.0000     23.9365     15.3117     20.9971    121.2785
  1386.2500     23.3749     15.3195     20.5403    121.6354
  1386.5000     23.1649     15.1271     20.2850    123.4278
  1386.7500     23.2485     14.7505     20.2299    125.1771
  1387.0000     23.5288     14.2316     20.3601    127.0527
  1387.2500     23.8934     13.6370     20.6385    126.4728
  1387.5000     24.2457     13.0526     21.0057    120.9913
  1387.7500     24.5311     12.5747     21.3914    114.1447
  1388.0000     24.7432     12.2991     21.7357    101.2769
  1388.2500     24.9042     12.3080     22.0048     93.2292
  1388.5000     25.0330     12.6577     22.1874     85.5166
  1388.7500     25.1231     13.3674     22.2793     84.2175
  1389.0000     25.1420     14.4114     22.2733     87.5285
  1389.2500     25.0420     15.7172     22.1639     92.3298
  1389.5000     24.7765     17.1712     21.9543    101.8834
  1389.7500     24.3237     18.6332     21.6590    109.0250
  1390.0000     23.7095     19.9576     21.2999    119.3758
  1390.2500     23.0083     21.0187     20.9043    125.0870
  1390.5000     22.3141     21.7332     20.5036    130.6928
  1390.7500     21.7050     22.0741     20.1300    132.2767
  1391.0000     21.2227     22.0721     19.8128    132.0174
  1391.2500     20.8744     21.8043     19.5743    130.7817
  1391.5000     20.6469     21.3721     19.4269    128.5320
  1391.7500     20.5209     20.8761     19.3685    127.1876
  1392.0000     20.4792     20.3951     19.3789    125.6225
  1392.2500     20.5083     19.9727     19.4176    124.9133
  1392.5000     20.5959     19.6168     19.4244    124.5790
  1392.7500     20.7297     19.3074     19.3214    125.0091
  1393.0000     20.8979     19.0107     19.0216    126.4132
  1393.2500     21.0906     18.6935     18.4497    127.2634
  1393.5000     21.2991     18.3326     17.5803    127.2257
  1393.7500     21.5176     17.9200     16.4767    126.0942
  1394.0000     21.7439     17.4616     15.2995    123.4058
  1394.2500     21.9774     16.9726     14.2710    121.5929
  1394.5000     22.2136     16.4721     13.6421    119.5417
  1394.7500     22.4452     15.9783     13.7402    118.6087
  1395.0000     22.6662     15.5051     15.2314    117.4398
  1395.2500     22.8721     15.0607     20.3241    116.6013
  1395.5000     23.0545     14.6468     44.7730    115.0200
  1395.7500     23.1980     14.2595 100000.0000    113.5603
  1396.0000     23.2870     13.8895 100000.0000    110.6250
  1396.2500     23.3137     13.5229 100000.0000    108.6023
  1396.5000     23.2775     13.1410 100000.0000    107.0427
  1396.7500     23.1804     12.7198 100000.0000    107.7328
  1397.0000     23.0259     12.2291 100000.0000    111.1433
  1397.2500     22.8235     11.6316 100000.0000    114.0066
  1397.5000     22.5907     10.8826 100000.0000    117.3215
  1397.7500     22.3467      9.9314 100000.0000    118.4622
  1398.0000     22.1032      8.7226 100000.0000    119.1945
  1398.2500     21.8614      7.1995 100000.0000    119.6205
  1398.5000     21.6210      5.3063    343.0738    120.6128
  1398.7500     21.3871      2.9899     60.7870    121.3870
  1399.0000     21.1625      0.2008     25.0226    122.2178
  1399.2500     20.9343     -3.1075     14.8291    122.3225
  1399.5000     20.6763     -6.9800     11.9690    121.8584
  1399.7500     20.3651    -11.4614     14.6720    121.4519
  1400.0000     19.9879    -16.5968    130.3494    121.3337
  1400.2500     19.5348    -22.4303 100000.0000    121.7649
  1400.5000     18.9869    -29.0025 100000.0000    123.2930
  1400.7500     18.3079    -36.3445 100000.0000    125.0150
  1401.0000     17.4407    -44.4707 100000.0000    128.6930
  1401.2500     16.3182    -53.3691 100000.0000    131.5505
  1401.5000     14.8965    -62.9900 100000.0000    135.5047
  1401.7500     13.1979    -73.2349 100000.0000    137.6022
  1402.0000     11.3341    -83.9478      1.9606    140.1487
  1402.2500      9.4808    -94.9121      0.5754    141.5610
  1402.5000      7.8101   -105.8567      0.2427    142.3601
  1402.7500      6.4249   -116.4740      0.1189    140.8983
  1403.0000      5.3414   -126.4488      0.0755    134.0663
  1403.2500      4.5240   -135.4942      0.0683    126.2588
  1403.5000      3.9292   -143.3875      0.0880    110.9270
  1403.7500      3.5222   -149.9980      0.1463     99.5294
  1404.0000      3.2714   -155.2995      0.2616     82.8703
  1404.2500      3.1398   -159.3645      0.4238     73.2106
  1404.5000      3.0875   -162.3429      0.5561     62.4841
  1404.7500      3.0799   -164.4317      0.5761     58.2494
  1405.0000      3.0919   -165.8434      0.5200     55.4295
  1405.2500      3.1065   -166.7791      0.4610     54.6281
  1405.5000      3.1110   -167.4111      0.4183     52.7659
  1405.7500      3.0981   -167.8732      0.3740     50.4196
  1406.0000      3.0695   -168.2566      0.3061     45.6321
  1406.2500      3.0347   -168.6082      0.2182     42.3823
  1406.5000      3.0043   -168.9296      0.1359     38.6785
  1406.7500      2.9829   -169.1779      0.0790     37.2724
  1407.0000      2.9694   -169.2703      0.0474     36.5761
  1407.2500      2.9603   -169.0947      0.0320     36.9480
  1407.5000      2.9537   -168.5286      0.0251     39.0210
  1407.7500      2.9485   -167.4643      0.0226     41.6679
  1408.0000      2.9435   -165.8372      0.0228     47.4864
  1408.2500      2.9378   -163.6501      0.0247     51.9940
  1408.5000      2.9326   -160.9873      0.0283     57.5942
  1408.7500      2.9292   -158.0099      0.0348     59.1126
  1409.0000      2.9272   -154.9328      0.0468     56.7653
  1409.2500      2.9234   -151.9845      0.0702     52.6535
  1409.5000      2.9145   -149.3589      0.1154     45.2579
  1409.7500      2.8996   -147.1731      0.1954     41.0137
  1410.0000      2.8800   -145.4400      0.3191     36.8612
  1410.2500      2.8589   -144.0643      0.4882     35.4682
  1410.5000      2.8414   -142.8614      0.7064     34.9642
  1410.7500      2.8319   -141.5929      0.9951     35.7662
  1411.0000      2.8316   -140.0080      1.3794     39.4795
  1411.2500      2.8377   -137.8829      1.7181     43.9793
  1411.5000      2.8448   -135.0506      1.5401     53.1162
  1411.7500      2.8475   -131.4177      0.9499     59.6689
