~Version Information
VERS.                      2.0: CWLS Log ASCII Standard - VERSION 2.0
WRAP.                       NO: One line per depth step
~Well Information Block
STRT.FT               240.0000: 
STOP.FT               713.7500: 
STEP.FT                 0.2500: 
NULL.                -999.2500: 
COMP.          Pioneer Natural Resources: COMPANY
WELL.           Belvedere 14-7: WELL
FLD.           Purgatorie River: FIELD
LOC.           786' FSL & 1283' FWL: LOCATION
PROV.                 Colorado: PROVINCE
CNTY.               Las Animas: COUNTRY
SRVC.                Patterson: SERVICE COMPANY
DATE.          Sun Nov 27 03:38:28 2005: LOG DATE
UWI.           05-071-08557               : UNIQUE WELL ID
~Curve Information Block
DEPT.FT            0 000 00 00: Depth
DIR.Ohm-m                     : IEL Induction Resistivity
GR.GAPI                       : Gamma Ray
~Parameter Information Block
~A  Depth       DIR          GR     
# ...
   463.0000     33.7248    102.9721
   463.2500     32.2258    103.9578
   463.5000     30.9063    103.0147
   463.7500     29.7444    101.6681
   464.0000     28.7017    100.3603
   464.2500     27.7328    100.9304
   464.5000     26.8027    104.4797
   464.7500     25.9012    107.8946
   465.0000     25.0436    112.1055
   465.2500     24.2587    113.0967
   465.5000     23.5736    111.7741
   465.7500     23.0027    110.1572
   466.0000     22.5453    108.9023
   466.2500     22.1897    109.2528
   466.5000     21.9183    110.4318
   466.7500     21.7134    110.8617
   467.0000     21.5598    110.8955
   467.2500     21.4461    110.9205
   467.5000     21.3649    110.9405
   467.7500     21.3130    110.4648
   468.0000     21.2918    108.8698
   468.2500     21.3081    107.9006
   468.5000     21.3719    107.8515
   468.7500     21.4926    108.7548
   469.0000     21.6772    110.3127
   469.2500     21.9327    110.6387
   469.5000     22.2710    108.9907
   469.7500     22.7111    106.1762
   470.0000     23.2743     99.6720
   470.2500     23.9731     94.5418
   470.5000     24.8018     87.5399
   470.7500     25.7318     84.3294
   471.0000     26.7141     82.2642
   471.2500     27.6864     82.2392
   471.5000     28.5822     82.6674
   471.7500     29.3380     82.4573
   472.0000     29.8981     80.9131
   472.2500     30.2171     79.3072
   472.5000     30.2620     76.6033
   472.7500     30.0172     74.6703
   473.0000     29.4930     71.4596
   473.2500     28.7321     69.2775
   473.5000     27.8034     66.8005
   473.7500     26.7854     66.3175
   474.0000     25.7453     68.2054
   474.2500     24.7266     71.2452
   474.5000     23.7483     77.2121
   474.7500     22.8127     80.8577
   475.0000     21.9190     84.4382
   475.2500     21.0754     85.9221
   475.5000     20.3058     88.7928
   475.7500     19.6451     92.0814
   476.0000     19.1289     98.8585
   476.2500     18.7847    103.3902
   476.5000     18.6272    107.6825
   476.7500     18.6587    108.2273
   477.0000     18.8687    106.6828
   477.2500     19.2315    105.3247
   477.5000     19.7036    103.8679
   477.7500     20.2246    102.8693
   478.0000     20.7253     99.9146
   478.2500     21.1401     96.6232
   478.5000     21.4187     90.4887
   478.7500     21.5310     86.3622
   479.0000     21.4645     80.5516
   479.2500     21.2176     76.5704
   479.5000     20.7933     70.0202
   479.7500     20.1993     65.7352
   480.0000     19.4509     60.9333
   480.2500     18.5747     59.3449
   480.5000     17.6071     59.1593
   480.7500     16.5884     60.0895
   481.0000     15.5565     62.8541
   481.2500     14.5434     65.9149
   481.5000     13.5760     72.7192
   481.7500     12.6756     78.1979
   482.0000     11.8579     85.5885
   482.2500     11.1317     88.8200
   482.5000     10.4990     91.0715
   482.7500      9.9558     91.7087
   483.0000      9.4945     92.5987
   483.2500      9.1056     93.1663
   483.5000      8.7797     93.3716
   483.7500      8.5091     92.8889
   484.0000      8.2881     91.4993
   484.2500      8.1132     90.4740
   484.5000      7.9814     89.4613
   484.7500      7.8893     89.4915
   485.0000      7.8321     90.8357
   485.2500      7.8040     92.3190
   485.5000      7.7978     94.2213
   485.7500      7.8058     94.4949
   486.0000      7.8200     93.0552
   486.2500      7.8324     91.6011
   486.5000      7.8365     90.8570
   486.7500      7.8280     92.0667
   487.0000      7.8062     95.5830
   487.2500      7.7741     97.8043
   487.5000      7.7385     99.5389
   487.7500      7.7083     99.6736
   488.0000      7.6931     98.9423
   488.2500      7.7005     98.0496
   488.5000      7.7344     96.7692
   488.7500      7.7952     96.7319
   489.0000      7.8800     98.8002
   489.2500      7.9837    101.2480
   489.5000      8.1008    104.9569
   489.7500      8.2257    106.7545
   490.0000      8.3543    108.1421
   490.2500      8.4845    108.2556
   490.5000      8.6182    107.1384
   490.7500      8.7617    105.4621
   491.0000      8.9261    102.1043
   491.2500      9.1261    100.2170
   491.5000      9.3780     99.5088
   491.7500      9.6972    100.5646
   492.0000     10.0950    102.9463
   492.2500     10.5773    103.9641
   492.5000     11.1430    103.9255
   492.7500     11.7835    103.2910
   493.0000     12.4825    102.4731
   493.2500     13.2191    102.0217
   493.5000     13.9724    100.3850
   493.7500     14.7289     98.1003
   494.0000     15.4876     93.1608
   494.2500     16.2593     89.6151
   494.5000     17.0602     85.4948
   494.7500     17.9047     84.3965
   495.0000     18.7989     85.9577
   495.2500     19.7392     88.6865
   495.5000     20.7137     93.0200
   495.7500     21.7056     94.6931
   496.0000     22.6952     94.8493
   496.2500     23.6592     94.2934
   496.5000     24.5693     94.5534
   496.7500     25.3938     96.0445
   497.0000     26.1054     99.7367
   497.2500     26.6952    102.3106
   497.5000     27.1819    104.7782
   497.7500     27.6099    104.9001
   498.0000     28.0354    102.6610
   498.2500     28.5077     99.9819
   498.5000     29.0593     95.5865
   498.7500     29.7062     93.3756
   499.0000     30.4527     92.1216
   499.2500     31.2942     92.2182
   499.5000     32.2177     91.2874
   499.7500     33.2037     88.4975
   500.0000     34.2338     80.7762
   500.2500     35.2967     74.5792
   500.5000     36.3854     66.4994
   500.7500     37.4843     62.6699
   501.0000     38.5540     58.7456
   501.2500     39.5284     56.7006
   501.5000     40.3337     53.8640
   501.7500     40.9207     52.1180
   502.0000     41.2892     50.0835
   502.2500     41.4815     49.3856
   502.5000     41.5523     49.5371
   502.7500     41.5429     50.3436
   503.0000     41.4754     52.2047
   503.2500     41.3598     53.5875
   503.5000     41.1971     55.4076
   503.7500     40.9743     56.2779
   504.0000     40.6608     57.0909
   504.2500     40.2162     57.4925
   504.5000     39.6120     58.1818
   504.7500     38.8580     58.6609
   505.0000     38.0121     59.0900
   505.2500     37.1648     59.1265
   505.5000     36.4072     59.2200
   505.7500     35.8042     59.6587
   506.0000     35.3831     61.1680
   506.2500     35.1351     62.6654
   506.5000     35.0227     65.3774
   506.7500     34.9921     67.4586
   507.0000     34.9903     71.4243
   507.2500     34.9828     75.0561
   507.5000     34.9611     82.0615
   507.7500     34.9362     87.0214
   508.0000     34.9252     92.6444
   508.2500     34.9443     93.9609
   508.5000     35.0108     91.3548
   508.7500     35.1462     86.8989
   509.0000     35.3715     77.9377
   509.2500     35.6928     71.7381
   509.5000     36.0881     63.6928
   509.7500     36.5067     59.4664
   510.0000     36.8814     54.5600
   510.2500     37.1455     52.0268
   510.5000     37.2406     49.5740
   510.7500     37.1224     49.4554
   511.0000     36.7734     52.6801
   511.2500     36.2196     57.0055
   511.5000     35.5325     64.5772
   511.7500     34.8047     68.4494
   512.0000     34.1136     70.4197
   512.2500     33.4992     69.6058
   512.5000     32.9645     68.3407
   512.7500     32.4925     69.3947
   513.0000     32.0629     74.9452
   513.2500     31.6620     80.4395
   513.5000     31.2876     88.7223
   513.7500     30.9525     93.0314
   514.0000     30.6827     97.0575
   514.2500     30.5095     98.4127
   514.5000     30.4566     99.1493
   514.7500     30.5292     99.0676
   515.0000     30.7136     98.3793
   515.2500     30.9843     97.5423
   515.5000     31.3136     95.3331
   515.7500     31.6775     92.9920
   516.0000     32.0567     88.4570
   516.2500     32.4351     85.4375
   516.5000     32.7998     82.2565
   516.7500     33.1461     81.2703
   517.0000     33.4811     80.6421
   517.2500     33.8236     80.1360
   517.5000     34.1963     79.0314
   517.7500     34.6160     78.4343
   518.0000     35.0898     78.3441
   518.2500     35.6159     78.8984
   518.5000     36.1859     80.3211
