~Version Information
 VERS.                                  2.0 : CWLS LAS VERSION
 WRAP.                                   NO : WRAPING MODE
 SWARE .                 MController 2.5.0J : SOFTWARE VERSION
~Well Information
 WELL.                        DUDE 43-34 TR : WELL
 COMP.    PIONEER NATURAL RESOURCES USA INC : COMPANY
 FLD.                      PURGATOIRE RIVER : FIELD
 LOC.                NE/SE SEC 34 T32S R67W : LOCATION
 DATE.                          01/25-26/06 : DATE(S) LOGGED
 SRVC.       BLANCO GEOLOGICAL SERVICES LLC : SERVICE COMPANY
 STAT.                             COLORADO : STATE
 CNTY.                           LAS ANIMAS : COUNTY
 CTRY.                                  USA : COUNTRY
 API.                       05-071-08676-00 : API NUMBER
 STRT.FT                             485.00 : START DEPTH
 STOP.FT                            1765.00 : STOP DEPTH
 STEP.FT                               1.00 : DEPTH INCREMENT
 NULL.                                -9999 : NULL VALUE
~Curve information
 DEPTH.FT                                   :
 ROP.MIN/FT                                 :
 GAS.UNITS                                  :
~ASCII Log data
# ...
       885.0         0.23          4.5 
       886.0         0.17          4.4 
       887.0         0.20          4.9 
       888.0         0.13          4.9 
       889.0         0.20          4.6 
       890.0         0.17          4.6 
       891.0         0.17          4.6 
       892.0         0.17          4.4 
       893.0         0.17          4.6 
       894.0         0.17          4.7 
       895.0         0.22          5.1 
       896.0         3.00          7.0 
       897.0         0.28          5.0 
       898.0         0.27          4.6 
       899.0         0.37          5.1 
       900.0         0.43          5.2 
       901.0         0.30          4.9 
       902.0         6.67          5.7 
       903.0         0.23          5.3 
       904.0         0.27          5.8 
       905.0         0.23          5.6 
       906.0         0.13          5.7 
       907.0         0.17          7.3 
       908.0         0.13         11.7 
       909.0         0.20         18.9 
       910.0         0.20         25.2 
       911.0         0.20         31.7 
       912.0         0.22         38.5 
       913.0         0.20         42.5 
       914.0         0.27         44.4 
       915.0         0.30         46.9 
       916.0         0.23         45.8 
       917.0         0.27         45.0 
       918.0         0.23         43.5 
       919.0         0.30         40.5 
       920.0         0.27         34.8 
       921.0         0.20         32.1 
       922.0         0.20         30.8 
       923.0         0.23         30.9 
       924.0         0.27         36.5 
       925.0         0.32         60.1 
       926.0         4.92        247.7 
       927.0         0.33         26.3 
       928.0         0.23         24.5 
       929.0         0.23         24.1 
       930.0         0.40         23.6 
       931.0         0.30         23.4 
       932.0         0.23         22.6 
       933.0         0.18         22.3 
       934.0         0.23         21.7 
       935.0         0.13         20.7 
       936.0         0.13         20.4 
       937.0         0.13         21.4 
       938.0         0.13         21.0 
       939.0         0.17         21.2 
       940.0         0.20         20.9 
       941.0         0.27         20.4 
       942.0         0.23         19.5 
       943.0         0.27         19.5 
       944.0         0.17         19.1 
       945.0         0.23         18.5 
       946.0         0.23         17.4 
       947.0         0.23         16.2 
       948.0         0.23         15.3 
       949.0         0.25         13.4 
       950.0         0.20         12.9 
       951.0         0.27         12.0 
       952.0         0.20         12.9 
       953.0         0.20         13.3 
       954.0         0.17         13.4 
       955.0         0.20         16.5 
       956.0         4.68        115.8 
       957.0         0.40         15.4 
       958.0         0.35         12.3 
       959.0         0.20         13.2 
       960.0         0.23         13.1 
       961.0         0.27         13.0 
       962.0         0.33         12.6 
       963.0         0.20         12.6 
       964.0         0.20         11.9 
       965.0         0.20         11.1 
       966.0         0.30         11.1 
       967.0         0.27         11.3 
       968.0         0.23         11.3 
       969.0         0.27         11.1 
       970.0         0.27         11.7 
       971.0         0.25         11.7 
       972.0         0.20         11.5 
       973.0         0.20         11.5 
       974.0         0.27         11.4 
       975.0         0.20         11.0 
       976.0         0.20          9.8 
       977.0         0.13          9.0 
       978.0         0.27          7.7 
       979.0         0.20          7.7 
       980.0         0.17          7.6 
       981.0         0.13          7.3 
       982.0         0.20          7.6 
       983.0         0.23          9.8 
       984.0         0.20         11.8 
       985.0         0.27         19.2 
       986.0         4.10         73.2 
       987.0         0.33         22.3 
       988.0         0.27         16.6 
       989.0         0.17         12.8 
       990.0         0.13         11.3 
       991.0         0.10         10.3 
       992.0         0.10         10.8 
       993.0         0.17          9.3 
       994.0         0.17          8.9 
       995.0         0.13          9.0 
       996.0         0.20          8.7 
       997.0         0.17          8.5 
       998.0         0.17          8.7 
       999.0         0.10          8.6 
      1000.0         0.17          8.0 
      1001.0         0.17          8.6 
      1002.0         0.30          7.7 
      1003.0         0.18          7.0 
      1004.0         0.13          7.0 
      1005.0         0.17          6.0 
      1006.0         0.17          5.4 
      1007.0         0.20          5.5 
      1008.0         0.17          5.3 
      1009.0         0.20          5.6 
      1010.0         0.17          5.7 
      1011.0         0.20          6.5 
      1012.0         0.17          6.3 
      1013.0         0.17          7.1 
      1014.0         0.17          8.7 
      1015.0         0.20         14.3 
      1016.0         4.15         74.0 
      1017.0         0.30         26.7 
      1018.0         0.28         22.3 
      1019.0         0.17         18.4 
      1020.0         0.13         16.7 
      1021.0         0.10         15.8 
      1022.0         0.23         14.4 
      1023.0         0.20         14.1 
      1024.0         0.20         12.8 
      1025.0         0.20         12.1 
      1026.0         0.17         11.7 
      1027.0         0.17         12.2 
      1028.0         0.17         11.4 
      1029.0         0.20         11.3 
      1030.0         0.17         11.0 
      1031.0         0.23         11.6 
      1032.0         0.27         12.7 
      1033.0         0.30         17.4 
      1034.0         0.22         20.5 
      1035.0         0.23         21.3 
      1036.0         0.20         19.7 
      1037.0         0.17         16.8 
      1038.0         0.20         16.5 
      1039.0         0.17         15.1 
      1040.0         0.17         14.5 
      1041.0         0.17         14.1 
      1042.0         0.10         14.8 
      1043.0         0.13         16.4 
      1044.0         0.23         23.4 
      1045.0         0.30         40.4 
      1046.0         3.72        113.6 
      1047.0         0.43         17.8 
      1048.0         0.33         14.4 
      1049.0         0.28         12.6 
      1050.0         0.20         10.7 
      1051.0         0.17          9.7 
      1052.0         0.20         10.1 
      1053.0         0.13          9.4 
      1054.0         0.13         10.3 
      1055.0         0.17         12.4 
      1056.0         0.20         13.8 
      1057.0         0.17         15.0 
      1058.0         0.23         15.1 
      1059.0         0.20         16.2 
      1060.0         0.17         15.7 
      1061.0         0.17         13.7 
      1062.0         0.20         12.8 
      1063.0         0.13         11.8 
      1064.0         0.17         11.5 
      1065.0         0.13         10.8 
      1066.0         0.13          9.6 
      1067.0         0.17          9.2 
      1068.0         0.18          8.6 
      1069.0         0.17          8.1 
      1070.0         0.17          7.3 
      1071.0         0.17          7.7 
      1072.0         0.20          7.5 
      1073.0         0.17          8.5 
      1074.0         0.17          9.7 
      1075.0         0.23         16.2 
      1076.0         4.35        104.4 
      1077.0         0.30         14.0 
      1078.0         0.30         12.4 
      1079.0         0.27         10.8 
      1080.0         0.22         10.8 
      1081.0         0.27         19.9 
      1082.0         0.20         24.3 
      1083.0         0.17         30.6 
      1084.0         0.20         37.0 
