~Version Information
VERS.                      2.0: CWLS Log ASCII Standard - VERSION 2.0
WRAP.                       NO: One line per depth step
~Well Information Block
STRT.FT               420.0000: 
STOP.FT              2888.7000: 
STEP.FT                 0.1000: 
NULL.                -999.2500: 
COMP.          Pioneer Natural Resources: COMPANY
WELL.          Touchstone 11-32: WELL
FLD.           Purgatoire River: FIELD
LOC.           853' FNL & 407' FWL--: LOCATION
CNTY.               Las Animas: COUNTY
SRVC.                Patterson: SERVICE COMPANY
DATE.          Fri Feb 24 11:16:52 2006: LOG DATE
UWI.           05 071 08564 00: UNIQUE WELL ID
STAT.                 Colorado: STATE
~Curve Information Block
DEPT.FT            0 000 00 00: Depth
DCAL.in                       : CDL Caliper
RHOB.g/cc                     : CDL Bulk Density
RHOC.g/cc                     : CDL Density Correction
DPOR.pu                       : CDL Density Porosity
NPOR.pu                       : Neutron Porosity
GR.GAPI                       : Gamma Ray
~Parameter Information Block
~A  Depth       DCAL        RHOB        RHOC        DPOR        NPOR         GR     
# ...
  1399.2000      7.9551      2.3561      0.0422     17.8092     22.5869    137.0869
  1399.3000      7.9395      2.2980      0.0132     21.3308     22.8340    135.7301
  1399.4000      7.9395      2.2095      0.0226     26.6959     23.2032    135.9358
  1399.5000      7.9197      2.1042     -0.0184     33.0805     23.7914    139.6395
  1399.6000      7.9197      2.0193     -0.0665     38.2224     24.4610    136.3916
  1399.7000      7.9197      1.9685     -0.0540     41.3020     24.7547    121.4198
  1399.8000      7.8996      1.9292     -0.0320     43.6849     24.4353    104.8509
  1399.9000      7.8996      1.8987     -0.0524     45.5313     23.1001     94.6368
  1400.0000      7.9096      1.9060     -0.0349     45.0933     20.4913     91.2009
  1400.1000      7.9096      1.9597      0.0748     41.8354     17.9402     92.0961
  1400.2000      7.9096      2.0389      0.1694     37.0368     17.0955     97.0105
  1400.3000      7.9800      2.1311      0.1713     31.4491     18.0806    104.4744
  1400.4000      7.9800      2.2354      0.2524     25.1303     19.4394    106.6072
  1400.5000      8.0562      2.3385      0.2540     18.8801     19.5682     98.4132
  1400.6000      8.0562      2.4290      0.1309     13.3933     18.1487     88.4183
  1400.7000      8.0562      2.5015      0.1319      9.0023     16.6940     89.6013
  1400.8000      8.0613      2.5460      0.0998      6.3032     16.5993    100.8661
  1400.9000      8.0613      2.5708      0.0574      4.7978     17.2960    110.6369
  1401.0000      8.0446      2.5892      0.1019      3.6846     17.9507    116.1127
  1401.1000      8.0446      2.5923      0.0856      3.4992     18.3648    120.8168
  1401.2000      8.0446      2.5806      0.0358      4.2038     18.2486    124.0307
  1401.3000      8.0443      2.5696      0.0564      4.8722     18.0558    125.7963
  1401.4000      8.0443      2.5619      0.0639      5.3392     18.2459    128.5622
  1401.5000      8.0475      2.5593      0.0232      5.4985     18.0870    131.0742
  1401.6000      8.0475      2.5731      0.0083      4.6607     17.1709    131.2667
  1401.7000      8.0475      2.6043      0.0737      2.7709     16.5101    131.2300
  1401.8000      8.0495      2.6286      0.0975      1.2953     16.6585    135.0981
  1401.9000      8.0495      2.6282      0.0517      1.3219     16.9419    142.7956
  1402.0000      8.0518      2.6191      0.0510      1.8745     17.0828    148.9742
  1402.1000      8.0518      2.6234      0.0339      1.6104     17.2689    146.3963
  1402.2000      8.0518      2.6360      0.0796      0.8480     17.8056    134.1724
  1402.3000      8.0538      2.6316      0.0520      1.1182     18.7623    126.6982
  1402.4000      8.0538      2.6060      0.0270      2.6690     19.2413    132.3456
  1402.5000      8.0546      2.5866      0.0069      3.8448     18.5522    140.6025
  1402.6000      8.0546      2.5925      0.0342      3.4840     17.5263    143.4058
  1402.7000      8.0546      2.6115      0.0323      2.3341     17.1596    142.6009
  1402.8000      8.0556      2.6251     -0.0038      1.5074     17.1668    139.0970
  1402.9000      8.0556      2.6271      0.0729      1.3880     16.9281    133.0065
  1403.0000      8.0577      2.6209     -0.0126      1.7664     16.4593    128.9534
  1403.1000      8.0577      2.6255      0.0110      1.4852     15.9934    130.3597
  1403.2000      8.0577      2.6430      0.0700      0.4262     15.8189    134.0088
  1403.3000      8.0596      2.6433      0.0615      0.4046     16.1900    134.8986
  1403.4000      8.0596      2.6168      0.0080      2.0149     16.6513    135.8619
  1403.5000      8.0590      2.5960     -0.0144      3.2730     16.8268    137.9379
  1403.6000      8.0590      2.6063     -0.0041      2.6484     17.0524    134.7551
  1403.7000      8.0590      2.6333      0.0723      1.0124     17.3463    127.6783
  1403.8000      8.0550      2.6517      0.0575     -0.1030     17.2892    123.7887
  1403.9000      8.0550      2.6580      0.0586     -0.4847     17.0273    124.0568
  1404.0000      8.0512      2.6622      0.0351     -0.7420     16.9407    126.0282
  1404.1000      8.0512      2.6617      0.0769     -0.7099     16.8863    129.1556
  1404.2000      8.0512      2.6441      0.0651      0.3589     17.0186    134.6490
  1404.3000      8.0520      2.6138      0.0501      2.1958     17.8607    143.5069
  1404.4000      8.0520      2.5882      0.0010      3.7463     18.9493    152.9066
  1404.5000      8.0531      2.5799      0.0133      4.2493     19.2192    153.1663
  1404.6000      8.0531      2.5878      0.0427      3.7674     18.7172    144.3172
  1404.7000      8.0531      2.5938      0.0419      3.4076     18.3668    141.7006
  1404.8000      8.0528      2.5749      0.0664      4.5527     18.6346    148.2897
  1404.9000      8.0528      2.5366      0.0171      6.8751     19.1705    151.1988
  1405.0000      8.0548      2.5146      0.0042      8.2058     19.3852    149.0481
  1405.1000      8.0548      2.5212      0.0160      7.8055     19.3707    149.8752
  1405.2000      8.0548      2.5299      0.0469      7.2801     19.6388    152.2757
  1405.3000      8.0569      2.5260      0.0040      7.5152     19.8213    149.6904
  1405.4000      8.0569      2.5258     -0.0002      7.5249     19.4583    144.0845
  1405.5000      8.0580      2.5400      0.0332      6.6652     18.9425    140.9202
  1405.6000      8.0580      2.5579      0.0947      5.5800     18.5982    139.7558
  1405.7000      8.0580      2.5730      0.0540      4.6650     18.0671    136.6920
  1405.8000      8.0581      2.5910      0.1001      3.5741     17.5165    129.5425
  1405.9000      8.0581      2.6125      0.0750      2.2757     17.5951    123.5127
  1406.0000      8.0564      2.6295      0.1068      1.2431     17.8274    125.4280
  1406.1000      8.0564      2.6326      0.0891      1.0565     17.7310    131.1430
  1406.2000      8.0564      2.6284      0.0816      1.3082     17.8848    132.9798
  1406.3000      8.0514      2.6295      0.0642      1.2399     18.4829    127.1248
  1406.4000      8.0514      2.6249      0.0971      1.5193     18.5677    116.9434
  1406.5000      8.0481      2.6013      0.0697      2.9492     17.8072    111.5651
  1406.6000      8.0481      2.5751      0.0217      4.5390     17.3105    111.4605
  1406.7000      8.0481      2.5696      0.0069      4.8751     17.5916    112.9179
  1406.8000      8.0479      2.5839      0.0259      4.0072     18.0291    117.4072
  1406.9000      8.0479      2.5953      0.0700      3.3139     18.1764    123.7170
  1407.0000      8.0489      2.5864      0.0573      3.8532     18.2655    128.2381
  1407.1000      8.0489      2.5696      0.0192      4.8700     18.3755    128.8759
  1407.2000      8.0489      2.5692      0.0382      4.8958     17.9573    125.5699
  1407.3000      8.0532      2.5796      0.0760      4.2658     16.8934    122.6430
  1407.4000      8.0532      2.5820      0.0275      4.1211     15.8170    120.4321
  1407.5000      8.0585      2.5813      0.0642      4.1647     15.1841    117.0800
  1407.6000      8.0585      2.5925      0.0523      3.4875     14.7335    114.7880
  1407.7000      8.0585      2.6163      0.0833      2.0452     14.0928    113.4843
  1407.8000      8.0605      2.6364      0.0766      0.8267     13.2998    112.9102
  1407.9000      8.0605      2.6399      0.0783      0.6093     12.7869    112.7269
  1408.0000      8.0588      2.6310      0.0643      1.1488     12.8147    107.7223
  1408.1000      8.0588      2.6221      0.0437      1.6893     12.7297    100.6067
  1408.2000      8.0588      2.6240      0.0219      1.5740     12.1971     99.7392
  1408.3000      8.0565      2.6463      0.0463      0.2217     12.1776    102.9423
  1408.4000      8.0565      2.6857      0.0485     -2.1630     13.0439    103.0412
  1408.5000      8.0562      2.7236      0.0408     -4.4594     13.7747     99.0814
  1408.6000      8.0562      2.7475      0.0572     -5.9092     13.7692     94.0197
  1408.7000      8.0562      2.7533      0.1026     -6.2578     13.4001     87.6372
