~Version Information
VERS.                      2.0: CWLS Log ASCII Standard - VERSION 2.0
WRAP.                       NO: One line per depth step
~Well Information Block
STRT.FT               325.0000: 
STOP.FT              1014.5000: 
STEP.FT                 0.2500: 
NULL.                -999.2500: 
COMP.          Pioneer Natural Resources: COMPANY
WELL.                Doc 34-30: WELL
FLD.           Purgatoire River: FIELD
LOC.           454' FSL & 1386' FEL: LOCATION
CNTY.               Las Animas: COUNTY
SRVC.                Patterson: SERVICE COMPANY
DATE.          Wed Feb 15 20:26:19 2006: LOG DATE
UWI.           05 071 08694 00: UNIQUE WELL ID
STAT.                 Colorado: STATE
~Curve Information Block
DEPT.FT            0 000 00 00: Depth
SN.Ohm-m                      : IEL Short Normal
SP.mV                         : IEL Spontaneous Potential
DIR.Ohm-m                     : IEL Induction Resistivity
GR.GAPI                       : Gamma Ray
~Parameter Information Block
~A  Depth        SN          SP         DIR          GR     
# ...
   492.5000   2000.0000   2000.0000     13.8644    104.1208
   492.7500   2000.0000   2000.0000     14.6122     94.8308
   493.0000   2000.0000   2000.0000     15.5206     84.4844
   493.2500   2000.0000   2000.0000     16.6100     79.8964
   493.5000   2000.0000   2000.0000     17.8715     75.2571
   493.7500   2000.0000   2000.0000     19.2540     72.8307
   494.0000   2000.0000   2000.0000     20.6590     69.4991
   494.2500   2000.0000   2000.0000     21.9536     67.5512
   494.5000   2000.0000   2000.0000     23.0084     65.4202
   494.7500   2000.0000   2000.0000     23.7494     64.7086
   495.0000   2000.0000   2000.0000     24.1916     64.9217
   495.2500   2000.0000   2000.0000     24.4244     65.9135
   495.5000   2000.0000   2000.0000     24.5590     68.2003
   495.7500   2000.0000   2000.0000     24.6776     69.7987
   496.0000   2000.0000   2000.0000     24.8111     71.7262
   496.2500   2000.0000   2000.0000     24.9517     72.6138
   496.5000   2000.0000   2000.0000     25.0818     73.4278
   496.7500   2000.0000   2000.0000     25.2006     73.6634
   497.0000   2000.0000   2000.0000     25.3279     73.5810
   497.2500   2000.0000   2000.0000     25.4855     73.3071
   497.5000   2000.0000   2000.0000     25.6697     72.8879
   497.7500   2000.0000   2000.0000     25.8433     72.8506
   498.0000   2000.0000   2000.0000     25.9496     73.4863
   498.2500   2000.0000   2000.0000     25.9391     74.3939
   498.5000   2000.0000   2000.0000     25.7903     76.0540
   498.7500   2000.0000   2000.0000     25.5190     76.8559
   499.0000   2000.0000   2000.0000     25.1753     76.7229
   499.2500   2000.0000   2000.0000     24.8238     75.5455
   499.5000   2000.0000   2000.0000     24.5108     72.6283
   499.7500   2000.0000   2000.0000     24.2445     70.5576
   500.0000   2000.0000   2000.0000     24.0064     68.4418
   500.2500   2000.0000   2000.0000     23.7863     68.0954
   500.5000   2000.0000   2000.0000     23.6023     69.0359
   500.7500   2000.0000   2000.0000     23.4899     70.1522
   501.0000   2000.0000   2000.0000     23.4743     71.5878
   501.2500   2000.0000   2000.0000     23.5567     72.0636
   501.5000   2000.0000   2000.0000     23.7177     72.2549
   501.7500   2000.0000   2000.0000     23.9295     72.4689
   502.0000   2000.0000   2000.0000     24.1621     73.4439
   502.2500   2000.0000   2000.0000     24.3849     74.3506
   502.5000   2000.0000   2000.0000     24.5651     75.1590
   502.7500   2000.0000   2000.0000     24.6754     74.8511
   503.0000   2000.0000   2000.0000     24.7016     73.0513
   503.2500   2000.0000   2000.0000     24.6386     71.4340
   503.5000   2000.0000   2000.0000     24.4775     69.7059
   503.7500   2000.0000   2000.0000     24.2110     69.6386
   504.0000   2000.0000   2000.0000     23.8641     71.2147
   504.2500   2000.0000   2000.0000     23.5139     72.8679
   504.5000   2000.0000   2000.0000     23.2639     75.2533
   504.7500   2000.0000   2000.0000     23.1872     76.5443
   505.0000   2000.0000   2000.0000     23.2856     78.1957
   505.2500   2000.0000   2000.0000     23.4898     79.2245
   505.5000   2000.0000   2000.0000     23.6955     80.6300
   505.7500   2000.0000   2000.0000     23.8140     81.4885
   506.0000   2000.0000   2000.0000     23.8146     82.7946
   506.2500   2000.0000   2000.0000     23.7313     83.5354
   506.5000   2000.0000   2000.0000     23.6297     83.6370
   506.7500   2000.0000   2000.0000     23.5598     82.6313
   507.0000   2000.0000   2000.0000     23.5299     79.8203
   507.2500   2000.0000   2000.0000     23.5137     77.8347
   507.5000   2000.0000   2000.0000     23.4775     76.1704
   507.7500   2000.0000   2000.0000     23.4051     76.4555
   508.0000   2000.0000   2000.0000     23.3009     78.9164
   508.2500   2000.0000   2000.0000     23.1799     81.4108
   508.5000   2000.0000   2000.0000     23.0572     85.1508
   508.7500   2000.0000   2000.0000     22.9508     86.8364
   509.0000   2000.0000   2000.0000     22.8887     87.0789
   509.2500   2000.0000   2000.0000     22.9020     85.6271
   509.5000   2000.0000   2000.0000     23.0002     82.3097
   509.7500   2000.0000   2000.0000     23.1509     80.5835
   510.0000   2000.0000   2000.0000     23.2886     79.9372
   510.2500   2000.0000   2000.0000     23.3547     80.3265
   510.5000   2000.0000   2000.0000     23.3366     80.1691
   510.7500   2000.0000   2000.0000     23.2734     78.8250
   511.0000   2000.0000   2000.0000     23.2246     75.2515
   511.2500   2000.0000   2000.0000     23.2311     72.5082
   511.5000   2000.0000   2000.0000     23.2974     68.7497
   511.7500   2000.0000   2000.0000     23.4000     66.6228
   512.0000   2000.0000   2000.0000     23.5078     63.9075
   512.2500   2000.0000   2000.0000     23.5966     62.4468
   512.5000   2000.0000   2000.0000     23.6530     61.2669
   512.7500   2000.0000   2000.0000     23.6718     61.5680
   513.0000   2000.0000   2000.0000     23.6568     63.9625
   513.2500   2000.0000   2000.0000     23.6215     66.5644
   513.5000   2000.0000   2000.0000     23.5840     70.9059
   513.7500   2000.0000   2000.0000     23.5569     73.5024
   514.0000   2000.0000   2000.0000     23.5392     76.3809
   514.2500   2000.0000   2000.0000     23.5177     77.4898
   514.5000   2000.0000   2000.0000     23.4775     77.9436
   514.7500   2000.0000   2000.0000     23.4096     77.6280
   515.0000   2000.0000   2000.0000     23.3133     76.8155
   515.2500   2000.0000   2000.0000     23.1950     76.3686
   515.5000   2000.0000   2000.0000     23.0743     76.0900
   515.7500   2000.0000   2000.0000     22.9866     76.1415
   516.0000   2000.0000   2000.0000     22.9714     76.3711
   516.2500   2000.0000   2000.0000     23.0504     76.4857
   516.5000   2000.0000   2000.0000     23.2107     76.4537
   516.7500   2000.0000   2000.0000     23.4088     76.3196
   517.0000   2000.0000   2000.0000     23.5915     76.1094
   517.2500   2000.0000   2000.0000     23.7201     76.0220
   517.5000   2000.0000   2000.0000     23.7796     75.9674
   517.7500   2000.0000   2000.0000     23.7746     76.0560
   518.0000   2000.0000   2000.0000     23.7193     76.7312
   518.2500   2000.0000   2000.0000     23.6335     77.6664
   518.5000   2000.0000   2000.0000     23.5443     79.5424
   518.7500   2000.0000   2000.0000     23.4857     80.8104
   519.0000   2000.0000   2000.0000     23.4911     82.2344
   519.2500   2000.0000   2000.0000     23.5798     82.5389
   519.5000   2000.0000   2000.0000     23.7445     81.5122
   519.7500   2000.0000   2000.0000     23.9502     79.8173
   520.0000   2000.0000   2000.0000     24.1491     76.3566
   520.2500   2000.0000   2000.0000     24.3055     73.8760
   520.5000   2000.0000   2000.0000     24.4128     70.2710
   520.7500   2000.0000   2000.0000     24.4887     67.9731
   521.0000   2000.0000   2000.0000     24.5539     64.8364
   521.2500   2000.0000   2000.0000     24.6147     63.2420
   521.5000   2000.0000   2000.0000     24.6633     62.2931
   521.7500   2000.0000   2000.0000     24.6891     62.8788
   522.0000   2000.0000   2000.0000     24.6892     65.2349
   522.2500   2000.0000   2000.0000     24.6703     67.1125
   522.5000   2000.0000   2000.0000     24.6424     69.1437
   522.7500   2000.0000   2000.0000     24.6102     69.6759
   523.0000   2000.0000   2000.0000     24.5683     69.5960
   523.2500   2000.0000   2000.0000     24.5032     69.3349
   523.5000   2000.0000   2000.0000     24.3948     69.0148
   523.7500   2000.0000   2000.0000     24.2159     68.9165
   524.0000   2000.0000   2000.0000     23.9310     68.9505
   524.2500   2000.0000   2000.0000     23.5002     69.0122
   524.5000   2000.0000   2000.0000     22.8883     68.9521
   524.7500   2000.0000   2000.0000     22.0770     68.9667
   525.0000   2000.0000   2000.0000     21.0743     70.3080
   525.2500   2000.0000   2000.0000     19.9214     73.0802
   525.5000   2000.0000   2000.0000     18.6879     80.9195
   525.7500   2000.0000   2000.0000     17.4537     88.1731
