~Version Information
VERS.                      2.0: CWLS Log ASCII Standard - VERSION 2.0
WRAP.                       NO: One line per depth step
~Well Information Block
STRT.FT               655.0000: 
STOP.FT              2623.7500: 
STEP.FT                 0.2500: 
NULL.                -999.2500: 
COMP.          Pioneer Natural Resources: COMPANY
WELL.             Aviator 12-4: WELL
FLD.           Purgatoire River: FIELD
LOC.           1969' FNL & 732' FWL--: LOCATION
CNTY.               Las Animas: COUNTY
SRVC.                Patterson: SERVICE COMPANY
DATE.          Sun Apr 09 14:25:03 2006: LOG DATE
UWI.           05 071 08714 00: UNIQUE WELL ID
STAT.                 Colorado: STATE
~Curve Information Block
DEPT.FT            0 000 00 00: Depth
SN.Ohm-m                      : IEL Short Normal
SP.mV                         : IEL Spontaneous Potential
DIR.Ohm-m                     : IEL Induction Resistivity
GR.GAPI                       : Gamma Ray
~Parameter Information Block
~A  Depth        SN          SP         DIR          GR     
# ...
  1157.5000     21.7362    -94.6661     20.3311    108.8459
  1157.7500     21.6981    -95.1879     19.9356    112.0261
  1158.0000     21.6769    -95.5764     19.4885    116.1352
  1158.2500     21.6296    -95.8134     19.0608    118.7684
  1158.5000     21.5660    -95.9110     18.7134    123.5429
  1158.7500     21.5342    -95.9051     18.4875    127.3990
  1159.0000     21.5654    -95.8442     18.4024    132.7359
  1159.2500     21.6418    -95.7783     18.4620    134.5331
  1159.5000     21.7061    -95.7499     18.6658    133.0156
  1159.7500     21.6911    -95.7887     19.0201    129.4420
  1160.0000     21.5969    -95.9102     19.5446    121.6825
  1160.2500     21.5956    -96.1177     20.2734    115.5446
  1160.5000     22.0656    -96.4049     21.2508    105.6386
  1160.7500     23.4947    -96.7590     22.5224     99.2929
  1161.0000     26.2406    -97.1634     24.1226     91.7638
  1161.2500     30.2238    -97.5998     26.0610     88.5300
  1161.5000     34.8263    -98.0491     28.3095     85.6398
  1161.7500     39.2342    -98.4930     30.7935     84.0793
  1162.0000     42.9717    -98.9154     33.3890     80.8728
  1162.2500     46.0780    -99.3046     35.9381     77.7583
  1162.5000     48.8154    -99.6548     38.2880     71.8380
  1162.7500     51.3287    -99.9669     40.3395     67.6682
  1163.0000     53.5769   -100.2481     42.0713     62.4663
  1163.2500     55.4439   -100.5094     43.5260     60.2701
  1163.5000     56.8632   -100.7620     44.7775     58.9300
  1163.7500     57.8870   -101.0142     45.9026     58.9161
  1164.0000     58.6392   -101.2681     46.9547     59.3509
  1164.2500     59.2025   -101.5183     47.9414     59.6332
  1164.5000     59.5795   -101.7536     48.8242     59.9413
  1164.7500     59.7426   -101.9585     49.5544     60.1654
  1165.0000     59.6903   -102.1173     50.1220     60.5942
  1165.2500     59.4649   -102.2170     50.5777     60.6881
  1165.5000     59.1400   -102.2492     51.0074     59.6154
  1165.7500     58.8000   -102.2112     51.4857     57.6979
  1166.0000     58.5057   -102.1053     52.0442     53.4846
  1166.2500     58.2629   -101.9375     52.6704     50.7014
  1166.5000     58.0408   -101.7160     53.3316     48.2292
  1166.7500     57.8142   -101.4494     53.9989     48.2224
  1167.0000     57.5778   -101.1464     54.6596     50.6090
  1167.2500     57.3490   -100.8155     55.3035     53.4832
  1167.5000     57.1563   -100.4650     55.8860     59.0819
  1167.7500     57.0125   -100.1036     56.2978     63.2402
  1168.0000     56.8954    -99.7410     56.3835     69.2614
  1168.2500     56.7624    -99.3874     56.0337     72.6614
  1168.5000     56.5882    -99.0535     55.2804     76.0837
  1168.7500     56.3808    -98.7503     54.2985     76.8093
  1169.0000     56.1583    -98.4889     53.3034     75.2838
  1169.2500     55.9282    -98.2808     52.4448     72.9134
  1169.5000     55.6971    -98.1378     51.7666     68.5625
  1169.7500     55.4759    -98.0719     51.2244     65.6940
  1170.0000     55.2573    -98.0932     50.7210     61.8857
  1170.2500     54.9879    -98.2080     50.1462     59.8215
  1170.5000     54.5630    -98.4156     49.4117     57.6066
  1170.7500     53.8408    -98.7062     48.4651     56.7082
  1171.0000     52.6547    -99.0608     47.2729     56.1161
  1171.2500     50.8343    -99.4519     45.7997     56.2002
  1171.5000     48.2735    -99.8469     44.0089     57.1561
  1171.7500     45.0527   -100.2110     41.8869     58.5844
  1172.0000     41.4829   -100.5095     39.4643     62.6924
  1172.2500     37.9631   -100.7085     36.8166     67.1709
  1172.5000     34.7749   -100.7751     34.0458     76.5538
  1172.7500     32.0131   -100.6786     31.2599     84.1247
  1173.0000     29.6466   -100.3946     28.5618     96.1469
  1173.2500     27.5990    -99.9128     26.0443    103.8148
  1173.5000     25.7936    -99.2464     23.7847    113.7425
  1173.7500     24.1681    -98.4384     21.8351    118.9013
  1174.0000     22.6986    -97.5615     20.2165    124.1369
  1174.2500     21.4217    -96.7081     18.9211    126.1597
  1174.5000     20.3949    -95.9728     17.9220    128.0186
  1174.7500     19.6336    -95.4320     17.1852    129.0497
  1175.0000     19.1039    -95.1278     16.6774    130.3430
  1175.2500     18.7487    -95.0610     16.3691    130.5683
  1175.5000     18.5028    -95.1953     16.2306    129.3010
  1175.7500     18.3139    -95.4705     16.2267    127.5559
  1176.0000     18.1698    -95.8181     16.3134    124.6626
  1176.2500     18.1011    -96.1762     16.4395    123.2552
  1176.5000     18.1434    -96.4981     16.5526    122.8153
  1176.7500     18.2840    -96.7554     16.6040    123.8269
  1177.0000     18.4389    -96.9364     16.5546    126.8501
  1177.2500     18.4927    -97.0421     16.3807    129.3378
  1177.5000     18.3651    -97.0818     16.0812    133.2441
  1177.7500     18.0386    -97.0698     15.6788    135.9142
  1178.0000     17.5377    -97.0228     15.2130    139.5285
  1178.2500     16.9011    -96.9583     14.7273    141.1315
  1178.5000     16.1691    -96.8931     14.2598    142.1626
  1178.7500     15.3747    -96.8417     13.8377    142.5786
  1179.0000     14.5450    -96.8152     13.4771    143.8333
  1179.2500     13.7365    -96.8197     13.1841    144.9390
  1179.5000     13.0766    -96.8562     12.9595    146.0586
  1179.7500     12.7384    -96.9200     12.8042    146.2832
  1180.0000     12.8411    -97.0018     12.7232    146.4099
  1180.2500     13.3619    -97.0894     12.7253    146.6021
  1180.5000     14.1249    -97.1689     12.8194    146.4417
  1180.7500     14.8817    -97.2268     13.0095    145.1985
  1181.0000     15.4474    -97.2515     13.2909    140.7331
  1181.2500     15.7894    -97.2339     13.6506    136.6042
  1181.5000     15.9929    -97.1686     14.0701    131.3118
  1181.7500     16.1656    -97.0536     14.5286    129.6872
  1182.0000     16.3777    -96.8905     15.0040    129.9828
  1182.2500     16.6447    -96.6839     15.4717    130.6924
  1182.5000     16.9278    -96.4408     15.9053    130.1620
  1182.7500     17.1653    -96.1701     16.2797    128.2413
  1183.0000     17.3262    -95.8826     16.5777    123.9203
  1183.2500     17.4388    -95.5908     16.7934    121.1081
  1183.5000     17.5653    -95.3084     16.9330    118.1925
  1183.7500     17.7456    -95.0510     17.0137    117.1352
  1184.0000     17.9591    -94.8343     17.0587    116.3541
  1184.2500     18.1361    -94.6736     17.0898    116.2488
  1184.5000     18.2090    -94.5810     17.1182    116.9462
  1184.7500     18.1620    -94.5638     17.1397    118.1590
  1185.0000     18.0392    -94.6220     17.1378    120.9928
  1185.2500     17.8969    -94.7479     17.0950    122.9835
  1185.5000     17.7511    -94.9267     17.0057    124.4641
  1185.7500     17.5863    -95.1378     16.8799    123.8383
  1186.0000     17.3993    -95.3581     16.7331    121.0910
  1186.2500     17.2059    -95.5645     16.5729    119.0141
  1186.5000     17.0111    -95.7369     16.3909    116.8997
  1186.7500     16.7963    -95.8596     16.1668    116.5849
  1187.0000     16.5409    -95.9235     15.8783    117.9344
  1187.2500     16.2346    -95.9259     15.5116    119.7890
  1187.5000     15.8700    -95.8715     15.0678    123.3747
  1187.7500     15.4461    -95.7714     14.5645    126.3241
  1188.0000     14.9846    -95.6424     14.0330    132.0370
  1188.2500     14.5366    -95.5047     13.5118    136.3551
  1188.5000     14.1638    -95.3796     13.0375    141.4841
  1188.7500     13.8949    -95.2866     12.6361    142.8340
  1189.0000     13.6989    -95.2408     12.3187    141.6881
  1189.2500     13.5025    -95.2518     12.0816    139.7935
  1189.5000     13.2226    -95.3229     11.9108    137.0844
  1189.7500     12.7973    -95.4509     11.7895    135.8744
  1190.0000     12.2426    -95.6272     11.7046    134.6902
  1190.2500     11.6895    -95.8386     11.6514    133.8158
  1190.5000     11.3437    -96.0691     11.6340    131.9158
  1190.7500     11.3946    -96.3012     11.6622    130.6920
