~Version Information
VERS.                      2.0: CWLS Log ASCII Standard - VERSION 2.0
WRAP.                       NO: One line per depth step
~Well Information Block
STRT.FT                10.0000: 
STOP.FT              1063.0000: 
STEP.FT                 0.1000: 
NULL.                -999.2500: 
COMP.          Pioneer Natural Resources: COMPANY
WELL.                Mac 22-36: WELL
FLD.           Purgatorie River: FIELD
LOC.           2545' FNL & 1398' FWL: LOCATION
PROV.                 Colorado: PROVINCE
CNTY.               Las Animas: COUNTRY
SRVC.                Patterson: SERVICE COMPANY
DATE.          Mon Dec 05 10:55:42 2005: LOG DATE
UWI.                          : UNIQUE WELL ID
~Curve Information Block
DEPT.FT            0 000 00 00: Depth
DCAL.in                       : CDL Caliper
RHOB.g/cc                     : CDL Bulk Density
RHOC.g/cc                     : CDL Density Correction
DPOR.pu                       : CDL Density Porosity
GR.GAPI                       : Gamma Ray
NPOR.pu                       : Neutron Porosity
~Parameter Information Block
~A  Depth       DCAL        RHOB        RHOC        DPOR         GR         NPOR    
# ...
   566.8000      8.0675      2.6219      0.2656      1.7026    187.4342     26.5261
   566.9000      8.0675      2.5706      0.1950      4.8139    181.3010     26.5862
   567.0000      7.9728      2.4995      0.1213      9.1184    175.4127     26.0758
   567.1000      7.9728      2.4404      0.1000     12.7008    170.0585     25.2366
   567.2000      7.9728      2.4017      0.1870     15.0459    168.5903     24.6139
   567.3000      7.9712      2.3670      0.1401     17.1499    171.4281     24.1660
   567.4000      7.9712      2.3303      0.1028     19.3741    175.6913     23.3620
   567.5000      8.0119      2.2939      0.1417     21.5824    180.8417     22.1061
   567.6000      8.0119      2.2553      0.0904     23.9197    184.6175     20.6942
   567.7000      8.0119      2.2183      0.0614     26.1652    183.2118     19.2276
   567.8000      8.0775      2.1940      0.0901     27.6343    177.4198     17.7791
   567.9000      8.0775      2.1881      0.2083     27.9957    169.4053     16.6261
   568.0000      8.0086      2.1766      0.3865     28.6927    162.5478     15.8730
   568.1000      8.0086      2.1174      0.3677     32.2769    158.2364     15.4837
   568.2000      8.0086      2.0005      0.2850     39.3627    152.0292     15.3178
   568.3000      8.0071      1.8610      0.1513     47.8156    143.2333     15.1719
   568.4000      8.0071      1.7392      0.1228     55.1970    135.6011     15.1973
   568.5000      7.9762      1.6478      0.0613     60.7392    130.8964     15.5311
   568.6000      7.9762      1.5850     -0.0090     64.5468    129.0903     15.8515
   568.7000      7.9762      1.5508      0.0034     66.6195    127.8669     15.9215
   568.8000      8.0145      1.5473     -0.0059     66.8318    123.4977     15.8787
   568.9000      8.0145      1.5748      0.0537     65.1650    115.9209     15.9140
   569.0000      8.0954      1.6168      0.0749     62.6157    109.4838     16.0629
   569.1000      8.0954      1.6402      0.1309     61.1974    106.8884     16.2916
   569.2000      8.0954      1.6224      0.0761     62.2811    107.0119     16.6315
   569.3000      8.0623      1.5760     -0.0036     65.0881    106.9772     16.8233
   569.4000      8.0623      1.5315     -0.0287     67.7878    104.4274     16.4407
   569.5000      8.1208      1.5031     -0.0627     69.5117     99.5675     15.5878
   569.6000      8.1208      1.4833      0.0029     70.7064     94.0915     14.6641
   569.7000      8.1208      1.4568      0.0425     72.3174     89.7267     13.8883
   569.8000      8.1087      1.4247     -0.0428     74.2620     88.1882     13.3014
   569.9000      8.1087      1.4095     -0.0140     75.1823     90.2363     13.0672
   570.0000      8.1321      1.4244      0.0656     74.2792     93.5573     13.4352
   570.1000      8.1321      1.4607      0.1267     72.0792     96.6061     14.2261
   570.2000      8.1321      1.5069      0.1439     69.2770    101.2588     15.2176
   570.3000      8.0488      1.5661      0.1261     65.6881    107.9071     16.5303
   570.4000      8.0488      1.6478      0.1207     60.7376    115.4528     17.9962
   570.5000      8.1018      1.7526      0.1931     54.3907    123.5156     19.3831
   570.6000      8.1018      1.8748      0.1743     46.9804    131.5442     20.8755
   570.7000      8.1018      2.0035      0.2336     39.1790    140.3749     22.4104
   570.8000      8.0744      2.1189      0.1947     32.1878    149.4751     23.6259
   570.9000      8.0744      2.2132      0.1626     26.4709    156.5070     24.5100
   571.0000      8.0221      2.2899      0.1666     21.8217    160.9544     25.3133
   571.1000      8.0221      2.3459      0.1654     18.4323    163.1195     25.9716
   571.2000      8.0221      2.3800      0.1049     16.3635    163.8866     26.2071
   571.3000      8.0422      2.4014      0.0604     15.0647    164.8126     26.0799
   571.4000      8.0422      2.4127      0.0926     14.3807    165.8898     25.8502
   571.5000      8.1044      2.4083      0.0682     14.6509    167.0313     25.6753
   571.6000      8.1044      2.3910      0.0368     15.6987    169.2669     25.6692
   571.7000      8.1044      2.3679      0.0523     17.0972    173.0144     25.8737
   571.8000      8.0416      2.3444      0.0050     18.5194    178.4127     26.0731
   571.9000      8.0416      2.3274      0.0398     19.5529    183.1145     26.0587
   572.0000      8.0089      2.3164      0.0710     20.2161    183.6459     25.8737
   572.1000      8.0089      2.3060      0.0944     20.8487    181.0513     25.6936
   572.2000      8.0089      2.2977      0.0502     21.3515    178.7577     25.6403
   572.3000      7.9885      2.2976      0.0359     21.3578    176.7019     25.8050
   572.4000      7.9885      2.3120      0.0438     20.4848    174.2937     26.2092
   572.5000      7.9459      2.3484      0.0763     18.2767    174.3989     26.5971
   572.6000      7.9459      2.4094      0.1249     14.5847    175.5119     26.7027
   572.7000      7.9459      2.4880      0.1961      9.8186    171.6833     26.6509
   572.8000      7.9760      2.5647      0.2915      5.1693    162.9061     26.7881
   572.9000      7.9760      2.6172      0.3554      1.9892    156.3009     27.2122
   573.0000      8.0078      2.6476      0.3351      0.1472    154.9647     27.5600
   573.1000      8.0078      2.6764      0.3023     -1.5973    153.7843     27.6668
   573.2000      8.0078      2.7094      0.3105     -3.5973    149.9351     27.6808
   573.3000      8.0249      2.7263      0.2773     -4.6233    146.4458     27.6176
   573.4000      8.0249      2.7047      0.2083     -3.3177    143.9801     27.6444
   573.5000      7.9330      2.6597      0.0840     -0.5864    140.0177     27.8668
   573.6000      7.9330      2.6260      0.0993      1.4530    135.0482     27.9498
   573.7000      7.9330      2.6081      0.0684      2.5421    132.1251     27.6533
   573.8000      7.8621      2.5933      0.0245      3.4352    132.0307     27.0100
   573.9000      7.8621      2.5807      0.0413      4.2007    133.7329     26.1162
   574.0000      7.8322      2.5665      0.0577      5.0620    135.5481     25.3109
   574.1000      7.8322      2.5458      0.0154      6.3125    135.1523     25.0180
   574.2000      7.8322      2.5340     -0.0175      7.0314    132.7206     25.0575
   574.3000      7.8401      2.5470      0.0414      6.2403    131.6408     24.9225
   574.4000      7.8401      2.5745      0.0446      4.5781    133.2918     24.4330
   574.5000      7.9043      2.5907      0.0514      3.5915    132.0648     23.9615
   574.6000      7.9043      2.5810      0.0467      4.1847    126.0100     24.0199
   574.7000      7.9043      2.5536      0.0304      5.8427    121.8856     24.4962
   574.8000      7.9543      2.5280      0.0120      7.3957    122.2307     24.7985
   574.9000      7.9543      2.5148      0.0241      8.1959    123.8379     24.9161
   575.0000      7.9488      2.5128      0.0103      8.3151    125.0922     25.1206
   575.1000      7.9488      2.5200      0.0264      7.8815    126.1740     25.1686
   575.2000      7.9488      2.5323      0.0073      7.1305    125.7630     24.9810
   575.3000      7.9319      2.5396      0.0237      6.6886    123.1160     24.9290
   575.4000      7.9319      2.5345     -0.0098      6.9979    121.0828     25.0846
   575.5000      7.9278      2.5222     -0.0069      7.7474    121.4338     25.3111
   575.6000      7.9278      2.5172     -0.0302      8.0491    122.3072     25.4908
   575.7000      7.9278      2.5295      0.0052      7.3012    122.0488     25.3655
   575.8000      7.9194      2.5492      0.0580      6.1075    121.7182     24.9555
   575.9000      7.9194      2.5613      0.0575      5.3766    122.3164     24.7314
   576.0000      7.9111      2.5625      0.0397      5.3018    123.3430     24.8464
   576.1000      7.9111      2.5565      0.0653      5.6661    124.6395     24.9270
   576.2000      7.9111      2.5509      0.0767      6.0051    126.1844     24.8417
   576.3000      7.9100      2.5476      0.0842      6.2033    128.4609     24.7839
