~Version Information
VERS.                      2.0: CWLS Log ASCII Standard - VERSION 2.0
WRAP.                       NO: One line per depth step
~Well Information Block
STRT.FT               240.0000: 
STOP.FT              1043.5000: 
STEP.FT                 0.2500: 
NULL.                -999.2500: 
COMP.          Pioneer Natural Resources: COMPANY
WELL.          Stags Leap 13-30: WELL
FLD.           Purgatorie River: FIELD
LOC.           1813' FSL & 117' FWL: LOCATION
PROV.                 Colorado: PROVINCE
CNTY.               Las Animas: COUNTRY
SRVC.                Patterson: SERVICE COMPANY
DATE.          Thu Dec 08 19:20:57 2005: LOG DATE
UWI.                          : UNIQUE WELL ID
~Curve Information Block
DEPT.FT            0 000 00 00: Depth
DIR.Ohm-m                     : IEL Induction Resistivity
GR.GAPI                       : Gamma Ray
~Parameter Information Block
~A  Depth       DIR          GR     
# ...
   853.2500     35.4810     85.9368
   853.5000     35.2410     88.5148
   853.7500     35.1099     89.9938
   854.0000     35.0540     91.7350
   854.2500     35.0188     92.5744
   854.5000     34.9598     93.5288
   854.7500     34.8614     94.1750
   855.0000     34.7308     95.3879
   855.2500     34.5817     96.2228
   855.5000     34.4284     96.8818
   855.7500     34.2938     96.5418
   856.0000     34.2159     94.5859
   856.2500     34.2383     92.4996
   856.5000     34.3888     88.9951
   856.7500     34.6637     86.8999
   857.0000     35.0296     84.5270
   857.2500     35.4438     83.4315
   857.5000     35.8782     82.4351
   857.7500     36.3285     82.2646
   858.0000     36.8033     82.7079
   858.2500     37.3040     83.1397
   858.5000     37.8130     83.1832
   858.7500     38.2994     82.5689
   859.0000     38.7335     80.8462
   859.2500     39.1010     79.3630
   859.5000     39.4051     76.9225
   859.7500     39.6563     75.4090
   860.0000     39.8553     73.9555
   860.2500     39.9838     73.7749
   860.5000     40.0127     74.4692
   860.7500     39.9272     75.2012
   861.0000     39.7457     76.2690
   861.2500     39.5140     76.9961
   861.5000     39.2798     78.3047
   861.7500     39.0715     79.2149
   862.0000     38.8965     80.0914
   862.2500     38.7504     80.1477
   862.5000     38.6225     79.6313
   862.7500     38.4939     79.0848
   863.0000     38.3397     77.9183
   863.2500     38.1431     76.7467
   863.5000     37.9096     74.5130
   863.7500     37.6641     73.0949
   864.0000     37.4312     71.7432
   864.2500     37.2153     71.4469
   864.5000     36.9975     71.6143
   864.7500     36.7492     71.9761
   865.0000     36.4471     73.0010
   865.2500     36.0820     74.2028
   865.5000     35.6591     76.8487
   865.7500     35.2001     78.8824
   866.0000     34.7411     81.5494
   866.2500     34.3246     82.7589
   866.5000     33.9858     83.6694
   866.7500     33.7440     83.8136
   867.0000     33.6029     83.6308
   867.2500     33.5560     83.3985
   867.5000     33.5882     83.0612
   867.7500     33.6716     82.8861
   868.0000     33.7635     82.7743
   868.2500     33.8140     82.8570
   868.5000     33.7822     83.1232
   868.7500     33.6516     83.1576
   869.0000     33.4369     82.5390
   869.2500     33.1802     81.6024
   869.5000     32.9399     79.6134
   869.7500     32.7766     78.0517
   870.0000     32.7370     75.6146
   870.2500     32.8408     74.1736
   870.5000     33.0729     72.7589
   870.7500     33.3846     72.3761
   871.0000     33.7078     72.2843
   871.2500     33.9749     72.3253
   871.5000     34.1375     72.6086
   871.7500     34.1744     73.1885
   872.0000     34.0879     74.9268
   872.2500     33.8966     76.5746
   872.5000     33.6306     79.2984
   872.7500     33.3269     80.9748
   873.0000     33.0254     82.8613
   873.2500     32.7610     83.5262
   873.5000     32.5569     83.5008
   873.7500     32.4212     82.8432
   874.0000     32.3490     81.1159
   874.2500     32.3263     79.6539
   874.5000     32.3317     77.4372
   874.7500     32.3369     76.2951
   875.0000     32.3129     75.7142
   875.2500     32.2444     76.2662
   875.5000     32.1420     78.1114
   875.7500     32.0378     79.3858
   876.0000     31.9631     80.1469
   876.2500     31.9242     79.4966
   876.5000     31.8991     77.0506
   876.7500     31.8552     75.0518
   877.0000     31.7750     72.7191
   877.2500     31.6653     72.0516
   877.5000     31.5441     72.3862
   877.7500     31.4204     73.1181
   878.0000     31.2839     74.0193
   878.2500     31.1126     74.0653
   878.5000     30.8887     73.3698
   878.7500     30.6093     72.8762
   879.0000     30.2852     72.9467
   879.2500     29.9314     73.6525
   879.5000     29.5623     75.1210
   879.7500     29.1950     75.8521
   880.0000     28.8572     76.0892
   880.2500     28.5890     75.8546
   880.5000     28.4341     75.8344
   880.7500     28.4219     76.6126
   881.0000     28.5527     79.3952
   881.2500     28.7926     82.1015
   881.5000     29.0861     86.4578
   881.7500     29.3777     88.9872
   882.0000     29.6300     91.7553
   882.2500     29.8298     92.9303
   882.5000     29.9827     93.7534
   882.7500     30.1082     93.5557
   883.0000     30.2392     91.7851
   883.2500     30.4234     89.6038
   883.5000     30.7169     85.4795
   883.7500     31.1676     82.8028
   884.0000     31.7940     79.7478
   884.2500     32.5719     78.4341
   884.5000     33.4381     77.1288
   884.7500     34.3080     76.4465
   885.0000     35.0964     75.7164
   885.2500     35.7271     75.6552
   885.5000     36.1381     76.4343
   885.7500     36.2943     77.3240
   886.0000     36.2086     78.3820
   886.2500     35.9506     78.4593
   886.5000     35.6237     77.4058
   886.7500     35.3189     76.1517
   887.0000     35.0768     74.2448
   887.2500     34.8825     73.4530
   887.5000     34.6883     73.5199
   887.7500     34.4451     74.4586
   888.0000     34.1156     76.8774
   888.2500     33.6704     78.8034
   888.5000     33.0857     81.6800
   888.7500     32.3617     83.5570
   889.0000     31.5495     86.3756
   889.2500     30.7494     88.0819
   889.5000     30.0698     89.7513
   889.7500     29.5772     89.9634
   890.0000     29.2790     88.9168
   890.2500     29.1431     87.6766
   890.5000     29.1296     86.0476
   890.7500     29.2065     85.6085
   891.0000     29.3475     86.0012
   891.2500     29.5269     86.6009
   891.5000     29.7234     87.2803
   891.7500     29.9279     87.3953
   892.0000     30.1482     87.2445
   892.2500     30.4041     87.2046
   892.5000     30.7174     87.7583
   892.7500     31.1003     88.7780
   893.0000     31.5507     91.2357
   893.2500     32.0579     92.9823
   893.5000     32.6108     94.3223
   893.7500     33.1986     93.8009
   894.0000     33.8020     91.2810
   894.2500     34.3886     89.2135
   894.5000     34.9237     86.5957
   894.7500     35.3898     85.3537
   895.0000     35.7943     84.1888
   895.2500     36.1552     83.8591
   895.5000     36.4767     83.9289
   895.7500     36.7375     84.1342
   896.0000     36.8976     84.1322
   896.2500     36.9200     83.6961
   896.5000     36.7885     82.4451
   896.7500     36.5107     81.4604
   897.0000     36.1095     80.1438
   897.2500     35.6118     79.4185
   897.5000     35.0432     78.4604
   897.7500     34.4265     77.9178
   898.0000     33.7813     77.5123
   898.2500     33.1251     77.7102
   898.5000     32.4751     78.8368
   898.7500     31.8489     80.0823
   899.0000     31.2613     82.5986
   899.2500     30.7181     84.6636
   899.5000     30.2150     88.0101
   899.7500     29.7459     90.0617
   900.0000     29.3120     92.4332
   900.2500     28.9265     93.5281
   900.5000     28.6108     94.6022
   900.7500     28.3872     94.9846
   901.0000     28.2742     95.0667
   901.2500     28.2809     94.8287
   901.5000     28.4017     94.0881
   901.7500     28.6121     93.3392
   902.0000     28.8698     91.9607
   902.2500     29.1267     91.1117
   902.5000     29.3467     90.4250
   902.7500     29.5181     90.4448
   903.0000     29.6480     90.8545
   903.2500     29.7442     91.0991
   903.5000     29.8041     91.2763
   903.7500     29.8193     91.4026
   904.0000     29.7906     91.8472
   904.2500     29.7360     92.2815
   904.5000     29.6837     92.7667
   904.7500     29.6547     92.7150
   905.0000     29.6474     91.9503
   905.2500     29.6368     91.2565
   905.5000     29.5903     90.8079
   905.7500     29.4912     91.3008
   906.0000     29.3480     93.2340
   906.2500     29.1855     94.9562
   906.5000     29.0281     97.3673
   906.7500     28.8946     98.4735
   907.0000     28.8014     99.0075
   907.2500     28.7631     98.5331
   907.5000     28.7824     96.6790
   907.7500     28.8404     94.9466
   908.0000     28.8967     92.3631
   908.2500     28.9021     91.0526
   908.5000     28.8132     89.9005
   908.7500     28.6011     89.4948
