~Version Information
VERS.                      2.0: CWLS Log ASCII Standard - VERSION 2.0
WRAP.                       NO: One line per depth step
~Well Information Block
STRT.FT                -6.5000: 
STOP.FT              1758.0000: 
STEP.FT                 0.2500: 
NULL.                -999.2500: 
COMP.          Pioneer Natural Resources: COMPANY
WELL.           Rolls 14-14 Tr: WELL
FLD.           Purgatorie River: FIELD
LOC.           473' FSL & 817' FWL--: LOCATION
PROV.                       CO: PROVINCE
CNTY.               Las Animas: COUNTRY
SRVC.          Patterson Wireline: SERVICE COMPANY
DATE.          Mon Aug 08 11:51:25 2005: LOG DATE
UWI.           05 071 08454 00: UNIQUE WELL ID
~Curve Information Block
DEPT.FT            0 000 00 00: Depth
CCL.                          : Casing Collar Locator
TT3.usec                      : CBL 3' Travel Time
AMP3.mV                       : CBL 3' Amplitude
GR.GAPI                       : Gamma Ray
~Parameter Information Block
~A  Depth       CCL         TT3         AMP3         GR     
# ...
    94.0000      0.0000   1090.6388      6.2504     93.7973
    94.2500      0.0000   1042.5236      6.1849     94.1298
    94.5000      0.0000    982.7321      6.1379     93.2995
    94.7500      0.0000    926.0839      6.1104     91.7376
    95.0000      0.0000    883.6527      6.1011     90.1826
    95.2500      0.0000    859.5209      6.1040     88.8110
    95.5000      0.0000    854.7743      6.1093     87.1795
    95.7500      0.0000    871.7775      6.1008     85.0229
    96.0000      0.0000    912.6271      6.0522     82.6882
    96.2500      0.0000    973.2256      5.9396     80.6525
    96.5000      0.0000   1040.5778      5.7739     78.9672
    96.7500      0.0000   1098.5637      5.6084     77.3958
    97.0000      0.0000   1137.4484      5.5017     75.9885
    97.2500      2.0000   1157.3992      5.4764     75.4333
    97.5000      2.0000   1163.7087      5.5171     76.8185
    97.7500     -1.8610   1159.9709      5.5928     80.7614
    98.0000      0.0000   1145.1995      5.6814     86.4582
    98.2500      0.0000   1116.1997      5.7834     91.7432
    98.5000      0.0000   1073.1334      5.9175     94.4966
    98.7500      0.0000   1024.2446      6.0898     94.3128
    99.0000      0.0000    985.2397      6.2775     92.8400
    99.2500      0.0000    971.3325      6.4585     92.2369
    99.5000      0.0000    985.0499      6.6429     93.2685
    99.7500      0.0000   1009.6929      6.8502     95.0986
   100.0000      0.0000   1018.6344      7.0736     96.8081
   100.2500      0.0000    996.0040      7.2848     98.6150
   100.5000      0.0000    949.2170      7.4577    101.4010
   100.7500      0.0000    901.4453      7.5780    105.0618
   101.0000      0.0000    873.1644      7.6421    107.5225
   101.2500      0.0000    869.0762      7.6593    106.0410
   101.5000      0.0000    877.3912      7.6487     99.9544
   101.7500      0.0000    879.8641      7.6263     91.6980
   102.0000      0.0000    866.0728      7.5938     84.6848
   102.2500      0.0000    840.1710      7.5425     80.6345
   102.5000      0.0000    813.9622      7.4699     79.1568
   102.7500      0.0000    795.3265      7.3906     79.0196
   103.0000      0.0000    784.1490      7.3261     78.9885
   103.2500      0.0000    776.3125      7.2846     77.9104
   103.5000      0.0000    768.6490      7.2555     75.1405
   103.7500      0.0000    760.6927      7.2237     71.2320
   104.0000      0.0000    753.6486      7.1850     67.7284
   104.2500      0.0000    748.6353      7.1453     65.9355
   104.5000      0.0000    745.7736      7.1066     65.8566
   104.7500      0.0000    744.4643      7.0601     66.1537
   105.0000      0.0000    743.9966      6.9939     65.1602
   105.2500      0.0000    743.8719      6.9061     62.2760
   105.5000      0.0000    743.8087      6.8065     58.5323
   105.7500      0.0000    743.6681      6.7075     55.5743
   106.0000      0.0000    743.4321      6.6191     54.0438
   106.2500      0.0000    743.1935      6.5478     53.3266
   106.5000      0.0000    743.0894      6.4979     52.8964
   106.7500      0.0000    743.1918      6.4756     53.2556
   107.0000      0.0000    743.4616      6.4869     55.0394
   107.2500      0.0000    743.8120      6.5254     57.6112
   107.5000      0.0000    744.1857      6.5664     59.3556
   107.7500      0.0000    744.5494      6.5859     59.4674
   108.0000      0.0000    744.8166      6.5845     58.7683
   108.2500      0.0000    744.7948      6.5850     58.4163
   108.5000      0.0000    744.1879      6.6102     58.3502
   108.7500      0.0000    742.7225      6.6665     57.5133
   109.0000      0.0000    740.4850      6.7460     55.3220
   109.2500      0.0000    738.2357      6.8344     52.3334
   109.5000      0.0000    737.1129      6.9175     49.4729
   109.7500      0.0000    737.7052      6.9868     47.1498
   110.0000      0.0000    739.5025      7.0405     45.3675
   110.2500      0.0000    741.4400      7.0793     44.3019
   110.5000      0.0000    742.8131      7.1014     44.3398
   110.7500      0.0000    743.5480      7.1054     45.6722
   111.0000      0.0000    743.8751      7.0964     48.1411
   111.2500      0.0000    744.0143      7.0872     51.2790
   111.5000      0.0000    744.0929      7.0927     54.1601
   111.7500      0.0000    744.1677      7.1217     55.5353
   112.0000      0.0000    744.2551      7.1707     54.8057
   112.2500      0.0000    744.3641      7.2266     52.9783
   112.5000      0.0000    744.5185      7.2718     52.0850
   112.7500      0.0000    744.7888      7.2896     53.2072
   113.0000      0.0000    745.3157      7.2750     55.2682
   113.2500      0.0000    746.3115      7.2416     56.1469
   113.5000      0.0000    747.9576      7.2148     54.8846
   113.7500      0.0000    750.1064      7.2138     52.5131
   114.0000      0.0000    752.0007      7.2425     50.8101
   114.2500      0.0000    752.5871      7.2916     50.6001
   114.5000      0.0000    751.4429      7.3450     51.3347
   114.7500      0.0000    749.2726      7.3841     51.9278
   115.0000      0.0000    747.2600      7.3939     51.6321
   115.2500      0.0000    746.0766      7.3689     50.2824
   115.5000      0.0000    745.6378      7.3136     48.0947
   115.7500      0.0000    745.5081      7.2390     45.4432
   116.0000      0.0000    745.2529      7.1622     42.8372
   116.2500      0.0000    744.4871      7.1026     40.8795
   116.5000      0.0000    742.9178      7.0718     39.9578
   116.7500      0.0000    740.6527      7.0673     39.9551
   117.0000      0.0000    738.5024      7.0788     40.4281
   117.2500      0.0000    737.6394      7.0998     41.1099
   117.5000      0.0000    738.6201      7.1271     42.1511
   117.7500      0.0000    740.8553      7.1509     43.7981
   118.0000      0.0000    743.2209      7.1539     45.8182
   118.2500      0.0000    744.9988      7.1256     47.4112
   118.5000      0.0000    746.1097      7.0713     48.0170
   118.7500      0.0000    746.7365      7.0060     48.2099
   119.0000      0.0000    746.9886      6.9424     49.2922
   119.2500      0.0000    746.7998      6.8849     51.7830
   119.5000      0.0000    745.8419      6.8310     54.7022
   119.7500      0.0000    743.4634      6.7790     56.5705
   120.0000      0.0000    738.9915      6.7333     56.8939
   120.2500      0.0000    732.4611      6.6986     56.5477
   120.5000      0.0000    725.1135      6.6723     56.8303
   120.7500      0.0000    718.9349      6.6483     58.2013
   121.0000      0.0000    715.4944      6.6287     59.9553
   121.2500      0.0000    715.0882      6.6252     61.0120
   121.5000      0.0000    716.8381      6.6451     60.8155
   121.7500      0.0000    719.6313      6.6822     59.5409
   122.0000      0.0000    723.0625      6.7199     57.8520
   122.2500      0.0000    727.2623      6.7416     56.6327
   122.5000      0.0000    731.7186      6.7392     56.5864
   122.7500      0.0000    734.7848      6.7166     57.7184
   123.0000      0.0000    734.8535      6.6862     59.2394
   123.2500      0.0000    731.8834      6.6599     60.1383
   123.5000      0.0000    727.4097      6.6437     59.7778
   123.7500      0.0000    723.0182      6.6385     58.0139
   124.0000      0.0000    719.1341      6.6413     55.2024
   124.2500      0.0000    715.4524      6.6451     52.2437
   124.5000      0.0000    712.0155      6.6449     50.2396
   124.7500      0.0000    709.3385      6.6435     49.7267
   125.0000      0.0000    707.7441      6.6463     50.2163
   125.2500      0.0000    707.0582      6.6510     50.7195
   125.5000      0.0000    706.8829      6.6497     50.9298
   125.7500      0.0000    706.9027      6.6396     51.7412
   126.0000      0.0000    706.9629      6.6266     54.2420
   126.2500      0.0000    707.0758      6.6154     58.1534
   126.5000      0.0000    707.4734      6.6002     61.6080
   126.7500      0.0000    708.7142      6.5688     62.6312
   127.0000      0.0000    711.7456      6.5174     60.6723
   127.2500      0.0000    717.6870      6.4589     56.7619
