~Version Information
VERS.                      2.0: CWLS Log ASCII Standard - VERSION 2.0
WRAP.                       NO: One line per depth step
~Well Information Block
STRT.FT               260.0000: 
STOP.FT              1229.5000: 
STEP.FT                 0.1000: 
NULL.                -999.2500: 
COMP.          Pioneer Natural Resources: COMPANY
WELL.             Mahalo 12-20: WELL
FLD.           Purgatoire River: FIELD
LOC.           1689' FNL & 479' FWL: LOCATION
CNTY.               Las Animas: COUNTY
SRVC.                Patterson: SERVICE COMPANY
DATE.          Mon Feb 27 07:00:19 2006: LOG DATE
UWI.           05 071 08700 00: UNIQUE WELL ID
STAT.                 Colorado: STATE
~Curve Information Block
DEPT.FT            0 000 00 00: Depth
DCAL.in                       : CDL Caliper
RHOB.g/cc                     : CDL Bulk Density
RHOC.g/cc                     : CDL Density Correction
DPOR.pu                       : CDL Density Porosity
GR.GAPI                       : Gamma Ray
NPOR.pu                       : Neutron Porosity
~Parameter Information Block
~A  Depth       DCAL        RHOB        RHOC        DPOR         GR         NPOR    
# ...
   384.8000      7.7514      2.4856      0.0123      9.9664    146.9785     24.3076
   384.9000      7.7514      2.4332      0.0087     13.1376    142.1890     24.3011
   385.0000      7.7489      2.4010     -0.0469     15.0936    139.8733     24.2865
   385.1000      7.7489      2.4089     -0.0300     14.6096    139.0735     24.6656
   385.2000      7.7489      2.4469      0.0313     12.3094    138.1128     25.5022
   385.3000      7.7399      2.4934      0.0494      9.4929    134.7245     26.1060
   385.4000      7.7399      2.5488      0.0865      6.1354    128.0573     25.9478
   385.5000      7.7412      2.6113      0.1661      2.3447    118.4854     25.2985
   385.6000      7.7412      2.6591      0.2437     -0.5537    108.8872     24.6008
   385.7000      7.7412      2.6782      0.2065     -1.7065    103.9919     23.8317
   385.8000      7.7428      2.6736      0.1934     -1.4310    104.7718     23.3083
   385.9000      7.7428      2.6572      0.1455     -0.4335    107.9611     23.6313
   386.0000      7.7385      2.6398      0.1239      0.6164    107.6639     24.3512
   386.1000      7.7385      2.6281      0.0712      1.3263    103.1205     24.6976
   386.2000      7.7385      2.6209      0.0424      1.7646    102.4226     24.2347
   386.3000      7.7236      2.6090      0.0798      2.4875    106.7400     22.8050
   386.4000      7.7236      2.5905      0.0491      3.6054    105.8840     21.3869
   386.5000      7.7187      2.5814      0.0485      4.1560     98.6452     21.0933
   386.6000      7.7187      2.5880      0.0475      3.7551     96.9648     21.3667
   386.7000      7.7187      2.5911      0.1008      3.5722    105.4040     21.0334
   386.8000      7.7231      2.5761      0.0471      4.4818    112.6564     20.5902
   386.9000      7.7231      2.5530      0.0270      5.8811    110.6906     21.3209
   387.0000      7.7412      2.5356     -0.0240      6.9338    103.8477     22.6963
   387.1000      7.7412      2.5311     -0.0344      7.2035     96.0553     23.3172
   387.2000      7.7412      2.5390     -0.0194      6.7294     92.1885     23.0916
   387.3000      7.7729      2.5512      0.0140      5.9896     96.8013     22.6103
   387.4000      7.7729      2.5597     -0.0142      5.4727    102.3080     22.1582
   387.5000      7.7865      2.5597      0.0092      5.4721    101.8829     21.7905
   387.6000      7.7865      2.5529     -0.0032      5.8863    101.2917     21.6832
   387.7000      7.7865      2.5536     -0.0356      5.8395    105.6740     21.8330
   387.8000      7.7879      2.5717      0.0201      4.7441    108.6084     21.9938
   387.9000      7.7879      2.5949      0.0157      3.3396    105.9980     21.5750
   388.0000      7.7878      2.6025      0.0370      2.8796    103.1745     20.6248
   388.1000      7.7878      2.5834      0.0134      4.0355    104.1405     20.2715
   388.2000      7.7878      2.5519     -0.0173      5.9436    108.6793     20.8001
   388.3000      7.7845      2.5290      0.0091      7.3329    114.5738     21.3718
   388.4000      7.7845      2.5142     -0.0328      8.2293    118.7697     21.5117
   388.5000      7.7814      2.4966      0.0005      9.2955    120.2629     21.2513
   388.6000      7.7814      2.4745     -0.0570     10.6388    117.3224     20.9595
   388.7000      7.7814      2.4633     -0.0819     11.3180    109.9315     21.1513
   388.8000      7.7800      2.4764     -0.0625     10.5220    101.1733     21.5857
   388.9000      7.7800      2.4962      0.0088      9.3187     95.8730     21.4970
   389.0000      7.7686      2.4928      0.0286      9.5281     96.8598     20.9374
   389.1000      7.7686      2.4754     -0.0388     10.5821    101.6764     20.6140
   389.2000      7.7686      2.4774     -0.0171     10.4615    102.5786     20.3678
   389.3000      7.7560      2.5002     -0.0042      9.0764     94.2446     19.7797
   389.4000      7.7560      2.5232      0.0003      7.6836     84.0747     19.2972
   389.5000      7.7467      2.5330      0.0275      7.0939     81.7608     19.2742
   389.6000      7.7467      2.5270      0.0120      7.4559     84.8829     19.4482
   389.7000      7.7467      2.5124      0.0023      8.3374     85.6206     19.7139
   389.8000      7.7508      2.5010     -0.0050      9.0284     84.2824     20.2570
   389.9000      7.7508      2.4960      0.0348      9.3354     85.7489     20.7648
   390.0000      7.7459      2.4922      0.0132      9.5624     90.1544     21.0413
   390.1000      7.7459      2.4887      0.0298      9.7729     97.1582     21.4633
   390.2000      7.7459      2.4923     -0.0173      9.5569    107.1866     22.0036
   390.3000      7.7487      2.5067      0.0444      8.6863    114.5033     22.0656
   390.4000      7.7487      2.5212      0.0174      7.8042    114.0073     21.8581
   390.5000      7.7565      2.5281      0.0151      7.3899    110.0278     22.1168
   390.6000      7.7565      2.5216      0.0393      7.7793    108.0875     22.4499
   390.7000      7.7565      2.4994      0.0100      9.1269    109.0708     22.1039
   390.8000      7.7610      2.4826     -0.0219     10.1475    111.7059     21.1482
   390.9000      7.7610      2.4876      0.0281      9.8442    114.1916     20.2118
   391.0000      7.7650      2.4999      0.0337      9.0990    115.4957     19.3507
   391.1000      7.7650      2.5019      0.0578      8.9749    116.1799     18.4629
   391.2000      7.7650      2.4888      0.0432      9.7675    118.7472     18.1325
   391.3000      7.7634      2.4637      0.0440     11.2892    123.3707     18.3357
   391.4000      7.7634      2.4338      0.0090     13.1020    124.7965     18.2873
   391.5000      7.7554      2.4105      0.0557     14.5135    120.3621     18.0872
   391.6000      7.7554      2.4098     -0.0272     14.5593    113.6524     17.9198
   391.7000      7.7554      2.4437      0.0473     12.5020    107.8201     17.4231
   391.8000      7.7545      2.4970      0.1083      9.2740    104.7886     16.9445
   391.9000      7.7545      2.5361      0.1559      6.9023    103.0422     17.2053
   392.0000      7.7620      2.5471      0.1370      6.2393     99.7725     18.3320
   392.1000      7.7620      2.5365      0.1565      6.8782     96.8244     19.4057
   392.2000      7.7620      2.5113      0.0988      8.4053     93.3025     19.3001
   392.3000      7.7576      2.4830      0.0722     10.1228     88.1613     18.5538
   392.4000      7.7576      2.4663      0.0580     11.1316     88.4666     18.4240
   392.5000      7.7625      2.4551      0.0838     11.8091     93.3792     18.5741
   392.6000      7.7625      2.4375      0.0251     12.8804     92.2896     17.9443
   392.7000      7.7625      2.4239      0.0075     13.7007     85.7192     16.9229
   392.8000      7.7952      2.4251     -0.0084     13.6284     82.9676     16.5774
   392.9000      7.7952      2.4322     -0.0023     13.2026     87.6361     17.0466
   393.0000      7.8052      2.4363     -0.0175     12.9541     96.7795     17.6944
   393.1000      7.8052      2.4402      0.0189     12.7128    102.5518     17.7757
   393.2000      7.8052      2.4430      0.0022     12.5453     99.5344     17.2587
   393.3000      7.8154      2.4360      0.0177     12.9714     96.5835     16.9194
   393.4000      7.8154      2.4223     -0.0189     13.7982    102.2892     17.4500
   393.5000      7.8153      2.4221     -0.0499     13.8104    108.4177     18.1784
   393.6000      7.8153      2.4420     -0.0125     12.6086    105.0612     18.0279
   393.7000      7.8153      2.4612     -0.0170     11.4431     96.1639     17.3120
   393.8000      7.8129      2.4647      0.0072     11.2305     87.5526     16.6073
   393.9000      7.8129      2.4604     -0.0192     11.4928     82.8634     16.0396
   394.0000      7.8155      2.4539      0.0302     11.8849     84.9493     16.0021
   394.1000      7.8155      2.4466     -0.0223     12.3269     88.5763     16.6267
   394.2000      7.8155      2.4466     -0.0094     12.3301     88.0984     17.0948
   394.3000      7.8155      2.4512     -0.0065     12.0459     86.9281     16.8445
