~Version Information
 VERS.                                  2.0 : CWLS LAS VERSION
 WRAP.                                   NO : WRAPING MODE
 SWARE .                 MController 2.5.0N : SOFTWARE VERSION
~Well Information
 WELL.                LORENCITO 10-36-33-67 : WELL
 COMP.    PIONEER NATURAL RESOURCES USA INC : COMPANY
 FLD.                      PURGATIORE RIVER : FIELD
 LOC.                NW/SE SEC 36 T33S R67W : LOCATION
 DATE.                             08/27/05 : DATE(S) LOGGED
 SRVC.       BLANCO GEOLOGICAL SERVICES LLC : SERVICE COMPANY
 STAT.                             COLORADO : STATE
 CNTY.                           LAS ANIMAS : COUNTY
 CTRY.                                  USA : COUNTRY
 API.                       05-071-08501-00 : API NUMBER
 STRT.FT                             321.00 : START DEPTH
 STOP.FT                            1570.00 : STOP DEPTH
 STEP.FT                               1.00 : DEPTH INCREMENT
 NULL.                                -9999 : NULL VALUE
~Curve information
 DEPTH.FT                                   :
 ROP.MIN/FT                                 :
 GAS.UNITS                                  :
~ASCII Log data
# ...
       721.0         0.17         87.7 
       722.0         0.13         84.8 
       723.0         0.27         80.4 
       724.0         0.30         74.4 
       725.0         0.65         70.7 
       726.0         0.23         68.5 
       727.0         0.17         68.4 
       728.0         0.43         68.5 
       729.0         0.33         65.1 
       730.0         0.30         72.6 
       731.0         0.20         76.9 
       732.0         0.23         78.2 
       733.0         0.27         77.3 
       734.0         0.20         75.5 
       735.0         0.17         74.8 
       736.0         0.23         74.0 
       737.0         0.22         73.4 
       738.0         0.37         73.5 
       739.0         0.27         73.7 
       740.0         0.30         73.1 
       741.0         0.27         70.8 
       742.0        10.32        326.7 
       743.0         0.33         65.8 
       744.0         0.30         65.1 
       745.0         0.33         66.2 
       746.0         0.33         77.2 
       747.0         0.27         86.5 
       748.0         0.25         88.6 
       749.0         0.23         88.0 
       750.0         0.20         84.6 
       751.0         0.40         81.1 
       752.0         0.20         75.2 
       753.0         0.27         71.5 
       754.0         0.30         69.3 
       755.0         0.37         68.7 
       756.0         0.20         69.1 
       757.0         0.30         69.2 
       758.0         0.47         69.4 
       759.0         0.28         68.7 
       760.0         0.23         67.8 
       761.0         0.23         66.6 
       762.0         0.30         65.0 
       763.0         0.30         63.2 
       764.0         0.20         63.0 
       765.0         0.13         63.6 
       766.0         0.20         64.9 
       767.0         0.27         67.0 
       768.0         0.20         68.0 
       769.0         0.17         68.3 
       770.0         0.33         68.2 
       771.0         0.23         68.8 
       772.0         4.97        160.0 
       773.0         0.30         79.3 
       774.0         0.27         75.3 
       775.0         0.27         70.4 
       776.0         0.27         68.5 
       777.0         0.23         73.5 
       778.0         0.20         81.6 
       779.0         0.27         88.0 
       780.0         0.20         88.3 
       781.0         0.35         86.9 
       782.0         0.30         81.4 
       783.0         0.20         77.0 
       784.0         0.33         75.2 
       785.0         0.27         72.4 
       786.0         0.27         69.7 
       787.0         0.27         67.2 
       788.0         0.27         65.6 
       789.0         0.40         65.8 
       790.0         0.30         65.5 
       791.0         0.23         66.0 
       792.0         0.30         65.8 
       793.0         0.28         65.8 
       794.0         0.27         64.6 
       795.0         0.27         66.1 
       796.0         0.30         67.3 
       797.0         0.30         67.2 
       798.0         0.27         66.5 
       799.0         0.27         66.6 
       800.0         0.27         67.0 
       801.0         0.27         66.9 
       802.0         2.88         70.6 
       803.0         0.43         52.4 
       804.0         0.33        138.5 
       805.0         0.27        170.9 
       806.0         0.30        170.4 
       807.0         0.32        149.6 
       808.0         0.27        126.8 
       809.0         0.27        117.7 
       810.0         0.20        107.9 
       811.0         0.20        100.7 
       812.0         0.20         94.4 
       813.0         0.20         88.9 
       814.0         0.20         84.9 
       815.0         0.20         81.8 
       816.0         0.23         79.4 
       817.0         0.23         77.1 
       818.0         0.27         75.1 
       819.0         0.20         72.7 
       820.0         0.23         71.5 
       821.0         0.28         70.4 
       822.0         0.23         69.5 
       823.0         0.23         68.4 
       824.0         0.23         67.8 
       825.0         0.23         67.5 
       826.0         0.23         67.1 
       827.0         0.23         67.2 
       828.0         0.23         67.3 
       829.0         0.23         67.6 
       830.0         0.23         67.7 
       831.0         0.23         67.8 
       832.0         4.08        111.9 
       833.0         0.45        259.0 
       834.0         0.30        257.8 
       835.0         0.30        190.2 
       836.0         0.27        146.6 
       837.0         0.30        126.5 
       838.0         0.30        113.2 
       839.0         0.33        101.3 
       840.0         0.30         93.3 
       841.0         0.27         88.5 
       842.0         0.23         81.3 
       843.0         0.30         76.4 
       844.0         0.22         73.3 
       845.0         0.20         71.4 
       846.0         0.23         69.4 
       847.0         0.20         68.9 
       848.0         0.30         69.3 
       849.0         0.33         69.7 
       850.0         0.17         69.5 
       851.0         0.17         69.1 
       852.0         0.20         68.9 
       853.0         0.27         69.0 
       854.0         0.40         68.7 
       855.0         0.33         68.7 
       856.0         0.27         68.5 
       857.0         0.25         67.9 
       858.0         0.27         66.4 
       859.0         0.23         64.0 
       860.0         0.23         63.4 
       861.0         0.23         64.5 
       862.0         4.58        293.3 
       863.0         0.37        231.0 
       864.0         0.37        151.0 
       865.0         0.28        119.8 
       866.0         0.17        111.1 
       867.0         0.17        106.0 
       868.0         0.17        100.2 
       869.0         0.20         93.3 
       870.0         0.23         84.5 
       871.0         0.23         77.7 
       872.0         0.27         73.3 
       873.0         0.23         73.1 
       874.0         0.23         74.3 
       875.0         0.23         77.5 
       876.0         0.23         89.5 
       877.0         0.30        110.9 
       878.0         0.23        121.9 
       879.0         0.27        125.7 
       880.0         0.28        125.7 
       881.0         0.23        122.2 
       882.0         0.23        116.6 
       883.0         0.23        110.9 
       884.0         0.23        106.2 
       885.0         0.27        101.7 
       886.0         0.23         98.0 
       887.0         0.23         95.5 
       888.0         0.27         92.5 
       889.0         0.23         90.1 
       890.0         0.33         88.4 
       891.0         0.40         88.6 
       892.0         2.28         93.3 
       893.0         0.47        150.2 
       894.0         0.47        196.5 
       895.0         0.35        181.2 
       896.0         0.30        148.1 
       897.0         0.27        132.8 
       898.0         0.13        125.3 
       899.0         0.13        119.6 
       900.0         0.10        110.9 
       901.0         0.13        109.6 
       902.0         0.20        103.4 
       903.0         0.20        101.1 
       904.0         0.27         97.9 
       905.0         0.27         93.3 
       906.0         0.17        100.0 
       907.0         0.17        116.8 
       908.0         0.20        147.9 
       909.0         0.17        158.3 
       910.0         0.20        174.2 
       911.0         0.17        181.0 
       912.0         0.22        184.1 
       913.0         0.20        184.2 
       914.0         0.23        182.3 
       915.0         0.27        178.9 
       916.0         0.23        174.4 
       917.0         0.27        171.4 
       918.0         0.27        168.7 
       919.0         0.20        166.8 
       920.0         0.23        165.3 
