~Version Information
VERS.                      2.0: CWLS Log ASCII Standard - VERSION 2.0
WRAP.                       NO: One line per depth step
~Well Information Block
STRT.FT               875.0000: 
STOP.FT              2054.5000: 
STEP.FT                 0.2500: 
NULL.                -999.2500: 
COMP.          Pioneer Natural Resources: COMPANY
WELL.          Woodstock 43-19: WELL
FLD.           Purgatoire River: FIELD
LOC.           2195' FSL & 250' FEL: LOCATION
CNTY.               Las Animas: COUNTY
SRVC.                Patterson: SERVICE COMPANY
DATE.          Thu Feb 02 03:08:19 2006: LOG DATE
UWI.           05 071 08677 00: UNIQUE WELL ID
STAT.                 Colorado: STATE
~Curve Information Block
DEPT.FT            0 000 00 00: Depth
SN.Ohm-m                      : IEL Short Normal
SP.mV                         : IEL Spontaneous Potential
DIR.Ohm-m                     : IEL Induction Resistivity
GR.GAPI                       : Gamma Ray
~Parameter Information Block
~A  Depth        SN          SP         DIR          GR     
# ...
   942.0000   2000.0000   2000.0000      8.2228    162.4655
   942.2500   2000.0000   2000.0000      8.4152    157.5305
   942.5000   2000.0000   2000.0000      8.6430    150.1455
   942.7500   2000.0000   2000.0000      8.9109    145.6727
   943.0000   2000.0000   2000.0000      9.2196    139.6521
   943.2500   2000.0000   2000.0000      9.5662    136.0048
   943.5000   2000.0000   2000.0000      9.9462    131.2874
   943.7500   2000.0000   2000.0000     10.3554    128.9973
   944.0000   2000.0000   2000.0000     10.7899    127.5035
   944.2500   2000.0000   2000.0000     11.2432    127.9658
   944.5000   2000.0000   2000.0000     11.7044    130.4211
   944.7500   2000.0000   2000.0000     12.1593    132.6232
   945.0000   2000.0000   2000.0000     12.5963    135.5169
   945.2500   2000.0000   2000.0000     13.0121    136.5020
   945.5000   2000.0000   2000.0000     13.4125    135.7789
   945.7500   2000.0000   2000.0000     13.8080    133.7639
   946.0000   2000.0000   2000.0000     14.2079    129.2945
   946.2500   2000.0000   2000.0000     14.6159    126.3360
   946.5000   2000.0000   2000.0000     15.0289    123.6185
   946.7500   2000.0000   2000.0000     15.4370    123.2750
   947.0000   2000.0000   2000.0000     15.8287    123.9146
   947.2500   2000.0000   2000.0000     16.1976    124.0728
   947.5000   2000.0000   2000.0000     16.5412    122.6693
   947.7500   2000.0000   2000.0000     16.8499    120.3332
   948.0000   2000.0000   2000.0000     17.0953    114.4980
   948.2500   2000.0000   2000.0000     17.2317    109.3185
   948.5000   2000.0000   2000.0000     17.2182    101.4998
   948.7500   2000.0000   2000.0000     17.0471     97.7906
   949.0000   2000.0000   2000.0000     16.7582     95.8833
   949.2500   2000.0000   2000.0000     16.4225     96.7243
   949.5000   2000.0000   2000.0000     16.1094    100.0730
   949.7500   2000.0000   2000.0000     15.8571    103.7066
   950.0000   2000.0000   2000.0000     15.6643    112.0794
   950.2500   2000.0000   2000.0000     15.5024    119.5709
   950.5000   2000.0000   2000.0000     15.3393    131.9001
   950.7500   2000.0000   2000.0000     15.1588    139.4328
   951.0000   2000.0000   2000.0000     14.9647    147.9563
   951.2500   2000.0000   2000.0000     14.7723    151.2390
   951.5000   2000.0000   2000.0000     14.5983    152.2515
   951.7500   2000.0000   2000.0000     14.4566    150.8025
   952.0000   2000.0000   2000.0000     14.3569    147.5171
   952.2500   2000.0000   2000.0000     14.3028    145.6891
   952.5000   2000.0000   2000.0000     14.2917    143.4000
   952.7500   2000.0000   2000.0000     14.3198    141.1385
   953.0000   2000.0000   2000.0000     14.3884    135.4038
   953.2500   2000.0000   2000.0000     14.5065    130.4101
   953.5000   2000.0000   2000.0000     14.6886    122.9128
   953.7500   2000.0000   2000.0000     14.9499    118.6221
   954.0000   2000.0000   2000.0000     15.3061    113.4090
   954.2500   2000.0000   2000.0000     15.7716    110.6170
   954.5000   2000.0000   2000.0000     16.3559    107.4658
   954.7500   2000.0000   2000.0000     17.0549    106.1316
   955.0000   2000.0000   2000.0000     17.8418    105.1188
   955.2500   2000.0000   2000.0000     18.6643    104.7973
   955.5000   2000.0000   2000.0000     19.4553    104.1640
   955.7500   2000.0000   2000.0000     20.1600    103.1875
   956.0000   2000.0000   2000.0000     20.7630    100.1170
   956.2500   2000.0000   2000.0000     21.2940     96.8292
   956.5000   2000.0000   2000.0000     21.8070     90.7956
   956.7500   2000.0000   2000.0000     22.3490     86.9674
   957.0000   2000.0000   2000.0000     22.9389     82.9995
   957.2500   2000.0000   2000.0000     23.5615     81.9156
   957.5000   2000.0000   2000.0000     24.1763     82.2715
   957.7500   2000.0000   2000.0000     24.7340     83.1832
   958.0000   2000.0000   2000.0000     25.1949     84.3951
   958.2500   2000.0000   2000.0000     25.5363     84.8634
   958.5000   2000.0000   2000.0000     25.7488     85.5988
   958.7500   2000.0000   2000.0000     25.8320     86.4788
   959.0000   2000.0000   2000.0000     25.8082     88.1285
   959.2500   2000.0000   2000.0000     25.7441     88.9310
   959.5000   2000.0000   2000.0000     25.7452     89.3128
   959.7500   2000.0000   2000.0000     25.9100     89.3239
   960.0000   2000.0000   2000.0000     26.2728     89.5841
   960.2500   2000.0000   2000.0000     26.7817     89.8256
   960.5000   2000.0000   2000.0000     27.3322     89.4730
   960.7500   2000.0000   2000.0000     27.8316     88.3791
   961.0000   2000.0000   2000.0000     28.2406     85.5200
   961.2500   2000.0000   2000.0000     28.5582     83.1701
   961.5000   2000.0000   2000.0000     28.7795     79.6797
   961.7500   2000.0000   2000.0000     28.8794     77.7122
   962.0000   2000.0000   2000.0000     28.8400     75.7864
   962.2500   2000.0000   2000.0000     28.6868     75.3782
   962.5000   2000.0000   2000.0000     28.4902     76.0759
   962.7500   2000.0000   2000.0000     28.3227     77.2016
   963.0000   2000.0000   2000.0000     28.2128     79.2475
   963.2500   2000.0000   2000.0000     28.1314     80.3813
   963.5000   2000.0000   2000.0000     28.0203     81.0856
   963.7500   2000.0000   2000.0000     27.8404     80.8328
   964.0000   2000.0000   2000.0000     27.6016     79.8657
   964.2500   2000.0000   2000.0000     27.3475     79.2552
   964.5000   2000.0000   2000.0000     27.1114     79.1368
   964.7500   2000.0000   2000.0000     26.8842     80.0187
   965.0000   2000.0000   2000.0000     26.6229     83.1135
   965.2500   2000.0000   2000.0000     26.2862     85.9771
   965.5000   2000.0000   2000.0000     25.8654     89.9973
   965.7500   2000.0000   2000.0000     25.3831     91.7842
   966.0000   2000.0000   2000.0000     24.8746     93.1231
   966.2500   2000.0000   2000.0000     24.3762     93.6777
   966.5000   2000.0000   2000.0000     23.9269     94.8093
   966.7500   2000.0000   2000.0000     23.5700     95.6862
   967.0000   2000.0000   2000.0000     23.3399     96.1753
   967.2500   2000.0000   2000.0000     23.2402     95.3494
   967.5000   2000.0000   2000.0000     23.2319     92.3032
   967.7500   2000.0000   2000.0000     23.2471     89.5692
   968.0000   2000.0000   2000.0000     23.2294     85.3413
   968.2500   2000.0000   2000.0000     23.1710     82.7653
   968.5000   2000.0000   2000.0000     23.1135     79.8460
   968.7500   2000.0000   2000.0000     23.1073     79.0280
   969.0000   2000.0000   2000.0000     23.1649     79.9034
   969.2500   2000.0000   2000.0000     23.2458     81.3192
   969.5000   2000.0000   2000.0000     23.2723     82.5111
   969.7500   2000.0000   2000.0000     23.1637     81.5268
   970.0000   2000.0000   2000.0000     22.8629     76.8229
   970.2500   2000.0000   2000.0000     22.3473     71.9029
   970.5000   2000.0000   2000.0000     21.6308     62.6359
   970.7500   2000.0000   2000.0000     20.7676     55.5633
   971.0000   2000.0000   2000.0000     19.8544     44.5368
   971.2500   2000.0000   2000.0000     19.0074     37.7894
   971.5000   2000.0000   2000.0000     18.3100     30.1923
   971.7500   2000.0000   2000.0000     17.7628     27.4083
   972.0000   2000.0000   2000.0000     17.2752     26.7932
   972.2500   2000.0000   2000.0000     16.7187     28.4702
   972.5000   2000.0000   2000.0000     16.0162     33.3822
   972.7500   2000.0000   2000.0000     15.1889     37.7633
   973.0000   2000.0000   2000.0000     14.3060     44.9283
   973.2500   2000.0000   2000.0000     13.3851     49.3995
   973.5000   2000.0000   2000.0000     12.3484     54.9449
   973.7500   2000.0000   2000.0000     11.0941     58.1242
   974.0000   2000.0000   2000.0000      9.6411     63.5055
   974.2500   2000.0000   2000.0000      8.1695     68.2281
   974.5000   2000.0000   2000.0000      6.8868     77.0225
   974.7500   2000.0000   2000.0000      5.8968     83.3320
   975.0000   2000.0000   2000.0000      5.1962     92.2539
   975.2500   2000.0000   2000.0000      4.7327     97.6844
