~Version Information
VERS.                      2.0: CWLS Log ASCII Standard - VERSION 2.0
WRAP.                       NO: One line per depth step
~Well Information Block
STRT.FT               525.0000: 
STOP.FT              2377.2000: 
STEP.FT                 0.1000: 
NULL.                -999.2500: 
COMP.          Pioneer Natural Resources: COMPANY
WELL.          Sparrowhawk 22-12: WELL
FLD.           Purgatoire River: FIELD
LOC.           2049' FNL & 2060' FWL--: LOCATION
CNTY.               Las Animas: COUNTY
SRVC.                Patterson: SERVICE COMPANY
DATE.          Thu Mar 23 13:24:48 2006: LOG DATE
UWI.           05 071 08484 00: UNIQUE WELL ID
STAT.                 Colorado: STATE
~Curve Information Block
DEPT.FT            0 000 00 00: Depth
DCAL.in                       : CDL Caliper
RHOB.g/cc                     : CDL Bulk Density
RHOC.g/cc                     : CDL Density Correction
DPOR.pu                       : CDL Density Porosity
NPOR.pu                       : Neutron Porosity
GR.GAPI                       : Gamma Ray
~Parameter Information Block
~A  Depth       DCAL        RHOB        RHOC        DPOR        NPOR         GR     
# ...
  1619.4000      8.0257      2.6142      0.0512      2.1717     21.4299     85.3217
  1619.5000      8.0241      2.5949      0.0616      3.3387     20.7252     81.6611
  1619.6000      8.0241      2.5899      0.0432      3.6430     19.9443     83.2257
  1619.7000      8.0241      2.5997      0.0813      3.0492     19.5557     87.9854
  1619.8000      8.0202      2.6142      0.0939      2.1695     19.7166     93.1823
  1619.9000      8.0202      2.6202      0.0939      1.8081     20.0755     94.2604
  1620.0000      8.0173      2.6181      0.0764      1.9360     19.9480     92.1474
  1620.1000      8.0173      2.6139      0.0765      2.1871     19.0934     90.2668
  1620.2000      8.0173      2.6053      0.0360      2.7074     18.1081     85.8397
  1620.3000      8.0177      2.5953      0.0666      3.3149     17.5532     77.7130
  1620.4000      8.0177      2.5955      0.0238      3.3004     17.3843     71.3263
  1620.5000      8.0198      2.6038      0.0877      2.7984     17.4180     68.5461
  1620.6000      8.0198      2.6039      0.0467      2.7919     17.6367     68.3914
  1620.7000      8.0198      2.5976      0.0380      3.1776     17.9690     70.3505
  1620.8000      8.0188      2.5944      0.0208      3.3669     18.2058     70.8828
  1620.9000      8.0188      2.5902      0.0515      3.6234     18.3484     68.3966
  1621.0000      8.0105      2.5810      0.0440      4.1819     18.5177     65.9376
  1621.1000      8.0105      2.5753      0.0184      4.5264     18.6501     67.7927
  1621.2000      8.0105      2.5765      0.0734      4.4567     18.6234     75.8727
  1621.3000      8.0002      2.5746      0.0579      4.5688     18.6123     85.1559
  1621.4000      8.0002      2.5639      0.0561      5.2158     19.0494     89.3218
  1621.5000      7.9967      2.5494      0.0264      6.0985     20.0602     90.0484
  1621.6000      7.9967      2.5406      0.0223      6.6284     21.1731     92.6390
  1621.7000      7.9967      2.5442      0.0160      6.4129     21.6836     98.6791
  1621.8000      8.0051      2.5606      0.0317      5.4189     21.6270    104.2396
  1621.9000      8.0051      2.5839      0.0768      4.0070     21.6347    105.7339
  1622.0000      8.0200      2.6073      0.0574      2.5895     21.6426    104.6447
  1622.1000      8.0200      2.6277      0.0899      1.3523     21.3681    102.3638
  1622.2000      8.0200      2.6413      0.0654      0.5262     21.3398    100.3002
  1622.3000      8.0307      2.6476      0.0846      0.1434     21.8601     99.9586
  1622.4000      8.0307      2.6549      0.0545     -0.2998     22.4288    100.3237
  1622.5000      8.0341      2.6809      0.0503     -1.8725     22.7558     99.9930
  1622.6000      8.0341      2.7312      0.1055     -4.9205     22.9457    100.2269
  1622.7000      8.0341      2.7730      0.1574     -7.4516     23.1274     98.9838
  1622.8000      8.0375      2.7701      0.1021     -7.2783     23.3224     91.1681
  1622.9000      8.0375      2.7353      0.0404     -5.1721     23.4733     80.9072
  1623.0000      8.0380      2.7055      0.0244     -3.3614     23.5464     78.8296
  1623.1000      8.0380      2.6934      0.0252     -2.6305     23.4938     86.6814
  1623.2000      8.0380      2.6823      0.0204     -1.9598     23.3404     93.9382
  1623.3000      8.0279      2.6536      0.0104     -0.2211     23.2916     93.6804
  1623.4000      8.0279      2.6144     -0.0002      2.1557     23.3170     89.2490
  1623.5000      8.0135      2.5962     -0.0340      3.2579     23.1545     84.5244
  1623.6000      8.0135      2.6205      0.0422      1.7860     22.7739     83.8370
  1623.7000      8.0135      2.6721      0.0540     -1.3408     22.4426     89.1370
  1623.8000      8.0016      2.7214      0.0986     -4.3278     22.3471     95.2768
  1623.9000      8.0016      2.7509      0.1276     -6.1143     22.3737     97.7281
  1624.0000      7.9971      2.7524      0.1657     -6.2063     22.5840     98.0099
  1624.1000      7.9971      2.7364      0.0838     -5.2391     23.1073     99.3910
  1624.2000      7.9971      2.7338      0.1107     -5.0780     23.4753    101.6325
  1624.3000      7.9981      2.7540      0.1166     -6.3047     23.2307    100.4089
  1624.4000      7.9981      2.7701      0.1291     -7.2770     22.8313     97.0212
  1624.5000      8.0006      2.7574      0.0727     -6.5107     23.0448     97.6859
  1624.6000      8.0006      2.7236      0.0507     -4.4579     23.8221     99.3189
  1624.7000      8.0006      2.6808      0.0625     -1.8687     24.3939     99.7640
  1624.8000      8.0066      2.6394     -0.0446      0.6430     24.4590    105.4224
  1624.9000      8.0066      2.6183      0.0178      1.9216     24.3860    117.2741
  1625.0000      8.0176      2.6113      0.1060      2.3483     24.4800    131.7313
  1625.1000      8.0176      2.5948      0.0674      3.3442     24.6545    143.6254
  1625.2000      8.0176      2.5730      0.0256      4.6677     24.6433    148.4566
  1625.3000      8.0268      2.5646      0.0644      5.1767     24.5567    150.3759
  1625.4000      8.0268      2.5734      0.0160      4.6399     24.6418    151.9966
  1625.5000      8.0306      2.5916      0.0651      3.5385     24.8519    151.0325
  1625.6000      8.0306      2.6028      0.0935      2.8635     25.3344    146.5148
  1625.7000      8.0306      2.5869      0.0646      3.8215     25.8428    139.9998
  1625.8000      8.0312      2.5489      0.0021      6.1302     25.7965    137.4848
  1625.9000      8.0312      2.5154      0.0140      8.1566     25.2833    138.6598
  1626.0000      8.0321      2.5003      0.0039      9.0740     24.6801    136.2569
  1626.1000      8.0321      2.4999      0.0192      9.0945     24.2122    129.5641
  1626.2000      8.0321      2.4957      0.0590      9.3494     24.1729    124.2941
  1626.3000      8.0336      2.4731      0.0020     10.7235     24.5896    122.4602
  1626.4000      8.0336      2.4527     -0.0279     11.9547     25.0059    121.8876
  1626.5000      8.0366      2.4617     -0.0066     11.4113     25.1671    120.9083
  1626.6000      8.0366      2.4890      0.0485      9.7556     25.3310    121.4209
  1626.7000      8.0366      2.5138     -0.0177      8.2557     25.8051    124.8067
  1626.8000      8.0375      2.5339      0.0514      7.0347     26.5528    130.0232
  1626.9000      8.0375      2.5384      0.0710      6.7650     27.0593    138.0448
  1627.0000      8.0340      2.5163      0.0548      8.1048     26.8619    144.7308
  1627.1000      8.0340      2.4866      0.0091      9.9016     26.2207    143.8564
  1627.2000      8.0340      2.4738      0.0155     10.6762     25.5961    136.2799
  1627.3000      8.0314      2.4807      0.0058     10.2622     25.0316    128.6397
  1627.4000      8.0314      2.4970      0.0044      9.2741     24.5592    129.0712
  1627.5000      8.0288      2.5027      0.0755      8.9295     24.3617    135.7173
  1627.6000      8.0288      2.4872      0.0268      9.8680     24.1149    139.0668
  1627.7000      8.0288      2.4818     -0.0364     10.1931     23.4767    135.9623
  1627.8000      8.0257      2.5165      0.0623      8.0926     22.6946    129.9337
  1627.9000      8.0257      2.5708      0.0665      4.8026     22.0362    125.3222
  1628.0000      8.0236      2.6139      0.0898      2.1883     21.5215    122.4191
  1628.1000      8.0236      2.6480      0.0819      0.1213     20.9554    116.5782
  1628.2000      8.0236      2.6810      0.1658     -1.8766     20.3185    104.2448
  1628.3000      8.0183      2.6954      0.1377     -2.7542     19.9368     89.6086
  1628.4000      8.0183      2.6817      0.1457     -1.9233     19.6100     82.4477
  1628.5000      8.0089      2.6609      0.0803     -0.6608     18.7480     84.0172
  1628.6000      8.0089      2.6524      0.1296     -0.1439     17.5970     85.2196
  1628.7000      8.0089      2.6476      0.0625      0.1465     16.8541     82.2502
  1628.8000      8.0032      2.6349      0.0581      0.9141     16.6409     75.9188
  1628.9000      8.0032      2.6115      0.0850      2.3320     16.5421     66.6525
