~Version Information
VERS.                      2.0: CWLS Log ASCII Standard - VERSION 2.0
WRAP.                       NO: One line per depth step
~Well Information Block
STRT.FT                -3.0000: 
STOP.FT              1123.0000: 
STEP.FT                 0.2500: 
NULL.                -999.2500: 
COMP.          Pioneer Natural Resources: COMPANY
WELL.               Ryan 41-17: WELL
FLD.           Purgatoire River: FIELD
LOC.           822' FNL & 532' FEL--: LOCATION
CNTY.               Las Animas: COUNTY
SRVC.                Patterson: SERVICE COMPANY
DATE.          Mon Mar 27 14:50:31 2006: LOG DATE
UWI.           05 071 08719 00: UNIQUE WELL ID
STAT.                 Colorado: STATE
~Curve Information Block
DEPT.FT            0 000 00 00: Depth
CCL.                          : Casing Collar Locator
TT3.usec                      : CBL 3' Travel Time
AMP3.mV                       : CBL 3' Amplitude
GR.GAPI                       : Gamma Ray
~Parameter Information Block
~A  Depth       CCL         TT3         AMP3         GR     
# ...
   198.0000      0.0000    260.0721     74.8188     69.0106
   198.2500      0.0000    260.0722     74.7776     62.9129
   198.5000      0.0000    260.0671     74.7331     54.9784
   198.7500      0.0000    260.0609     74.7216     50.6027
   199.0000      0.0000    260.0523     74.7332     44.5807
   199.2500      0.0000    260.0502     74.7554     40.4852
   199.5000      0.0000    260.0540     74.7947     34.3571
   199.7500      0.0000    260.0593     74.8152     30.7336
   200.0000      0.0000    260.0646     74.8293     26.3689
   200.2500      0.0000    260.0632     74.8312     24.0296
   200.5000      0.0000    260.0529     74.8367     21.5160
   200.7500      0.0000    260.0439     74.8477     21.1187
   201.0000      0.0000    260.0340     74.8737     23.2011
   201.2500      0.0000    260.0325     74.8889     25.8489
   201.5000      0.0000    260.0367     74.8893     29.6255
   201.7500      0.0000    260.0394     74.8735     31.1809
   202.0000      0.0000    260.0329     74.8484     32.3852
   202.2500      0.0000    260.0188     74.8423     33.2339
   202.5000      0.0000    259.9892     74.8433     35.4632
   202.7500      0.0000    259.9709     74.8389     37.3342
   203.0000      0.0000    259.9557     74.8109     39.2878
   203.2500      0.0000    259.9567     74.7757     39.1849
   203.5000      0.0000    259.9738     74.7071     36.3345
   203.7500      0.0000    259.9921     74.6617     32.9278
   204.0000      0.0000    260.0215     74.6087     27.1320
   204.2500      0.0000    260.0374     74.5862     24.1278
   204.5000      0.0000    260.0497     74.5671     22.9707
   204.7500      0.0000    260.0500     74.5591     25.1202
   205.0000      0.0000    260.0439     74.5485     33.1140
   205.2500      0.0000    260.0391     74.5426     41.4869
   205.5000      0.0000    260.0350     74.5314     57.4475
   205.7500      0.0000    260.0358     74.5175     68.9787
   206.0000      0.0000    260.0432     74.4955     84.6141
   206.2500      0.0000    260.0503     74.4938     92.4914
   206.5000      0.0000    260.0587     74.5214     99.6182
   206.7500      0.0000    260.0591     74.5535    101.6952
   207.0000      0.0000    260.0473     74.6111    102.1168
   207.2500      0.0000    260.0298     74.6555    101.0698
   207.5000      0.0000    259.9926     74.7296     97.8344
   207.7500      0.0000    259.9667     74.7786     94.9422
   208.0000      0.0000    259.9379     74.8405     90.5498
   208.2500      0.0000    259.9284     74.8707     87.9088
   208.5000      0.0000    259.9258     74.8994     83.7412
   208.7500      0.0000    259.9276     74.9098     80.1180
   209.0000      0.0000    259.9286     74.9176     73.0717
   209.2500      0.0000    259.9268     74.9209     67.9725
   209.5000      0.0000    259.9221     74.9292     61.3732
   209.7500      0.0000    259.9193     74.9379     58.1393
   210.0000      0.0000    259.9174     74.9480     55.0998
   210.2500      0.0000    259.9183     74.9466     54.4727
   210.5000      0.0000    259.9216     74.9323     56.2944
   210.7500      0.0000    259.9235     74.9207     59.4608
   211.0000      0.0000    259.9240     74.9055     66.4287
   211.2500      0.0000    259.9246     74.8921     71.5800
   211.5000      0.0000    259.9313     74.8574     77.5734
   211.7500      0.0000    259.9409     74.8274     78.9656
   212.0000      0.0000    259.9573     74.7903     75.9899
   212.2500      0.0000    259.9659     74.7772     70.9663
   212.5000      0.0000    259.9757     74.7690     60.4154
   212.7500      0.0000    259.9836     74.7636     52.3645
   213.0000      0.0000    259.9993     74.7517     40.4702
   213.2500      0.0000    260.0090     74.7449     33.8131
   213.5000      0.0000    260.0147     74.7434     27.5821
   213.7500      0.0000    260.0110     74.7491     26.3136
   214.0000      0.0000    259.9979     74.7619     27.6265
   214.2500      0.0000    259.9879     74.7681     29.4452
   214.5000      0.0000    259.9824     74.7607     32.1364
   214.7500      0.0000    260.0062     74.7315     33.8658
   215.0000      0.0000    260.1912     74.5833     37.3635
   215.2500      0.0000    260.6199     74.2997     40.8109
   215.5000      0.0000    262.5114     73.1887     47.0579
   215.7500      0.0000    265.3113     71.6715     50.5542
   216.0000      0.0000    272.7539     67.8963     51.9959
   216.2500      0.0000    279.6178     64.5144     49.7941
   216.5000      0.0000    290.5366     58.9387     43.7344
   216.7500      0.0000    296.6087     55.4725     40.1891
   217.0000      0.0000    302.4908     51.4806     38.6575
   217.2500      0.0000    304.4988     49.8693     40.2395
   217.5000      0.0000    305.8172     48.8855     44.5385
   217.7500      2.0000    306.1237     48.8362     47.6878
   218.0000     -2.0000    306.1745     49.0153     52.7515
   218.2500     -2.0000    305.9478     49.0724     56.7083
   218.5000      0.0000    304.8123     49.0582     63.2913
   218.7500      0.0000    303.0547     49.2295     67.4265
   219.0000      0.0000    298.1326     50.4857     71.9169
   219.2500      0.0000    293.2864     52.3260     73.1720
   219.5000      0.0000    284.7106     56.5016     72.2636
   219.7500      0.0000    279.0296     59.8254     70.6522
   220.0000      0.0000    271.6597     64.8150     69.3517
   220.2500      0.0000    267.7554     67.7563     70.0467
   220.5000      0.0000    263.5121     71.0993     71.8375
   220.7500      0.0000    261.7276     72.5004     71.7166
   221.0000      0.0000    260.3128     73.5635     68.0332
   221.2500      0.0000    259.9217     73.8360     63.7539
   221.5000      0.0000    259.7195     73.9697     56.2303
   221.7500      0.0000    259.6883     73.9913     50.9727
   222.0000      0.0000    259.6871     73.9956     42.7194
   222.2500      0.0000    259.6966     73.9982     36.8520
   222.5000      0.0000    259.7140     74.0290     27.6665
   222.7500      0.0000    259.7228     74.0776     21.8197
   223.0000      0.0000    259.7254     74.1869     15.0655
   223.2500      0.0000    259.7199     74.2676     12.7321
   223.5000      0.0000    259.7072     74.3688     12.6829
   223.7500      0.0000    259.7006     74.4153     14.3998
   224.0000      0.0000    259.6976     74.4566     18.4310
   224.2500      0.0000    259.6996     74.4666     21.4895
   224.5000      0.0000    259.7051     74.4578     25.5630
   224.7500      0.0000    259.7076     74.4464     27.5375
   225.0000      0.0000    259.7053     74.4470     30.2606
   225.2500      0.0000    259.6990     74.4673     33.4060
   225.5000      0.0000    259.6852     74.5236     42.5257
   225.7500      0.0000    259.6772     74.5687     51.6761
   226.0000      0.0000    259.6737     74.6202     67.5350
   226.2500      0.0000    259.6786     74.6289     77.1862
   226.5000      0.0000    259.6916     74.6059     86.7404
   226.7500      0.0000    259.6998     74.5843     89.0944
   227.0000      0.0000    259.7083     74.5621     88.6262
   227.2500      0.0000    259.7122     74.5477     88.0600
   227.5000      0.0000    259.7180     74.5112     89.8734
   227.7500      0.0000    259.7220     74.4771     92.7753
   228.0000      0.0000    259.7292     74.4126     97.3882
   228.2500      0.0000    259.7353     74.3561     99.5085
   228.5000      0.0000    259.7443     74.2550    100.7176
   228.7500      0.0000    259.7478     74.1909    100.3434
   229.0000      0.0000    259.7474     74.1206     98.5843
   229.2500      0.0000    259.7450     74.0936     97.3023
   229.5000      0.0000    259.7401     74.0755     96.6589
   229.7500      0.0000    259.7349     74.0669     97.3265
   230.0000      0.0000    259.7222     74.0349     98.5752
   230.2500      0.0000    259.7107     73.9986     98.4476
   230.5000      0.0000    259.6915     73.9403     96.4753
   230.7500      0.0000    259.6796     73.9048     94.8048
   231.0000      0.0000    259.6674     73.8536     93.1681
   231.2500      0.0000    259.6635     73.8219     92.6968
