~Version Information
VERS.                      2.0: CWLS Log ASCII Standard - VERSION 2.0
WRAP.                       NO: One line per depth step
~Well Information Block
STRT.FT               239.2000: 
STOP.FT              1618.0000: 
STEP.FT                 0.1000: 
NULL.                -999.2500: 
COMP.          Pioneer Natural Resources: COMPANY
WELL.          Daytona 31-14 Tr: WELL
FLD.           Purgatoire River: FIELD
LOC.           683' FNL & 1943' FEL: LOCATION
CNTY.               Las Animas: COUNTY
SRVC.                         : SERVICE COMPANY
DATE.          Fri Jan 27 14:32:28 2006: LOG DATE
UWI.           05 071 08681 00: UNIQUE WELL ID
STAT.                 Colorado: STATE
~Curve Information Block
DEPT.FT            0 000 00 00: Depth
DCAL.in                       : CDL Caliper
RHOB.g/cc                     : CDL Bulk Density
RHOC.g/cc                     : CDL Density Correction
DPOR.pu                       : CDL Density Porosity
GR.GAPI                       : Gamma Ray
~Parameter Information Block
~A  Depth       DCAL        RHOB        RHOC        DPOR         GR     
# ...
   978.4000      7.9962      2.5552      0.0459      5.7466     88.8800
   978.5000      7.9875      2.5426      0.0521      6.5111     88.3640
   978.6000      7.9875      2.5257      0.0193      7.5340     86.9218
   978.7000      7.9875      2.5070      0.0228      8.6656     85.5357
   978.8000      7.9839      2.4936     -0.0039      9.4787     83.3366
   978.9000      7.9839      2.4865      0.0219      9.9101     79.8434
   979.0000      7.9843      2.4825     -0.0009     10.1504     74.0648
   979.1000      7.9843      2.4848      0.0217     10.0108     65.0766
   979.2000      7.9843      2.4856      0.0290      9.9644     58.3357
   979.3000      7.9828      2.4770      0.0098     10.4877     57.9239
   979.4000      7.9828      2.4751      0.0048     10.5997     60.2756
   979.5000      7.9790      2.4936      0.0278      9.4779     62.6554
   979.6000      7.9790      2.5162      0.1047      8.1118     62.7472
   979.7000      7.9790      2.5198      0.0817      7.8903     59.2500
   979.8000      7.9665      2.5144      0.0710      8.2153     55.5043
   979.9000      7.9665      2.5262      0.1037      7.5033     54.7329
   980.0000      7.9041      2.5539      0.1893      5.8234     56.5865
   980.1000      7.9041      2.5740      0.1990      4.6079     58.3988
   980.2000      7.9041      2.5760      0.1891      4.4843     57.7553
   980.3000      7.8978      2.5776      0.1513      4.3893     55.7049
   980.4000      7.8978      2.5972      0.2077      3.2025     56.0334
   980.5000      7.8945      2.6281      0.2376      1.3249     58.9724
   980.6000      7.8945      2.6504      0.2690     -0.0224     59.8865
   980.7000      7.8945      2.6531      0.2004     -0.1880     56.7768
   980.8000      7.9383      2.6446      0.2178      0.3249     53.1350
   980.9000      7.9383      2.6316      0.2038      1.1129     53.1692
   981.0000      7.9804      2.6179      0.1353      1.9453     57.0976
   981.1000      7.9804      2.6104      0.1308      2.3994     59.7822
   981.2000      7.9804      2.6039      0.1473      2.7970     57.0795
   981.3000      8.0061      2.5912      0.1163      3.5618     50.7687
   981.4000      8.0061      2.5767      0.1180      4.4455     44.8071
   981.5000      8.0147      2.5606      0.1223      5.4190     42.6103
   981.6000      8.0147      2.5421      0.0946      6.5369     45.1443
   981.7000      8.0147      2.5312      0.0840      7.1983     49.2318
   981.8000      8.0194      2.5354      0.0801      6.9436     50.4355
   981.9000      8.0194      2.5525      0.0756      5.9061     48.1916
   982.0000      8.0162      2.5752      0.0972      4.5304     47.5485
   982.1000      8.0162      2.5922      0.1239      3.5046     51.6181
   982.2000      8.0162      2.5981      0.1000      3.1435     56.6970
   982.3000      8.0010      2.6000      0.1419      3.0284     60.6212
   982.4000      8.0010      2.6027      0.1413      2.8647     65.1368
   982.5000      7.9848      2.6011      0.1625      2.9607     68.1544
   982.6000      7.9848      2.5912      0.0944      3.5622     66.7793
   982.7000      7.9848      2.5744      0.1076      4.5799     63.9918
   982.8000      8.0167      2.5504      0.0714      6.0341     64.8026
   982.9000      8.0167      2.5287      0.0472      7.3492     70.4716
   983.0000      8.0227      2.5288      0.0105      7.3480     81.2915
   983.1000      8.0227      2.5509      0.0719      6.0044     95.8656
   983.2000      8.0227      2.5773      0.0826      4.4048    107.5688
   983.3000      8.0223      2.6042      0.0786      2.7757    112.8731
   983.4000      8.0223      2.6286      0.1168      1.2997    115.0089
   983.5000      8.0237      2.6317      0.1145      1.1099    117.7068
   983.6000      8.0237      2.6121      0.0785      2.2948    122.2620
   983.7000      8.0237      2.5956      0.0602      3.2943    126.2716
   983.8000      8.0196      2.5991      0.0784      3.0869    127.9892
   983.9000      8.0196      2.6122      0.0744      2.2928    130.4015
   984.0000      8.0210      2.6215      0.0636      1.7277    133.3924
   984.1000      8.0210      2.6260      0.0829      1.4552    132.0287
   984.2000      8.0210      2.6264      0.1062      1.4281    126.9308
   984.3000      8.0226      2.6251      0.0851      1.5091    122.4373
   984.4000      8.0226      2.6256      0.1220      1.4809    120.6811
   984.5000      8.0209      2.6245      0.0909      1.5449    124.1948
   984.6000      8.0209      2.6230      0.0666      1.6389    132.2068
   984.7000      8.0209      2.6269      0.0774      1.3991    136.8990
   984.8000      8.0203      2.6301      0.0659      1.2085    134.6427
   984.9000      8.0203      2.6259      0.0531      1.4592    128.9986
   985.0000      8.0201      2.6220      0.0191      1.6953    122.5031
   985.1000      8.0201      2.6213      0.0879      1.7419    117.8391
   985.2000      8.0201      2.6180      0.0222      1.9373    119.8292
   985.3000      8.0212      2.6116      0.0793      2.3273    127.1666
   985.4000      8.0212      2.5919      0.1066      3.5210    133.3643
   985.5000      8.0209      2.5484      0.0998      6.1564    137.9795
   985.6000      8.0209      2.4984      0.0405      9.1894    144.6606
   985.7000      8.0209      2.4692      0.0645     10.9599    149.8010
   985.8000      8.0216      2.4619      0.0922     11.4017    149.4355
   985.9000      8.0216      2.4557      0.1149     11.7749    145.2106
   986.0000      8.0208      2.4361      0.0967     12.9612    141.4646
   986.1000      8.0208      2.4069      0.0956     14.7344    144.3764
   986.2000      8.0208      2.3742      0.0893     16.7158    150.7702
   986.3000      8.0207      2.3405      0.0654     18.7590    154.0515
   986.4000      8.0207      2.3168      0.0781     20.1917    154.0631
   986.5000      8.0209      2.3241      0.0746     19.7524    151.9435
   986.6000      8.0209      2.3725      0.1563     16.8212    150.8248
   986.7000      8.0209      2.4435      0.1820     12.5131    151.2468
   986.8000      8.0198      2.5038      0.2665      8.8592    149.2650
   986.9000      8.0198      2.5331      0.2185      7.0876    147.2812
   987.0000      8.0178      2.5377      0.2146      6.8044    148.3623
   987.1000      8.0178      2.5293      0.2221      7.3140    148.7708
   987.2000      8.0178      2.5107      0.2115      8.4449    148.7924
   987.3000      8.0171      2.4918      0.1444      9.5898    152.0880
   987.4000      8.0171      2.4890      0.1274      9.7555    153.1787
   987.5000      8.0085      2.5012      0.1312      9.0164    147.5314
   987.6000      8.0085      2.5106      0.1457      8.4515    141.3314
   987.7000      8.0085      2.5179      0.0897      8.0060    138.5079
   987.8000      7.9656      2.5405      0.1691      6.6383    137.7030
   987.9000      7.9656      2.5698      0.2294      4.8611    138.0564
   988.0000      7.9421      2.5842      0.2141      3.9899    139.1357
   988.1000      7.9421      2.5844      0.1826      3.9781    141.8654
   988.2000      7.9421      2.5776      0.1923      4.3879    144.9055
   988.3000      8.0376      2.5593      0.1308      5.4984    142.9931
   988.4000      8.0376      2.5292      0.0723      7.3199    137.5923
   988.5000      8.0702      2.5043     -0.0279      8.8291    134.6292
   988.6000      8.0702      2.5040      0.0237      8.8467    133.5428
   988.7000      8.0702      2.5274      0.0224      7.4301    130.9047
   988.8000      8.0726      2.5582      0.0892      5.5651    126.0584
   988.9000      8.0726      2.5804      0.0579      4.2174    122.2581
   989.0000      8.0702      2.5866      0.0673      3.8419    122.3342
   989.1000      8.0702      2.5753      0.0654      4.5252    122.1527
   989.2000      8.0702      2.5537      0.0419      5.8351    118.3632
   989.3000      8.0681      2.5366      0.0152      6.8745    113.3660
   989.4000      8.0681      2.5287      0.0124      7.3543    111.0748
   989.5000      8.0685      2.5219      0.0444      7.7628    114.8734
