~Version Information
VERS.                      2.0: CWLS Log ASCII Standard - VERSION 2.0
WRAP.                       NO: One line per depth step
~Well Information Block
STRT.FT               -14.7500: 
STOP.FT              1106.0000: 
STEP.FT                 0.2500: 
NULL.                -999.2500: 
COMP.          Pioneer Natural Resources: COMPANY
WELL.          Black Cat 13-32 Tr: WELL
FLD.           Purgatorie River: FIELD
LOC.           1679' FSL & 1150' FWL--: LOCATION
CNTY.               Las Animas: COUNTY
SRVC.          Patterson Wireline: SERVICE COMPANY
DATE.          Wed Mar 15 15:59:24 2006: LOG DATE
UWI.           05 071 08721 00: UNIQUE WELL ID
STAT.                       CO: STATE
~Curve Information Block
DEPT.FT            0 000 00 00: Depth
CCL.                          : Casing Collar Locator
TT3.usec                      : CBL 3' Travel Time
AMP3.mV                       : CBL 3' Amplitude
GR.GAPI                       : Gamma Ray
~Parameter Information Block
~A  Depth       CCL         TT3         AMP3         GR     
# ...
    52.2500      0.0000    732.9844      5.8393     93.0927
    52.5000      0.0000    740.9460      5.9914     95.3018
    52.7500      0.0000    750.9113      6.2059     96.5413
    53.0000      0.0000    762.7343      6.4545     97.1264
    53.2500      0.0000    776.6395      6.6993     96.9955
    53.5000      0.0000    792.0870      6.9052     95.9735
    53.7500      0.0000    806.3491      7.0520     94.4999
    54.0000      0.0000    815.9307      7.1369     93.6196
    54.2500      0.0000    819.5830      7.1639     94.0187
    54.5000      0.0000    819.0115      7.1371     95.4086
    54.7500      0.0000    817.2925      7.0692     97.0483
    55.0000      0.0000    817.5497      6.9896     98.6397
    55.2500      0.0000    821.1985      6.9289    100.3916
    55.5000      0.0000    825.2364      6.8962    102.2076
    55.7500      0.0000    821.7596      6.8741    103.2362
    56.0000      0.0000    801.5673      6.8365    102.5814
    56.2500      0.0000    759.4471      6.7612    100.3341
    56.5000      0.0000    698.4046      6.6303     97.6318
    56.7500      0.0000    630.5491      6.4311     95.7255
    57.0000      0.0000    571.8254      6.1722     95.0710
    57.2500      0.0000    532.7053      5.8961     95.0776
    57.5000      0.0000    513.1660      5.6639     94.5378
    57.7500      0.0000    506.2027      5.5179     92.5776
    58.0000      0.0000    504.6429      5.4559     89.4305
    58.2500      0.0000    504.7538      5.4338     86.3052
    58.5000      0.0000    506.3069      5.3906     84.6567
    58.7500      0.0000    512.1373      5.2735     85.5415
    59.0000      0.0000    527.5017      5.0577     89.0037
    59.2500      0.0000    557.0594      4.7661     93.5055
    59.5000      0.0000    600.3596      4.4756     96.2960
    59.7500      0.0000    650.5811      4.2780     95.0924
    60.0000      0.0000    698.7828      4.2174     89.7288
    60.2500      0.0000    738.7742      4.2620     82.2750
    60.5000      0.0000    767.2682      4.3383     75.6476
    60.7500      0.0000    781.8000      4.3915     71.9055
    61.0000      0.0000    782.0737      4.4181     71.1953
    61.2500      0.0000    773.1639      4.4548     71.9133
    61.5000      0.0000    763.8376      4.5435     72.0906
    61.7500      0.0000    759.6713      4.6987     70.9326
    62.0000      0.0000    759.1195      4.8972     69.0054
    62.2500      0.0000    757.3383      5.0951     67.0817
    62.5000      0.0000    751.8992      5.2583     65.2592
    62.7500      0.0000    743.4324      5.3785     63.2080
    63.0000      0.0000    733.3044      5.4645     60.8704
    63.2500      0.0000    723.4032      5.5247     58.8565
    63.5000      0.0000    716.9106      5.5614     58.3191
    63.7500      0.0000    716.7117      5.5750     60.2708
    64.0000      0.0000    722.8079      5.5689     64.5972
    64.2500      0.0000    732.6025      5.5470     69.7100
    64.5000      0.0000    744.3860      5.5115     73.5028
    64.7500      0.0000    759.7759      5.4650     74.8699
    65.0000      0.0000    781.2004      5.4139     74.2238
    65.2500      0.0000    806.2413      5.3688     72.6331
    65.5000      0.0000    825.9471      5.3374     70.8016
    65.7500      0.0000    831.2164      5.3172     68.9650
    66.0000      0.0000    821.4799      5.2970     67.3364
    66.2500      0.0000    805.1689      5.2683     66.2229
    66.5000      0.0000    790.9380      5.2330     65.7554
    66.7500      0.0000    780.2592      5.2001     65.8868
    67.0000      0.0000    769.0415      5.1773     66.8639
    67.2500      0.0000    754.5467      5.1677     69.3558
    67.5000      0.0000    739.3965      5.1662     73.6378
    67.7500      0.0000    728.8831      5.1590     78.7671
    68.0000      0.0000    725.0815      5.1321     83.0598
    68.2500      0.0000    724.5954      5.0845     85.3626
    68.5000      0.0000    722.3879      5.0275     85.5587
    68.7500      0.0000    717.0327      4.9700     84.1343
    69.0000      0.0000    711.4057      4.9126     81.6880
    69.2500      0.0000    708.6608      4.8547     78.6028
    69.5000      0.0000    708.6185      4.7975     74.8114
    69.7500      0.0000    708.2482      4.7398     70.1523
    70.0000      0.0000    705.2372      4.6829     65.2611
    70.2500      0.0000    701.1553      4.6504     61.7398
    70.5000      0.0000    702.5463      4.6827     60.9170
    70.7500      0.0000    719.2189      4.7856     62.4828
    71.0000      0.0000    757.6102      4.8954     64.6401
    71.2500      0.0000    811.2493      4.9314     65.6453
    71.5000      0.0000    859.6897      4.8784     65.0192
    71.7500      0.0000    883.2181      4.7922     63.3759
    72.0000      0.0000    879.9426      4.7354     61.5300
    72.2500      2.0000    865.2448      4.7362     59.8812
    72.5000      0.0000    855.0854      4.7971     58.4563
    72.7500      0.0000    852.8194      4.9214     57.4165
    73.0000      0.0000    850.6816      5.1239     57.3472
    73.2500      0.0000    840.4664      5.4083     58.6650
    73.5000      0.0000    822.0037      5.7240     60.8327
    73.7500      0.0000    802.2654      5.9682     62.7752
    74.0000      0.0000    787.9349      6.0638     64.0957
    74.2500      0.0000    780.5214      6.0224     65.1663
    74.5000      0.0000    777.9047      5.9145     65.9811
    74.7500      0.0000    778.0025      5.8030     65.8928
    75.0000      0.0000    780.2054      5.7187     64.7592
    75.2500      0.0000    784.4153      5.6702     63.4164
    75.5000      0.0000    789.5757      5.6514     62.5129
    75.7500      0.0000    793.4818      5.6475     61.7181
    76.0000      0.0000    794.4877      5.6445     60.5686
    76.2500      0.0000    793.4617      5.6344     59.3575
    76.5000      0.0000    793.4283      5.6109     58.6805
    76.7500      0.0000    797.1401      5.5664     58.6370
    77.0000      0.0000    805.4218      5.4962     58.9969
    77.2500      0.0000    817.5642      5.4067     59.8626
    77.5000      0.0000    831.9648      5.3145     61.6334
    77.7500      0.0000    846.0807      5.2351     64.3328
    78.0000      0.0000    857.1523      5.1756     67.2242
    78.2500      0.0000    863.5011      5.1369     69.1961
    78.5000      0.0000    864.2617      5.1180     69.6786
    78.7500      0.0000    858.3962      5.1170     69.3435
    79.0000      0.0000    845.7141      5.1299     69.6488
    79.2500      0.0000    828.7134      5.1502     71.3789
    79.5000      0.0000    812.0059      5.1705     73.7236
    79.7500      0.0000    799.5148      5.1870     74.9819
    80.0000      0.0000    792.2947      5.2029     74.0535
    80.2500      0.0000    788.6406      5.2233     71.2365
    80.5000      0.0000    785.9884      5.2445     67.8104
    80.7500      0.0000    783.1197      5.2524     64.9581
    81.0000      0.0000    781.1397      5.2353     62.9097
    81.2500      0.0000    782.1188      5.1939     60.9652
    81.5000      0.0000    786.4308      5.1396     58.3512
    81.7500      0.0000    792.1700      5.0857     55.1064
    82.0000      0.0000    797.4858      5.0408     52.1412
    82.2500      0.0000    802.1409      5.0071     50.4647
    82.5000      0.0000    806.3022      4.9815     50.3724
    82.7500      0.0000    809.3672      4.9620     51.3906
    83.0000      0.0000    810.9235      4.9512     52.8204
    83.2500      0.0000    811.7393      4.9548     54.1576
    83.5000      0.0000    812.9881      4.9743     55.1367
    83.7500      0.0000    815.2227      5.0030     55.6309
    84.0000      0.0000    818.4465      5.0276     55.5278
    84.2500      0.0000    822.1602      5.0342     54.6932
    84.5000      0.0000    825.0085      5.0129     53.1485
    84.7500      0.0000    825.6686      4.9633     51.3531
    85.0000      0.0000    824.6948      4.8963     50.3028
    85.2500      0.0000    824.5074      4.8305     51.2061
    85.5000      0.0000    827.4657      4.7828     54.6873
