~Version Information
VERS.                      2.0: CWLS Log ASCII Standard - VERSION 2.0
WRAP.                       NO: One line per depth step
~Well Information Block
STRT.FT               490.0000: 
STOP.FT              2303.5000: 
STEP.FT                 0.1000: 
NULL.                -999.2500: 
COMP.          Pioneer Natural Resources: COMPANY
WELL.             Baa Baa 34-1: WELL
FLD.           Purgatoire River: FIELD
LOC.           617' FSL & 2289' FEL: LOCATION
STAT.                 Colorado: State
CNTY.               Las Animas: COUNTY
CTRY. USA : Country
SECT. 1 : Section
TOWN. 33S : Township
RANG. 67W : Range
SRVC.                Patterson: SERVICE COMPANY
DATE.          Thu Sep 08 09:44:32 2005: LOG DATE
API.           05 071 08502 00: UNIQUE WELL ID
~Curve Information Block
DEPT.FT            0 000 00 00: Depth
DCAL.in                       : CDL Caliper
RHOB.g/cc                     : CDL Bulk Density
RHOC.g/cc                     : CDL Density Correction
DPOR.pu                       : CDL Density Porosity
GR.GAPI                       : Gamma Ray
NPOR.pu                       : Neutron Porosity
~Parameter Information Block
~A  Depth       DCAL        RHOB        RHOC        DPOR         GR         NPOR    
# ...
  1325.2000      7.9199      2.5632     -0.0147      5.2625    108.6869     22.3007
  1325.3000      7.9386      2.5701     -0.0050      4.8439    110.3549     22.5358
  1325.4000      7.9386      2.5696     -0.0181      4.8738    107.7494     22.5815
  1325.5000      7.9414      2.5727      0.0308      4.6864    104.5901     22.7354
  1325.6000      7.9414      2.5813      0.0164      4.1660    102.4657     23.0081
  1325.7000      7.9414      2.5848      0.0305      3.9530    100.7117     23.3391
  1325.8000      7.9479      2.5746      0.0229      4.5709    101.7516     23.5464
  1325.9000      7.9479      2.5513     -0.0144      5.9840    107.1888     23.4295
  1326.0000      7.9592      2.5311     -0.0540      7.2067    116.2780     23.0806
  1326.1000      7.9592      2.5320     -0.0215      7.1506    125.4423     22.9489
  1326.2000      7.9592      2.5498     -0.0156      6.0747    129.3230     23.3036
  1326.3000      7.9365      2.5617      0.0432      5.3494    127.8461     23.7456
  1326.4000      7.9365      2.5520      0.0222      5.9366    126.0426     23.9309
  1326.5000      7.9329      2.5279      0.0088      7.4023    127.3278     23.9139
  1326.6000      7.9329      2.5104     -0.0355      8.4596    131.9801     23.7395
  1326.7000      7.9329      2.5095     -0.0273      8.5139    134.7729     23.6511
  1326.8000      7.8955      2.5060      0.0441      8.7300    133.0708     23.6571
  1326.9000      7.8955      2.4816     -0.0227     10.2078    131.5243     23.5109
  1327.0000      7.8993      2.4595     -0.0773     11.5443    131.9761     23.3973
  1327.1000      7.8993      2.4616     -0.0024     11.4180    131.9215     23.3816
  1327.2000      7.8993      2.4707     -0.0287     10.8665    131.7719     23.0574
  1327.3000      7.9266      2.4718     -0.0326     10.8020    134.3866     22.4464
  1327.4000      7.9266      2.4696      0.0015     10.9342    138.2526     21.9419
  1327.5000      7.9657      2.4693     -0.0039     10.9496    141.1574     21.7277
  1327.6000      7.9657      2.4682     -0.0162     11.0167    144.8828     22.0119
  1327.7000      7.9657      2.4629     -0.0315     11.3399    151.0635     22.7852
  1327.8000      7.9624      2.4585     -0.0216     11.6078    160.2646     23.3205
  1327.9000      7.9624      2.4573      0.0361     11.6814    171.8235     23.1177
  1328.0000      7.9246      2.4484      0.0322     12.2173    181.5292     22.3780
  1328.1000      7.9246      2.4174      0.0157     14.0973    184.4879     21.5019
  1328.2000      7.9246      2.3643      0.0309     17.3164    180.7934     21.1132
  1328.3000      7.9432      2.3055      0.0024     20.8771    177.1662     21.5005
  1328.4000      7.9432      2.2563      0.0040     23.8622    177.0848     22.2781
  1328.5000      7.9401      2.2254     -0.0276     25.7341    179.8781     22.9278
  1328.6000      7.9401      2.2260     -0.0364     25.6951    182.3541     23.2800
  1328.7000      7.9401      2.2671     -0.0151     23.2046    176.8316     23.6243
  1328.8000      7.9557      2.3296      0.1254     19.4157    162.7250     24.1013
  1328.9000      7.9557      2.3871      0.1221     15.9319    147.3206     24.5107
  1329.0000      7.9546      2.4347      0.1556     13.0481    137.4108     24.8897
  1329.1000      7.9546      2.4618      0.2648     11.4042    135.1022     25.6146
  1329.2000      7.9546      2.4647      0.1269     11.2327    135.7390     26.4550
  1329.3000      7.9578      2.4780      0.0595     10.4233    133.3105     26.7017
  1329.4000      7.9578      2.5164      0.1464      8.0958    128.9214     26.4842
  1329.5000      7.9680      2.5513      0.1307      5.9793    126.9120     26.2872
  1329.6000      7.9680      2.5617      0.0644      5.3521    125.8720     26.1852
  1329.7000      7.9680      2.5503      0.0417      6.0417    122.1648     26.1548
  1329.8000      7.9678      2.5365     -0.0239      6.8773    118.3306     25.9761
  1329.9000      7.9678      2.5415      0.0056      6.5782    116.1814     25.2453
  1330.0000      7.9548      2.5565      0.0667      5.6685    114.1102     24.1996
  1330.1000      7.9548      2.5542      0.0494      5.8043    112.1390     23.4715
  1330.2000      7.9548      2.5341      0.0226      7.0252    109.6089     23.1739
  1330.3000      7.9383      2.5226     -0.0220      7.7235    104.9143     23.1227
  1330.4000      7.9383      2.5348      0.0251      6.9839     98.1513     23.0792
  1330.5000      7.9408      2.5546      0.0728      5.7810     91.2207     22.9589
  1330.6000      7.9408      2.5629      0.0411      5.2781     87.5261     22.9285
  1330.7000      7.9408      2.5678      0.0555      4.9828     87.6889     22.9981
  1330.8000      7.9049      2.5895      0.0098      3.6693     87.8029     22.9694
  1330.9000      7.9049      2.6208      0.1163      1.7688     87.8057     22.6624
  1331.0000      7.9067      2.6334      0.0787      1.0058     90.4824     22.1538
  1331.1000      7.9067      2.6250      0.0428      1.5136     96.5072     21.8252
  1331.2000      7.9067      2.6075      0.0061      2.5755    104.4413     22.0047
  1331.3000      7.9195      2.5847      0.0248      3.9585    111.5073     22.6281
  1331.4000      7.9195      2.5707     -0.0195      4.8048    115.8849     23.1617
  1331.5000      7.9359      2.5750      0.0336      4.5459    116.0566     23.2338
  1331.6000      7.9359      2.5772      0.0642      4.4120    113.6547     23.2399
  1331.7000      7.9359      2.5653      0.0030      5.1321    113.5133     23.7732
  1331.8000      7.9257      2.5447      0.0254      6.3796    118.7022     24.3920
  1331.9000      7.9257      2.5238     -0.0097      7.6472    121.9910     24.1204
  1332.0000      7.9096      2.5212      0.0031      7.8073    115.5889     23.0873
  1332.1000      7.9096      2.5356      0.0266      6.9308    109.5861     22.1778
  1332.2000      7.9096      2.5441     -0.0131      6.4207    110.7900     21.6898
  1332.3000      7.9098      2.5373     -0.0048      6.8285    112.6472     21.5907
  1332.4000      7.9098      2.5223     -0.0105      7.7411    112.5257     21.8796
  1332.5000      7.9118      2.5064     -0.0309      8.7031    111.0377     22.5406
  1332.6000      7.9118      2.4969     -0.0389      9.2762    109.3601     23.4044
  1332.7000      7.9118      2.5028     -0.0650      8.9199    109.0252     24.1232
  1332.8000      7.9054      2.5250      0.0037      7.5752    106.1209     24.6919
  1332.9000      7.9054      2.5543      0.0295      5.8019    101.9440     25.2378
  1333.0000      7.9159      2.5848      0.0194      3.9538    101.1448     25.6509
  1333.1000      7.9159      2.6028      0.0463      2.8609     98.1027     25.6236
  1333.2000      7.9159      2.5936     -0.0015      3.4172     88.4361     25.1669
  1333.3000      7.9354      2.5679     -0.0279      4.9759     78.9192     24.7425
  1333.4000      7.9354      2.5496     -0.0049      6.0858     76.3199     24.4873
  1333.5000      7.9260      2.5624     -0.0242      5.3073     80.1679     24.1722
  1333.6000      7.9260      2.6152      0.0199      2.1069     84.9921     23.7911
  1333.7000      7.9260      2.6717      0.0920     -1.3161     86.1077     23.5427
  1333.8000      7.9110      2.6844      0.0502     -2.0870     85.0162     23.5847
  1333.9000      7.9110      2.6573      0.0090     -0.4427     83.9893     23.7717
  1334.0000      7.9010      2.6261      0.0218      1.4486     81.2682     23.6155
  1334.1000      7.9010      2.6122      0.0302      2.2881     78.7436     22.8696
  1334.2000      7.9010      2.6089      0.0154      2.4897     83.7019     21.7661
  1334.3000      7.8940      2.5916      0.0196      3.5379     96.3230     21.0507
  1334.4000      7.8940      2.5445     -0.0337      6.3947    108.8637     21.1685
  1334.5000      7.8922      2.4755     -0.0045     10.5773    118.4900     21.5527
  1334.6000      7.8922      2.4104     -0.0874     14.5223    127.2359     21.7182
  1334.7000      7.8922      2.3728     -0.0766     16.8004    133.1169     21.9560
