~Version Information
VERS.                      2.0: CWLS Log ASCII Standard - VERSION 2.0
WRAP.                       NO: One line per depth step
~Well Information Block
STRT.FT               795.0000: 
STOP.FT              2279.7500: 
STEP.FT                 0.2500: 
NULL.                -999.2500: 
COMP.          Pioneer Natural Resources: COMPANY
WELL.            Wildcard 31-5: WELL
FLD.           Purgatoire River: FIELD
LOC.           624' FNL & 1852' FEL--: LOCATION
CNTY.               Las Animas: COUNTY
SRVC.                Patterson: SERVICE COMPANY
DATE.          Tue Mar 07 07:02:36 2006: LOG DATE
UWI.           05 071 08707 00: UNIQUE WELL ID
STAT.                 Colorado: STATE
~Curve Information Block
DEPT.FT            0 000 00 00: Depth
DIR.Ohm-m                     : IEL Induction Resistivity
SN.Ohm-m                      : IEL Short Normal
SP.mV                         : IEL Spontaneous Potential
GR.GAPI                       : Gamma Ray
~Parameter Information Block
~A  Depth       DIR          SN          SP          GR     
# ...
  1666.0000      9.5276      9.7171   -127.4915    124.4841
  1666.2500      9.9806     10.4093   -127.9596    116.6212
  1666.5000     10.5439     11.4426   -128.4794    103.2331
  1666.7500     11.2088     12.7824   -129.0237     93.9867
  1667.0000     11.9548     14.3190   -129.5650     81.1555
  1667.2500     12.7513     15.9020   -130.0791     74.4339
  1667.5000     13.5614     17.3843   -130.5471     68.8031
  1667.7500     14.3482     18.6498   -130.9558     68.3486
  1668.0000     15.0807     19.6230   -131.2967     71.4625
  1668.2500     15.7379     20.2816   -131.5649     74.4793
  1668.5000     16.3126     20.6688   -131.7574     77.1608
  1668.7500     16.8121     20.8848   -131.8731     76.2485
  1669.0000     17.2529     21.0476   -131.9124     70.2389
  1669.2500     17.6518     21.2379   -131.8785     64.1873
  1669.5000     18.0154     21.4603   -131.7780     55.2922
  1669.7500     18.3351     21.6474   -131.6218     51.0518
  1670.0000     18.5889     21.7047   -131.4245     48.1279
  1670.2500     18.7503     21.5661   -131.2032     48.3798
  1670.5000     18.7999     21.2229   -130.9758     51.8081
  1670.7500     18.7339     20.7166   -130.7585     55.6356
  1671.0000     18.5620     20.1130   -130.5644     61.5401
  1671.2500     18.3017     19.4810   -130.4016     64.0283
  1671.5000     17.9735     18.8784   -130.2733     63.9272
  1671.7500     17.6010     18.3423   -130.1780     61.3099
  1672.0000     17.2102     17.8836   -130.1105     55.2189
  1672.2500     16.8251     17.4920   -130.0635     51.4263
  1672.5000     16.4648     17.1473   -130.0293     48.9403
  1672.7500     16.1413     16.8332   -130.0009     49.9230
  1673.0000     15.8616     16.5451   -129.9737     53.6771
  1673.2500     15.6298     16.2868   -129.9453     56.0085
  1673.5000     15.4485     16.0625   -129.9167     57.1919
  1673.7500     15.3177     15.8730   -129.8917     56.2856
  1674.0000     15.2330     15.7185   -129.8763     53.3825
  1674.2500     15.1857     15.6028   -129.8781     51.1906
  1674.5000     15.1667     15.5315   -129.9044     48.7544
  1674.7500     15.1724     15.5060   -129.9613     48.2562
  1675.0000     15.2032     15.5199   -130.0519     49.2086
  1675.2500     15.2593     15.5624   -130.1753     50.3318
  1675.5000     15.3360     15.6230   -130.3259     51.5196
  1675.7500     15.4261     15.6956   -130.4944     51.7297
  1676.0000     15.5256     15.7783   -130.6690     51.4401
  1676.2500     15.6373     15.8701   -130.8369     51.0179
  1676.5000     15.7660     15.9680   -130.9868     49.9900
  1676.7500     15.9113     16.0670   -131.1100     48.9321
  1677.0000     16.0630     16.1647   -131.2023     46.8802
  1677.2500     16.2048     16.2647   -131.2634     45.5023
  1677.5000     16.3254     16.3752   -131.2978     44.1060
  1677.7500     16.4286     16.5042   -131.3131     43.9581
  1678.0000     16.5337     16.6539   -131.3191     45.1781
  1678.2500     16.6672     16.8200   -131.3261     46.7938
  1678.5000     16.8497     16.9951   -131.3432     49.5985
  1678.7500     17.0874     17.1750   -131.3767     51.2067
  1679.0000     17.3702     17.3603   -131.4291     52.9135
  1679.2500     17.6779     17.5544   -131.4980     53.6392
  1679.5000     17.9909     17.7616   -131.5768     54.0386
  1679.7500     18.2985     17.9893   -131.6548     53.7844
  1680.0000     18.6019     18.2516   -131.7199     53.1553
  1680.2500     18.9098     18.5643   -131.7600     53.2091
  1680.5000     19.2305     18.9336   -131.7660     54.6149
  1680.7500     19.5659     19.3487   -131.7334     56.1159
  1681.0000     19.9080     19.7864   -131.6640     57.9589
  1681.2500     20.2413     20.2231   -131.5654     58.3127
  1681.5000     20.5517     20.6435   -131.4500     57.3396
  1681.7500     20.8362     21.0431   -131.3322     56.0339
  1682.0000     21.1037     21.4265   -131.2267     54.1794
  1682.2500     21.3672     21.8040   -131.1456     53.7135
  1682.5000     21.6365     22.1875   -131.0975     54.5919
  1682.7500     21.9198     22.5869   -131.0875     55.5887
  1683.0000     22.2298     23.0087   -131.1176     55.7183
  1683.2500     22.5836     23.4560   -131.1873     54.2614
  1683.5000     22.9931     23.9323   -131.2947     50.5498
  1683.7500     23.4503     24.4408   -131.4368     48.0325
  1684.0000     23.9220     24.9780   -131.6097     45.1894
  1684.2500     24.3583     25.5279   -131.8092     43.8867
  1684.5000     24.7141     26.0661   -132.0312     42.3217
  1684.7500     24.9685     26.5694   -132.2723     41.2416
  1685.0000     25.1293     27.0225   -132.5296     39.1163
  1685.2500     25.2202     27.4164   -132.8017     37.2586
  1685.5000     25.2660     27.7467   -133.0868     34.3209
  1685.7500     25.2864     28.0145   -133.3833     32.8656
  1686.0000     25.3008     28.2305   -133.6883     31.9957
  1686.2500     25.3341     28.4137   -133.9968     32.0182
  1686.5000     25.4131     28.5850   -134.3015     32.1701
  1686.7500     25.5533     28.7627   -134.5925     32.2761
  1687.0000     25.7460     28.9605   -134.8569     32.9765
  1687.2500     25.9591     29.1854   -135.0798     34.0792
  1687.5000     26.1570     29.4339   -135.2452     36.6095
  1687.7500     26.3249     29.6932   -135.3383     38.5773
  1688.0000     26.4764     29.9451   -135.3482     41.2857
  1688.2500     26.6340     30.1730   -135.2711     42.7026
  1688.5000     26.8027     30.3686   -135.1123     44.5754
  1688.7500     26.9591     30.5381   -134.8876     46.1091
  1689.0000     27.0692     30.6991   -134.6216     48.9434
  1689.2500     27.1155     30.8704   -134.3446     50.5341
  1689.5000     27.1096     31.0611   -134.0882     51.0085
  1689.7500     27.0793     31.2715   -133.8799     49.8439
  1690.0000     27.0471     31.4988   -133.7386     47.1119
  1690.2500     27.0193     31.7392   -133.6722     45.6989
  1690.5000     26.9899     31.9809   -133.6765     45.2188
  1690.7500     26.9496     32.1961   -133.7369     45.8862
  1691.0000     26.8897     32.3401   -133.8313     47.4260
  1691.2500     26.8014     32.3546   -133.9337     48.1481
  1691.5000     26.6698     32.1770   -134.0180     47.9162
  1691.7500     26.4696     31.7532   -134.0606     46.7586
  1692.0000     26.1672     31.0538   -134.0431     44.2317
  1692.2500     25.7318     30.0850   -133.9529     42.8671
  1692.5000     25.1465     28.8898   -133.7838     42.6327
  1692.7500     24.4115     27.5351   -133.5357     43.9721
  1693.0000     23.5372     26.0860   -133.2141     48.0623
  1693.2500     22.5387     24.5794   -132.8292     52.1725
  1693.5000     21.4341     23.0201   -132.3952     60.7841
  1693.7500     20.2441     21.4064   -131.9288     68.0331
  1694.0000     18.9938     19.7676   -131.4490     79.2393
  1694.2500     17.7147     18.1737   -130.9748     85.1383
  1694.5000     16.4462     16.7101   -130.5246     89.9901
  1694.7500     15.2308     15.4357   -130.1137     91.5010
  1695.0000     14.1050     14.3609   -129.7532     94.8451
  1695.2500     13.0916     13.4570   -129.4489     99.3797
  1695.5000     12.1988     12.6838   -129.2004    109.3655
  1695.7500     11.4228     12.0109   -129.0025    116.5884
  1696.0000     10.7534     11.4204   -128.8461    125.0527
  1696.2500     10.1785     10.9009   -128.7204    127.6075
  1696.5000      9.6863     10.4448   -128.6151    125.6105
  1696.7500      9.2675     10.0473   -128.5218    121.1159
  1697.0000      8.9136      9.7040   -128.4349    113.7583
  1697.2500      8.6160      9.4075   -128.3513    111.2615
  1697.5000      8.3643      9.1491   -128.2705    112.6893
  1697.7500      8.1483      8.9245   -128.1932    115.4892
  1698.0000      7.9602      8.7335   -128.1211    118.6226
  1698.2500      7.7959      8.5765   -128.0557    119.2121
  1698.5000      7.6533      8.4501   -127.9982    119.5954
  1698.7500      7.5288      8.3459   -127.9493    121.0078
  1699.0000      7.4141      8.2514   -127.9089    125.4960
  1699.2500      7.2978      8.1551   -127.8768    129.1225
