~Version Information
 VERS.                                  2.0 : CWLS LAS VERSION
 WRAP.                                   NO : WRAPING MODE
 SWARE .                 MController 2.5.0N : SOFTWARE VERSION
~Well Information
 WELL.               Bear Cub Federal 11-23 : WELL
 COMP.    Pioneer Natural Resources USA Inc : COMPANY
 FLD.                      Purgatoire River : FIELD
 LOC.                 NW/NW Sec23 T33S R67W : LOCATION
 DATE.                          06/18-19/06 : DATE(S) LOGGED
 SRVC.       Blanco Geological Services LLC : SERVICE COMPANY
 STAT.                             Colorado : STATE
 CNTY.                           Las Animas : COUNTY
 CTRY.                                  USA : COUNTRY
 API.                       05-071-08509-00 : API NUMBER
 STRT.FT                             475.00 : START DEPTH
 STOP.FT                            2220.00 : STOP DEPTH
 STEP.FT                               1.00 : DEPTH INCREMENT
 NULL.                                -9999 : NULL VALUE
~Curve information
 DEPTH.FT                                   :
 ROP.MIN/FT                                 :
 GAS.UNITS                                  :
~ASCII Log data
       475.0     -9999.00          3.1 
       476.0         6.30          3.6 
       477.0       107.38          5.2 
       478.0         0.17          2.8 
       479.0        21.08          5.1 
       480.0         0.20          2.9 
       481.0         0.53          3.6 
       482.0         0.03          3.5 
       483.0         0.07          3.5 
       484.0         0.03          3.5 
       485.0         0.10          3.5 
       486.0         0.20          3.3 
       487.0         3.52          5.0 
       488.0        10.18          5.0 
       489.0         0.73          3.1 
       490.0         0.13          3.9 
       491.0         0.72          5.0 
       492.0         0.13          3.5 
       493.0        16.65          5.3 
       494.0         0.13          3.0 
       495.0         1.15          3.1 
       496.0         0.43          2.2 
       497.0         1.10          3.0 
       498.0         0.20          0.2 
       499.0         0.40          0.8 
       500.0         0.85          2.0 
       501.0         0.40          2.1 
       502.0         0.27          2.8 
       503.0         0.10          2.1 
       504.0         1.67          3.1 
       505.0         2.15          2.9 
       506.0         0.30          2.1 
       507.0         1.55          2.6 
       508.0         0.37          1.2 
       509.0         0.77          2.9 
       510.0         0.47          2.9 
       511.0         0.40          2.5 
       512.0         1.03          3.5 
       513.0         0.35          2.1 
       514.0         1.27          3.2 
       515.0         0.40          2.8 
       516.0         0.07          2.5 
       517.0         1.48          1.9 
       518.0         0.23          2.0 
       519.0         3.95          3.3 
       520.0         0.33          2.0 
       521.0         0.50          2.7 
       522.0         1.98          3.7 
       523.0         1.30          2.9 
       524.0         0.17          2.1 
       525.0         1.10          3.4 
       526.0         0.65          2.3 
       527.0         0.23          1.9 
       528.0         1.13          3.1 
       529.0         1.78          3.2 
       530.0         0.47          3.6 
       531.0         0.37          3.6 
       532.0         0.83          1.3 
       533.0         0.40          3.5 
       534.0         0.30          3.1 
       535.0         0.40          2.7 
       536.0         1.12          2.7 
       537.0         0.17          2.0 
       538.0         4.32          4.0 
       539.0         1.13          3.0 
       540.0         0.07          3.0 
       541.0         0.10          4.0 
       542.0         0.07          3.0 
       543.0         0.07          3.0 
       544.0         0.07          3.0 
       545.0         0.12          2.8 
       546.0         0.07          2.8 
       547.0         0.07          2.8 
       548.0         0.07          2.8 
       549.0         0.07          2.6 
       550.0         0.07          5.4 
       551.0         0.07          5.4 
       552.0         0.07         27.9 
       553.0         0.07         27.9 
       554.0         0.07         27.9 
       555.0         0.03         27.9 
       556.0         0.07         27.4 
       557.0         0.07         27.4 
       558.0         0.07         19.1 
       559.0         0.07         19.1 
       560.0         0.07         11.1 
       561.0         0.10         11.1 
       562.0         0.07         11.1 
       563.0         0.07         11.1 
       564.0         0.10          5.4 
       565.0         0.13          5.4 
       566.0         2.85          6.3 
       567.0         0.07          5.5 
       568.0         0.07          5.5 
       569.0         0.07          4.2 
       570.0         0.10          4.2 
       571.0         0.07          4.1 
       572.0         0.07          4.1 
       573.0         0.07          4.1 
       574.0         0.10          5.1 
       575.0         0.07          5.1 
       576.0         0.07          5.1 
       577.0         0.07          5.1 
       578.0         0.10          6.1 
       579.0         0.07          6.1 
       580.0         0.07          6.1 
       581.0         0.10          6.6 
       582.0         0.10          6.6 
       583.0         0.10          6.6 
       584.0         0.10          6.7 
       585.0         0.07          7.2 
       586.0         0.10          6.7 
       587.0         0.10          6.7 
       588.0         0.10          6.7 
       589.0         0.10          6.8 
       590.0         0.10          6.5 
       591.0         0.15          6.5 
       592.0         0.13          6.4 
       593.0         0.10          6.4 
       594.0         0.10          6.8 
       595.0         0.13          6.8 
       596.0         2.88          9.1 
       597.0         0.07          6.9 
       598.0         0.13          7.2 
       599.0         0.13          7.5 
       600.0         0.13          7.3 
       601.0         0.13          7.2 
       602.0         0.10          7.9 
       603.0         0.17          7.9 
       604.0         0.07          8.3 
       605.0         0.10          8.5 
       606.0         0.17          8.6 
       607.0         0.17          9.0 
       608.0         0.17          8.1 
       609.0         0.17          7.6 
       610.0         0.13          8.0 
       611.0         0.07          8.0 
       612.0         0.10          8.0 
       613.0         0.13          7.3 
       614.0         0.13          7.3 
       615.0         0.17          7.9 
       616.0         0.10          7.9 
       617.0         0.13          8.5 
       618.0         0.13          8.5 
       619.0         0.17          7.9 
       620.0         0.20          7.9 
       621.0         0.22          8.8 
       622.0         0.20          8.8 
       623.0         0.20          8.8 
       624.0         0.17          8.7 
       625.0         0.17          9.8 
       626.0         1.48         10.9 
       627.0         0.80          9.2 
       628.0         0.77         10.1 
       629.0         3.42          9.9 
       630.0         0.10          8.4 
       631.0         0.27          8.5 
       632.0         0.17          8.8 
       633.0         0.13          8.7 
       634.0         0.17          9.1 
       635.0         0.17          9.6 
       636.0         0.17         10.0 
       637.0         0.13          9.5 
       638.0         0.13          9.3 
       639.0         0.12          9.5 
       640.0         0.10          9.5 
       641.0         0.13          8.9 
       642.0         0.13          8.9 
       643.0         0.13          8.3 
       644.0         0.13          8.3 
       645.0         0.13          7.8 
       646.0         0.13          7.8 
       647.0         0.17          8.2 
       648.0         0.17          8.2 
       649.0         0.13          8.9 
       650.0         0.10          8.9 
       651.0         0.10          9.1 
       652.0         0.13          9.1 
       653.0         0.10          9.1 
       654.0         0.17          9.1 
       655.0         0.13          8.7 
       656.0         3.62         10.7 
       657.0         0.63          9.5 
       658.0         0.52          9.9 
       659.0         0.20          9.1 
       660.0         0.23          8.2 
       661.0         0.17          8.4 
       662.0         0.17          8.4 
       663.0         0.17          8.4 
       664.0         0.13          8.7 
       665.0         0.17          9.8 
       666.0         0.20          9.8 
       667.0         0.20          8.8 
       668.0         0.17          8.5 
       669.0         0.20          8.2 
       670.0         0.20          8.2 
       671.0         0.10          8.1 
       672.0         0.10          7.8 
       673.0         0.13          8.1 
       674.0         0.55          9.1 
