~Version Information
VERS.                      2.0: CWLS Log ASCII Standard - VERSION 2.0
WRAP.                       NO: One line per depth step
~Well Information Block
STRT.FT               491.0000: 
STOP.FT              1911.5000: 
STEP.FT                 0.2500: 
NULL.                -999.2500: 
COMP.          Pioneer Natural Resources: COMPANY
WELL.            Corazon 13-10: WELL
FLD.           Purgatoire River: FIELD
LOC.           2510' FSL & 439' FWL: LOCATION
PROV.                 Colorado: PROVINCE
CNTY.               Las Animas: COUNTRY
SRVC.                Patterson: SERVICE COMPANY
DATE.          Wed Nov 30 22:14:48 2005: LOG DATE
UWI.           05 071 08613 00: UNIQUE WELL ID
~Curve Information Block
DEPT.FT            0 000 00 00: Depth
SN.Ohm-m                      : IEL Short Normal
SP.mV                         : IEL Spontaneous Potential
DIR.Ohm-m                     : IEL Induction Resistivity
GR.GAPI                       : Gamma Ray
~Parameter Information Block
~A  Depth        SN          SP         DIR          GR     
# ...
   960.0000      9.6370      5.0858      8.2054    125.5247
   960.2500      9.7408      5.0077      8.2991    127.4210
   960.5000      9.7786      4.9310      8.3978    129.4513
   960.7500      9.7937      4.8669      8.4846    130.0202
   961.0000      9.8337      4.8194      8.5457    130.0577
   961.2500      9.8916      4.7823      8.5796    130.1226
   961.5000      9.9248      4.7401      8.5990    131.0403
   961.7500      9.9279      4.6749      8.6246    132.0763
   962.0000      9.9370      4.5765      8.6767    133.3736
   962.2500      9.9714      4.4502      8.7682    133.6811
   962.5000     10.0219      4.3146      8.9020    133.2926
   962.7500     10.0759      4.1920      9.0703    132.5640
   963.0000     10.0990      4.0987      9.2567    130.3470
   963.2500     10.0414      4.0425      9.4405    127.4909
   963.5000      9.9139      4.0266      9.6013    120.2132
   963.7500      9.8101      4.0559      9.7247    113.4353
   964.0000      9.8464      4.1388      9.8071    101.7880
   964.2500     10.0984      4.2828      9.8600     94.3120
   964.5000     10.5584      4.4854      9.9091     85.8455
   964.7500     11.1486      4.7290      9.9886     83.2032
   965.0000     11.7779      4.9880     10.1305     84.9194
   965.2500     12.3952      5.2426     10.3559     89.7065
   965.5000     13.0165      5.4849     10.6701    100.3194
   965.7500     13.6521      5.7112     11.0612    107.6164
   966.0000     14.1889      5.9115     11.4978    115.1015
   966.2500     14.4990      6.0683     11.9278    116.4766
   966.5000     14.6578      6.1659     12.2829    113.7452
   966.7500     14.8323      6.1996     12.4980    110.4349
   967.0000     15.0323      6.1791     12.5406    106.2599
   967.2500     15.1762      6.1239     12.4274    104.7562
   967.5000     15.2630      6.0581     12.2091    103.7665
   967.7500     15.3255      6.0029     11.9385    103.1803
   968.0000     15.3192      5.9728     11.6466    101.8519
   968.2500     15.1315      5.9724     11.3420    100.9703
   968.5000     14.7058      5.9977     11.0211    100.7339
   968.7500     14.1225      6.0377     10.6810    101.9120
   969.0000     13.5209      6.0770     10.3230    106.1205
   969.2500     12.9852      6.1017      9.9503    110.2811
   969.5000     12.5194      6.1055      9.5638    117.5315
   969.7500     12.0721      6.0917      9.1638    122.4568
   970.0000     11.6086      6.0689      8.7561    129.0068
   970.2500     11.1543      6.0449      8.3553    132.0854
   970.5000     10.7249      6.0211      7.9814    133.7421
   970.7500     10.2766      5.9912      7.6527    132.9561
   971.0000      9.7797      5.9442      7.3795    130.3835
   971.2500      9.2959      5.8711      7.1642    128.8129
   971.5000      8.9297      5.7711      7.0052    127.8991
   971.7500      8.7123      5.6505      6.9010    128.3989
   972.0000      8.5615      5.5199      6.8539    130.2138
   972.2500      8.3791      5.3929      6.8696    131.5727
   972.5000      8.1813      5.2828      6.9541    133.2477
   972.7500      8.0783      5.1966      7.1095    134.2300
   973.0000      8.1420      5.1350      7.3321    136.2852
   973.2500      8.3804      5.1024      7.6132    138.5444
   973.5000      8.8158      5.1113      7.9420    143.5153
   973.7500      9.4605      5.1722      8.3081    147.3612
   974.0000     10.2312      5.2834      8.7015    151.8102
   974.2500     11.0749      5.4369      9.1138    152.3446
   974.5000     12.1667      5.6288      9.5408    147.5711
   974.7500     13.7705      5.8616      9.9843    140.6184
   975.0000     15.8760      6.1370     10.4515    126.7085
   975.2500     18.0474      6.4482     10.9481    117.2905
   975.5000     19.6552      6.7786     11.4682    106.4556
   975.7500     20.3136      7.1039     11.9867    102.4456
   976.0000     20.0996      7.3970     12.4581    100.9704
   976.2500     19.3449      7.6338     12.8296    102.2895
   976.5000     18.3476      7.8018     13.0613    106.7994
   976.7500     17.2833      7.9066     13.1437    111.3658
   977.0000     16.2383      7.9691     13.0989    120.6266
   977.2500     15.2981      8.0152     12.9682    128.2849
   977.5000     14.5817      8.0622     12.7970    141.1130
   977.7500     14.0928      8.1139     12.6257    149.6196
   978.0000     13.6695      8.1639     12.4864    160.3912
   978.2500     13.2078      8.2032     12.4003    165.3050
   978.5000     12.7847      8.2250     12.3754    168.3255
   978.7500     12.5442      8.2234     12.4037    167.2020
   979.0000     12.5868      8.1900     12.4643    160.8624
   979.2500     12.9392      8.1141     12.5332    154.0706
   979.5000     13.5593      7.9910     12.5934    142.0782
   979.7500     14.3427      7.8319     12.6413    134.3674
   980.0000     15.1110      7.6645     12.6831    125.2342
   980.2500     15.7302      7.5215     12.7281    121.3397
   980.5000     16.2449      7.4257     12.7834    118.7839
   980.7500     16.7165      7.3810     12.8526    118.8624
   981.0000     16.9995      7.3748     12.9338    120.8405
   981.2500     16.8843      7.3871     13.0187    123.1537
   981.5000     16.3948      7.4004     13.0948    128.0306
   981.7500     15.8273      7.4069     13.1542    132.0935
   982.0000     15.4413      7.4108     13.2030    138.6786
   982.2500     15.2005      7.4234     13.2604    142.7143
   982.5000     14.9669      7.4535     13.3430    147.0985
   982.7500     14.7031      7.4989     13.4450    148.5700
   983.0000     14.3824      7.5445     13.5332    148.7573
   983.2500     14.0054      7.5691     13.5690    147.8635
   983.5000     13.6921      7.5548     13.5415    145.5587
   983.7500     13.5887      7.4957     13.4803    143.6581
   984.0000     13.7734      7.3997     13.4374    140.6455
   984.2500     14.2125      7.2854     13.4593    138.5612
   984.5000     14.7457      7.1725     13.5725    134.8667
   984.7500     15.2060      7.0710     13.7840    131.7262
   985.0000     15.5723      6.9733     14.0863    126.2831
   985.2500     15.9601      6.8610     14.4618    122.7972
   985.5000     16.4549      6.7224     14.8872    118.5250
   985.7500     17.0319      6.5626     15.3360    116.0041
   986.0000     17.6185      6.3948     15.7774    111.4402
   986.2500     18.1317      6.2276     16.1746    107.6198
   986.5000     18.4737      6.0637     16.4880    102.1787
   986.7500     18.5561      5.9062     16.6847    100.3219
   987.0000     18.3782      5.7608     16.7471    102.1337
   987.2500     18.0764      5.6344     16.6733    106.1357
   987.5000     17.8390      5.5346     16.4696    113.3973
   987.7500     17.7350      5.4702     16.1444    116.8924
   988.0000     17.6477      5.4462     15.7064    117.9188
   988.2500     17.3953      5.4599     15.1699    116.0336
   988.5000     16.8836      5.5011     14.5600    111.6432
   988.7500     16.1721      5.5576     13.9112    109.2369
   989.0000     15.4265      5.6184     13.2587    108.3734
   989.2500     14.7749      5.6748     12.6301    110.1794
   989.5000     14.2413      5.7196     12.0412    116.2444
   989.7500     13.7902      5.7463     11.4998    121.7419
   990.0000     13.3276      5.7480     11.0106    130.3156
   990.2500     12.7510      5.7130     10.5792    135.3813
   990.5000     12.1031      5.6249     10.2130    141.3434
   990.7500     11.5187      5.4749      9.9182    144.2044
   991.0000     10.9901      5.2802      9.6969    147.1099
   991.2500     10.3704      5.0805      9.5460    148.3827
   991.5000      9.6220      4.9085      9.4566    149.5544
   991.7500      8.9433      4.7657      9.4158    149.7098
   992.0000      8.6019      4.6294      9.4100    148.4269
   992.2500      8.6863      4.4774      9.4296    146.3151
   992.5000      9.0693      4.3048      9.4714    141.3409
   992.7500      9.5735      4.1231      9.5389    137.1082
   993.0000     10.1252      3.9501      9.6398    130.0630
   993.2500     10.7519      3.7999      9.7838    125.3113
