~Version Information
VERS.                      2.0: CWLS Log ASCII Standard - VERSION 2.0
WRAP.                       NO: One line per depth step
~Well Information Block
STRT.FT                 0.0000: 
STOP.FT               968.2500: 
STEP.FT                 0.2500: 
NULL.                -999.2500: 
COMP.          Pioneer Natural Resources: COMPANY
WELL.              Atlas 32-18: WELL
FLD.           Purgatorie River: FIELD
LOC.           1892' FNL & 1456' FEL: LOCATION
PROV.                 Colorado: PROVINCE
CNTY.               Las Animas: COUNTRY
SRVC.                Patterson: SERVICE COMPANY
DATE.          Fri Dec 02 11:37:22 2005: LOG DATE
UWI.                          : UNIQUE WELL ID
~Curve Information Block
DEPT.FT            0 000 00 00: Depth
CCL.                          : Casing Collar Locator
TT3.usec                      : CBL 3' Travel Time
AMP3.mV                       : CBL 3' Amplitude
GR.GAPI                       : Gamma Ray
~Parameter Information Block
~A  Depth       CCL         TT3         AMP3         GR     
     0.0000   -999.2500   1197.0000     -0.0497     29.0522
     0.2500   -999.2500   1197.0000     -0.0600     26.2590
     0.5000   -999.2500   1197.0000     -0.0690     25.8739
     0.7500   -999.2500   1197.0000     -0.0751     25.5609
     1.0000   -999.2500   1197.0000     -0.0813     24.6507
     1.2500   -999.2500   1197.0000     -0.0800     23.0696
     1.5000   -999.2500   1197.0000     -0.0784     21.5808
     1.7500   -999.2500   1197.0000     -0.0898     21.0995
     2.0000   -999.2500   1197.0000     -0.0938     21.8796
     2.2500   -999.2500   1197.0000     -0.0720     23.4884
     2.5000      0.0000   1197.0000     -0.0542     25.4166
     2.7500     -2.0000   1197.0000     -0.0640     27.5255
     3.0000      2.0000   1197.0000     -0.0735     30.0586
     3.2500      0.0000   1197.0000     -0.0563     33.4118
     3.5000      0.0000   1197.0000     -0.0287     37.6945
     3.7500      0.0000   1197.0000     -0.0249     42.2520
     4.0000      0.0000   1197.0000     -0.0585     45.8569
     4.2500      0.0000   1197.0000     -0.1016     47.7506
     4.5000      0.0000   1196.9164     -0.1021     48.3727
     4.7500      0.0000   1195.9526      0.0297     48.7578
     5.0000      0.0000   1188.8318      0.7163     49.3292
     5.2500      0.0000   1155.0958      3.5401     49.5548
     5.5000      0.0000   1052.6198     11.7062     48.6572
     5.7500      0.0000    853.0381     27.2770     46.4300
     6.0000      0.0000    603.8197     46.4728     43.4615
     6.2500      0.0000    404.2957     61.6859     40.7819
     6.5000      0.0000    301.8784     69.4332     39.2742
     6.7500      0.0000    268.1761     72.0222     39.2738
     7.0000      0.0000    261.1072     72.7915     40.5657
     7.2500      0.0000    260.2592     73.4169     42.5907
     7.5000      0.0000    260.3222     74.2754     44.6629
     7.7500      0.0000    260.4098     75.1449     46.2179
     8.0000      0.0000    260.3811     75.6717     47.0093
     8.2500      0.0000    260.2638     75.7768     47.1487
     8.5000      0.0000    260.1398     75.6758     47.0329
     8.7500      0.0000    260.0723     75.6672     47.1263
     9.0000      0.0000    260.0706     75.9862     47.5940
     9.2500      0.0000    260.1076     76.6115     48.1249
     9.5000      0.0000    260.1469     77.2270     48.2284
     9.7500      0.0000    260.1685     77.5722     47.7978
    10.0000      0.0000    260.1771     77.7264     47.4148
    10.2500      0.0000    260.1849     77.8894     48.0276
    10.5000      0.0000    260.2006     78.1045     50.2295
    10.7500      0.0000    260.2303     78.3410     53.9049
    11.0000      0.0000    260.2807     78.6268     58.5434
    11.2500      0.0000    260.3517     78.9854     63.6507
    11.5000      0.0000    260.4104     79.3064     68.7356
    11.7500      0.0000    260.4037     79.4124     73.0996
    12.0000      0.0000    260.3283     79.2554     75.9452
    12.2500      0.0000    260.2402     78.9606     76.8622
    12.5000      0.0000    260.1893     78.7468     76.1385
    12.7500      0.0000    260.1910     78.7633     74.6270
    13.0000      0.0000    260.2399     78.9321     73.4330
    13.2500      0.0000    260.3073     78.9893     73.5054
    13.5000      0.0000    260.3434     78.5646     75.0572
    13.7500      0.0000    260.3267     77.1607     77.3413
    14.0000      0.0000    260.3075     74.3212     79.3668
    14.2500      0.0000    260.4025     70.0112     81.0216
    14.5000      0.0000    260.8973     64.6437     83.1503
    14.7500      0.0000    262.6421     58.6655     86.1595
    15.0000      0.0000    267.2738     52.3389     88.7510
    15.2500      0.0000    275.8816     45.9267     88.6770
    15.5000      0.0000    287.0400     39.7721     84.9794
    15.7500      0.0000    299.9641     34.1193     79.1715
    16.0000      0.0000    323.4218     29.0873     74.1284
    16.2500      0.0000    374.6498     24.7561     71.9414
    16.5000      0.0000    449.5348     21.1185     72.4791
    16.7500      0.0000    500.5659     18.0976     73.6884
    17.0000      0.0000    489.2321     15.6774     73.5191
    17.2500      0.0000    441.6182     13.9049     71.7464
    17.5000      0.0000    404.1996     12.7775     69.7396
    17.7500      0.0000    388.7403     12.1817     68.7097
    18.0000      0.0000    384.7436     11.9229     68.8693
    18.2500      0.0000    384.1837     11.8098     70.2303
    18.5000      0.0000    385.0595     11.7291     73.2420
    18.7500      0.0000    389.7060     11.6548     78.0275
    19.0000      0.0000    408.0440     11.5919     83.2650
    19.2500      0.0000    458.4946     11.5362     86.5086
    19.5000      0.0000    550.4258     11.4928     86.0686
    19.7500      0.0000    660.0027     11.4650     82.5002
    20.0000      0.0000    744.9173     11.4057     78.0447
    20.2500      0.0000    787.5280     11.2616     74.8052
    20.5000      0.0000    801.3580     11.0775     73.5879
    20.7500      0.0000    804.0635     10.9613     74.0092
    21.0000      0.0000    803.4799     10.9429     75.1681
    21.2500      0.0000    800.3871     10.9565     76.3622
    21.5000      0.0000    792.4868     10.9431     77.5125
    21.7500      0.0000    778.8168     10.8933     78.9903
    22.0000      0.0000    764.6214     10.8135     81.0842
    22.2500      0.0000    756.5060     10.7180     83.6050
    22.5000      0.0000    752.2408     10.6293     85.8407
    22.7500      0.0000    745.7775     10.5620     86.8529
    23.0000      0.0000    739.1033     10.5195     85.9689
    23.2500      0.0000    739.4373     10.5088     83.2121
    23.5000      0.0000    750.4427     10.5543     79.4196
    23.7500      0.0000    769.3268     10.6691     75.9432
    24.0000      0.0000    788.9375     10.8005     74.0324
    24.2500      0.0000    803.4255     10.8678     74.1623
    24.5000      0.0000    810.8323     10.8609     75.6832
    24.7500      0.0000    810.4794     10.8352     77.1695
    25.0000      0.0000    802.5888     10.8072     77.5320
    25.2500      0.0000    788.7929     10.7440     77.0338
    25.5000      0.0000    773.3300     10.6553     76.9106
    25.7500      0.0000    766.5869     10.6071     77.7322
    26.0000      0.0000    775.9709     10.6373     78.5702
    26.2500      0.0000    793.9552     10.7162     78.2180
    26.5000      0.0000    806.6262     10.8065     76.8003
    26.7500      0.0000    804.8563     10.9185     75.5422
    27.0000      0.0000    787.1526     11.0646     75.1456
    27.2500      0.0000    762.2833     11.1943     75.0066
    27.5000      0.0000    743.4153     11.2261     74.0385
    27.7500      0.0000    737.6749     11.1330     71.7825
    28.0000      0.0000    746.1780     10.9715     68.6540
    28.2500      0.0000    766.0127     10.8197     65.5201
    28.5000      0.0000    786.0877     10.7125     63.1475
    28.7500      0.0000    791.0806     10.6669     61.7642
    29.0000      0.0000    771.6627     10.7060     61.1146
    29.2500      0.0000    722.6848     10.8168     61.1188
    29.5000      0.0000    645.3517     10.9591     62.3598
    29.7500      0.0000    565.5453     11.1082     65.5765
    30.0000      0.0000    516.5606     11.2372     70.6460
    30.2500      0.0000    490.3586     11.3151     76.2831
    30.5000      0.0000    456.3211     11.3389     80.8906
    30.7500      0.0000    415.2835     11.3356     83.7098
    31.0000      0.0000    386.0293     11.3394     85.1803
    31.2500      0.0000    374.0754     11.3655     86.2812
    31.5000      0.0000    381.7563     11.4069     87.5893
    31.7500      0.0000    419.3233     11.4554     88.9471
    32.0000      0.0000    485.8465     11.5096     89.9960
    32.2500      0.0000    546.1309     11.5734     90.8470
    32.5000      0.0000    559.6591     11.6272     91.9151
    32.7500      0.0000    543.4999     11.5917     93.0761
    33.0000      0.0000    557.2343     11.4117     93.3550
    33.2500      0.0000    618.5286     11.1554     91.5886
