~Version Information
VERS.                      2.0: CWLS Log ASCII Standard - VERSION 2.0
WRAP.                       NO: One line per depth step
~Well Information Block
STRT.FT               545.0000: 
STOP.FT              1452.5000: 
STEP.FT                 0.1000: 
NULL.                -999.2500: 
COMP.          Pioneer Natural Resources: COMPANY
WELL.          Parklane 43-34 Tr: WELL
FLD.           Purgatoire River: FIELD
LOC.           1643' FSL & 966' FEL: LOCATION
PROV.                 Colorado: PROVINCE
CNTY.               Las Animas: COUNTRY
SRVC.                Patterson: SERVICE COMPANY
DATE.          Fri Jul 29 07:27:28 2005: LOG DATE
UWI.           05 071 08452 00: UNIQUE WELL ID
~Curve Information Block
DEPT.FT            0 000 00 00: Depth
DCAL.in                       : CDL Caliper
RHOB.g/cc                     : CDL Bulk Density
RHOC.g/cc                     : CDL Density Correction
DPOR.pu                       : CDL Density Porosity
GR.GAPI                       : Gamma Ray
NPOR.pu                       : Neutron Porosity
~Parameter Information Block
~A  Depth       DCAL        RHOB        RHOC        DPOR         GR         NPOR    
# ...
  1437.8000      7.8450      2.5527      0.0555      5.8954   -999.2500     41.8462
  1437.9000      7.8450      2.4993      0.0421      9.1318   -999.2500     49.0435
  1438.0000      7.8686      2.4526     -0.0615     11.9614   -999.2500     51.6041
  1438.1000      7.8686      2.4533     -0.0755     11.9188   -999.2500     52.1036
  1438.2000      7.8686      2.4993      0.0427      9.1347   -999.2500     52.1564
  1438.3000      7.8422      2.5492      0.0371      6.1094   -999.2500     52.1594
  1438.4000      7.8422      2.5733      0.0964      4.6475   -999.2500   -999.2500
  1438.5000      7.8391      2.5732      0.0958      4.6534   -999.2500   -999.2500
  1438.6000      7.8391      2.5719      0.0753      4.7362   -999.2500   -999.2500
  1438.7000      7.8391      2.5755      0.1444      4.5173   -999.2500   -999.2500
  1438.8000      7.9237      2.5748      0.0498      4.5590   -999.2500   -999.2500
  1438.9000      7.9237      2.5803      0.0669      4.2225   -999.2500   -999.2500
  1439.0000      7.9232      2.6004      0.1057      3.0045   -999.2500   -999.2500
  1439.1000      7.9232      2.6241      0.1173      1.5689   -999.2500   -999.2500
  1439.2000      7.9232      2.6457      0.1561      0.2591   -999.2500   -999.2500
  1439.3000      7.9386      2.6698      0.1018     -1.2010   -999.2500   -999.2500
  1439.4000      7.9386      2.6943      0.1704     -2.6850   -999.2500   -999.2500
  1439.5000      7.9286      2.7004      0.1368     -3.0563   -999.2500   -999.2500
  1439.6000      7.9286      2.6788      0.0653     -1.7452   -999.2500   -999.2500
  1439.7000      7.9286      2.6416      0.0535      0.5080   -999.2500   -999.2500
  1439.8000      7.9322      2.6025      0.0476      2.8811   -999.2500   -999.2500
  1439.9000      7.9322      2.5724      0.0143      4.7015   -999.2500   -999.2500
  1440.0000      7.9180      2.5649      0.0006      5.1591   -999.2500   -999.2500
  1440.1000      7.9180      2.5782      0.0521      4.3520   -999.2500   -999.2500
  1440.2000      7.9180      2.5923      0.0684      3.4998   -999.2500   -999.2500
  1440.3000      7.8895      2.5999      0.0565      3.0355   -999.2500   -999.2500
  1440.4000      7.8895      2.6087      0.0716      2.5013   -999.2500   -999.2500
  1440.5000      7.8742      2.6199      0.0876      1.8258   -999.2500   -999.2500
  1440.6000      7.8742      2.6348      0.0555      0.9242   -999.2500   -999.2500
  1440.7000      7.8742      2.6513      0.1143     -0.0798   -999.2500   -999.2500
  1440.8000      7.8725      2.6523      0.0851     -0.1376   -999.2500   -999.2500
  1440.9000      7.8725      2.6317      0.0341      1.1084   -999.2500   -999.2500
  1441.0000      7.8734      2.6064      0.0185      2.6420   -999.2500   -999.2500
  1441.1000      7.8734      2.5946     -0.0111      3.3584   -999.2500   -999.2500
  1441.2000      7.8734      2.5984      0.0100      3.1301   -999.2500   -999.2500
  1441.3000      7.8636      2.6088      0.0311      2.4995   -999.2500   -999.2500
  1441.4000      7.8636      2.6253      0.0199      1.4965   -999.2500   -999.2500
  1441.5000      7.8642      2.6487      0.0757      0.0795   -999.2500   -999.2500
  1441.6000      7.8642      2.6698      0.0810     -1.2018   -999.2500   -999.2500
  1441.7000      7.8642      2.6776      0.0969     -1.6701   -999.2500   -999.2500
  1441.8000      7.8886      2.6640      0.0806     -0.8479   -999.2500   -999.2500
  1441.9000      7.8886      2.6310      0.0875      1.1487   -999.2500   -999.2500
  1442.0000      7.8588      2.5910      0.0765      3.5776   -999.2500   -999.2500
  1442.1000      7.8588      2.5686      0.0004      4.9358   -999.2500   -999.2500
  1442.2000      7.8588      2.5804      0.0149      4.2153   -999.2500   -999.2500
  1442.3000      7.7749      2.6093      0.0501      2.4680   -999.2500   -999.2500
  1442.4000      7.7749      2.6373      0.0535      0.7671   -999.2500   -999.2500
  1442.5000      7.8238      2.6639      0.1274     -0.8417   -999.2500   -999.2500
  1442.6000      7.8238      2.6817      0.1349     -1.9186   -999.2500   -999.2500
  1442.7000      7.8238      2.6838      0.0908     -2.0512   -999.2500   -999.2500
  1442.8000      7.8636      2.6723      0.0956     -1.3529   -999.2500   -999.2500
  1442.9000      7.8636      2.6550      0.0418     -0.3006   -999.2500   -999.2500
  1443.0000      7.8492      2.6433      0.1075      0.4089   -999.2500   -999.2500
  1443.1000      7.8492      2.6347      0.0344      0.9268   -999.2500   -999.2500
  1443.2000      7.8492      2.6207      0.0443      1.7782   -999.2500   -999.2500
  1443.3000      7.8193      2.6030      0.0610      2.8463   -999.2500   -999.2500
  1443.4000      7.8193      2.5891      0.0783      3.6901   -999.2500   -999.2500
  1443.5000      7.8333      2.5809      0.0604      4.1881   -999.2500   -999.2500
  1443.6000      7.8333      2.5850      0.0307      3.9387   -999.2500   -999.2500
  1443.7000      7.8333      2.6133      0.0202      2.2242   -999.2500   -999.2500
  1443.8000      7.8491      2.6592      0.0569     -0.5568   -999.2500   -999.2500
  1443.9000      7.8491      2.7026      0.0723     -3.1876   -999.2500   -999.2500
  1444.0000      7.8694      2.7370      0.1096     -5.2753   -999.2500   -999.2500
  1444.1000      7.8694      2.7728      0.1092     -7.4430   -999.2500   -999.2500
  1444.2000      7.8694      2.8094      0.1740     -9.6618   -999.2500   -999.2500
  1444.3000      7.9047      2.8296      0.1415    -10.8827   -999.2500   -999.2500
  1444.4000      7.9047      2.8248      0.1688    -10.5957   -999.2500   -999.2500
  1444.5000      7.8723      2.8048      0.0688     -9.3811   -999.2500   -999.2500
  1444.6000      7.8723      2.7803      0.0935     -7.8986   -999.2500   -999.2500
  1444.7000      7.8723      2.7420      0.0787     -5.5730   -999.2500   -999.2500
  1444.8000      7.8395      2.6824      0.0448     -1.9634   -999.2500   -999.2500
  1444.9000      7.8395      2.6167      0.0119      2.0163   -999.2500   -999.2500
  1445.0000      7.8367      2.5632      0.0223      5.2625   -999.2500   -999.2500
  1445.1000      7.8367      2.5358     -0.0088      6.9236   -999.2500   -999.2500
  1445.2000      7.8367      2.5447      0.0025      6.3826   -999.2500   -999.2500
  1445.3000      7.8765      2.5814      0.0544      4.1578   -999.2500   -999.2500
  1445.4000      7.8765      2.6210      0.1033      1.7568   -999.2500   -999.2500
  1445.5000      7.8994      2.6467      0.1546      0.2003   -999.2500   -999.2500
  1445.6000      7.8994      2.6541      0.1588     -0.2497   -999.2500   -999.2500
  1445.7000      7.8994      2.6445      0.1463      0.3337   -999.2500   -999.2500
  1445.8000      7.9022      2.6278      0.0963      1.3437   -999.2500   -999.2500
  1445.9000      7.9022      2.6133      0.0956      2.2227   -999.2500   -999.2500
  1446.0000      7.8837      2.5875      0.0716      3.7878   -999.2500   -999.2500
  1446.1000      7.8837      2.5361      0.0395      6.9005   -999.2500   -999.2500
  1446.2000      7.8837      2.4805     -0.0111     10.2724   -999.2500   -999.2500
  1446.3000      7.8986      2.4512      0.0023     12.0457   -999.2500   -999.2500
  1446.4000      7.8986      2.4461      0.0222     12.3593   -999.2500   -999.2500
  1446.5000      7.9114      2.4473      0.0190     12.2867   -999.2500   -999.2500
  1446.6000      7.9114      2.4495      0.0181     12.1511   -999.2500   -999.2500
  1446.7000      7.9114      2.4541      0.0362     11.8750   -999.2500   -999.2500
  1446.8000      7.9220      2.4602      0.0242     11.5054   -999.2500   -999.2500
  1446.9000      7.9220      2.4634      0.0695     11.3113   -999.2500   -999.2500
  1447.0000      7.9490      2.4590      0.0793     11.5785   -999.2500   -999.2500
  1447.1000      7.9490      2.4549      0.0197     11.8223   -999.2500   -999.2500
  1447.2000      7.9490      2.4599      0.0623     11.5211   -999.2500   -999.2500
  1447.3000      7.9212      2.4681      0.0773     11.0248   -999.2500   -999.2500
