~Version Information
VERS.                      2.0: CWLS Log ASCII Standard - VERSION 2.0
WRAP.                       NO: One line per depth step
~Well Information Block
STRT.FT                -8.5000: 
STOP.FT              1214.7500: 
STEP.FT                 0.2500: 
NULL.                -999.2500: 
COMP.          Pioneer Natural Resources: COMPANY
WELL.          Rock Island 44-24 Tr: WELL
FLD.           Purgatorie River: FIELD
LOC.           814' FSL & 761' FEL--: LOCATION
CNTY.               Las Animas: COUNTY
SRVC.          Patterson Wireline: SERVICE COMPANY
DATE.          Fri Apr 28 10:23:18 2006: LOG DATE
UWI.           05 071 08680 00: UNIQUE WELL ID
STAT.                       CO: STATE
~Curve Information Block
DEPT.FT            0 000 00 00: Depth
CCL.                          : Casing Collar Locator
TT3.usec                      : CBL 3' Travel Time
AMP3.mV                       : CBL 3' Amplitude
GR.GAPI                       : Gamma Ray
~Parameter Information Block
~A  Depth       CCL         TT3         AMP3         GR     
# ...
   159.0000      0.0000    817.6671      6.7363     65.8960
   159.2500      0.0000    807.1521      6.7944     62.0923
   159.5000      0.0000    796.9594      6.8578     57.2013
   159.7500      0.0000    789.2376      6.9163     52.3983
   160.0000      0.0000    784.0626      6.9590     48.6898
   160.2500      0.0000    779.8327      6.9767     46.5555
   160.5000      0.0000    774.2451      6.9672     46.1466
   160.7500      0.0000    765.6885      6.9396     47.2329
   161.0000      0.0000    755.0178      6.9106     48.8119
   161.2500      0.0000    746.0735      6.8967     49.3358
   161.5000      0.0000    743.2392      6.9090     47.7895
   161.7500      0.0000    747.7277      6.9515     44.6001
   162.0000      0.0000    756.5859      7.0194     41.4262
   162.2500      0.0000    765.4389      7.0985     39.9969
   162.5000      0.0000    771.7280      7.1723     40.8935
   162.7500      0.0000    775.5273      7.2292     43.2260
   163.0000      0.0000    778.2660      7.2633     45.5280
   163.2500      0.0000    781.1180      7.2719     47.0741
   163.5000      0.0000    784.1701      7.2564     48.4509
   163.7500      0.0000    786.5991      7.2255     51.0737
   164.0000      0.0000    787.2772      7.1914     56.1563
   164.2500      0.0000    784.9175      7.1622     63.8215
   164.5000      0.0000    778.1799      7.1383     72.9954
   164.7500      0.0000    767.0403      7.1151     82.1102
   165.0000      0.0000    754.4803      7.0899     89.7932
   165.2500      0.0000    745.4799      7.0662     95.0948
   165.5000      0.0000    742.9040      7.0498     97.5726
   165.7500      0.0000    744.4247      7.0386     97.3930
   166.0000      0.0000    744.3893      7.0193     95.2958
   166.2500      0.0000    739.0837      6.9751     92.5417
   166.5000      0.0000    729.8198      6.8996     90.7981
   166.7500      0.0000    720.8311      6.8037     91.5417
   167.0000      0.0000    714.8955      6.7100     95.0657
   167.2500      0.0000    711.6316      6.6382     99.9681
   167.5000      0.0000    709.4993      6.5939    103.8066
   167.7500      0.0000    708.0838      6.5704    104.7305
   168.0000      0.0000    707.8629      6.5593    102.8722
   168.2500      0.0000    708.6010      6.5580     99.9977
   168.5000      0.0000    709.0794      6.5662     97.5538
   168.7500      0.0000    708.5574      6.5786     95.4218
   169.0000      0.0000    707.7317      6.5842     92.9159
   169.2500      0.0000    707.7220      6.5721     90.4549
   169.5000      0.0000    708.4361      6.5410     89.4269
   169.7500      0.0000    708.5547      6.5011     90.4670
   170.0000      0.0000    707.1430      6.4683     92.5527
   170.2500      0.0000    704.8001      6.4551     93.9512
   170.5000      0.0000    703.0859      6.4637     93.5896
   170.7500      0.0000    703.1552      6.4881     91.4386
   171.0000      0.0000    704.9206      6.5215     88.0976
   171.2500      0.0000    707.0736      6.5622     84.2919
   171.5000      0.0000    707.9251      6.6110     80.6321
   171.7500      0.0000    706.6812      6.6647     77.7421
   172.0000      0.0000    704.0192      6.7146     76.4650
   172.2500      0.0000    701.3046      6.7533     77.6325
   172.5000      0.0000    699.4209      6.7807     81.3582
   172.7500      0.0000    698.4339      6.8014     86.4204
   173.0000      0.0000    697.9922      6.8185     90.5478
   173.2500      0.0000    697.7457      6.8296     91.9108
   173.5000      0.0000    697.5023      6.8287     90.5887
   173.7500      0.0000    697.2306      6.8121     88.2423
   174.0000      0.0000    697.0040      6.7864     86.2349
   174.2500      0.0000    696.9000      6.7706     84.4380
   174.5000      0.0000    696.9203      6.7857     81.9167
   174.7500      0.0000    696.9919      6.8380     78.2373
   175.0000      0.0000    697.0428      6.9144     73.8607
   175.2500      0.0000    697.0692      6.9946     69.6946
   175.5000      0.0000    697.1224      7.0638     66.5570
   175.7500      0.0000    697.2390      7.1159     64.7329
   176.0000      0.0000    697.3939      7.1495     63.8015
   176.2500      0.0000    697.5295      7.1659     63.1298
   176.5000      0.0000    697.6505      7.1677     62.6056
   176.7500      0.0000    697.9584      7.1551     62.7237
   177.0000      0.0000    699.0030      7.1300     64.0116
   177.2500      0.0000    701.6824      7.1025     66.4668
   177.5000      0.0000    706.7985      7.0894     69.4692
   177.7500      0.0000    714.1512      7.1005     72.2588
   178.0000      0.0000    721.8643      7.1287     74.5118
   178.2500      0.0000    726.7974      7.1533     76.2003
   178.5000      0.0000    726.0790      7.1453     76.8646
   178.7500      0.0000    719.2855      7.0763     75.6504
   179.0000      0.0000    710.1706      6.9428     72.5266
   179.2500      0.0000    705.8699      6.7835     69.0462
   179.5000      0.0000    712.3215      6.6455     67.3032
   179.7500      0.0000    729.1782      6.5311     68.2127
   180.0000      0.0000    749.4900      6.4059     71.0002
   180.2500      0.0000    764.8601      6.2575     73.9088
   180.5000      0.0000    771.3591      6.1148     75.0563
   180.7500      0.0000    771.5086      6.0159     73.2805
   181.0000      0.0000    771.1550      5.9863     68.8863
   181.2500      2.0000    774.0458      6.0524     63.3946
   181.5000      0.0000    779.1899      6.2599     58.3242
   181.7500      0.0000    783.3817      6.6516     54.4419
   182.0000      0.0000    785.0843      7.1923     52.0597
   182.2500      0.0000    784.6368      7.7183     51.4269
   182.5000      0.0000    782.0587      8.0175     52.6082
   182.7500      0.0000    777.0263      7.9982     55.2099
   183.0000      0.0000    770.5908      7.7563     58.3372
   183.2500      0.0000    764.9262      7.4669     60.8947
   183.5000      0.0000    761.1536      7.2473     62.1344
   183.7500      0.0000    758.5137      7.1255     61.9871
   184.0000      0.0000    755.6696      7.0827     60.7498
   184.2500      0.0000    752.2051      7.0926     58.5306
   184.5000      0.0000    748.7694      7.1326     55.2188
   184.7500      0.0000    746.0278      7.1830     50.9798
   185.0000      0.0000    743.4583      7.2284     46.5040
   185.2500      0.0000    739.2420      7.2626     42.6670
   185.5000      0.0000    731.7349      7.2893     40.0654
   185.7500      0.0000    721.3483      7.3159     38.9020
   186.0000      0.0000    710.6544      7.3474     39.1720
   186.2500      0.0000    702.3412      7.3848     40.8198
   186.5000      0.0000    697.3416      7.4240     43.6687
   186.7500      0.0000    694.9197      7.4551     47.2625
   187.0000      0.0000    693.9089      7.4638     51.0026
   187.2500      0.0000    693.5190      7.4372     54.6431
   187.5000      0.0000    693.3815      7.3741     58.6010
   187.7500      0.0000    693.3411      7.2917     63.5946
   188.0000      0.0000    693.3344      7.2191     69.8203
   188.2500      0.0000    693.3420      7.1806     76.3849
   188.5000      0.0000    693.3605      7.1815     81.5596
   188.7500      0.0000    693.3832      7.2098     83.8380
   189.0000      0.0000    693.4120      7.2490     82.9546
   189.2500      0.0000    693.4650      7.2892     79.9698
   189.5000      0.0000    693.5511      7.3274     76.4434
   189.7500      0.0000    693.6480      7.3592     73.5996
   190.0000      0.0000    693.7234      7.3758     72.1418
   190.2500      0.0000    693.7746      7.3715     72.4939
   190.5000      0.0000    693.8309      7.3546     74.8044
   190.7500      0.0000    693.9222      7.3462     78.6018
   191.0000      0.0000    694.0544      7.3653     82.6644
   191.2500      0.0000    694.2082      7.4136     85.6057
   191.5000      0.0000    694.3483      7.4735     86.7577
   191.7500      0.0000    694.4454      7.5230     86.4485
   192.0000      0.0000    694.4991      7.5514     85.5215
   192.2500      0.0000    694.5289      7.5641     84.6499
