~Version Information
VERS.                      2.0: CWLS Log ASCII Standard - VERSION 2.0
WRAP.                       NO: One line per depth step
~Well Information Block
STRT.FT               440.0000: 
STOP.FT              1300.5000: 
STEP.FT                 0.1000: 
NULL.                -999.2500: 
COMP.          Pioneer Natural Resources: COMPANY
WELL.              Yoshi 14-30: WELL
FLD.           Purgatoire River: FIELD
LOC.           993' FSL & 823' FWL: LOCATION
CNTY.               Las Animas: COUNTY
SRVC.                Patterson: SERVICE COMPANY
DATE.          Fri Feb 17 14:59:28 2006: LOG DATE
UWI.           05 071 08699 00: UNIQUE WELL ID
STAT.                 Colorado: STATE
~Curve Information Block
DEPT.FT            0 000 00 00: Depth
DCAL.in                       : CDL Caliper
RHOB.g/cc                     : CDL Bulk Density
RHOC.g/cc                     : CDL Density Correction
DPOR.pu                       : CDL Density Porosity
GR.GAPI                       : Gamma Ray
NPOR.pu                       : Neutron Porosity
~Parameter Information Block
~A  Depth       DCAL        RHOB        RHOC        DPOR         GR         NPOR    
# ...
  1169.6000      7.9171      2.4839      0.0428     10.0684     98.0711     18.4541
  1169.7000      7.9171      2.4877      0.0016      9.8385    108.1593     18.2482
  1169.8000      7.9167      2.4990      0.0129      9.1515    119.7040     18.6164
  1169.9000      7.9167      2.5192      0.0062      7.9291    123.4764     18.8025
  1170.0000      7.9171      2.5347      0.0513      6.9849    117.2413     18.4148
  1170.1000      7.9171      2.5298      0.0437      7.2849    110.6294     18.3881
  1170.2000      7.9171      2.5079      0.0164      8.6117    108.7764     19.2252
  1170.3000      7.9174      2.4894     -0.0026      9.7329    109.1860     20.2810
  1170.4000      7.9174      2.4844      0.0277     10.0345    112.6766     20.7198
  1170.5000      7.9170      2.4837      0.0368     10.0782    116.1866     20.4761
  1170.6000      7.9170      2.4765      0.0360     10.5151    113.8139     19.9363
  1170.7000      7.9170      2.4698     -0.0034     10.9194    107.2251     19.3360
  1170.8000      7.9164      2.4815      0.0190     10.2098    104.5126     18.9986
  1170.9000      7.9164      2.5057      0.0670      8.7446    109.2183     19.3711
  1171.0000      7.9160      2.5150      0.0521      8.1840    115.4618     20.3190
  1171.1000      7.9160      2.5033      0.0346      8.8882    119.8768     21.0120
  1171.2000      7.9160      2.4937      0.0018      9.4755    127.0296     21.2778
  1171.3000      7.9168      2.4980      0.0467      9.2117    137.2554     21.3490
  1171.4000      7.9168      2.5021      0.0604      8.9646    145.4670     20.8158
  1171.5000      7.9183      2.4993     -0.0010      9.1328    147.8325     19.9086
  1171.6000      7.9183      2.4977      0.0198      9.2316    143.9177     19.3468
  1171.7000      7.9183      2.4946      0.0127      9.4200    137.6147     19.0744
  1171.8000      7.9195      2.4806      0.0052     10.2676    135.3257     19.0027
  1171.9000      7.9195      2.4577      0.0002     11.6544    138.1521     19.4246
  1172.0000      7.9188      2.4456     -0.0372     12.3877    139.1514     20.1053
  1172.1000      7.9188      2.4544      0.0326     11.8547    132.6232     20.5257
  1172.2000      7.9188      2.4578      0.0596     11.6462    122.9154     20.4947
  1172.3000      7.9156      2.4348      0.0159     13.0429    115.6525     20.1857
  1172.4000      7.9156      2.4044     -0.0306     14.8824    109.7873     20.0175
  1172.5000      7.9137      2.3907     -0.0177     15.7173    106.1427     20.1781
  1172.6000      7.9137      2.3928     -0.0108     15.5901    110.0734     20.6619
  1172.7000      7.9137      2.4050     -0.0126     14.8455    117.1915     21.5598
  1172.8000      7.9154      2.4274     -0.0177     13.4927    118.8025     22.6649
  1172.9000      7.9154      2.4510      0.0540     12.0608    117.8150     23.6643
  1173.0000      7.9177      2.4628      0.0321     11.3450    121.8190     24.2554
  1173.1000      7.9177      2.4639      0.0409     11.2769    130.9298     24.4698
  1173.2000      7.9177      2.4628      0.0268     11.3446    138.9507     24.7587
  1173.3000      7.9185      2.4654      0.0117     11.1871    141.3869     24.7751
  1173.4000      7.9185      2.4781      0.0257     10.4162    140.7546     24.1165
  1173.5000      7.9183      2.4985      0.0589      9.1796    147.3744     23.6513
  1173.6000      7.9183      2.5129      0.0469      8.3114    166.1934     23.8916
  1173.7000      7.9183      2.5172      0.0594      8.0491    188.0526     24.3744
  1173.8000      7.9187      2.5191      0.0711      7.9340    201.8436     24.8637
  1173.9000      7.9187      2.5209      0.0701      7.8232    209.0582     25.4588
  1174.0000      7.9188      2.5229      0.0454      7.7016    220.5492     25.9715
  1174.1000      7.9188      2.5273      0.0371      7.4335    236.6032     26.2190
  1174.2000      7.9188      2.5257      0.0747      7.5360    243.7411     26.3919
  1174.3000      7.9178      2.5126      0.0548      8.3276    239.1892     26.4018
  1174.4000      7.9178      2.4987      0.0702      9.1686    237.4506     26.0975
  1174.5000      7.9172      2.4893      0.0680      9.7388    245.6767     25.3565
  1174.6000      7.9172      2.4862      0.0298      9.9266    258.2795     24.6195
  1174.7000      7.9172      2.4958      0.0296      9.3463    267.2468     24.8002
  1174.8000      7.9173      2.5120      0.0546      8.3636    262.8971     25.5559
  1174.9000      7.9173      2.5191      0.0722      7.9326    247.0524     25.7772
  1175.0000      7.9175      2.5128      0.0400      8.3137    231.4600     25.3213
  1175.1000      7.9175      2.5020      0.0589      8.9680    221.7523     24.9410
  1175.2000      7.9175      2.4969      0.0204      9.2760    218.5841     24.8666
  1175.3000      7.9189      2.5086      0.0035      8.5670    219.0864     24.6196
  1175.4000      7.9189      2.5357      0.0512      6.9298    217.7117     24.3021
  1175.5000      7.9205      2.5547      0.0988      5.7771    212.7879     24.1874
  1175.6000      7.9205      2.5505      0.0739      6.0289    209.7622     23.9948
  1175.7000      7.9205      2.5369      0.0565      6.8523    213.8198     23.2499
  1175.8000      7.9192      2.5284      0.0601      7.3723    217.9458     21.9981
  1175.9000      7.9192      2.5176      0.0540      8.0247    212.9635     21.0239
  1176.0000      7.9170      2.5000      0.0078      9.0898    200.5720     20.6338
  1176.1000      7.9170      2.4876      0.0166      9.8431    187.4976     20.3180
  1176.2000      7.9170      2.4857      0.0501      9.9557    175.3124     19.9392
  1176.3000      7.9166      2.4855      0.0189      9.9699    159.1980     19.5896
  1176.4000      7.9166      2.4786      0.0177     10.3894    140.1094     19.0184
  1176.5000      7.9172      2.4671      0.0116     11.0826    124.6111     18.2978
  1176.6000      7.9172      2.4618      0.0167     11.4047    112.4885     18.1559
  1176.7000      7.9172      2.4631      0.0518     11.3253    101.2202     18.6481
  1176.8000      7.9179      2.4653      0.0295     11.1956     93.5959     18.8766
  1176.9000      7.9179      2.4695      0.0252     10.9421     93.2224     18.4521
  1177.0000      7.9182      2.4686      0.0404     10.9957     96.7773     17.9327
  1177.1000      7.9182      2.4528      0.0166     11.9530     96.2905     17.7759
  1177.2000      7.9182      2.4343     -0.0071     13.0757     92.4590     17.9685
  1177.3000      7.9183      2.4294     -0.0097     13.3702     91.2088     18.5427
  1177.4000      7.9183      2.4330      0.0435     13.1541     92.4218     19.2151
  1177.5000      7.9189      2.4397      0.0000     12.7429     92.1095     19.1838
  1177.6000      7.9189      2.4567      0.0396     11.7166     90.0575     18.6710
  1177.7000      7.9189      2.4713      0.0482     10.8299     90.1715     18.5290
  1177.8000      7.9193      2.4677      0.0032     11.0472     92.9745     18.7853
  1177.9000      7.9193      2.4546      0.0095     11.8428     94.2877     19.0562
  1178.0000      7.9199      2.4382      0.0282     12.8390     92.5896     19.2438
  1178.1000      7.9199      2.4146     -0.0068     14.2639     90.7677     19.4557
  1178.2000      7.9199      2.3950     -0.0519     15.4575     91.8591     19.4672
  1178.3000      7.9208      2.3980     -0.0143     15.2704     95.5345     18.9411
  1178.4000      7.9208      2.4249     -0.0161     13.6453    100.4454     18.4838
  1178.5000      7.9199      2.4549      0.0748     11.8230    102.6948     18.5802
  1178.6000      7.9199      2.4714      0.0221     10.8265     98.9974     18.7084
  1178.7000      7.9199      2.4751      0.0484     10.5986     93.4644     18.5024
  1178.8000      7.9189      2.4672      0.0367     11.0780     90.4712     18.1621
  1178.9000      7.9189      2.4492      0.0081     12.1676     90.4947     17.8957
  1179.0000      7.9187      2.4291      0.0200     13.3864     91.3871     17.8041
  1179.1000      7.9187      2.4184     -0.0321     14.0335     89.7380     17.7754
