~Version Information
VERS.                      2.0: CWLS Log ASCII Standard - VERSION 2.0
WRAP.                       NO: One line per depth step
~Well Information Block
STRT.FT               260.0000: 
STOP.FT               713.2000: 
STEP.FT                 0.1000: 
NULL.                -999.2500: 
COMP.          Pioneer Natural Resources: COMPANY
WELL.           Quintessa 23-7: WELL
FLD.           Purgatoire River: FIELD
LOC.           1964' FSL & 2589' FWL--: LOCATION
PROV.                 Colorado: PROVINCE
CNTY.               Las Animas: COUNTRY
SRVC.                Patterson: SERVICE COMPANY
DATE.          Sat Nov 19 09:15:07 2005: LOG DATE
UWI.           05 071 08558 00: UNIQUE WELL ID
~Curve Information Block
DEPT.FT            0 000 00 00: Depth
DCAL.in                       : CDL Caliper
RHOB.g/cc                     : CDL Bulk Density
RHOC.g/cc                     : CDL Density Correction
DPOR.pu                       : CDL Density Porosity
NPOR.pu                       : Neutron Porosity
GR.GAPI                       : Gamma Ray
~Parameter Information Block
~A  Depth       DCAL        RHOB        RHOC        DPOR        NPOR         GR     
# ...
   375.2000      8.0474      2.5705      0.0203      4.8179     22.8796    129.1746
   375.3000      8.0456      2.5913      0.0296      3.5546     22.5732    131.4238
   375.4000      8.0456      2.6064      0.0820      2.6426     21.9386    132.1104
   375.5000      8.0441      2.5961      0.0529      3.2686     21.6455    125.0606
   375.6000      8.0441      2.5740      0.0284      4.6059     21.5748    112.7198
   375.7000      8.0441      2.5587      0.0265      5.5308     21.7330    103.9006
   375.8000      8.0445      2.5441      0.0182      6.4202     22.4684    101.0701
   375.9000      8.0445      2.5198      0.0110      7.8879     23.4778    103.5865
   376.0000      8.0451      2.4960     -0.0068      9.3325     24.0101    110.5097
   376.1000      8.0451      2.4861     -0.0027      9.9351     23.8950    116.9257
   376.2000      8.0451      2.4873      0.0002      9.8580     23.4884    118.8524
   376.3000      8.0471      2.4988      0.0168      9.1627     23.4940    120.1411
   376.4000      8.0471      2.5245      0.0422      7.6051     24.3988    126.2403
   376.5000      8.0498      2.5492      0.0596      6.1095     25.6261    133.8536
   376.6000      8.0498      2.5536      0.0541      5.8433     26.4797    134.2656
   376.7000      8.0498      2.5480      0.0329      6.1832     26.8079    127.6691
   376.8000      8.0535      2.5502      0.0420      6.0476     26.6764    126.8324
   376.9000      8.0535      2.5543      0.0675      5.8009     26.4215    137.5598
   377.0000      8.0567      2.5502      0.0489      6.0459     26.0865    149.7302
   377.1000      8.0567      2.5394      0.0722      6.7059     25.5791    150.9968
   377.2000      8.0567      2.5245      0.0476      7.6035     25.1541    143.2789
   377.3000      8.0583      2.5104      0.0605      8.4589     24.8515    138.0782
   377.4000      8.0583      2.4973      0.0392      9.2523     24.4727    138.0322
   377.5000      8.0597      2.4851      0.0139      9.9942     24.1591    137.6630
   377.6000      8.0597      2.4828      0.0136     10.1319     24.5178    131.8761
   377.7000      8.0597      2.4932      0.0458      9.5031     25.4154    121.5016
   377.8000      8.0610      2.4992      0.0604      9.1406     25.7641    113.3453
   377.9000      8.0610      2.4920      0.0299      9.5772     25.3110    112.1508
   378.0000      8.0614      2.4873      0.0328      9.8634     24.8707    116.5840
   378.1000      8.0614      2.5017      0.0315      8.9887     24.9207    120.7264
   378.2000      8.0614      2.5328      0.0618      7.1049     25.1364    121.3080
   378.3000      8.0625      2.5584      0.0872      5.5523     25.0524    122.9630
   378.4000      8.0625      2.5602      0.0886      5.4438     24.8886    128.9669
   378.5000      8.0605      2.5478      0.0489      6.1952     24.9937    135.1921
   378.6000      8.0605      2.5413      0.0648      6.5895     25.3806    137.4765
   378.7000      8.0605      2.5360      0.1179      6.9111     25.8860    135.9732
   378.8000      8.0535      2.5190      0.0553      7.9370     25.9450    132.1568
   378.9000      8.0535      2.5005      0.0331      9.0606     25.6717    126.7749
   379.0000      8.0491      2.4905      0.0506      9.6640     25.9402    121.4845
   379.1000      8.0491      2.4828      0.0482     10.1328     26.7824    118.8188
   379.2000      8.0491      2.4760      0.0378     10.5430     27.5457    120.6077
   379.3000      8.0490      2.4759      0.0373     10.5493     27.7865    125.8895
   379.4000      8.0490      2.4787      0.0420     10.3798     27.3378    132.2354
   379.5000      8.0492      2.4779      0.0382     10.4295     26.8491    136.0549
   379.6000      8.0492      2.4777      0.0422     10.4423     27.4128    134.4154
   379.7000      8.0492      2.4855      0.0357      9.9716     28.5761    130.6472
   379.8000      8.0512      2.4973      0.0692      9.2542     29.2868    126.6939
   379.9000      8.0512      2.5052      0.0227      8.7749     29.5319    122.4910
   380.0000      8.0598      2.5077      0.0646      8.6253     29.4457    124.4372
   380.1000      8.0598      2.4964      0.0531      9.3064     28.7921    134.9095
   380.2000      8.0598      2.4628      0.0457     11.3470     27.8501    144.5450
   380.3000      8.0741      2.4153      0.0088     14.2255     27.6504    146.4372
   380.4000      8.0741      2.3725      0.0035     16.8183     28.1237    141.4696
   380.5000      8.0849      2.3440     -0.0088     18.5444     28.2954    132.0404
   380.6000      8.0849      2.3235     -0.0008     19.7909     28.2099    124.7286
   380.7000      8.0849      2.3049     -0.0348     20.9169     28.7026    128.8585
   380.8000      8.0922      2.2935     -0.0141     21.6033     29.6522    140.5533
   380.9000      8.0922      2.2896      0.0171     21.8436     30.0774    145.6189
   381.0000      8.0927      2.2890      0.0097     21.8791     29.8590    137.1962
   381.1000      8.0927      2.2963      0.0248     21.4359     29.5748    123.9788
   381.2000      8.0927      2.3134      0.0941     20.4003     29.5019    118.5698
   381.3000      8.0736      2.3283      0.1109     19.4985     29.3905    119.2072
   381.4000      8.0736      2.3319      0.0770     19.2776     28.9077    116.2349
   381.5000      8.0527      2.3301      0.0953     19.3885     28.3543    108.6684
   381.6000      8.0527      2.3354      0.0632     19.0673     28.0170    104.2122
   381.7000      8.0527      2.3571      0.0814     17.7500     28.1201    105.5409
   381.8000      8.0441      2.3884      0.0968     15.8516     28.6738    107.7032
   381.9000      8.0441      2.4124      0.0942     14.4003     28.4903    109.2034
   382.0000      8.0533      2.4258      0.0537     13.5849     26.9946    109.8456
   382.1000      8.0533      2.4404      0.0562     12.7022     25.5251    108.7324
   382.2000      8.0533      2.4582      0.0670     11.6222     24.9053    109.5196
   382.3000      8.0846      2.4670      0.0728     11.0882     24.6002    115.5289
   382.4000      8.0846      2.4608      0.0468     11.4663     24.3380    123.9646
   382.5000      8.1053      2.4511      0.0128     12.0548     24.3727    125.8201
   382.6000      8.1053      2.4505      0.0387     12.0938     24.5040    117.9568
   382.7000      8.1053      2.4594      0.0563     11.5545     24.2976    110.7045
   382.8000      8.0801      2.4676      0.0573     11.0538     24.2134    111.6240
   382.9000      8.0801      2.4636      0.0417     11.2984     24.8849    115.6053
   383.0000      8.0383      2.4521     -0.0218     11.9956     25.8029    116.2998
   383.1000      8.0383      2.4496      0.0333     12.1462     26.2464    117.6547
   383.2000      8.0383      2.4592      0.0070     11.5610     26.2009    125.4180
   383.3000      8.0211      2.4754      0.0039     10.5834     25.7001    132.5377
   383.4000      8.0211      2.4878      0.0400      9.8279     25.1057    128.8554
   383.5000      8.0158      2.4900      0.0204      9.6955     25.0632    115.9183
   383.6000      8.0158      2.4945      0.0314      9.4247     25.3113    105.6339
   383.7000      8.0158      2.5094      0.0609      8.5190     25.0633    107.5926
   383.8000      8.0026      2.5264      0.0359      7.4905     24.3189    115.8741
   383.9000      8.0026      2.5375      0.0471      6.8209     23.3017    118.0638
   384.0000      7.9926      2.5380      0.0558      6.7866     22.2003    114.5515
   384.1000      7.9926      2.5328     -0.0015      7.1057     21.9651    113.5104
   384.2000      7.9926      2.5309      0.0310      7.2174     23.0142    116.8593
   384.3000      7.9897      2.5293      0.0374      7.3174     24.2594    122.6477
   384.4000      7.9897      2.5253      0.0463      7.5586     24.2973    127.5905
   384.5000      7.9897      2.5210      0.0420      7.8202     23.1904    127.2300
   384.6000      7.9897      2.5181      0.0035      7.9912     22.5404    120.8452
   384.7000      7.9897      2.5215      0.0380      7.7882     22.8788    111.1994
