~Version Information
VERS.                      2.0: CWLS Log ASCII Standard - VERSION 2.0
WRAP.                       NO: One line per depth step
~Well Information Block
STRT.FT               655.0000: 
STOP.FT              2623.7500: 
STEP.FT                 0.2500: 
NULL.                -999.2500: 
COMP.          Pioneer Natural Resources: COMPANY
WELL.             Aviator 12-4: WELL
FLD.           Purgatoire River: FIELD
LOC.           1969' FNL & 732' FWL--: LOCATION
CNTY.               Las Animas: COUNTY
SRVC.                Patterson: SERVICE COMPANY
DATE.          Sun Apr 09 14:25:03 2006: LOG DATE
UWI.           05 071 08714 00: UNIQUE WELL ID
STAT.                 Colorado: STATE
~Curve Information Block
DEPT.FT            0 000 00 00: Depth
SN.Ohm-m                      : IEL Short Normal
SP.mV                         : IEL Spontaneous Potential
DIR.Ohm-m                     : IEL Induction Resistivity
GR.GAPI                       : Gamma Ray
~Parameter Information Block
~A  Depth        SN          SP         DIR          GR     
# ...
  2095.5000     20.2702     67.3854     19.0328    139.2039
  2095.7500     20.1618     67.3393     19.0100    143.7735
  2096.0000     19.9818     67.3336     18.8770    153.5215
  2096.2500     19.6951     67.3683     18.6432    160.9574
  2096.5000     19.2723     67.4423     18.3206    170.9143
  2096.7500     18.7062     67.5541     17.9213    175.5517
  2097.0000     18.0219     67.7024     17.4549    178.6303
  2097.2500     17.2710     67.8859     16.9268    178.1034
  2097.5000     16.5189     68.1033     16.3388    174.0566
  2097.7500     15.8222     68.3530     15.6936    170.0108
  2098.0000     15.1969     68.6326     14.9987    164.1603
  2098.2500     14.6258     68.9385     14.2689    161.6297
  2098.5000     14.0932     69.2663     13.5260    160.2808
  2098.7500     13.6029     69.6107     12.7954    160.1022
  2099.0000     13.1690     69.9661     12.1026    158.8626
  2099.2500     12.7931     70.3267     11.4695    156.6844
  2099.5000     12.4637     70.6868     10.9106    151.4808
  2099.7500     12.1653     71.0406     10.4326    147.5845
  2100.0000     11.8811     71.3820     10.0349    143.7424
  2100.2500     11.6048     71.7049      9.7108    143.8890
  2100.5000     11.3440     72.0032      9.4517    148.2531
  2100.7500     11.1089     72.2712      9.2496    152.5453
  2101.0000     10.9060     72.5041      9.0998    158.0105
  2101.2500     10.7327     72.6983      9.0015    159.8566
  2101.5000     10.5775     72.8508      8.9567    160.0058
  2101.7500     10.4456     72.9591      8.9694    159.5197
  2102.0000     10.3860     73.0207      9.0452    160.0396
  2102.2500     10.4855     73.0331      9.1923    161.1881
  2102.5000     10.8243     72.9938      9.4201    161.6085
  2102.7500     11.4193     72.9011      9.7376    159.5900
  2103.0000     12.2029     72.7551     10.1494    152.8750
  2103.2500     13.0562     72.5583     10.6526    146.5618
  2103.5000     13.8775     72.3168     11.2367    134.7119
  2103.7500     14.6435     72.0408     11.8872    125.0618
  2104.0000     15.4117     71.7444     12.5917    108.5196
  2104.2500     16.2653     71.4456     13.3464     97.2642
  2104.5000     17.2610     71.1650     14.1563     82.4945
  2104.7500     18.4104     70.9238     15.0299     75.0506
  2105.0000     19.6777     70.7415     15.9674     67.8523
  2105.2500     20.9632     70.6330     16.9481     65.2871
  2105.5000     22.1039     70.6071     17.9228     63.6948
  2105.7500     22.9405     70.6646     18.8172     63.6254
  2106.0000     23.3951     70.7989     19.5502     64.5953
  2106.2500     23.5043     70.9975     20.0624     65.7265
  2106.5000     23.3898     71.2440     20.3420     67.2001
  2106.7500     23.1884     71.5214     20.4302     67.4445
  2107.0000     22.9931     71.8145     20.4028     67.0526
  2107.2500     22.8309     72.1114     20.3389     67.3289
  2107.5000     22.6790     72.4052     20.2954     69.6386
  2107.7500     22.4984     72.6930     20.2956     71.6951
  2108.0000     22.2626     72.9755     20.3317     73.0628
  2108.2500     21.9735     73.2557     20.3762     72.1591
  2108.5000     21.6603     73.5367     20.3985     69.2057
  2108.7500     21.3720     73.8207     20.3821     67.3469
  2109.0000     21.1648     74.1079     20.3314     65.8131
  2109.2500     21.0800     74.3963     20.2648     65.4621
  2109.5000     21.1140     74.6816     20.2008     65.1022
  2109.7500     21.2084     74.9583     20.1501     64.7269
  2110.0000     21.2800     75.2202     20.1161     64.2884
  2110.2500     21.2683     75.4614     20.0994     64.4110
  2110.5000     21.1586     75.6765     20.0988     65.1204
  2110.7500     20.9793     75.8607     20.1086     65.3394
  2111.0000     20.7817     76.0102     20.1186     64.1032
  2111.2500     20.6065     76.1224     20.1189     62.1525
  2111.5000     20.4668     76.1962     20.1072     58.9015
  2111.7500     20.3582     76.2328     20.0921     57.6752
  2112.0000     20.2669     76.2360     20.0860     58.3094
  2112.2500     20.1730     76.2122     20.0936     60.0008
  2112.5000     20.0581     76.1701     20.1063     62.4672
  2112.7500     19.9136     76.1190     20.1093     62.8408
  2113.0000     19.7519     76.0673     20.0972     60.7790
  2113.2500     19.6021     76.0208     20.0811     58.4358
  2113.5000     19.4800     75.9819     20.0834     55.8950
  2113.7500     19.3746     75.9506     20.1239     55.8228
  2114.0000     19.2732     75.9253     20.2107     57.9698
  2114.2500     19.1936     75.9051     20.3414     60.0134
  2114.5000     19.1809     75.8913     20.5109     62.2718
  2114.7500     19.2628     75.8875     20.7170     62.5628
  2115.0000     19.4123     75.8995     20.9602     61.0819
  2115.2500     19.5732     75.9332     21.2405     59.4084
  2115.5000     19.7229     75.9935     21.5577     57.3056
  2115.7500     19.8895     76.0827     21.9171     56.6786
  2116.0000     20.1164     76.2005     22.3298     56.6158
  2116.2500     20.4226     76.3439     22.8046     56.5840
  2116.5000     20.7907     76.5083     23.3370     55.9892
  2116.7500     21.1860     76.6882     23.9087     55.5053
  2117.0000     21.5826     76.8782     24.5004     55.6352
  2117.2500     21.9714     77.0736     25.1050     56.5652
  2117.5000     22.3547     77.2707     25.7266     58.7137
  2117.7500     22.7383     77.4668     26.3667     60.0744
  2118.0000     23.1175     77.6601     27.0155     61.4122
  2118.2500     23.4765     77.8490     27.6591     61.9138
  2118.5000     23.8082     78.0323     28.2952     62.5278
  2118.7500     24.1148     78.2081     28.9405     62.9033
  2119.0000     24.3879     78.3744     29.6200     62.9316
  2119.2500     24.6064     78.5288     30.3449     62.2509
  2119.5000     24.7514     78.6687     31.0977     60.1410
  2119.7500     24.8246     78.7914     31.8340     58.3702
  2120.0000     24.8559     78.8945     32.5021     55.9759
  2120.2500     24.8867     78.9756     33.0631     54.8005
  2120.5000     24.9422     79.0326     33.4933     53.5579
  2120.7500     25.0132     79.0641     33.7772     52.9651
  2121.0000     25.0695     79.0697     33.9085     52.6121
  2121.2500     25.0927     79.0501     33.9054     52.9497
  2121.5000     25.0865     79.0083     33.8189     54.3975
  2121.7500     25.0588     78.9491     33.7181     55.7977
  2122.0000     25.0061     78.8793     33.6595     58.0533
  2122.2500     24.9145     78.8072     33.6601     59.3640
  2122.5000     24.7680     78.7417     33.6891     60.4747
  2122.7500     24.5599     78.6918     33.6865     60.3447
  2123.0000     24.2881     78.6653     33.5943     58.9072
  2123.2500     23.9498     78.6684     33.3765     57.6731
  2123.5000     23.5617     78.7050     33.0166     56.6942
  2123.7500     23.1699     78.7764     32.5086     56.9975
  2124.0000     22.8112     78.8810     31.8627     58.4389
  2124.2500     22.4819     79.0137     31.1162     59.4421
  2124.5000     22.1615     79.1662     30.3252     60.1917
  2124.7500     21.8448     79.3268     29.5450     60.0617
  2125.0000     21.5358     79.4812     28.8190     59.0616
  2125.2500     21.2405     79.6143     28.1834     57.9750
  2125.5000     20.9802     79.7116     27.6717     56.0523
  2125.7500     20.7843     79.7622     27.3081     54.9159
  2126.0000     20.6642     79.7602     27.0986     53.8723
  2126.2500     20.6121     79.7069     27.0333     53.4949
  2126.5000     20.6188     79.6107     27.0958     52.6577
  2126.7500     20.6803     79.4865     27.2707     51.6135
  2127.0000     20.7981     79.3540     27.5390     49.7449
  2127.2500     20.9704     79.2346     27.8652     48.9542
  2127.5000     21.1795     79.1486     28.1842     49.1125
  2127.7500     21.3838     79.1121     28.4004     49.8449
  2128.0000     21.5284     79.1350     28.4065     50.8737
  2128.2500     21.5780     79.2197     28.1242     51.1835
  2128.5000     21.5314     79.3616     27.5386     51.3255
  2128.7500     21.3956     79.5499     26.7010     51.6036
