~Version Information
VERS.                      2.0: CWLS Log ASCII Standard - VERSION 2.0
WRAP.                       NO: One line per depth step
~Well Information Block
STRT.FT               625.0000: 
STOP.FT              2053.7000: 
STEP.FT                 0.1000: 
NULL.                -999.2500: 
COMP.          Pioneer Natural Resources: COMPANY
WELL.            Zink 44-10 Tr: WELL
FLD.           Purgatoire River: FIELD
LOC.           486' FSL & 554' FEL--: LOCATION
PROV.                 Colorado: PROVINCE
CNTY.               Las Animas: COUNTRY
SRVC.                Patterson: SERVICE COMPANY
DATE.          Sun Jul 24 08:46:57 2005: LOG DATE
UWI.           05 071 08446 00: UNIQUE WELL ID
~Curve Information Block
DEPT.FT            0 000 00 00: Depth
DCAL.in                       : CDL Caliper
RHOB.g/cc                     : CDL Bulk Density
RHOC.g/cc                     : CDL Density Correction
DPOR.pu                       : CDL Density Porosity
NPOR.pu                       : Neutron Porosity
GR.GAPI                       : Gamma Ray
~Parameter Information Block
~A  Depth       DCAL        RHOB        RHOC        DPOR        NPOR         GR     
# ...
  1748.2000      7.9777      2.5638      0.0679      5.2258     24.3745     99.8627
  1748.3000      7.9125      2.5416      0.0231      6.5694     24.7436    104.8398
  1748.4000      7.9125      2.5161      0.0307      8.1135     25.6740    106.1818
  1748.5000      7.9018      2.4911      0.0532      9.6290     26.5634    107.6831
  1748.6000      7.9018      2.4694      0.0250     10.9460     26.8402    115.2761
  1748.7000      7.9018      2.4588      0.0199     11.5857     26.9036    124.2170
  1748.8000      7.8972      2.4590      0.0248     11.5781     27.2423    130.1779
  1748.9000      7.8972      2.4650      0.0344     11.2119     27.4980    135.6992
  1749.0000      7.8932      2.4719      0.0673     10.7966     27.0607    140.7193
  1749.1000      7.8932      2.4744      0.0726     10.6445     26.3164    145.5668
  1749.2000      7.8932      2.4782      0.0482     10.4113     26.0893    153.3094
  1749.3000      7.8932      2.4928      0.0572      9.5260     26.2037    158.1351
  1749.4000      7.8932      2.5216      0.0945      7.7819     25.8856    154.4509
  1749.5000      7.8979      2.5609      0.1400      5.3978     24.6987    146.8397
  1749.6000      7.8979      2.6005      0.1402      2.9977     23.1431    140.1382
  1749.7000      7.8979      2.6299      0.1544      1.2177     22.3707    131.3289
  1749.8000      7.9029      2.6444      0.1060      0.3416     22.4850    119.9043
  1749.9000      7.9029      2.6433      0.1128      0.4050     22.7088    110.9954
  1750.0000      7.9054      2.6273      0.0555      1.3741     23.0735    106.1017
  1750.1000      7.9054      2.6006      0.0483      2.9955     23.6368    105.5638
  1750.2000      7.9054      2.5683      0.0220      4.9499     23.5376    108.0829
  1750.3000      7.9084      2.5399      0.0069      6.6755     23.0355    111.5512
  1750.4000      7.9084      2.5213      0.0266      7.8007     23.2476    117.0244
  1750.5000      7.9157      2.5132     -0.0013      8.2903     24.0011    123.5138
  1750.6000      7.9157      2.5223     -0.0063      7.7368     24.6691    126.4457
  1750.7000      7.9157      2.5480      0.0330      6.1847     25.0539    125.3210
  1750.8000      7.9250      2.5726      0.0645      4.6904     25.1858    127.1230
  1750.9000      7.9250      2.5800      0.0738      4.2401     25.3215    134.1702
  1751.0000      7.9313      2.5657      0.0692      5.1074     25.5178    141.5040
  1751.1000      7.9313      2.5396      0.0175      6.6881     25.6147    146.5822
  1751.2000      7.9313      2.5246      0.0033      7.6002     25.8848    149.1932
  1751.3000      7.9356      2.5324      0.0453      7.1281     26.6874    150.9560
  1751.4000      7.9356      2.5516      0.0520      5.9645     27.3748    154.3242
  1751.5000      7.9447      2.5666      0.0516      5.0571     27.3199    154.8694
  1751.6000      7.9447      2.5697      0.0524      4.8688     26.8833    149.2663
  1751.7000      7.9447      2.5599      0.0552      5.4596     26.4487    145.2528
  1751.8000      7.9609      2.5464      0.0211      6.2778     26.1838    146.8869
  1751.9000      7.9609      2.5413      0.0567      6.5859     26.0706    144.7407
  1752.0000      7.9767      2.5460      0.0284      6.3040     25.9443    134.0563
  1752.1000      7.9767      2.5560      0.0772      5.6976     25.6996    122.5322
  1752.2000      7.9767      2.5658      0.0716      5.1058     25.0901    116.4771
  1752.3000      7.9885      2.5637      0.0942      5.2321     24.1888    114.2509
  1752.4000      7.9885      2.5423      0.0772      6.5285     23.6939    114.6726
  1752.5000      7.9907      2.5166      0.0356      8.0821     23.9195    116.3807
  1752.6000      7.9907      2.5086      0.0438      8.5671     24.0428    112.9253
  1752.7000      7.9907      2.5167      0.0501      8.0763     23.5190    102.5665
  1752.8000      7.9699      2.5233      0.0765      7.6795     23.1369     95.7260
  1752.9000      7.9699      2.5248      0.0008      7.5849     22.9951     99.5544
  1753.0000      7.9325      2.5364     -0.0082      6.8869     22.3049    104.8268
  1753.1000      7.9325      2.5619      0.0747      5.3392     21.2034    102.3661
  1753.2000      7.9325      2.5875      0.0829      3.7873     20.4590     97.9206
  1753.3000      7.8915      2.6031      0.0746      2.8420     20.3067     98.4778
  1753.4000      7.8915      2.6063      0.1146      2.6480     20.3158    100.8261
  1753.5000      7.8552      2.5937      0.1335      3.4150     20.4819    100.8621
  1753.6000      7.8552      2.5736      0.0667      4.6303     21.2921    102.1488
  1753.7000      7.8552      2.5639      0.0946      5.2181     22.4423    107.2108
  1753.8000      7.8389      2.5641      0.0859      5.2078     23.2717    112.8587
  1753.9000      7.8389      2.5615      0.0953      5.3619     23.7475    116.5992
  1754.0000      7.8476      2.5542      0.0705      5.8063     23.8830    116.7296
  1754.1000      7.8476      2.5448      0.0943      6.3737     23.8737    113.2498
  1754.2000      7.8476      2.5277      0.0924      7.4144     24.1801    109.3869
  1754.3000      7.8636      2.5053      0.0296      8.7684     24.8099    108.7829
  1754.4000      7.8636      2.4977      0.0316      9.2331     25.3264    112.4587
  1754.5000      7.8735      2.5126      0.0418      8.3261     25.4966    118.3323
  1754.6000      7.8735      2.5353      0.0791      6.9508     25.3993    122.4741
  1754.7000      7.8735      2.5521      0.0751      5.9330     24.9421    120.1388
  1754.8000      7.8760      2.5681      0.0880      4.9608     24.4176    112.3908
  1754.9000      7.8760      2.5891      0.1144      3.6927     24.3672    109.1887
  1755.0000      7.8736      2.5977      0.1774      3.1717     24.6402    115.3574
  1755.1000      7.8736      2.5777      0.1411      4.3794     24.9078    123.3157
  1755.2000      7.8736      2.5511      0.0704      5.9929     25.2511    125.3131
  1755.3000      7.8757      2.5479      0.0824      6.1902     25.8747    122.5916
  1755.4000      7.8757      2.5674      0.1068      5.0036     26.5561    120.9116
  1755.5000      7.8933      2.5938      0.1005      3.4079     26.9815    125.8024
  1755.6000      7.8933      2.6124      0.1322      2.2789     27.1748    135.1043
  1755.7000      7.8933      2.6185      0.0995      1.9101     27.0337    138.0647
  1755.8000      7.9195      2.6248      0.0847      1.5295     26.4984    132.8962
  1755.9000      7.9195      2.6451      0.1054      0.2987     25.8014    129.9993
  1756.0000      7.9395      2.6751      0.1720     -1.5217     25.0110    132.3118
  1756.1000      7.9395      2.6983      0.1504     -2.9261     24.1598    133.2139
  1756.2000      7.9395      2.7055      0.1631     -3.3660     23.3962    130.7318
  1756.3000      7.9445      2.7025      0.1080     -3.1794     22.7093    127.3798
  1756.4000      7.9445      2.7005      0.1032     -3.0611     22.1687    121.7882
  1756.5000      7.9346      2.6995      0.1320     -3.0020     21.8330    110.3917
  1756.6000      7.9346      2.6938      0.1004     -2.6542     21.6054     96.3904
  1756.7000      7.9346      2.6854      0.0567     -2.1453     21.3651     86.9884
  1756.8000      7.9093      2.6769      0.0620     -1.6326     21.1775     82.8254
  1756.9000      7.9093      2.6657      0.0716     -0.9516     21.2168     78.9234
  1757.0000      7.8754      2.6527      0.0677     -0.1616     21.2327     75.3392
  1757.1000      7.8754      2.6448      0.0615      0.3138     21.1914     74.3710
  1757.2000      7.8754      2.6451      0.0575      0.2993     21.3701     75.5973
  1757.3000      7.8552      2.6409      0.0932      0.5515     21.4245     80.1260
  1757.4000      7.8552      2.6173      0.0764      1.9833     20.9551     86.7594
  1757.5000      7.8472      2.5785      0.0363      4.3316     20.2391     89.1997
  1757.6000      7.8472      2.5484     -0.0079      6.1579     20.0017     86.3573
  1757.7000      7.8472      2.5461      0.0294      6.2990     20.5560     84.4868
