~Version Information
VERS.                      2.0: CWLS Log ASCII Standard - VERSION 2.0
WRAP.                       NO: One line per depth step
~Well Information Block
STRT.FT               245.0000: 
STOP.FT              1102.5000: 
STEP.FT                 0.1000: 
NULL.                -999.2500: 
COMP.          Pioneer Natural Resources: COMPANY
WELL.           Pavilion 44-25: WELL
FLD.           Purgatoire River: FIELD
LOC.           719' FSL & 650' FEL: LOCATION
PROV.                 Colorado: PROVINCE
CNTY.               Las Animas: COUNTRY
SRVC.                Patterson: SERVICE COMPANY
DATE.          Wed Dec 14 09:57:07 2005: LOG DATE
UWI.           05 071 08624 00: UNIQUE WELL ID
~Curve Information Block
DEPT.FT            0 000 00 00: Depth
DCAL.in                       : CDL Caliper
RHOB.g/cc                     : CDL Bulk Density
RHOC.g/cc                     : CDL Density Correction
DPOR.pu                       : CDL Density Porosity
GR.GAPI                       : Gamma Ray
NPOR.pu                       : Neutron Porosity
~Parameter Information Block
~A  Depth       DCAL        RHOB        RHOC        DPOR         GR         NPOR    
# ...
   523.4000      8.0147      2.5476      0.0391      6.2031    141.2370     23.4495
   523.5000      8.0152      2.5444      0.0556      6.4026    139.4215     23.6706
   523.6000      8.0152      2.5300      0.0518      7.2707    141.2584     23.9007
   523.7000      8.0152      2.5152      0.0670      8.1724    147.4701     24.4442
   523.8000      8.0177      2.5089      0.0463      8.5541    161.1996     24.5076
   523.9000      8.0177      2.5156      0.0457      8.1438    176.4611     24.1077
   524.0000      8.0175      2.5308      0.1143      7.2214    183.0418     24.2857
   524.1000      8.0175      2.5400      0.1114      6.6689    178.6622     25.2557
   524.2000      8.0175      2.5357      0.0672      6.9254    171.1241     26.0896
   524.3000      8.0198      2.5248      0.0663      7.5853    168.0232     26.2870
   524.4000      8.0198      2.5085      0.1010      8.5738    167.8702     25.9543
   524.5000      8.0176      2.4822      0.0566     10.1704    170.4672     25.4842
   524.6000      8.0176      2.4560      0.0095     11.7601    174.7768     25.3636
   524.7000      8.0176      2.4417      0.0213     12.6272    178.9091     25.6045
   524.8000      8.0168      2.4345      0.0575     13.0588    185.9078     25.7579
   524.9000      8.0168      2.4289      0.0553     13.4015    192.2207     25.2174
   525.0000      8.0181      2.4322      0.0151     13.2017    193.0344     24.1099
   525.1000      8.0181      2.4576      0.0036     11.6588    192.6277     23.0538
   525.2000      8.0181      2.5029      0.0967      8.9150    191.9796     22.4765
   525.3000      8.0196      2.5469      0.1620      6.2484    191.4693     22.4540
   525.4000      8.0196      2.5743      0.1927      4.5895    193.8400     22.8091
   525.5000      8.0201      2.5882      0.1677      3.7433    194.1964     23.5675
   525.6000      8.0201      2.6014      0.1660      2.9479    189.1212     24.6058
   525.7000      8.0201      2.6167      0.2178      2.0197    184.2818     25.6084
   525.8000      8.0200      2.6249      0.2104      1.5201    180.4844     26.4346
   525.9000      8.0200      2.6205      0.2057      1.7871    176.0579     27.0498
   526.0000      8.0169      2.6099      0.1096      2.4296    170.1749     27.6666
   526.1000      8.0169      2.6010      0.1585      2.9688    161.6998     28.1596
   526.2000      8.0169      2.5923      0.1435      3.4962    156.4391     28.3813
   526.3000      8.0187      2.5801      0.0592      4.2340    158.8775     28.9602
   526.4000      8.0187      2.5625      0.0622      5.3017    159.6001     29.6443
   526.5000      8.0153      2.5439      0.0114      6.4285    151.8817     29.4800
   526.6000      8.0153      2.5395     -0.0020      6.6971    142.3716     28.8627
   526.7000      8.0153      2.5549      0.0405      5.7623    137.9928     28.6608
   526.8000      8.0067      2.5764      0.0355      4.4604    137.6458     28.5811
   526.9000      8.0067      2.5939      0.0134      3.4005    138.2666     28.3702
   527.0000      8.0057      2.6073      0.0237      2.5851    142.0933     28.4448
   527.1000      8.0057      2.6147      0.0073      2.1420    146.7723     29.0124
   527.2000      8.0057      2.6142      0.0020      2.1708    144.5916     29.6846
   527.3000      7.9943      2.6105      0.0146      2.3924    138.8940     29.5973
   527.4000      7.9943      2.6133      0.0135      2.2231    134.0408     28.2843
   527.5000      8.0044      2.6237      0.0058      1.5925    128.1629     26.5667
   527.6000      8.0044      2.6288      0.0279      1.2835    122.3037     25.7240
   527.7000      8.0044      2.6186      0.0422      1.9030    117.1330     25.8327
   527.8000      8.0057      2.6039     -0.0351      2.7917    112.6879     25.8697
   527.9000      8.0057      2.6038     -0.0256      2.7996    112.5572     25.5221
   528.0000      8.0052      2.6114      0.0256      2.3377    115.7195     25.3932
   528.1000      8.0052      2.6001     -0.0085      3.0224    114.7395     25.3093
   528.2000      8.0052      2.5592     -0.0041      5.5049    110.8826     24.7350
   528.3000      8.0041      2.5142     -0.1028      8.2321    111.9901     24.0300
   528.4000      8.0041      2.4975     -0.0760      9.2412    117.8332     23.8152
   528.5000      8.0032      2.4975     -0.0169      9.2442    120.1117     24.2231
   528.6000      8.0032      2.4905     -0.0369      9.6658    116.4040     24.6340
   528.7000      8.0032      2.4899     -0.0337      9.7058    111.6543     24.5560
   528.8000      8.0045      2.5122      0.0089      8.3491    112.3394     24.4487
   528.9000      8.0045      2.5484      0.0310      6.1555    122.8049     24.6005
   529.0000      8.0034      2.5837      0.0494      4.0191    137.4039     24.8132
   529.1000      8.0034      2.6047      0.1336      2.7426    146.4865     25.1552
   529.2000      8.0034      2.6004      0.0767      3.0090    147.3851     25.6459
   529.3000      8.0055      2.5823      0.0365      4.1046    142.1636     25.8407
   529.4000      8.0055      2.5693      0.0565      4.8927    137.1861     25.8319
   529.5000      8.0042      2.5606      0.0701      5.4185    139.5570     26.1468
   529.6000      8.0042      2.5499      0.0444      6.0672    146.4990     26.6841
   529.7000      8.0042      2.5366      0.0542      6.8728    146.1897     27.0665
   529.8000      8.0054      2.5245      0.0252      7.6088    138.1089     27.0930
   529.9000      8.0054      2.5212      0.0219      7.8043    133.9846     26.7278
   530.0000      8.0054      2.5277      0.0272      7.4112    137.2327     26.2299
   530.1000      8.0054      2.5364      0.0183      6.8856    144.8671     26.0862
   530.2000      8.0054      2.5408      0.0308      6.6168    154.2385     26.5127
   530.3000      8.0056      2.5383      0.0399      6.7678    161.3940     26.9337
   530.4000      8.0056      2.5299      0.0202      7.2799    162.9050     26.5558
   530.5000      8.0053      2.5204     -0.0004      7.8549    159.3809     25.7511
   530.6000      8.0053      2.5160     -0.0183      8.1218    154.5848     25.4893
   530.7000      8.0053      2.5153      0.0186      8.1614    153.1370     25.8455
   530.8000      8.0050      2.5106      0.0214      8.4493    156.5068     26.2487
   530.9000      8.0050      2.5018      0.0083      8.9795    161.3971     26.1831
   531.0000      8.0034      2.4977      0.0054      9.2281    162.6475     25.7360
   531.1000      8.0034      2.5033     -0.0110      8.8904    158.0278     25.3716
   531.2000      8.0034      2.5134      0.0111      8.2780    154.3268     25.3532
   531.3000      8.0048      2.5156      0.0498      8.1468    154.2570     25.7938
   531.4000      8.0048      2.5045     -0.0229      8.8198    152.3271     26.3116
   531.5000      8.0058      2.4918     -0.0329      9.5856    148.4192     26.0704
   531.6000      8.0058      2.4842      0.0468     10.0491    143.9902     25.3363
   531.7000      8.0058      2.4810      0.0208     10.2413    139.5569     25.2186
   531.8000      8.0048      2.4916      0.0132      9.6008    136.8558     25.7122
   531.9000      8.0048      2.5161      0.0259      8.1154    135.6747     26.1008
   532.0000      8.0051      2.5373      0.0770      6.8298    133.7957     26.1067
   532.1000      8.0051      2.5447      0.0287      6.3798    132.0614     25.8769
   532.2000      8.0051      2.5442      0.0513      6.4115    130.9990     25.8587
   532.3000      8.0042      2.5427      0.0296      6.5052    126.4311     26.1655
   532.4000      8.0042      2.5463      0.0160      6.2823    120.8688     26.1674
   532.5000      8.0036      2.5606     -0.0088      5.4196    120.4968     25.6965
   532.6000      8.0036      2.5794      0.0490      4.2758    123.1399     25.7181
   532.7000      8.0036      2.5972      0.0183      3.2012    121.7376     26.6907
   532.8000      8.0030      2.6151      0.0840      2.1141    114.2224     27.7701
   532.9000      8.0030      2.6238      0.1161      1.5873    107.2196     27.8927
