~Version Information
VERS.                      2.0: CWLS Log ASCII Standard - VERSION 2.0
WRAP.                       NO: One line per depth step
~Well Information Block
STRT.FT               230.0000: 
STOP.FT               707.5000: 
STEP.FT                 0.2500: 
NULL.                -999.2500: 
COMP.          Pioneer Natural Resources: COMPANY
WELL.          Razor Clam 23-27: WELL
FLD.           Purgatoire River: FIELD
LOC.           2499' FSL & 2636' FWL: LOCATION
CNTY.               Las Animas: COUNTY
SRVC.                Patterson: SERVICE COMPANY
DATE.          Sun Feb 12 15:35:16 2006: LOG DATE
UWI.           05 071 08667 00: UNIQUE WELL ID
STAT.                 Colorado: STATE
~Curve Information Block
DEPT.FT            0 000 00 00: Depth
SN.Ohm-m                      : IEL Short Normal
SP.mV                         : IEL Spontaneous Potential
DIR.Ohm-m                     : IEL Induction Resistivity
GR.GAPI                       : Gamma Ray
~Parameter Information Block
~A  Depth        SN          SP         DIR          GR     
# ...
   431.0000     26.4054     16.4857     27.1694     74.9850
   431.2500     26.3850     16.9217     27.1924     77.2719
   431.5000     26.4370     17.3266     27.1391     78.5620
   431.7500     26.4162     17.6855     26.9602     77.2680
   432.0000     26.3443     17.9919     26.6686     72.1481
   432.2500     26.2936     18.2489     26.3426     67.4615
   432.5000     26.2773     18.4633     26.0784     60.8102
   432.7500     26.3168     18.6367     25.9322     58.0034
   433.0000     26.4314     18.7603     25.8955     57.6278
   433.2500     26.5562     18.8178     25.9192     59.7357
   433.5000     26.6439     18.7914     25.9594     64.4704
   433.7500     26.7493     18.6711     26.0058     67.1615
   434.0000     26.8712     18.4620     26.0686     68.6180
   434.2500     26.8894     18.1851     26.1448     67.6570
   434.5000     26.8118     17.8705     26.2038     64.4673
   434.7500     26.8295     17.5524     26.2060     62.2440
   435.0000     27.0315     17.2637     26.1338     60.0980
   435.2500     27.3097     17.0294     26.0044     59.6136
   435.5000     27.5146     16.8591     25.8555     59.9031
   435.7500     27.5826     16.7484     25.7249     60.6115
   436.0000     27.5200     16.6877     25.6385     62.6926
   436.2500     27.2848     16.6724     25.6100     64.9769
   436.5000     26.8443     16.7059     25.6449     69.3667
   436.7500     26.3602     16.7943     25.7431     71.9983
   437.0000     26.0718     16.9393     25.8963     73.4480
   437.2500     26.0193     17.1357     26.0855     72.2584
   437.5000     26.0705     17.3760     26.2854     68.5643
   437.7500     26.1629     17.6556     26.4787     66.2663
   438.0000     26.3759     17.9728     26.6680     64.7099
   438.2500     26.7518     18.3240     26.8701     64.9124
   438.5000     27.1645     18.6999     27.0949     65.9111
   438.7500     27.4385     19.0825     27.3282     66.2997
   439.0000     27.5759     19.4453     27.5339     65.7640
   439.2500     27.7786     19.7580     27.6730     64.5668
   439.5000     28.2113     20.0008     27.7150     61.5224
   439.7500     28.8708     20.1781     27.6322     58.7019
   440.0000     29.6663     20.3157     27.3898     53.7367
   440.2500     30.4850     20.4376     26.9549     50.6113
   440.5000     31.2015     20.5492     26.3238     47.7249
   440.7500     31.6604     20.6431     25.5447     47.5878
   441.0000     31.7183     20.7119     24.7125     50.0047
   441.2500     31.2702     20.7492     23.9389     53.0552
   441.5000     30.1979     20.7422     23.3160     59.8664
   441.7500     28.5351     20.6715     22.8911     66.3360
   442.0000     26.6836     20.5182     22.6586     79.1747
   442.2500     25.1323     20.2724     22.5677     88.9883
   442.5000     24.0261     19.9403     22.5412    102.4792
   442.7500     23.2475     19.5459     22.5026    108.6618
   443.0000     22.6840     19.1260     22.3993    112.0373
   443.2500     22.2579     18.7187     22.2131    110.8723
   443.5000     21.9565     18.3516     21.9572    106.3064
   443.7500     21.8705     18.0408     21.6713    102.5092
   444.0000     22.0525     17.7963     21.4196     96.4824
   444.2500     22.3890     17.6255     21.2821     92.3576
   444.5000     22.7218     17.5291     21.3327     86.1998
   444.7500     23.0897     17.4963     21.6134     82.2164
   445.0000     23.6883     17.5040     22.1213     76.3693
   445.2500     24.5675     17.5243     22.8141     72.4663
   445.5000     25.5780     17.5338     23.6270     66.7448
   445.7500     26.5596     17.5229     24.4887     63.3715
   446.0000     27.3969     17.5000     25.3280     59.7338
   446.2500     28.0089     17.4874     26.0765     58.5146
   446.5000     28.4293     17.5097     26.6749     58.3005
   446.7500     28.7982     17.5806     27.0864     58.7862
   447.0000     29.1421     17.6950     27.3080     59.5314
   447.2500     29.2795     17.8312     27.3641     59.6992
   447.5000     29.1285     17.9628     27.2796     59.4170
   447.7500     28.9308     18.0684     27.0565     59.0158
   448.0000     28.9665     18.1385     26.6789     58.2965
   448.2500     29.2132     18.1817     26.1441     57.8493
   448.5000     29.4281     18.2287     25.4841     57.5630
   448.7500     29.3829     18.3263     24.7503     57.8529
   449.0000     28.9197     18.5190     23.9788     59.2691
   449.2500     27.9491     18.8277     23.1735     61.0813
   449.5000     26.5146     19.2395     22.3226     65.8095
   449.7500     24.8174     19.7202     21.4260     70.5834
   450.0000     23.0525     20.2410     20.5067     79.4254
   450.2500     21.2502     20.7940     19.5974     85.3161
   450.5000     19.3978     21.3824     18.7231     92.3779
   450.7500     17.6199     22.0012     17.8970     95.6195
   451.0000     16.1496     22.6264     17.1274     99.1393
   451.2500     15.1995     23.2169     16.4252    101.4200
   451.5000     14.8206     23.7277     15.8043    105.6740
   451.7500     14.8422     24.1289     15.2774    109.0138
   452.0000     15.0097     24.4172     14.8527    114.0942
   452.2500     15.1557     24.6113     14.5353    117.2611
   452.5000     15.2524     24.7380     14.3303    121.6247
   452.7500     15.3774     24.8229     14.2434    124.0732
   453.0000     15.6310     24.8897     14.2786    125.9418
   453.2500     16.0650     24.9594     14.4333    125.2279
   453.5000     16.6367     25.0460     14.6950    120.8495
   453.7500     17.2196     25.1513     15.0451    116.2131
   454.0000     17.7315     25.2660     15.4662    107.8941
   454.2500     18.2198     25.3780     15.9484    101.9048
   454.5000     18.7765     25.4834     16.4855     92.8392
   454.7500     19.4267     25.5916     17.0666     87.3304
   455.0000     20.1659     25.7210     17.6722     81.1691
   455.2500     21.0603     25.8876     18.2796     78.8305
   455.5000     22.1635     26.0965     18.8759     77.3670
   455.7500     23.3237     26.3405     19.4624     77.0891
   456.0000     24.2213     26.6061     20.0484     77.2814
   456.2500     24.6522     26.8800     20.6357     78.0681
   456.5000     24.6584     27.1497     21.2057     80.5775
   456.7500     24.3987     27.3994     21.7187     82.9240
   457.0000     24.0475     27.6084     22.1297     86.9598
   457.2500     23.7196     27.7583     22.4092     90.0400
   457.5000     23.4010     27.8455     22.5540     95.5136
   457.7500     23.0653     27.8870     22.5811     99.4531
   458.0000     22.7843     27.9128     22.5176    104.4549
   458.2500     22.5821     27.9472     22.3925    106.4849
   458.5000     22.3304     27.9977     22.2333    107.3390
   458.7500     21.9423     28.0562     22.0649    106.6699
   459.0000     21.5655     28.1086     21.9114    103.9971
   459.2500     21.4599     28.1425     21.7994    101.0953
   459.5000     21.6858     28.1500     21.7552     95.5146
   459.7500     22.0243     28.1282     21.7942     91.6738
   460.0000     22.2827     28.0779     21.9075     87.0243
   460.2500     22.4964     28.0013     22.0604     84.8864
   460.5000     22.7732     27.8982     22.2059     82.2852
   460.7500     23.1520     27.7628     22.3091     80.2890
   461.0000     23.6464     27.5831     22.3649     76.7984
   461.2500     24.2114     27.3481     22.3953     74.8034
   461.5000     24.6543     27.0581     22.4316     73.5148
   461.7500     24.8185     26.7306     22.4973     73.8652
   462.0000     24.7980     26.3950     22.6029     75.3044
   462.2500     24.8213     26.0827     22.7464     76.2483
   462.5000     25.0167     25.8175     22.9093     76.9692
   462.7500     25.3186     25.6075     23.0540     76.8249
   463.0000     25.5582     25.4371     23.1344     75.9315
   463.2500     25.6450     25.2680     23.1246     75.3729
   463.5000     25.6476     25.0473     23.0410     75.3700
   463.7500     25.7080     24.7252     22.9346     75.9485
   464.0000     25.9282     24.2715     22.8592     77.1409
   464.2500     26.2964     23.6819     22.8443     77.8197
