~Version Information
VERS.                      2.0: CWLS Log ASCII Standard - VERSION 2.0
WRAP.                       NO: One line per depth step
~Well Information Block
STRT.FT               310.0000: 
STOP.FT               815.0000: 
STEP.FT                 0.2500: 
NULL.                -999.2500: 
COMP.          Pioneer Natural Resources: COMPANY
WELL.           Weissach 32-32: WELL
FLD.           Purgatorie River: FIELD
LOC.           2193' FNL & 2256' FEL: LOCATION
STAT.                 Colorado: State
CNTY.               Las Animas: COUNTY
CTRY. USA : Country
SECT. 32 : Section
TOWN. 33S : Township
RANG. 65W : Range
SRVC.                Patterson: SERVICE COMPANY
DATE.          Mon Sep 26 09:20:51 2005: LOG DATE
API. 05-071-08523                         : UNIQUE WELL ID
~Curve Information Block
DEPT.FT            0 000 00 00: Depth
SN.Ohm-m                      : IEL Short Normal
SP.mV                         : IEL Spontaneous Potential
DIR.Ohm-m                     : IEL Induction Resistivity
GR.GAPI                       : Gamma Ray
~Parameter Information Block
~A  Depth        SN          SP         DIR          GR     
# ...
   645.0000     21.8437    169.4997     20.7644     88.9319
   645.2500     21.2382    169.2816     24.2088    112.6129
   645.5000     21.6190    169.4445     19.1560    111.2169
   645.7500     20.7043    168.9648     18.8510    109.9566
   646.0000     20.8486    168.5252     19.7409     82.1659
   646.2500     20.6304    168.0718     21.8234     88.7564
   646.5000     20.5383    167.6944     18.5884     83.1198
   646.7500     20.6123    167.5780     17.8634    102.0825
   647.0000     20.7709    167.0571     18.2895    114.2682
   647.2500     21.0680    166.5147     18.9165     99.1537
   647.5000     21.5813    166.1447     20.9421     87.4686
   647.7500     22.6456    166.3203     26.7804     99.9612
   648.0000     22.4690    165.5786     19.4891    112.8163
   648.2500     23.1464    165.3132     19.3587     81.6891
   648.5000     23.3123    165.5086     19.1809     68.9993
   648.7500     23.2724    165.0012     19.9458     69.1971
   649.0000     23.8004    164.4738     21.3096     86.7115
   649.2500     24.2093    164.5571     22.3080     97.1660
   649.5000     23.7678    164.2160     20.6411     86.6091
   649.7500     24.2215    164.3782     20.9044     81.9386
   650.0000     24.2574    165.1736     22.3640     91.0145
   650.2500     24.3906    165.4791     29.7898     95.9427
   650.5000     24.8308    164.2238     25.9080     83.0005
   650.7500     25.8908    163.5579     22.8709     78.8834
   651.0000     25.8880    163.3318     23.2848     64.9503
   651.2500     26.1341    162.0553     23.1525     61.1030
   651.5000     27.6419    161.5867     24.6864     72.5205
   651.7500     27.2318    161.4889     27.6884     79.0275
   652.0000     27.7343    161.6945     28.6050     90.0135
   652.2500     27.9925    161.3048     25.2500     98.1165
   652.5000     28.9232    161.3782     25.6643     96.2201
   652.7500     29.8481    161.6527     28.2357     85.7327
   653.0000     30.6068    162.2276     27.3643     64.1033
   653.2500     30.5524    163.0875     37.8613     48.3969
   653.5000     30.0307    162.8136     26.2178     47.2990
   653.7500     29.5327    162.8194     28.5028     50.7856
   654.0000     29.1145    163.0752     38.9369     53.7680
   654.2500     27.2209    163.3589     26.5530     50.7680
   654.5000     26.3576    163.5670     25.3971     66.1224
   654.7500     26.0651    163.6359     26.9795     77.7359
   655.0000     26.2513    163.6723     30.4668     67.9503
   655.2500     26.7484    162.9685     37.0065     74.0845
   655.5000     27.6331    162.5752     31.6085     86.2020
   655.7500     28.3078    162.4476     43.7458     74.7904
   656.0000     29.3290    162.4191     27.4153     89.8899
   656.2500     30.2969    161.7864     26.4903     86.0509
   656.5000     31.1599    160.9043     28.1736     74.0635
   656.7500     31.6908    160.3828     39.1942     78.7251
   657.0000     32.0219    159.9835     30.2022     67.8741
   657.2500     32.3838    159.8294     31.7201     52.6302
   657.5000     32.6902    160.2904     27.8045     46.7882
   657.7500     33.2428    160.9361     28.2617     52.1397
   658.0000     33.7665    160.5609     30.8263     61.6941
   658.2500     34.1891    160.9782     39.1880     58.5632
   658.5000     33.8915    161.7462     34.4141     43.0728
   658.7500     34.0928    162.0726     51.5919     42.7938
   659.0000     34.2729    162.5796     30.7016     54.2376
   659.2500     34.5053    163.0039     29.3462     53.0190
   659.5000     35.2183    163.4588     29.2014     49.8735
   659.7500     34.3337    163.3995     30.0862     59.7852
   660.0000     34.6189    162.9931     30.2400     46.6497
   660.2500     35.3446    162.6974     30.0375     41.6828
   660.5000     34.6550    162.6868     29.8998     51.8310
   660.7500     34.4936    163.1362     33.8549     63.1263
   661.0000     34.5123    162.7116     40.2184     55.6829
   661.2500     35.0807    162.3553     33.6797     47.2945
   661.5000     36.0118    161.9000     32.5192     37.9357
   661.7500     35.2038    161.1080     30.2220     50.2382
   662.0000     35.5179    160.6571     30.0753     55.3914
   662.2500     35.5007    160.5915     29.9646     59.5635
   662.5000     36.0856    160.9092     31.0935     50.7780
   662.7500     36.8736    160.2501     32.1753     39.7286
   663.0000     37.7725    160.4792     32.3751     53.5110
   663.2500     38.5474    160.2407     32.8754     56.1313
   663.5000     37.7135    160.3936     32.4238     53.4290
   663.7500     37.5765    160.9287     38.2760     41.7545
   664.0000     37.6495    161.5013     70.0590     49.3020
   664.2500     37.9025    161.2696     35.3851     44.9031
   664.5000     38.3427    161.2968     32.7630     52.5743
   664.7500     38.1843    160.7459     33.2923     47.4299
   665.0000     38.5626    160.3875     33.7648     42.6114
   665.2500     38.1099    159.9653     33.3121     42.3837
   665.5000     38.0882    159.4545     35.7071     49.8254
   665.7500     38.3301    158.8314     34.8776     52.8341
   666.0000     38.3887    158.4280     33.3949     43.3103
   666.2500     38.3337    158.2675     33.7062     39.6005
   666.5000     38.2301    158.7288     33.8119     40.8756
   666.7500     37.9957    158.8867     34.5651     47.3447
   667.0000     37.8997    158.7229     34.0445     43.9088
   667.2500     37.7414    158.5075     33.8046     42.4109
   667.5000     37.5844    158.4584     36.6960     40.6729
   667.7500     38.1984    158.4373     67.1366     43.8192
   668.0000     37.0044    158.5102     56.9535     49.9572
   668.2500     36.6659    158.5049     34.2296     46.8725
   668.5000     36.0295    158.3480     32.3447     57.4999
   668.7500     35.6468    157.9780     32.0293     53.1246
   669.0000     35.3081    157.4556     32.6113     69.5550
   669.2500     34.8836    156.4138     32.0040     61.1530
   669.5000     34.6276    156.2279     34.2566     47.6506
   669.7500     34.1678    155.5586     43.7039     56.7943
   670.0000     34.0324    154.8035     31.7769     69.6417
   670.2500     35.1038    154.4554     29.5833     53.6570
   670.5000     33.1161    154.2639     29.2022     56.2235
   670.7500     32.3453    154.1982     30.0614     52.8702
   671.0000     31.9006    154.1917     33.6460     45.8004
   671.2500     31.5515    154.5062     31.8269     31.7962
   671.5000     31.0098    154.4123     28.7688     48.5207
   671.7500     30.9049    154.7576     27.6395     55.6681
   672.0000     31.6327    155.3590     29.8606     42.6180
   672.2500     30.1945    156.2437     29.2899     41.3616
   672.5000     29.6908    157.1286     33.2603     44.9348
   672.7500     29.5471    158.1158     29.2010     51.6684
   673.0000     29.3685    159.3375     28.1988     55.1774
   673.2500     29.2418    161.0033     27.8095     44.9548
   673.5000     29.3123    162.4613     28.3557     54.4303
   673.7500     29.4155    162.9347     29.0000     56.0103
   674.0000     29.9676    162.9492     30.9342     68.4808
   674.2500     29.9728    163.2825     37.2685     58.1438
   674.5000     29.7337    163.2428     33.9220     46.7632
   674.7500     29.9676    163.2256     28.5490     49.0404
   675.0000     30.1748    163.2662     28.4268     59.4091
   675.2500     30.5015    163.4218     31.1389     62.4203
   675.5000     30.7084    163.7723     28.6221     52.0583
   675.7500     30.8062    163.2465     28.1142     42.4471
   676.0000     31.3334    162.9525     28.0999     47.9883
   676.2500     31.1863    162.6615     30.4691     48.8072
   676.5000     31.0011    162.7092     34.1436     38.4610
   676.7500     30.8822    163.1736     54.8833     57.8250
   677.0000     30.4659    163.1290     53.6994     50.7513
   677.2500     30.0862    163.3496     43.0495     53.6246
   677.5000     30.4775    163.8976     27.8864     55.6695
   677.7500     28.9755    164.7868     27.3417     64.0957
   678.0000     28.2947    165.1039     30.4637     60.5717
   678.2500     28.1109    165.6871     47.7919     43.9775
