~Version Information
VERS.                      2.0: CWLS Log ASCII Standard - VERSION 2.0
WRAP.                       NO: One line per depth step
~Well Information Block
STRT.FT               650.0000: 
STOP.FT              2127.7000: 
STEP.FT                 0.1000: 
NULL.                -999.2500: 
COMP.          Pioneer Natural Resources: COMPANY
WELL.          Kennington 41-26: WELL
FLD.           Purgatoire River: FIELD
LOC.           940' FNL & 1008' FEL--: LOCATION
CNTY.               Las Animas: COUNTY
SRVC.                Patterson: SERVICE COMPANY
DATE.          Wed Mar 29 11:30:50 2006: LOG DATE
UWI.           05 071 08679 00: UNIQUE WELL ID
STAT.                 Colorado: STATE
~Curve Information Block
DEPT.FT            0 000 00 00: Depth
DCAL.in                       : CDL Caliper
RHOB.g/cc                     : CDL Bulk Density
RHOC.g/cc                     : CDL Density Correction
DPOR.pu                       : CDL Density Porosity
NPOR.pu                       : Neutron Porosity
GR.GAPI                       : Gamma Ray
~Parameter Information Block
~A  Depth       DCAL        RHOB        RHOC        DPOR        NPOR         GR     
# ...
  1619.6000      7.9237      2.5720      0.0427      4.7274     11.3557     35.1402
  1619.7000      7.9237      2.5747      0.0566      4.5609     11.3830     36.2657
  1619.8000      7.9230      2.5728      0.0367      4.6759     11.5425     38.0830
  1619.9000      7.9230      2.5612      0.0599      5.3803     11.5181     38.9933
  1620.0000      7.9216      2.5493      0.0058      6.1029     11.2848     38.2944
  1620.1000      7.9216      2.5513      0.0244      5.9817     10.9749     36.9385
  1620.2000      7.9216      2.5590      0.0588      5.5137     10.7556     35.2828
  1620.3000      7.9201      2.5556      0.0388      5.7199     10.6623     33.2148
  1620.4000      7.9201      2.5485      0.0153      6.1540     10.6264     30.3987
  1620.5000      7.9214      2.5488      0.0512      6.1317     10.8117     28.2563
  1620.6000      7.9214      2.5500      0.0408      6.0590     11.3097     29.3175
  1620.7000      7.9214      2.5535      0.0286      5.8510     11.7479     33.2416
  1620.8000      7.9235      2.5722      0.0123      4.7145     11.7626     37.3351
  1620.9000      7.9235      2.5944      0.1033      3.3716     11.5156     39.6119
  1621.0000      7.9233      2.6014      0.0301      2.9430     11.2183     40.7920
  1621.1000      7.9233      2.6062      0.0248      2.6529     11.0569     41.9063
  1621.2000      7.9233      2.6155      0.0822      2.0889     11.2873     42.0166
  1621.3000      7.9229      2.6133      0.0894      2.2230     11.7496     40.8122
  1621.4000      7.9229      2.6023      0.0181      2.8901     12.0062     39.9814
  1621.5000      7.9233      2.6037      0.0525      2.8077     11.9575     40.2057
  1621.6000      7.9233      2.6108      0.1043      2.3733     11.8568     39.6212
  1621.7000      7.9233      2.5979      0.0837      3.1599     11.7920     37.8868
  1621.8000      7.9222      2.5662      0.0247      5.0771     11.6928     37.0315
  1621.9000      7.9222      2.5398      0.0253      6.6803     11.7369     36.8290
  1622.0000      7.9200      2.5286      0.0664      7.3597     11.9200     36.0349
  1622.1000      7.9200      2.5269     -0.0036      7.4619     11.8395     35.6021
  1622.2000      7.9200      2.5326      0.0737      7.1149     11.5916     37.2018
  1622.3000      7.9186      2.5447      0.0590      6.3817     11.5352     39.4252
  1622.4000      7.9186      2.5530      0.0810      5.8808     11.6882     39.9047
  1622.5000      7.9189      2.5469      0.0579      6.2455     11.9398     39.7964
  1622.6000      7.9189      2.5314      0.0338      7.1871     12.1663     40.5501
  1622.7000      7.9189      2.5166      0.0278      8.0872     12.2219     42.0719
  1622.8000      7.9202      2.5134      0.0169      8.2764     12.1408     44.3657
  1622.9000      7.9202      2.5285      0.0003      7.3620     12.1926     46.3407
  1623.0000      7.9206      2.5431      0.0587      6.4760     12.4974     46.0179
  1623.1000      7.9206      2.5349      0.0206      6.9736     12.7802     43.7012
  1623.2000      7.9206      2.5144      0.0037      8.2212     12.7638     42.3715
  1623.3000      7.9218      2.5027      0.0472      8.9252     12.5714     44.0848
  1623.4000      7.9218      2.5050      0.0250      8.7857     12.5365     47.4238
  1623.5000      7.9232      2.5150     -0.0026      8.1809     12.7077     50.1393
  1623.6000      7.9232      2.5246      0.0340      7.6023     12.9068     51.8923
  1623.7000      7.9232      2.5329      0.0067      7.0992     13.0836     52.4640
  1623.8000      7.9222      2.5435      0.0386      6.4564     13.1635     51.0915
  1623.9000      7.9222      2.5549      0.0203      5.7615     13.1626     47.9489
  1624.0000      7.9212      2.5613      0.0532      5.3761     13.3278     45.4841
  1624.1000      7.9212      2.5535      0.0470      5.8482     13.7708     45.3317
  1624.2000      7.9212      2.5332      0.0170      7.0781     14.2957     45.8909
  1624.3000      7.9226      2.5096      0.0483      8.5067     14.6084     45.9887
  1624.4000      7.9226      2.4887      0.0141      9.7738     14.5703     45.5657
  1624.5000      7.9236      2.4807     -0.0186     10.2621     14.2610     44.6133
  1624.6000      7.9236      2.4819      0.0378     10.1897     13.7808     43.9975
  1624.7000      7.9236      2.4741      0.0051     10.6595     13.2443     44.2579
  1624.8000      7.9223      2.4611     -0.0067     11.4510     12.8364     45.4180
  1624.9000      7.9223      2.4611      0.0113     11.4457     12.5713     46.6307
  1625.0000      7.9213      2.4712      0.0669     10.8389     12.3296     46.8687
  1625.1000      7.9213      2.4723      0.0585     10.7680     12.1835     46.5595
  1625.2000      7.9213      2.4663      0.0179     11.1346     12.4171     46.3321
  1625.3000      7.9213      2.4760      0.0162     10.5462     12.9835     44.3267
  1625.4000      7.9213      2.5049      0.0892      8.7935     13.3485     39.8687
  1625.5000      7.9196      2.5196      0.1587      7.9055     13.2239     36.1000
  1625.6000      7.9196      2.4994      0.0627      9.1288     12.8011     33.7842
  1625.7000      7.9196      2.4696      0.0498     10.9321     12.2841     32.3799
  1625.8000      7.9170      2.4561      0.0586     11.7520     11.6923     32.9240
  1625.9000      7.9170      2.4535      0.0807     11.9120     11.2292     35.1586
  1626.0000      7.9180      2.4510      0.0266     12.0614     11.2047     36.2436
  1626.1000      7.9180      2.4535      0.0331     11.9090     11.5724     34.3901
  1626.2000      7.9180      2.4656      0.0380     11.1737     11.9827     31.7180
  1626.3000      7.9211      2.4762      0.0798     10.5308     12.1048     30.6826
  1626.4000      7.9211      2.4746      0.0832     10.6315     11.9354     30.9025
  1626.5000      7.9229      2.4697      0.0734     10.9285     11.6747     30.0411
  1626.6000      7.9229      2.4689      0.0812     10.9768     11.4111     28.2503
  1626.7000      7.9229      2.4630      0.0392     11.3312     11.2323     28.0806
  1626.8000      7.9224      2.4546      0.0376     11.8427     11.3259     29.8159
  1626.9000      7.9224      2.4592      0.0567     11.5664     11.5475     31.0996
  1627.0000      7.9212      2.4783      0.0532     10.4090     11.5702     31.3826
  1627.1000      7.9212      2.4957      0.0770      9.3485     11.4423     32.0313
  1627.2000      7.9212      2.4998      0.0526      9.1053     11.3174     33.6394
  1627.3000      7.9212      2.5030      0.0167      8.9103     11.3976     36.1089
  1627.4000      7.9212      2.5213      0.0401      7.7998     11.8433     37.3609
  1627.5000      7.9217      2.5476      0.0698      6.2091     12.3463     35.4571
  1627.6000      7.9217      2.5661      0.0822      5.0831     12.6041     32.4854
  1627.7000      7.9217      2.5702      0.0766      4.8336     12.8057     31.3895
  1627.8000      7.9224      2.5617      0.0610      5.3531     13.2150     33.9180
  1627.9000      7.9224      2.5534      0.0379      5.8548     13.7542     40.1000
  1628.0000      7.9226      2.5564      0.0520      5.6735     14.2477     46.2430
  1628.1000      7.9226      2.5670      0.0454      5.0323     14.6721     47.6737
  1628.2000      7.9226      2.5782      0.0046      4.3541     15.1371     46.1455
  1628.3000      7.9217      2.5841      0.0274      3.9965     15.6694     47.1928
  1628.4000      7.9217      2.5848      0.0188      3.9531     16.1535     49.6129
  1628.5000      7.9214      2.5820      0.0578      4.1204     16.5378     49.5641
  1628.6000      7.9214      2.5710      0.0003      4.7872     17.0068     49.6568
  1628.7000      7.9214      2.5470      0.0179      6.2416     17.6296     53.6206
  1628.8000      7.9222      2.5123     -0.0202      8.3438     18.1170     59.7059
  1628.9000      7.9222      2.4780     -0.0169     10.4264     18.5270     65.4486
  1629.0000      7.9222      2.4567     -0.0331     11.7141     19.2219     72.0177
  1629.1000      7.9222      2.4565     -0.0159     11.7258     20.0028     79.3846
