~Version Information
VERS.                      2.0: CWLS Log ASCII Standard - VERSION 2.0
WRAP.                       NO: One line per depth step
~Well Information Block
STRT.FT                -5.5000: 
STOP.FT               791.0000: 
STEP.FT                 0.2500: 
NULL.                -999.2500: 
COMP.          Pioneer Natural Resources: COMPANY
WELL.           Beringer 33-18: WELL
FLD.           Purgatoire River: FIELD
LOC.           2356' FSL & 2338' FEL--: LOCATION
CNTY.               Las Animas: COUNTY
SRVC.                Patterson: SERVICE COMPANY
DATE.          Mon Apr 03 11:39:01 2006: LOG DATE
UWI.           05 071 08725 00: UNIQUE WELL ID
STAT.                 Colorado: STATE
~Curve Information Block
DEPT.FT            0 000 00 00: Depth
CCL.                          : Casing Collar Locator
TT3.usec                      : CBL 3' Travel Time
AMP3.mV                       : CBL 3' Amplitude
GR.GAPI                       : Gamma Ray
~Parameter Information Block
~A  Depth       CCL         TT3         AMP3         GR     
# ...
   162.0000      0.0000    814.2941      5.7765     52.3969
   162.2500      0.0000    819.5452      5.7501     52.8200
   162.5000      0.0000    822.8425      5.6683     55.6872
   162.7500      0.0000    821.9412      5.5986     60.8858
   163.0000      0.0000    817.0130      5.5087     74.3168
   163.2500      0.0000    812.5914      5.4756     85.5378
   163.5000      0.0000    807.3394      5.4709    101.1179
   163.7500      0.0000    806.5367      5.4883    108.2264
   164.0000      0.0000    810.5242      5.5226    113.0612
   164.2500      0.0000    815.6420      5.5402    114.0562
   164.5000      0.0000    823.5629      5.5504    116.0552
   164.7500      0.0000    827.2935      5.5471    118.7668
   165.0000      0.0000    829.4495      5.5361    123.9813
   165.2500      0.0000    828.6359      5.5314    127.0918
   165.5000      0.0000    824.1430      5.5345    129.8893
   165.7500      0.0000    818.9595      5.5425    130.2312
   166.0000      0.0000    808.4727      5.5610    128.6412
   166.2500      0.0000    800.5886      5.5800    126.8171
   166.5000      0.0000    789.2536      5.6278    124.7332
   166.7500      0.0000    782.4866      5.6761    124.5729
   167.0000      0.0000    772.5786      5.7673    126.0681
   167.2500      0.0000    764.9940      5.8299    127.3711
   167.5000      0.0000    750.3370      5.9027    127.5435
   167.7500      0.0000    737.1846      5.9278    124.9656
   168.0000      0.0000    708.8672      5.9321    115.2736
   168.2500      0.0000    682.3458      5.9251    105.1662
   168.5000      0.0000    633.6852      5.9297     87.5378
   168.7500      0.0000    601.7075      5.9571     76.7206
   169.0000      0.0000    568.2892      6.0391     65.6727
   169.2500      0.0000    561.1268      6.1122     62.6851
   169.5000      0.0000    574.7311      6.2237     63.7950
   169.7500      0.0000    597.2558      6.2850     66.8923
   170.0000      0.0000    641.7869      6.3456     72.9689
   170.2500      0.0000    671.8190      6.3676     77.1549
   170.5000      0.0000    707.9140      6.3881     82.7178
   170.7500      0.0000    723.6819      6.4030     85.8398
   171.0000      0.0000    735.5703      6.4338     90.0650
   171.2500      0.0000    736.5016      6.4552     92.4464
   171.5000      0.0000    725.5530      6.4730     93.8139
   171.7500      0.0000    706.9044      6.4700     92.4363
   172.0000      0.0000    658.4026      6.4493     87.5049
   172.2500      0.0000    615.3531      6.4352     83.6279
   172.5000      0.0000    549.2869      6.4304     79.2249
   172.7500      0.0000    513.5972      6.4421     77.9452
   173.0000      0.0000    480.2279      6.4748     78.2409
   173.2500      0.0000    470.4077      6.4995     78.9740
   173.5000      0.0000    470.2425      6.5340     78.9146
   173.7500      0.0000    479.8014      6.5563     77.6349
   174.0000      0.0000    512.6489      6.5899     74.9933
   174.2500      0.0000    547.9601      6.6077     74.0981
   174.5000      0.0000    613.6520      6.6112     76.0348
   174.7500      0.0000    656.7354      6.5927     80.0534
   175.0000      0.0000    705.8885      6.5481     89.6392
   175.2500      0.0000    725.4288      6.5247     97.0095
   175.5000      0.0000    738.7457      6.5174    105.9326
   175.7500      0.0000    740.6614      6.5259    108.8440
   176.0000      0.0000    736.6992      6.5378    108.5655
   176.2500      0.0000    729.7421      6.5381    106.6146
   176.5000      0.0000    712.6418      6.5275    103.7540
   176.7500      0.0000    697.7937      6.5142    102.7638
   177.0000      0.0000    673.9858      6.4854    102.6529
   177.2500      0.0000    658.6038      6.4641    103.2133
   177.5000      0.0000    634.6465      6.4429    104.6903
   177.7500      0.0000    615.3705      6.4432    105.6684
   178.0000      0.0000    580.3475      6.4688    105.7725
   178.2500      0.0000    557.7366      6.4984    104.4301
   178.5000      0.0000    541.0138      6.5430    100.9605
   178.7500      0.0000    549.4774      6.5578     98.6243
   179.0000      0.0000    591.8296      6.5418     96.3302
   179.2500      0.0000    630.9104      6.5094     95.6720
   179.5000      0.0000    685.2229      6.4532     95.4934
   179.7500      0.0000    710.7150      6.4269     95.9584
   180.0000      0.0000    731.4985      6.4160     98.3607
   180.2500      0.0000    737.2825      6.4237    101.1446
   180.5000      0.0000    740.4010      6.4450    105.1674
   180.7500      0.0000    741.0710      6.4638    106.0559
   181.0000      0.0000    741.5684      6.5058    103.1596
   181.2500      0.0000    741.8032      6.5427     98.8826
   181.5000      0.0000    742.0541      6.5915     91.0700
   181.7500      0.0000    742.1302      6.6018     85.9915
   182.0000      0.0000    742.0782      6.5683     79.3563
   182.2500      0.0000    741.9451      6.5226     75.8882
   182.5000      0.0000    741.6805      6.4594     73.4879
   182.7500      0.0000    741.5342      6.4425     75.0099
   183.0000      0.0000    741.4678      6.4617     83.5156
   183.2500      0.0000    741.5409      6.4888     92.9191
   183.5000      0.0000    741.7590      6.5110    108.8669
   183.7500      0.0000    741.9124      6.4957    117.4485
   184.0000      0.0000    742.0718      6.4275    123.0384
   184.2500      0.0000    742.1147      6.3723    121.9044
   184.5000      0.0000    742.0880      6.3182    116.9062
   184.7500      0.0000    742.0140      6.3097    114.2390
   185.0000      0.0000    741.8286      6.3151    113.6491
   185.2500      0.0000    741.6757      6.3132    115.0943
   185.5000      0.0000    741.4724      6.2994    117.9212
   185.7500      0.0000    741.4009      6.2957    119.3247
   186.0000      0.0000    741.4261      6.3140    120.2589
   186.2500      0.0000    741.5101      6.3344    120.1685
   186.5000      0.0000    741.6431      6.3465    119.0288
   186.7500      0.0000    741.6804      6.3307    117.6782
   187.0000      0.0000    741.6135      6.2783    115.4408
   187.2500      0.0000    741.4941      6.2358    114.3377
   187.5000      0.0000    741.2421      6.1707    113.0188
   187.7500      0.0000    741.0496      6.1249    111.2417
   188.0000      0.0000    740.7688      6.0515    105.1242
   188.2500      0.0000    740.6250      6.0039     98.6211
   188.5000      0.0000    740.5686      5.9451     87.4364
   188.7500      0.0000    740.7310      5.9182     80.8050
   189.0000      0.0000    741.5635      5.8997     73.8167
   189.2500      0.0000    742.7809      5.9053     70.9941
   189.5000      0.0000    746.0709      5.9508     68.3034
   189.7500      0.0000    749.2920      6.0101     67.0297
   190.0000      0.0000    755.0630      6.1307     66.2399
   190.2500      0.0000    758.8705      6.2118     67.2394
   190.5000      0.0000    763.2195      6.2928     72.0220
   190.7500      0.0000    764.5046      6.3037     76.9762
   191.0000      0.0000    763.2261      6.2505     84.6442
   191.2500      0.0000    760.2361      6.1716     88.4040
   191.5000      0.0000    752.9307      5.9845     90.8251
   191.7500      0.0000    746.0786      5.8089     90.5291
   192.0000      0.0000    732.0190      5.4893     88.9990
   192.2500      0.0000    720.0697      5.2783     88.9690
   192.5000      0.0000    700.3005      5.0455     93.0767
   192.7500      0.0000    687.5290      4.9700     98.5124
   193.0000      0.0000    668.6457      4.9645    106.8773
   193.2500      0.0000    653.2323      5.0120    109.8232
   193.5000      0.0000    620.3182      5.1283    108.9068
   193.7500     -2.0000    592.1018      5.2186    106.5064
   194.0000      0.0000    548.6270      5.3361    104.6121
   194.2500      0.0000    525.9042      5.3828    105.7135
   194.5000      0.0000    510.7410      5.4220    109.7660
   194.7500      0.0000    513.9559      5.4772    112.8169
   195.0000      0.0000    527.6408      5.6899    117.3835
   195.2500      0.0000    531.2344      5.9128    121.0064
