~Version Information
VERS.                      2.0: CWLS Log ASCII Standard - VERSION 2.0
WRAP.                       NO: One line per depth step
~Well Information Block
STRT.FT               585.0000: 
STOP.FT              2277.5000: 
STEP.FT                 0.1000: 
NULL.                -999.2500: 
COMP.          Pioneer Natural Resources: COMPANY
WELL.          Interceptor 43-13 Tr: WELL
FLD.           Purgatoire River: FIELD
LOC.           2006' FSL & 438' FEL: LOCATION
PROV.                 Colorado: PROVINCE
CNTY.               Las Animas: COUNTRY
SRVC.                Patterson: SERVICE COMPANY
DATE.          Mon Oct 17 07:15:06 2005: LOG DATE
UWI.           05 071 08549 00: UNIQUE WELL ID
~Curve Information Block
DEPT.FT            0 000 00 00: Depth
DCAL.in                       : CDL Caliper
RHOB.g/cc                     : CDL Bulk Density
RHOC.g/cc                     : CDL Density Correction
DPOR.pu                       : CDL Density Porosity
GR.GAPI                       : Gamma Ray
NPOR.pu                       : Neutron Porosity
~Parameter Information Block
~A  Depth       DCAL        RHOB        RHOC        DPOR         GR         NPOR    
# ...
   921.0000      8.0812      2.5435      0.1525      6.4560    150.5720     25.3455
   921.1000      8.0812      2.5687      0.2190      4.9250    142.5874     26.2767
   921.2000      8.0812      2.5791      0.1741      4.2970    140.7531     27.0851
   921.3000      8.0828      2.5804      0.1918      4.2163    147.4206     27.4620
   921.4000      8.0828      2.5873      0.2075      3.7970    159.1158     27.3876
   921.5000      8.0167      2.6045      0.1658      2.7566    166.6594     27.1135
   921.6000      8.0167      2.6257      0.2142      1.4726    163.3107     27.1744
   921.7000      8.0167      2.6337      0.1950      0.9878    153.0159     27.5221
   921.8000      8.0181      2.6258      0.1491      1.4655    147.3149     27.5678
   921.9000      8.0181      2.6143      0.1764      2.1657    148.5704     27.0809
   922.0000      8.0875      2.6041      0.1024      2.7813    147.7428     26.4971
   922.1000      8.0875      2.5919      0.0867      3.5234    140.6130     26.2624
   922.2000      8.0875      2.5720      0.0764      4.7272    133.2947     25.9855
   922.3000      8.1016      2.5559      0.0001      5.7014    128.8605     25.1810
   922.4000      8.1016      2.5592      0.0462      5.5025    124.8219     24.3256
   922.5000      8.0970      2.5715      0.0177      4.7570    120.6162     24.0492
   922.6000      8.0970      2.5729      0.0902      4.6699    117.1518     24.0073
   922.7000      8.0970      2.5589      0.0507      5.5200    114.9728     23.5620
   922.8000      8.0620      2.5401      0.0461      6.6587    113.8185     22.7167
   922.9000      8.0620      2.5316      0.0006      7.1750    112.3223     21.9074
   923.0000      7.9857      2.5407      0.0856      6.6243    109.9363     21.2102
   923.1000      7.9857      2.5528      0.0622      5.8895    108.6841     20.5851
   923.2000      7.9857      2.5550      0.0355      5.7582    107.5818     20.2364
   923.3000      7.9773      2.5524      0.0310      5.9126    101.6587     20.0157
   923.4000      7.9773      2.5479      0.1066      6.1892     90.7898     19.6217
   923.5000      7.9512      2.5339      0.0691      7.0387     82.2777     19.1129
   923.6000      7.9512      2.5104      0.0738      8.4613     81.1136     18.8885
   923.7000      7.9512      2.4908      0.0481      9.6459     83.2832     19.0727
   923.8000      7.9148      2.4797      0.0839     10.3192     84.0891     19.0856
   923.9000      7.9148      2.4647      0.0470     11.2280     84.3519     18.4371
   924.0000      7.8956      2.4561     -0.0365     11.7516     84.4999     17.5106
   924.1000      7.8956      2.4791      0.0211     10.3560     81.8822     17.1130
   924.2000      7.8956      2.5176      0.0610      8.0253     77.8239     17.3300
   924.3000      7.9173      2.5260      0.1170      7.5129     78.3521     17.4398
   924.4000      7.9173      2.4978      0.0624      9.2245     81.4977     17.1495
   924.5000      7.9186      2.4758      0.0023     10.5555     80.6694     17.0363
   924.6000      7.9186      2.4804      0.0656     10.2762     78.6466     17.1553
   924.7000      7.9186      2.4853      0.0636      9.9810     79.7182     16.9775
   924.8000      7.9153      2.4727      0.0406     10.7465     80.4447     16.8080
   924.9000      7.9153      2.4511      0.0418     12.0566     77.3546     16.9010
   925.0000      7.9530      2.4266      0.0435     13.5422     72.3976     16.6245
   925.1000      7.9530      2.3982      0.0094     15.2614     69.1644     16.1898
   925.2000      7.9530      2.3774      0.0151     16.5199     68.9117     16.3193
   925.3000      7.9952      2.3793      0.0232     16.4072     69.6077     16.8832
   925.4000      7.9952      2.3977      0.0718     15.2906     70.0879     17.3526
   925.5000      8.0173      2.4180      0.0495     14.0613     70.5448     17.5231
   925.6000      8.0173      2.4398      0.0938     12.7372     71.3624     17.5526
   925.7000      8.0173      2.4672      0.1142     11.0798     72.5471     17.4543
   925.8000      8.0043      2.4921      0.1387      9.5724     72.5933     17.0366
   925.9000      8.0043      2.5008      0.1274      9.0435     71.0599     16.3515
   926.0000      7.9871      2.4925      0.1307      9.5476     69.0458     15.7216
   926.1000      7.9871      2.4842      0.1185     10.0468     66.8475     15.4433
   926.2000      7.9871      2.4893      0.1431      9.7398     63.7748     15.2239
   926.3000      7.9479      2.5012      0.1139      9.0204     61.3044     14.7858
   926.4000      7.9479      2.5069      0.1456      8.6699     59.0249     14.3222
   926.5000      7.9435      2.5039      0.1051      8.8554     54.0865     14.0342
   926.6000      7.9435      2.5049      0.1070      8.7949     50.6074     13.9131
   926.7000      7.9435      2.5162      0.1421      8.1088     54.9210     13.9338
   926.8000      7.9592      2.5241      0.1266      7.6285     62.6123     14.1627
   926.9000      7.9592      2.5152      0.1501      8.1682     63.9363     14.3869
   927.0000      7.9912      2.4895      0.1284      9.7256     58.2766     14.3981
   927.1000      7.9912      2.4595      0.0697     11.5461     52.6821     14.3584
   927.2000      7.9912      2.4396      0.0500     12.7542     50.6946     14.2882
   927.3000      8.0114      2.4277      0.0466     13.4749     49.7327     14.0804
   927.4000      8.0114      2.4073      0.0563     14.7089     47.9356     13.8294
   927.5000      8.0343      2.3793      0.0166     16.4073     47.0548     13.4940
   927.6000      8.0343      2.3657     -0.0000     17.2329     45.1130     13.2809
   927.7000      8.0343      2.3690      0.0255     17.0274     40.3165     13.5065
   927.8000      8.0548      2.3714      0.0613     16.8847     35.7930     13.8636
   927.9000      8.0548      2.3710      0.0161     16.9080     31.9914     13.9325
   928.0000      8.0499      2.3755      0.0443     16.6373     27.9964     13.7623
   928.1000      8.0499      2.3780      0.0239     16.4849     25.7764     13.7131
   928.2000      8.0499      2.3761      0.0874     16.5989     26.3568     13.8538
   928.3000      8.0643      2.3781      0.0403     16.4768     28.1826     13.7996
   928.4000      8.0643      2.3853      0.0755     16.0420     29.8310     13.4360
   928.5000      8.0625      2.3950      0.0409     15.4554     30.4836     13.0684
   928.6000      8.0625      2.4126      0.0663     14.3864     29.1462     12.9167
   928.7000      8.0625      2.4327      0.1056     13.1675     26.6505     12.8166
   928.8000      8.0572      2.4393      0.0471     12.7689     25.3197     12.8156
   928.9000      8.0572      2.4325      0.0135     13.1825     25.1191     13.1345
   929.0000      8.0596      2.4193      0.0719     13.9794     25.3505     13.5850
   929.1000      8.0596      2.4004      0.0509     15.1287     27.1093     13.7795
   929.2000      8.0596      2.3828      0.0658     16.1910     28.9977     13.5480
   929.3000      8.0686      2.3847     -0.0006     16.0762     28.1532     13.3346
   929.4000      8.0686      2.4172      0.1018     14.1079     24.8523     13.5750
   929.5000      8.0430      2.4614      0.1263     11.4318     22.2113     13.9154
   929.6000      8.0430      2.4824      0.1543     10.1556     22.9193     14.0808
   929.7000      8.0430      2.4673      0.0879     11.0749     26.0959     14.5107
   929.8000      8.0352      2.4337      0.0927     13.1099     28.5998     15.4159
   929.9000      8.0352      2.4059      0.0216     14.7954     29.3516     16.4086
   930.0000      8.0330      2.4015      0.0135     15.0625     30.7637     17.4239
   930.1000      8.0330      2.4217      0.0526     13.8349     34.8189     18.5974
   930.2000      8.0330      2.4491      0.0649     12.1745     39.4354     19.4790
   930.3000      8.0269      2.4760      0.0421     10.5478     41.8992     19.9731
   930.4000      8.0269      2.5126      0.0897      8.3293     42.2125     20.6237
   930.5000      8.0183      2.5581      0.0775      5.5667     41.7463     21.1749
