~Version Information
VERS.                      2.0: CWLS Log ASCII Standard - VERSION 2.0
WRAP.                       NO: One line per depth step
~Well Information Block
STRT.FT               660.0000: 
STOP.FT              2488.5000: 
STEP.FT                 0.1000: 
NULL.                -999.2500: 
COMP.          Petrogulf Corporation: COMPANY
WELL.          Montoya 18-11V-B: WELL
FLD.           Purgatorie River: FIELD
LOC.           848' FNL & 619' FWL: LOCATION
PROV.                 Colorado: PROVINCE
CNTY.               Las Animas: COUNTRY
SRVC.                Patterson: SERVICE COMPANY
DATE.          Wed Oct 05 07:28:13 2005: LOG DATE
UWI.                          : UNIQUE WELL ID
~Curve Information Block
DEPT.FT            0 000 00 00: Depth
DCAL.in                       : CDL Caliper
RHOB.g/cc                     : CDL Bulk Density
RHOC.g/cc                     : CDL Density Correction
DPOR.pu                       : CDL Density Porosity
GR.GAPI                       : Gamma Ray
NPOR.pu                       : Neutron Porosity
~Parameter Information Block
~A  Depth       DCAL        RHOB        RHOC        DPOR         GR         NPOR    
# ...
  1264.8000      7.9969      2.7293      0.0775     -4.8085    138.1875     29.7257
  1264.9000      7.9969      2.7010      0.0434     -3.0913    136.4788     29.6313
  1265.0000      7.9967      2.6660      0.0281     -0.9682    135.2623     29.2553
  1265.1000      7.9967      2.6142     -0.0046      2.1683    135.6568     28.7817
  1265.2000      7.9967      2.5283     -0.0896      7.3755    139.4050     28.4386
  1265.3000      8.0082      2.4244     -0.1905     13.6711    143.4239     28.2186
  1265.4000      8.0082      2.3430     -0.2066     18.6071    143.1872     28.0037
  1265.5000      8.0451      2.2911     -0.1342     21.7517    140.0758     27.8550
  1265.6000      8.0451      2.2446     -0.1221     24.5709    138.9146     27.8575
  1265.7000      8.0451      2.1993     -0.1149     27.3152    139.2104     27.9908
  1265.8000      8.0216      2.1719     -0.0172     28.9767    137.6406     28.1583
  1265.9000      8.0216      2.1707      0.0476     29.0480    136.8952     28.1566
  1266.0000      8.0649      2.1948      0.1479     27.5866    140.7622     27.9159
  1266.1000      8.0649      2.2366      0.2442     25.0544    145.7781     27.6640
  1266.2000      8.0649      2.2760      0.4256     22.6678    147.6354     27.6055
  1266.3000      8.2905      2.2803      0.5305     22.4053    148.8304     27.5071
  1266.4000      8.2905      2.2191      0.5494     26.1164    152.9561     26.9893
  1266.5000      8.6525      2.0832      0.5432     34.3492    156.1896     26.0669
  1266.6000      8.6525      1.9045      0.4413     45.1796    152.9366     25.0509
  1266.7000      8.6525      1.7495      0.3448     54.5769    145.9599     24.2633
  1266.8000      9.0993      1.6626      0.3668     59.8428    141.1045     23.6941
  1266.9000      9.0993      1.6305      0.4436     61.7877    139.3006     23.0653
  1267.0000      9.6662      1.6198      0.4614     62.4378    138.8862     22.4874
  1267.1000      9.6662      1.6142      0.4735     62.7740    139.4381     22.3049
  1267.2000      9.6662      1.6086      0.4802     63.1154    141.5378     22.3572
  1267.3000     10.0230      1.6104      0.4380     63.0065    145.7266     22.1819
  1267.4000     10.0230      1.6488      0.4388     60.6794    152.4354     21.7471
  1267.5000      9.9560      1.7473      0.4754     54.7093    161.5290     21.4591
  1267.6000      9.9560      1.8834      0.5179     46.4629    170.6280     21.5793
  1267.7000      9.9560      1.9998      0.5227     39.4067    173.5696     22.0661
  1267.8000      9.5516      2.0617      0.5440     35.6543    167.9837     22.7711
  1267.9000      9.5516      2.0815      0.5144     34.4554    159.9959     23.4942
  1268.0000      9.5994      2.0943      0.4270     33.6807    156.7147     24.2023
  1268.1000      9.5994      2.1139      0.4739     32.4928    159.8811     24.9986
  1268.2000      9.5994      2.1484      0.3444     30.4027    166.0446     25.8249
  1268.3000      9.9186      2.2416      0.3007     24.7503    169.7560     26.5302
  1268.4000      9.9186      2.4021      0.5373     15.0215    169.2568     27.3258
  1268.5000      9.9833      2.5586      0.6694      5.5375    167.2782     28.3635
  1268.6000      9.9833      2.6489      0.7486      0.0683    166.5219     29.1562
  1268.7000      9.9833      2.6637      0.7829     -0.8283    166.9514     29.4412
  1268.8000     10.5141      2.6039      0.8057      2.7934    165.8993     29.5439
  1268.9000     10.5141      2.4552      0.7150     11.8072    162.8051     29.5305
  1269.0000     11.6522      2.2285      0.3301     25.5471    160.4885     29.1439
  1269.1000     11.6522      1.9917      0.1154     39.8993    160.2318     28.3147
  1269.2000     11.6522      1.8197      0.0298     50.3182    160.1308     26.9274
  1269.3000     12.7873      1.7365      0.0312     55.3655    158.4319     24.9995
  1269.4000     12.7873      1.6912      0.2879     58.1095    154.6931     23.0241
  1269.5000     13.9888      1.5974      0.3219     63.7948    148.3569     21.0766
  1269.6000     13.9888      1.4224      0.2610     74.4001    142.2480     18.6288
  1269.7000     13.9888      1.1965      0.1557     88.0917    140.6892     15.8745
  1269.8000     15.3254      0.9611      0.0631    102.3587    142.2992     13.5841
  1269.9000     15.3254      0.7865     -0.0914    112.9378    144.1463     11.8126
  1270.0000     15.5484      0.7970     -0.1905    112.3028    145.8808     10.2405
  1270.1000     15.5484      1.0667     -0.1271     95.9583    147.6223      8.9700
  1270.2000     15.5484      1.4732      0.1782     71.3215    150.4809      8.1428
  1270.3000     14.6121      1.7579      0.2221     54.0639    155.0321      7.6834
  1270.4000     14.6121      1.7434      0.1821     54.9465    161.1764      7.5669
  1270.5000     14.6083      1.4128     -0.0038     74.9795    167.7423      7.9658
  1270.6000     14.6083      0.9143     -0.3992    105.1940    168.9329      9.0418
  1270.7000     14.6083      0.5263     -0.7049    128.7118    163.9242     10.7567
  1270.8000     14.3813      0.4491     -0.8181    133.3854    161.4492     13.0231
  1270.9000     14.3813      0.6449     -0.5417    121.5222    165.9960     15.7746
  1271.0000     13.8587      0.9579     -0.2948    102.5545    171.9620     18.8915
  1271.1000     13.8587      1.2921     -0.1253     82.2953    173.8217     22.3183
  1271.2000     13.8587      1.6067      0.1803     63.2303    173.0542     25.6453
  1271.3000     11.0577      1.8511      0.3970     48.4207    172.3215     28.2249
  1271.4000     11.0577      1.9927      0.4251     39.8345    170.2674     30.0889
  1271.5000      9.2703      2.0469      0.3380     36.5494    166.0854     31.6769
  1271.6000      9.2703      2.0387      0.3209     37.0509    163.4400     32.8476
  1271.7000      9.2703      1.9830      0.2040     40.4235    162.8043     33.1844
  1271.8000      8.5399      1.9100      0.0524     44.8497    162.7832     32.8148
  1271.9000      8.5399      1.8572      0.0063     48.0467    167.5803     32.1425
  1272.0000      8.4655      1.8440      0.0082     48.8472    177.0322     31.2514
  1272.1000      8.4655      1.8621      0.1372     47.7514    182.2951     30.0437
  1272.2000      8.4655      1.8825      0.2896     46.5143    177.6694     28.5643
  1272.3000      8.6167      1.8896      0.3970     46.0846    168.6962     27.0962
  1272.4000      8.6167      1.8933      0.5144     45.8585    164.3393     25.8490
  1272.5000      8.9724      1.9061      0.5335     45.0835    165.1140     24.6683
  1272.6000      8.9724      1.9501      0.4857     42.4174    166.8448     23.5369
  1272.7000      8.9724      2.0586      0.4894     35.8398    167.9105     22.6907
  1272.8000      9.2023      2.2323      0.5792     25.3144    167.6093     22.1421
  1272.9000      9.2023      2.4318      0.6581     13.2242    166.2714     21.8082
  1273.0000      9.2417      2.6095      0.7385      2.4569    165.1542     21.7972
  1273.1000      9.2417      2.7159      0.8016     -3.9923    164.5988     22.0286
  1273.2000      9.2417      2.7212      0.7315     -4.3161    164.6451     22.2702
  1273.3000      9.2056      2.6526      0.5434     -0.1605    164.3186     22.4639
  1273.4000      9.2056      2.5732      0.3383      4.6521    162.3376     22.5813
  1273.5000      8.5333      2.5188      0.3020      7.9512    159.6148     22.7749
  1273.6000      8.5333      2.4836      0.1765     10.0821    157.6198     23.2288
  1273.7000      8.5333      2.4532      0.1047     11.9303    157.6657     23.6703
  1273.8000      8.3374      2.4136      0.0864     14.3283    160.0809     23.8017
  1273.9000      8.3374      2.3612      0.0512     17.5054    161.2295     23.7662
  1274.0000      8.3885      2.3143     -0.0501     20.3478    157.9465     23.6258
  1274.1000      8.3885      2.2785      0.0276     22.5178    154.2081     23.1940
  1274.2000      8.3885      2.2263      0.0611     25.6801    155.6786     22.5502
  1274.3000      8.4532      2.1467      0.0407     30.5015    160.5137     21.8176
