~Version Information
VERS.                      2.0: CWLS Log ASCII Standard - VERSION 2.0
WRAP.                       NO: One line per depth step
~Well Information Block
STRT.FT                -8.5000: 
STOP.FT              1263.2500: 
STEP.FT                 0.2500: 
NULL.                -999.2500: 
COMP.          Pioneer Natural Resources: COMPANY
WELL.          Rockfish 11-30 Tr: WELL
FLD.           Purgatoire River: FIELD
LOC.           1063' FNL & 1068' FWL--: LOCATION
STAT.                       CO: State
CNTY.               Las Animas: COUNTY
CTRY. USA : country
SECT. 30 : Section
TOWN. 32S : Township
RANG. 65W : Range
SRVC.          Patterson Wireline: SERVICE COMPANY
DATE.          Tue Nov 22 16:08:49 2005: LOG DATE
API.           05 071 08585 00: UNIQUE WELL ID
~Curve Information Block
DEPT.FT            0 000 00 00: Depth
HVOLTA.V                      : Head Voltage Apparent
CCL.                          : Casing Collar Locator
TT3.usec                      : CBL 3' Travel Time
AMP3.mV                       : CBL 3' Amplitude
GR.GAPI                       : Gamma Ray
~Parameter Information Block
PPT.usec                0.0000: Predicted Pipe Time
~A  Depth      HVOLTA       CCL         TT3         AMP3         GR     
# ...
   327.5000     96.2169      0.0000    792.9753     12.5824     91.9675
   327.7500     96.1931      0.0000    792.6857     12.7001     90.2561
   328.0000     96.1706      0.0000    792.6237     12.8940     87.6580
   328.2500     96.3334      0.0000    792.6674     13.1192     85.1458
   328.5000     96.1889      0.0000    792.7270     13.3105     84.3605
   328.7500     96.2183      0.0000    792.7361     13.4129     86.3460
   329.0000     96.2506      0.0000    792.6636     13.4088     90.1453
   329.2500     96.2773      0.0000    792.5311     13.3246     93.2511
   329.5000     96.2183      0.0000    792.3948     13.2064     93.8193
   329.7500     96.1328      0.0000    792.3098     13.0876     92.2043
   330.0000     96.1384      0.0000    792.3081     12.9766     90.4351
   330.2500     96.1033      0.0000    792.3945     12.8684     90.6001
   330.5000     96.2731      0.0000    792.5512     12.7609     93.4585
   330.7500     96.1328      0.0000    792.7430     12.6576     97.7855
   331.0000     96.1314      0.0000    792.9270     12.5611    100.9671
   331.2500     96.1594      0.0000    793.0728     12.4705    100.8516
   331.5000     96.1342      0.0000    793.1774     12.3885     97.4071
   331.7500     96.1608      0.0000    793.2536     12.3257     92.6678
   332.0000     96.1369      0.0000    793.3055     12.2976     89.1924
   332.2500     96.1622      0.0000    793.3358     12.3184     88.3822
   332.5000     96.0458      0.0000    793.3828     12.3924     89.8117
   332.7500     96.1356      0.0000    793.6230     12.5043     92.0008
   333.0000     96.1342      0.0000    794.5347     12.6237     93.8182
   333.2500     96.2169      0.0000    797.0452     12.7258     94.9833
   333.5000     96.1608      0.0000    802.1745     12.8050     95.2786
   333.7500     96.0963      0.0000    809.7377     12.8612     94.0862
   334.0000     96.0780      0.0000    817.0890     12.8814     91.3614
   334.2500     96.2142      0.0000    820.1786     12.8443     88.4683
   334.5000     96.1622      0.0000    816.9921     12.7470     87.2514
   334.7500     96.1314      0.0000    809.5758     12.6246     88.4049
   335.0000     96.2703      0.0000    801.9987     12.5389     90.9857
   335.2500     96.1075      0.0000    796.9361     12.5361     93.1608
   335.5000     96.2436      0.0000    794.6721     12.6070     93.3524
   335.7500     96.0780      0.0000    794.6407     12.6881     91.1774
   336.0000     96.1889      0.0000    797.5112     12.7154     87.6506
   336.2500     96.0766      0.0000    806.5854     12.6791     84.4056
   336.5000     96.1580      0.0000    827.2810     12.6249     82.5510
   336.7500     96.2506      0.0000    862.6515     12.6143     82.2362
   337.0000     96.0977      0.0000    906.4892     12.6874     83.0839
   337.2500     96.1328      0.0000    942.4526     12.8473     84.6926
   337.5000     96.1033      0.0000    954.7540     13.0625     86.7185
   337.7500     96.3011      0.0000    940.6895     13.2814     88.8746
   338.0000     96.2239      0.0000    910.3918     13.4564     90.9983
   338.2500     96.3306      0.0000    876.1685     13.5606     92.8772
   338.5000     96.1889      0.0000    845.5787     13.5915     93.9283
   338.7500     96.2436      0.0000    822.0836     13.5679     93.3574
   339.0000     96.1061      0.0000    806.7764     13.5180     90.9965
   339.2500     96.1258      0.0000    798.5942     13.4624     87.9639
   339.5000     96.1931      0.0000    795.0826     13.4124     86.0439
   339.7500     96.2464      0.0000    793.9183     13.3854     86.0995
   340.0000     96.1875      0.0000    793.6970     13.4078     87.3624
   340.2500     96.3292      0.0000    793.7798     13.4887     88.4598
   340.5000     96.2464      0.0000    793.9177     13.6009     88.6473
   340.7500     96.2520      0.0000    794.0049     13.6969     87.9469
   341.0000     96.2142      0.0000    793.9958     13.7377     86.8796
   341.2500     96.1566      0.0000    793.8880     13.7045     86.3701
   341.5000     96.2169      0.0000    793.7213     13.5927     87.1220
   341.7500     96.1286      0.0000    793.5633     13.4075     88.5858
   342.0000     96.2128      0.0000    793.4514     13.1653     88.9434
   342.2500     96.3067      0.0000    793.3150     12.8959     86.5260
   342.5000     96.1889      0.0000    792.9438     12.6406     81.2005
   342.7500     96.1945      0.0000    792.0124     12.4386     74.3578
   343.0000     96.1356      0.0000    790.2325     12.3042     67.8220
   343.2500     96.1847      0.0000    787.7249     12.2168     62.9602
   343.5000     96.3053      0.0000    785.3535     12.1410     60.5067
   343.7500     96.1075      0.0000    784.3778     12.0575     60.5735
   344.0000     96.1047      0.0000    785.3982     11.9692     62.5781
   344.2500     96.1580      0.0000    787.7057     11.8817     65.5443
   344.5000     96.1889      0.0000    789.8517     11.7913     68.6532
   344.7500     96.2156      0.0000    790.6820     11.6908     71.2783
   345.0000     96.2169      0.0000    789.8113     11.5784     72.6768
   345.2500     96.1903      0.0000    787.6725     11.4623     72.2618
   345.5000     96.2197      0.0000    785.5109     11.3609     70.1590
   345.7500     96.2534      0.0000    785.1737     11.2978     67.1226
   346.0000     96.2478      0.0000    788.5866     11.2901     64.2066
   346.2500     96.2169      0.0000    797.6650     11.3469     62.8624
   346.5000     96.3039      0.0000    814.0690     11.4853     64.5241
   346.7500     96.2225      0.0000    837.0067     11.7388     69.1414
   347.0000     96.1356      0.0000    860.8664     12.1275     74.4131
   347.2500     96.2534      0.0000    878.9197     12.6176     77.3802
   347.5000     96.2520      0.0000    892.7225     13.1195     76.8967
   347.7500     96.2801      0.0000    914.5314     13.5394     74.0351
   348.0000     96.2239      0.0000    954.9537     13.8323     70.3559
   348.2500     96.2562      0.0000   1008.9809     14.0083     66.7995
   348.5000     96.2520      0.0000   1057.5021     14.0971     64.2928
   348.7500     96.1748      0.0000   1081.8135     14.1141     64.1360
   349.0000     96.2225      0.0000   1075.1334     14.0612     66.8965
   349.2500     96.2534      0.0000   1042.8894     13.9533     71.3652
   349.5000     96.1973      0.0000    995.6993     13.8406     75.2645
   349.7500     96.2281      0.0000    942.5942     13.7961     77.0593
   350.0000     96.2534      0.0000    889.1955     13.8718     77.0593
   350.2500     96.4049      0.0000    838.8612     14.0616     76.9336
   350.5000     96.3614      0.0000    793.1245     14.2987     78.0031
   350.7500     96.1734      0.0000    754.1277     14.4634     79.7460
   351.0000     96.1973      0.0000    730.7215     14.3837     80.1963
   351.2500     96.2534      0.0000    738.9231     13.8913     78.1222
   351.5000     96.2870      0.0000    789.2558     12.9673     74.3976
   351.7500     96.1945      0.0000    872.1787     11.8384     70.8060
   352.0000     96.1425      0.0000    960.0388     10.8587     68.0262
   352.2500     96.2548      0.0000   1026.2357     10.2633     65.5307
   352.5000     96.2506      0.0000   1062.6948     10.0437     63.1554
   352.7500     96.2156      0.0000   1079.3030     10.0296     61.7553
   353.0000     96.2870     -2.0000   1088.2242     10.0421     61.9352
   353.2500     96.2253      2.0000   1090.1277      9.9941     62.8871
   353.5000     96.7750      0.0000   1073.7823      9.9479     63.2178
   353.7500     95.9532      0.0000   1027.3184     10.1347     62.6176
   354.0000     95.5677      0.0000    953.6503     10.8311     62.1201
   354.2500     96.3697      0.0000    878.2774     12.0704     62.8912
   354.5000     96.3207      0.0000    837.0394     13.4686     65.1417
   354.7500     96.2351      0.0000    849.3768     14.4610     68.0254
   355.0000     96.2042      0.0000    904.6378     14.7523     70.3409
   355.2500     96.3193      0.0000    975.5193     14.4792     71.5404
