~Version Information
VERS.                      2.0: CWLS Log ASCII Standard - VERSION 2.0
WRAP.                       NO: One line per depth step
~Well Information Block
STRT.FT               970.0000: 
STOP.FT              1882.0000: 
STEP.FT                 0.2500: 
NULL.                -999.2500: 
COMP.          Petrogulf Corporation: COMPANY
WELL.             Norton 9-14R: WELL
FLD.           Purgatorie River: FIELD
LOC.           725' FSL & 1103' FWL: LOCATION
PROV.                 Colorado: PROVINCE
CNTY.               Las Animas: COUNTRY
SRVC.                Patterson: SERVICE COMPANY
DATE.          Thu Oct 06 16:10:47 2005: LOG DATE
UWI.                          : UNIQUE WELL ID
~Curve Information Block
DEPT.FT            0 000 00 00: Depth
SP.mV                         : DIL Spontaneous Potential
RILD.Ohm-m                    : DIL Deep Resistivity
RILM.Ohm-m                    : DIL Medium Resistivity
RLL3.Ohm-m                    : DIL Shallow Resistivity
GR.GAPI                       : Gamma Ray
~Parameter Information Block
~A  Depth        SP         RILD        RILM        RLL3         GR     
# ...
  1866.0000    139.5581      9.6906     10.1563     12.2542   -999.2500
  1866.2500    137.6077     10.0052     10.2782     11.6374   -999.2500
  1866.5000    133.1949     10.6060     10.4538     10.8892   -999.2500
  1866.7500    123.6986     11.6805     10.6941     10.3955   -999.2500
  1867.0000    106.6480     13.5976     11.0039     10.5451   -999.2500
  1867.2500     82.2391     16.7576     11.3786     11.5971   -999.2500
  1867.5000     54.7865     22.0033     11.8021     13.5448   -999.2500
  1867.7500     30.6524     30.4278     12.2479     16.0204   -999.2500
  1868.0000     14.1007     42.9272     12.6828     18.3387   -999.2500
  1868.2500      5.2524     58.6772     13.0749     19.7586   -999.2500
  1868.5000      1.5668     73.9359     13.4031     19.8728   -999.2500
  1868.7500      0.3709     84.7448     13.6638     18.8558   -999.2500
  1869.0000      0.0686     90.8102     13.8745     17.3436   -999.2500
  1869.2500      0.0091     94.4880     14.0722     16.0157   -999.2500
  1869.5000   -999.2500     98.0977     14.3119     15.2228   -999.2500
  1869.7500   -999.2500    103.1829     14.6657     14.9240   -999.2500
  1870.0000   -999.2500    255.7280     15.2257     14.8650   -999.2500
  1870.2500   -999.2500    319.0213     16.1095     14.7700   -999.2500
  1870.5000   -999.2500    429.4942     17.4716     14.4454   -999.2500
  1870.7500   -999.2500    623.1146     19.5221     13.8329   -999.2500
  1871.0000   -999.2500    955.2348     22.5522     13.0250   -999.2500
  1871.2500   -999.2500   1474.8945     26.9635     12.2067   -999.2500
  1871.5000   -999.2500   2130.4319     33.2820     11.5423   -999.2500
  1871.7500   -999.2500   2713.4006     42.1020     11.0967   -999.2500
  1872.0000   -999.2500   3058.8733     53.6751     10.8446   -999.2500
  1872.2500   -999.2500   3202.4666     68.3841     10.7306   -999.2500
  1872.5000   -999.2500   3248.2495     84.3440     10.7074   -999.2500
  1872.7500   -999.2500   3260.1738     99.4083     10.7249   -999.2500
  1873.0000   -999.2500 100000.0000    111.3867     10.7121   -999.2500
  1873.2500   -999.2500 100000.0000    119.4528     10.5968   -999.2500
  1873.5000   -999.2500 100000.0000    124.1736     10.3570   -999.2500
  1873.7500   -999.2500 100000.0000    126.6683     10.0522   -999.2500
  1874.0000   -999.2500 100000.0000    127.9305      9.8092   -999.2500
  1874.2500   -999.2500 100000.0000    128.6254      9.7758   -999.2500
  1874.5000   -999.2500 100000.0000    129.1542     10.0673   -999.2500
  1874.7500   -999.2500 100000.0000    747.4484     10.7121   -999.2500
  1875.0000   -999.2500 100000.0000    776.5790     11.5910   -999.2500
  1875.2500   -999.2500 100000.0000    822.6903     12.3998   -999.2500
  1875.5000   -999.2500 100000.0000    894.0955     12.6953   -999.2500
  1875.7500   -999.2500 100000.0000   1002.2933     12.0502   -999.2500
  1876.0000   -999.2500 100000.0000   1163.6796     10.2746   -999.2500
  1876.2500   -999.2500 100000.0000   1401.7805      7.5963   -999.2500
  1876.5000   -999.2500   -999.2500   1749.2333      4.6372   -999.2500
  1876.7500   -999.2500   -999.2500   2246.7676      2.1069   -999.2500
  1877.0000   -999.2500   -999.2500   2932.6980      0.4118   -999.2500
  1877.2500   -999.2500   -999.2500   3814.1753     -0.4790   -999.2500
  1877.5000   -999.2500   -999.2500   4824.9292     -0.8457   -999.2500
  1877.7500   -999.2500   -999.2500   5813.6694     -0.9637   -999.2500
  1878.0000   -999.2500   -999.2500   6614.8657     -0.9933   -999.2500
  1878.2500   -999.2500   -999.2500   7151.3438     -0.9991   -999.2500
  1878.5000   -999.2500   -999.2500   7454.5015   -999.2500   -999.2500
  1878.7500   -999.2500   -999.2500   7603.3740   -999.2500   -999.2500
  1879.0000   -999.2500   -999.2500   7668.5713   -999.2500   -999.2500
  1879.2500   -999.2500   -999.2500   7694.4463   -999.2500   -999.2500
  1879.5000   -999.2500   -999.2500   7703.8745   -999.2500   -999.2500
  1879.7500   -999.2500   -999.2500 100000.0000   -999.2500   -999.2500
  1880.0000   -999.2500   -999.2500 100000.0000   -999.2500   -999.2500
  1880.2500   -999.2500   -999.2500 100000.0000   -999.2500   -999.2500
  1880.5000   -999.2500   -999.2500 100000.0000   -999.2500   -999.2500
  1880.7500   -999.2500   -999.2500 100000.0000   -999.2500   -999.2500
  1881.0000   -999.2500   -999.2500 100000.0000   -999.2500   -999.2500
  1881.2500   -999.2500   -999.2500 100000.0000   -999.2500   -999.2500
  1881.5000   -999.2500   -999.2500 100000.0000   -999.2500   -999.2500
  1881.7500   -999.2500   -999.2500 100000.0000   -999.2500   -999.2500
  1882.0000   -999.2500   -999.2500 100000.0000   -999.2500   -999.2500
