~Version Information
VERS.                      2.0: CWLS Log ASCII Standard - VERSION 2.0
WRAP.                       NO: One line per depth step
~Well Information Block
STRT.FT               440.0000: 
STOP.FT              1702.7500: 
STEP.FT                 0.2500: 
NULL.                -999.2500: 
COMP.          Pioneer Natural Resources: COMPANY
WELL.          Culver 14-12 Tr: WELL
FLD.           Purgatoire River: FIELD
LOC.           915' FSL & 1048' FWL--: LOCATION
STAT.                 Colorado: State
CNTY.               Las Animas: COUNTY
CTRY. USA : Country
SECT. 12 : Section
TOWN. 32S : Township
RANG. 66W : Range
SRVC.                Patterson: SERVICE COMPANY
DATE.          Tue Sep 27 23:38:23 2005: LOG DATE
API.           05 071 08520 00: UNIQUE WELL ID
~Curve Information Block
DEPT.FT            0 000 00 00: Depth
SN.Ohm-m                      : IEL Short Normal
SP.mV                         : IEL Spontaneous Potential
DIR.Ohm-m                     : IEL Induction Resistivity
GR.GAPI                       : Gamma Ray
~Parameter Information Block
~A  Depth        SN          SP         DIR          GR     
# ...
  1277.5000     14.3723    -52.2025      1.1119    103.7694
  1277.7500     16.2859    -39.9917      1.3419    109.0907
  1278.0000     17.4555    -28.1498      1.6487    113.3215
  1278.2500     18.0139    -17.1633      2.0389    113.7314
  1278.5000     18.2042     -7.3498      2.5000    111.6169
  1278.7500     18.2652      1.1312      2.9945    108.9596
  1279.0000     18.3662      8.2551      3.4704    104.1973
  1279.2500     18.5821     14.1009      3.8925    101.2726
  1279.5000     18.8979     18.8171      4.2654     98.3844
  1279.7500     19.2396     22.5874      4.6302     97.8023
  1280.0000     19.5255     25.6002      5.0447     99.0879
  1280.2500     19.7104     28.0260      5.5696    101.1742
  1280.5000     19.7958     30.0036      6.2657    105.0401
  1280.7500     19.8114     31.6359      7.1962    107.2304
  1281.0000     19.7890     32.9928      8.4258    108.8213
  1281.2500     19.7470     34.1195     10.0083    108.4652
  1281.5000     19.6888     35.0462     11.9548    105.7843
  1281.7500     19.6117     35.7971     14.1780    102.8832
  1282.0000     19.5195     36.3968     16.4384     97.9558
  1282.2500     19.4311     36.8728     18.3579     94.9803
  1282.5000     19.3770     37.2549     19.5605     91.8233
  1282.7500     19.3848     37.5723     19.8836     90.9085
  1283.0000     19.4600     37.8501     19.4816     91.6907
  1283.2500     19.5782     38.1060     18.7300     93.5857
  1283.5000     19.6967     38.3488     18.0476     97.5773
  1283.7500     19.7768     38.5781     17.7985    100.2457
  1284.0000     19.8001     38.7866     18.3218    103.6602
  1284.2500     19.7705     38.9613     20.0653    105.8523
  1284.5000     19.7048     39.0863     23.8570    109.7075
  1284.7500     19.6194     39.1442     31.5717    112.4900
  1285.0000     19.5253     39.1172     48.3086    115.8160
  1285.2500     19.4347     38.9878     92.8140    116.9316
  1285.5000     19.3677     38.7391    315.0792    116.9420
  1285.7500     19.3453     38.3562 100000.0000    116.0794
  1286.0000     19.3757     37.8272 100000.0000    113.6121
  1286.2500     19.4503     37.1442 100000.0000    111.1382
  1286.5000     19.5554     36.3040 100000.0000    106.5012
  1286.7500     19.6849     35.3072 100000.0000    103.4204
  1287.0000     19.8436     34.1550 100000.0000    100.3554
  1287.2500     20.0401     32.8449    134.2105     99.9966
  1287.5000     20.2767     31.3652     40.3203    101.6328
  1287.7500     20.5396     29.6902     19.9320    103.0832
  1288.0000     20.7938     27.7785     12.3024    103.7479
  1288.2500     20.9903     25.5749      8.8601    102.8514
  1288.5000     21.0829     23.0164      7.2837    100.9230
  1288.7500     21.0435     20.0422      6.8271    100.4908
  1289.0000     20.8598     16.6021      7.4293    102.1470
  1289.2500     20.5163     12.6604      9.9073    104.4949
  1289.5000     19.9681      8.1905     19.4327    108.7573
  1289.7500     19.1259      3.1600 100000.0000    111.5416
  1290.0000     17.8710     -2.4904 100000.0000    115.0004
  1290.2500     16.1108     -8.8618 100000.0000    116.4917
  1290.5000     13.8632    -16.0960 100000.0000    116.7764
  1290.7500     11.3153    -24.3436     18.7985    115.1883
  1291.0000      8.7846    -33.7034      4.5127    109.7937
  1291.2500      6.5824    -44.1390      2.1115    104.5943
  1291.5000      4.8807    -55.4007      1.2755     96.0281
  1291.7500      3.6829    -66.9799      0.9055     90.8038
  1292.0000      2.8932    -78.1253      0.7250     84.6454
  1292.2500      2.4026    -87.9301      0.6357     81.7394
  1292.5000      2.1325    -95.4813      0.5911     78.9198
  1292.7500      2.0450   -100.0360      0.5637     77.7818
  1293.0000      2.1625   -101.1797      0.5377     76.5470
  1293.2500      2.6092    -98.9222      0.5103     75.8138
  1293.5000      3.6236    -93.7040      0.4901     75.1799
  1293.7500      5.4577    -86.3132      0.4915     75.4998
  1294.0000      8.1666    -77.7387      0.5307     77.3536
  1294.2500     11.4535    -69.0007      0.6300     79.2827
  1294.5000     14.7483    -61.0025      0.8298     82.9261
  1294.7500     17.4759    -54.4352      1.2176     85.9823
  1295.0000     19.2668    -49.7489      2.0034     91.7141
  1295.2500     19.9661    -47.1823      3.6714     95.9769
  1295.5000     19.5425    -46.8322      6.5315    101.5206
  1295.7500     18.0567    -48.7294      6.4929    103.5743
  1296.0000     15.7106    -52.8979      3.0537    103.2222
  1296.2500     12.8678    -59.3783      1.2273    101.1016
  1296.5000      9.9607    -68.2056      0.5122     97.1193
  1296.7500      7.3401    -79.3503      0.2020     95.1839
  1297.0000      5.1871    -92.6403      0.0691     94.4281
  1297.2500      3.5317   -107.6918      0.0240     95.3637
  1297.5000      2.3216   -123.8815      0.0102     98.9966
  1297.7500      1.4791   -140.3808      0.0057    103.3550
  1298.0000      0.9277   -156.2568      0.0040    113.3810
  1298.2500      0.5968   -170.6213      0.0034    121.8367
  1298.5000      0.4208   -182.7903      0.0033    134.5810
  1298.7500      0.3408   -192.4081      0.0036    141.3426
  1299.0000      0.3100   -199.4980      0.0046    146.6156
  1299.2500      0.2982   -204.4265      0.0068    146.2428
  1299.5000      0.2905   -207.7969      0.0121    139.8130
  1299.7500      0.2836   -210.3089      0.0267    132.0866
  1300.0000      0.2803   -212.6262      0.0705    116.9435
  1300.2500      0.2846   -215.2841      0.1938    105.9628
  1300.5000      0.2986   -218.6476      0.4877     91.3377
  1300.7500      0.3199   -222.9072      1.2551     84.4540
  1301.0000      0.3399   -228.0973      4.9195     79.8783
  1301.2500      0.3461   -234.1147 100000.0000     80.6508
  1301.5000      0.3283   -240.7359 100000.0000     86.4896
  1301.7500      0.2870   -247.6303 100000.0000     92.4538
  1302.0000      0.2342   -254.3792 100000.0000    102.0860
  1302.2500      0.1836   -260.5039 100000.0000    107.4750
  1302.5000      0.1422   -265.5043 100000.0000    112.5675
  1302.7500      0.1106   -268.9058 100000.0000    114.2645
  1303.0000      0.0888   -270.3109 100000.0000    116.1263
  1303.2500      0.0781   -269.4502 100000.0000    117.9953
  1303.5000      0.0789   -266.2305 100000.0000    122.6789
  1303.7500      0.0892   -260.7698 100000.0000    127.0346
  1304.0000      0.1068   -253.4142 100000.0000    134.6862
  1304.2500      0.1309   -244.7220 100000.0000    139.8438
  1304.5000      0.1629   -235.4121 100000.0000    146.2888
  1304.7500      0.2034   -226.2766     11.7876    149.0122
  1305.0000      0.2489   -218.0692      1.2376    150.0612
  1305.2500      0.2923   -211.3872      0.5754    148.6505
  1305.5000      0.3252   -206.5737      0.3760    143.3275
  1305.7500      0.3404   -203.6640      0.3189    137.6214
  1306.0000      0.3328   -202.3925      0.3481    126.4684
  1306.2500      0.3029   -202.2692      0.4722    118.5087
  1306.5000      0.2591   -202.7092      0.7556    109.0370
  1306.7500      0.2154   -203.1863      1.3636    106.1131
  1307.0000      0.1853   -203.3689      2.3624    107.8509
  1307.2500      0.1735   -203.2026      2.3443    112.3580
  1307.5000      0.1737   -202.9150      1.2021    121.5705
  1307.7500      0.1716   -202.9440      0.5205    127.7109
  1308.0000      0.1556   -203.8150      0.2102    134.7149
  1308.2500      0.1238   -206.0041      0.0757    137.3211
  1308.5000      0.0833   -209.8215      0.0284    138.3209
  1308.7500      0.0423   -215.3397      0.0132    137.2916
  1309.0000      0.0058   -222.3782      0.0081    132.8683
  1309.2500     -0.0230   -230.5364      0.0064    127.6241
  1309.5000     -0.0377   -239.2689      0.0064    116.7764
  1309.7500     -0.0260   -247.9822      0.0080    108.7066
  1310.0000      0.0294   -256.1363      0.0124     97.6130
  1310.2500      0.1447   -263.3304      0.0243     91.6289
  1310.5000      0.3230   -269.3542      0.0587     84.8035
  1310.7500      0.5362   -274.1948      0.1558     81.3437
