~Version Information
VERS.                      2.0: CWLS Log ASCII Standard - VERSION 2.0
WRAP.                       NO: One line per depth step
~Well Information Block
STRT.FT               240.0000: 
STOP.FT              1252.5000: 
STEP.FT                 0.2500: 
NULL.                -999.2500: 
COMP.          Pioneer Natural Resources: COMPANY
WELL.             Margaux 11-1: WELL
FLD.           Purgatoire River: FIELD
LOC.           1154' FNL & 472' FWL: LOCATION
PROV.                 Colorado: PROVINCE
CNTY.               Las Animas: COUNTRY
SRVC.                Patterson: SERVICE COMPANY
DATE.          Mon Dec 19 04:21:59 2005: LOG DATE
UWI.           05 071 08639 00: UNIQUE WELL ID
~Curve Information Block
DEPT.FT            0 000 00 00: Depth
SN.Ohm-m                      : IEL Short Normal
SP.mV                         : IEL Spontaneous Potential
DIR.Ohm-m                     : IEL Induction Resistivity
GR.GAPI                       : Gamma Ray
~Parameter Information Block
~A  Depth        SN          SP         DIR          GR     
   240.0000   2000.0000   2000.0000     98.8049     99.3151
   240.2500   2000.0000   2000.0000     94.6736    101.5275
   240.5000   2000.0000   2000.0000     90.7667    103.6601
   240.7500   2000.0000   2000.0000     88.8451    104.2832
   241.0000   2000.0000   2000.0000     89.8651    105.2929
   241.2500   2000.0000   2000.0000     93.9981    106.8888
   241.5000   2000.0000   2000.0000    100.6997    111.1021
   241.7500   2000.0000   2000.0000    108.8129    114.6098
   242.0000   2000.0000   2000.0000    116.9600    119.4401
   242.2500   2000.0000   2000.0000    124.0806    121.5394
   242.5000   2000.0000   2000.0000    129.6568    121.9740
   242.7500   2000.0000   2000.0000    133.5392    120.2536
   243.0000   2000.0000   2000.0000    135.6956    115.2778
   243.2500   2000.0000   2000.0000    136.0940    111.1900
   243.5000   2000.0000   2000.0000    134.6419    105.5020
   243.7500   2000.0000   2000.0000    131.1902    102.6736
   244.0000   2000.0000   2000.0000    125.7166    100.0392
   244.2500   2000.0000   2000.0000    118.5702     98.8363
   244.5000   2000.0000   2000.0000    110.4114     96.5414
   244.7500   2000.0000   2000.0000    101.7758     94.0919
   245.0000   2000.0000   2000.0000     92.7275     88.5411
   245.2500   2000.0000   2000.0000     83.1555     83.4768
   245.5000   2000.0000   2000.0000     73.5009     74.0776
   245.7500   2000.0000   2000.0000     64.8727     65.0040
   246.0000   2000.0000   2000.0000     58.3341     56.0291
   246.2500   2000.0000   2000.0000     54.3123     51.6469
   246.5000   2000.0000   2000.0000     52.5777     48.3941
   246.7500   2000.0000   2000.0000     52.3915     43.5563
   247.0000   2000.0000   2000.0000     52.6251     47.0115
   247.2500   2000.0000   2000.0000     52.1414     51.3973
   247.5000   2000.0000   2000.0000     50.6107     60.4766
   247.7500   2000.0000   2000.0000     49.0456     59.5949
   248.0000   2000.0000   2000.0000     49.4897     68.3279
   248.2500   2000.0000   2000.0000     55.0747     73.2669
   248.5000   2000.0000   2000.0000     73.4745     79.0714
   248.7500   2000.0000   2000.0000    144.8855     71.2410
   249.0000   2000.0000   2000.0000 100000.0000     73.7707
   249.2500   2000.0000   2000.0000 100000.0000     74.8577
   249.5000   2000.0000   2000.0000 100000.0000     76.2246
   249.7500   2000.0000   2000.0000 100000.0000     77.2940
   250.0000   2000.0000   2000.0000 100000.0000     79.2307
   250.2500   2000.0000   2000.0000 100000.0000     80.5808
   250.5000   2000.0000   2000.0000 100000.0000     82.4380
   250.7500   2000.0000   2000.0000 100000.0000     83.5071
   251.0000   2000.0000   2000.0000 100000.0000     84.7630
   251.2500   2000.0000   2000.0000 100000.0000     85.2966
   251.5000   2000.0000   2000.0000 100000.0000     85.6951
   251.7500   2000.0000   2000.0000 100000.0000     85.9127
   252.0000   2000.0000   2000.0000 100000.0000     86.7064
   252.2500   2000.0000   2000.0000 100000.0000     87.7305
   252.5000   2000.0000   2000.0000 100000.0000     89.8605
   252.7500   2000.0000   2000.0000 100000.0000     91.4917
   253.0000   2000.0000   2000.0000 100000.0000     94.3491
   253.2500   2000.0000   2000.0000 100000.0000     96.7573
   253.5000   2000.0000   2000.0000 100000.0000    100.9211
   253.7500   2000.0000   2000.0000 100000.0000    103.3646
   254.0000   2000.0000   2000.0000 100000.0000    105.2245
   254.2500   2000.0000   2000.0000 100000.0000    105.1098
   254.5000   2000.0000   2000.0000 100000.0000    103.7739
   254.7500   2000.0000   2000.0000 100000.0000    102.6841
   255.0000   2000.0000   2000.0000 100000.0000    100.9749
   255.2500   2000.0000   2000.0000 100000.0000     99.5409
   255.5000   2000.0000   2000.0000      8.4271     96.5095
   255.7500   2000.0000   2000.0000      4.1582     93.7578
   256.0000   2000.0000   2000.0000      3.0736     88.4145
   256.2500   2000.0000   2000.0000      2.7759     84.2216
   256.5000   2000.0000   2000.0000      2.8360     78.2037
   256.7500   2000.0000   2000.0000      3.1442     75.4113
   257.0000   2000.0000   2000.0000      3.7189     74.0505
   257.2500   2000.0000   2000.0000      4.7199     74.6463
   257.5000   2000.0000   2000.0000      6.5682     75.9441
   257.7500   2000.0000   2000.0000     10.2481     76.0098
   258.0000   2000.0000   2000.0000     17.6902     74.1085
   258.2500   2000.0000   2000.0000     28.9504     71.8211
   258.5000   2000.0000   2000.0000     32.2159     68.5603
   258.7500   2000.0000   2000.0000     24.8175     67.8658
   259.0000   2000.0000   2000.0000     18.3636     71.1303
   259.2500   2000.0000   2000.0000     14.9221     76.7986
   259.5000   2000.0000   2000.0000     13.3526     90.0093
   259.7500   2000.0000   2000.0000     12.8043    100.5718
   260.0000   2000.0000   2000.0000     12.8142    115.3498
   260.2500   2000.0000   2000.0000     13.1384    122.4774
   260.5000   2000.0000   2000.0000     13.6581    127.7030
   260.7500   2000.0000   2000.0000     14.3355    128.0766
   261.0000   2000.0000   2000.0000     15.2092    125.6406
   261.2500   2000.0000   2000.0000     16.4030    122.6167
   261.5000   2000.0000   2000.0000     18.1229    116.4510
   261.7500   2000.0000   2000.0000     20.5997    111.8024
   262.0000   2000.0000   2000.0000     23.9550    105.6579
   262.2500   2000.0000   2000.0000     27.9892    102.8259
   262.5000   2000.0000   2000.0000     32.0485    100.2551
   262.7500   2000.0000   2000.0000     35.3122     98.8813
   263.0000   2000.0000   2000.0000     37.3800     95.9391
   263.2500   2000.0000   2000.0000     38.3889     92.8362
   263.5000   2000.0000   2000.0000     38.5778     86.0598
   263.7500   2000.0000   2000.0000     38.0198     80.3260
   264.0000   2000.0000   2000.0000     36.7862     71.1474
   264.2500   2000.0000   2000.0000     35.1828     65.6818
   264.5000   2000.0000   2000.0000     33.7005     60.0048
   264.7500   2000.0000   2000.0000     32.7616     58.3180
   265.0000   2000.0000   2000.0000     32.5523     58.5858
   265.2500   2000.0000   2000.0000     33.0146     59.8739
   265.5000   2000.0000   2000.0000     33.9185     61.8952
   265.7500   2000.0000   2000.0000     34.9643     62.7815
   266.0000   2000.0000   2000.0000     35.8896     63.7790
   266.2500   2000.0000   2000.0000     36.5447     64.8579
   266.5000   2000.0000   2000.0000     36.9102     67.7619
   266.7500   2000.0000   2000.0000     37.0562     70.4486
   267.0000   2000.0000   2000.0000     37.0653     75.1733
   267.2500   2000.0000   2000.0000     36.9625     78.7242
   267.5000   2000.0000   2000.0000     36.7005     84.4837
   267.7500   2000.0000   2000.0000     36.2213     88.0426
   268.0000   2000.0000   2000.0000     35.5285     91.4166
   268.2500   2000.0000   2000.0000     34.7016     91.8671
   268.5000   2000.0000   2000.0000     33.8428     90.6175
   268.7500   2000.0000   2000.0000     33.0197     89.5793
   269.0000   2000.0000   2000.0000     32.2520     89.3616
   269.2500   2000.0000   2000.0000     31.5311     90.5612
   269.5000   2000.0000   2000.0000     30.8431     94.3349
   269.7500   2000.0000   2000.0000     30.1753     97.8362
   270.0000   2000.0000   2000.0000     29.5135    103.6724
   270.2500   2000.0000   2000.0000     28.8447    107.3078
   270.5000   2000.0000   2000.0000     28.1660    111.3636
   270.7500   2000.0000   2000.0000     27.4912    112.8287
   271.0000   2000.0000   2000.0000     26.8464    113.2826
   271.2500   2000.0000   2000.0000     26.2541    112.7327
   271.5000   2000.0000   2000.0000     25.7183    111.1802
   271.7500   2000.0000   2000.0000     25.2174    109.8186
   272.0000   2000.0000   2000.0000     24.7135    107.1537
   272.2500   2000.0000   2000.0000     24.1698    104.7885
   272.5000   2000.0000   2000.0000     23.5617    100.4708
   272.7500   2000.0000   2000.0000     22.8756     97.5911
   273.0000   2000.0000   2000.0000     22.1035     94.6579
   273.2500   2000.0000   2000.0000     21.2477     94.3597
