~Version Information
VERS.                      2.0: CWLS Log ASCII Standard - VERSION 2.0
WRAP.                       NO: One line per depth step
~Well Information Block
STRT.FT               505.0000: 
STOP.FT               770.5000: 
STEP.FT                 0.1000: 
NULL.                -999.2500: 
COMP.          Pioneer Natural Resources: COMPANY
WELL.                Zed 11-23: WELL
FLD.           Purgatoire River: FIELD
LOC.           641' FNL & 952' FWL: LOCATION
CNTY.               Las Animas: COUNTY
SRVC.                Patterson: SERVICE COMPANY
DATE.          Mon Feb 27 07:12:43 2006: LOG DATE
UWI.           05 071 08702 00: UNIQUE WELL ID
STAT.                 Colorado: STATE
~Curve Information Block
DEPT.FT            0 000 00 00: Depth
DCAL.in                       : CDL Caliper
RHOB.g/cc                     : CDL Bulk Density
RHOC.g/cc                     : CDL Density Correction
DPOR.pu                       : CDL Density Porosity
GR.GAPI                       : Gamma Ray
NPOR.pu                       : Neutron Porosity
~Parameter Information Block
~A  Depth       DCAL        RHOB        RHOC        DPOR         GR         NPOR    
# ...
   639.4000      7.9489      2.4671      0.0342     11.0859     88.2481     24.8137
   639.5000      7.9498      2.4725      0.0274     10.7549     92.3755     24.3833
   639.6000      7.9498      2.4788      0.0427     10.3776     95.1284     24.1003
   639.7000      7.9498      2.4767     -0.0007     10.5056     93.6726     24.1586
   639.8000      7.9569      2.4689      0.0075     10.9734     85.4081     24.4685
   639.9000      7.9569      2.4705      0.0085     10.8787     76.8208     25.0352
   640.0000      7.9627      2.4919      0.0222      9.5817     71.4165     25.6431
   640.1000      7.9627      2.5146      0.0854      8.2072     69.3544     25.8690
   640.2000      7.9627      2.5133      0.0504      8.2858     71.9800     25.5955
   640.3000      7.9688      2.4938      0.0672      9.4640     76.2934     24.7417
   640.4000      7.9688      2.4765      0.0372     10.5159     80.0936     23.4031
   640.5000      7.9784      2.4705      0.0244     10.8783     82.2884     22.5174
   640.6000      7.9784      2.4720      0.0167     10.7886     81.6094     22.5735
   640.7000      7.9784      2.4714      0.0075     10.8234     81.2887     23.1664
   640.8000      7.9809      2.4644      0.0407     11.2468     83.2666     24.0917
   640.9000      7.9809      2.4539      0.0238     11.8860     85.9619     24.7885
   641.0000      7.9651      2.4493      0.0180     12.1666     87.3089     24.6560
   641.1000      7.9651      2.4593      0.0177     11.5582     85.0067     24.2920
   641.2000      7.9651      2.4742      0.0754     10.6557     80.1333     24.3073
   641.3000      7.9734      2.4764      0.0749     10.5199     76.2878     24.4848
   641.4000      7.9734      2.4665      0.0853     11.1205     77.1124     24.7315
   641.5000      7.9602      2.4573      0.0059     11.6778     80.9682     24.9418
   641.6000      7.9602      2.4565      0.0473     11.7264     81.5853     24.8074
   641.7000      7.9602      2.4634      0.0507     11.3100     78.0691     24.2325
   641.8000      7.9633      2.4707      0.0483     10.8681     75.4855     23.4829
   641.9000      7.9633      2.4694      0.0543     10.9458     77.1118     23.2625
   642.0000      7.9573      2.4617      0.0700     11.4134     83.2495     24.1472
   642.1000      7.9573      2.4577      0.0300     11.6537     87.5915     25.1482
   642.2000      7.9573      2.4613      0.0153     11.4354     83.5577     25.1961
   642.3000      7.9586      2.4709      0.0370     10.8537     75.6400     25.0016
   642.4000      7.9586      2.4813      0.0629     10.2262     71.8839     25.1163
   642.5000      7.9594      2.4872      0.0479      9.8643     73.8619     25.0237
   642.6000      7.9594      2.4914      0.0402      9.6109     77.9573     24.7912
   642.7000      7.9594      2.4930      0.0766      9.5124     80.8254     24.9872
   642.8000      7.9681      2.4850      0.0570     10.0002     82.2380     25.1402
   642.9000      7.9681      2.4739      0.0021     10.6739     81.4192     24.4865
   643.0000      7.9581      2.4720      0.0513     10.7880     77.5305     23.7656
   643.1000      7.9581      2.4749      0.0297     10.6142     74.8503     23.8370
   643.2000      7.9581      2.4751      0.0489     10.6010     74.4702     24.5989
   643.3000      7.9631      2.4675      0.0416     11.0587     69.6901     25.3224
   643.4000      7.9631      2.4465      0.0337     12.3329     61.6688     25.3041
   643.5000      7.9609      2.4228     -0.0379     13.7682     59.2842     24.4637
   643.6000      7.9609      2.4168     -0.0049     14.1305     62.8871     23.6161
   643.7000      7.9609      2.4295      0.0190     13.3663     66.1148     23.8703
   643.8000      7.9622      2.4467      0.0628     12.3207     66.2313     25.3571
   643.9000      7.9622      2.4599      0.0558     11.5236     65.7521     26.3553
   644.0000      7.9641      2.4712      0.0408     10.8350     65.6116     25.2962
   644.1000      7.9641      2.4812      0.0424     10.2285     64.5372     23.2680
   644.2000      7.9641      2.4854      0.0222      9.9769     65.4543     22.3262
   644.3000      7.9633      2.4827      0.0697     10.1420     72.3537     22.6292
   644.4000      7.9633      2.4736      0.0726     10.6938     84.9725     23.2026
   644.5000      7.9657      2.4654      0.0166     11.1905     98.6946     23.9215
   644.6000      7.9657      2.4679      0.0487     11.0384    104.8911     24.8045
   644.7000      7.9657      2.4775      0.0451     10.4553     99.8254     25.2727
   644.8000      7.9649      2.4811      0.0868     10.2368     91.5279     25.6811
   644.9000      7.9649      2.4672      0.0701     11.0767     87.6899     26.2830
   645.0000      7.9699      2.4418      0.0080     12.6181     88.0049     26.4551
   645.1000      7.9699      2.4222     -0.0089     13.8032     88.7285     26.0916
   645.2000      7.9699      2.4144     -0.0017     14.2768     86.8379     25.5875
   645.3000      7.9718      2.4184     -0.0115     14.0338     83.7576     24.9466
   645.4000      7.9718      2.4337      0.0365     13.1109     81.1892     24.0827
   645.5000      7.9752      2.4465      0.0617     12.3330     78.6412     23.6302
   645.6000      7.9752      2.4442      0.0322     12.4724     79.0280     23.8057
   645.7000      7.9752      2.4338      0.0300     13.1014     82.3841     24.0412
   645.8000      7.9610      2.4283      0.0263     13.4369     82.7608     24.6141
   645.9000      7.9610      2.4285      0.0306     13.4214     79.0482     25.8687
   646.0000      7.9559      2.4284      0.0111     13.4279     74.8668     26.6445
   646.1000      7.9559      2.4307      0.0121     13.2881     71.9872     26.4012
   646.2000      7.9559      2.4393      0.0434     12.7689     69.4462     25.9543
   646.3000      7.9613      2.4467      0.0748     12.3234     66.8524     25.1836
   646.4000      7.9613      2.4486      0.0656     12.2076     65.0114     24.1479
   646.5000      7.9503      2.4465      0.0720     12.3348     64.0702     24.0312
   646.6000      7.9503      2.4428      0.0464     12.5582     65.0696     24.7772
   646.7000      7.9503      2.4449      0.0287     12.4315     68.9215     25.0737
   646.8000      7.9484      2.4521      0.0931     11.9958     74.6155     24.9894
   646.9000      7.9484      2.4572      0.0562     11.6843     79.5565     25.5144
   647.0000      7.9488      2.4637      0.0471     11.2903     80.6883     26.3839
   647.1000      7.9488      2.4713      0.0799     10.8306     80.6118     26.6771
   647.2000      7.9488      2.4735      0.0591     10.6997     83.6061     26.7029
   647.3000      7.9456      2.4716      0.0456     10.8143     85.2146     26.9672
   647.4000      7.9456      2.4735      0.0423     10.6965     80.2617     26.9959
   647.5000      7.9453      2.4834      0.0710     10.0945     73.0663     26.6696
   647.6000      7.9453      2.4933      0.0424      9.4986     68.2618     26.2046
   647.7000      7.9453      2.4910      0.0160      9.6348     67.1904     25.5247
   647.8000      7.9460      2.4812     -0.0314     10.2285     69.8611     24.7620
   647.9000      7.9460      2.4800     -0.0362     10.3010     70.3439     24.3351
   648.0000      7.9416      2.4805      0.0421     10.2748     63.6734     24.3023
   648.1000      7.9416      2.4611      0.0462     11.4493     55.7429     24.1307
   648.2000      7.9416      2.4305     -0.0039     13.3009     54.1588     23.9371
   648.3000      7.9489      2.4164     -0.0135     14.1565     54.9085     24.7556
   648.4000      7.9489      2.4155      0.0569     14.2119     51.5508     26.2876
   648.5000      7.9458      2.4070      0.0497     14.7287     46.1510     27.1500
   648.6000      7.9458      2.3945      0.0277     15.4875     43.2047     26.7718
   648.7000      7.9458      2.4034     -0.0207     14.9429     44.6166     25.7362
   648.8000      7.9465      2.4411      0.0834     12.6623     49.4110     24.8619
   648.9000      7.9465      2.4747      0.1214     10.6213     53.9916     24.4636
