~Version Information
VERS.                      2.0: CWLS Log ASCII Standard - VERSION 2.0
WRAP.                       NO: One line per depth step
~Well Information Block
STRT.FT               890.0000: 
STOP.FT              2097.0000: 
STEP.FT                 0.2500: 
NULL.                -999.2500: 
COMP.          Pioneer Natural Resources: COMPANY
WELL.          Greenwood 43-29 Tr: WELL
FLD.           Purgatoire River: FIELD
LOC.           1478' FSL & 744' FEL: LOCATION
STAT.                 Colorado: State
CNTY.               Las Animas: COUNTY
CTRY. USA : Country
SECT. 29 : Section
TOWN. 32S : Township
RANG. 67W : Range
SRVC.                Patterson: SERVICE COMPANY
DATE.          Wed Aug 31 08:07:28 2005: LOG DATE
API.           05 071 08478 00: UNIQUE WELL ID
~Curve Information Block
DEPT.FT            0 000 00 00: Depth
SN.Ohm-m                      : IEL Short Normal
SP.mV                         : IEL Spontaneous Potential
DIR.Ohm-m                     : IEL Induction Resistivity
GR.GAPI                       : Gamma Ray
~Parameter Information Block
~A  Depth        SN          SP         DIR          GR     
# ...
  1426.0000     54.7777   -151.2192     43.7961    130.0782
  1426.2500     52.8989   -151.0628     44.6683    137.6777
  1426.5000     50.9700   -150.8355     45.1430    148.8526
  1426.7500     49.1541   -150.5308     45.1397    155.3902
  1427.0000     47.6184   -150.1600     44.7538    162.6758
  1427.2500     46.5322   -149.7518     44.2375    165.4165
  1427.5000     46.0147   -149.3547     43.8920    165.6073
  1427.7500     46.1419   -149.0313     43.9615    162.4693
  1428.0000     47.0237   -148.8349     44.5681    151.7360
  1428.2500     48.8974   -148.7830     45.6920    140.5072
  1428.5000     52.1269   -148.8535     47.1943    119.3268
  1428.7500     57.0265   -149.0155     48.8821    104.2002
  1429.0000     63.6602   -149.2630     50.5896     83.2159
  1429.2500     71.6652   -149.6136     52.2318     71.4814
  1429.5000     80.0608   -150.0835     53.7969     57.5771
  1429.7500     87.3825   -150.6659     55.2863     50.4549
  1430.0000     92.3193   -151.3323     56.6787     42.6448
  1430.2500     94.3388   -152.0483     57.9530     39.4544
  1430.5000     93.7737   -152.7930     59.1250     37.9270
  1430.7500     91.3886   -153.5687     60.2042     38.9718
  1431.0000     87.8149   -154.3905     61.0513     43.0061
  1431.2500     83.3080   -155.2568     61.2900     46.9220
  1431.5000     78.0264   -156.1293     60.4872     54.2198
  1431.7500     72.4206   -156.9433     58.5428     59.9517
  1432.0000     67.1244   -157.6376     55.8779     69.3937
  1432.2500     62.5164   -158.1774     53.1650     75.5531
  1432.5000     58.5855   -158.5562     50.9085     83.1139
  1432.7500     55.1273   -158.7908     49.2398     86.5818
  1433.0000     51.9780   -158.9153     47.9471     89.7937
  1433.2500     49.1432   -158.9703     46.6421     91.1207
  1433.5000     46.7343   -158.9884     44.9965     92.3479
  1433.7500     44.7921   -158.9839     42.9327     92.6709
  1434.0000     43.2103   -158.9562     40.6202     92.7410
  1434.2500     41.8602   -158.9014     38.3179     92.9662
  1434.5000     40.7104   -158.8223     36.2299     93.9964
  1434.7500     39.7054   -158.7326     34.4607     94.8957
  1435.0000     38.6392   -158.6551     33.0279     95.9572
  1435.2500     37.3175   -158.6161     31.8881     96.6344
  1435.5000     35.7431   -158.6342     30.9669     98.9168
  1435.7500     34.0561   -158.7105     30.1910    101.9960
  1436.0000     32.4336   -158.8268     29.5056    108.6511
  1436.2500     31.0168   -158.9553     28.8723    113.2773
  1436.5000     29.8285   -159.0733     28.2605    118.0816
  1436.7500     28.8112   -159.1748     27.6479    119.1043
  1437.0000     27.9277   -159.2744     27.0280    117.9072
  1437.2500     27.2127   -159.4005     26.4125    116.3089
  1437.5000     26.7525   -159.5824     25.8260    114.2035
  1437.7500     26.5636   -159.8361     25.2981    113.2008
  1438.0000     26.5641   -160.1582     24.8581    111.7236
  1438.2500     26.7287   -160.5282     24.5316    110.2441
  1438.5000     27.1032   -160.9160     24.3318    106.6566
  1438.7500     27.5798   -161.2904     24.2480    103.4165
  1439.0000     27.8946   -161.6322     24.2385     98.4379
  1439.2500     27.8958   -161.9410     24.2383     96.0923
  1439.5000     27.6279   -162.2293     24.1827     95.3679
  1439.7500     27.2686   -162.5068     24.0371     96.6560
  1440.0000     27.0387   -162.7681     23.8097     99.4479
  1440.2500     27.0100   -162.9960     23.5402    100.5948
  1440.5000     27.0055   -163.1793     23.2768    100.5898
  1440.7500     26.7634   -163.3267     23.0584    100.3101
  1441.0000     26.1930   -163.4710     22.9055    101.6486
  1441.2500     25.4349   -163.6566     22.8198    104.2435
  1441.5000     24.7208   -163.9154     22.7881    109.8170
  1441.7500     24.2313   -164.2404     22.7888    113.7267
  1442.0000     24.0141   -164.5793     22.7950    118.6094
  1442.2500     23.9530   -164.8569     22.7724    120.6947
  1442.5000     23.8293   -165.0150     22.6826    121.2985
  1442.7500     23.5364   -165.0405     22.4967    119.6354
  1443.0000     23.2214   -164.9655     22.2131    113.7303
  1443.2500     23.0624   -164.8445     21.8661    107.8372
  1443.5000     23.0264   -164.7279     21.5172     98.1714
  1443.7500     22.9877   -164.6498     21.2329     93.1624
  1444.0000     22.8993   -164.6271     21.0574     90.7658
  1444.2500     22.7636   -164.6629     20.9897     93.1736
  1444.5000     22.5919   -164.7474     20.9821    101.8319
  1444.7500     22.3855   -164.8570     20.9643    109.6591
  1445.0000     22.1253   -164.9521     20.8845    121.4589
  1445.2500     21.8442   -164.9818     20.7349    127.6488
  1445.5000     21.5953   -164.9001     20.5419    133.0083
  1445.7500     21.3428   -164.6959     20.3366    134.2862
  1446.0000     21.0336   -164.4179     20.1327    134.1687
  1446.2500     20.7183   -164.1681     19.9263    133.3719
  1446.5000     20.5004   -164.0531     19.7077    131.5843
  1446.7500     20.4111   -164.1268     19.4684    130.0553
  1447.0000     20.3875   -164.3693     19.2007    127.3285
  1447.2500     20.3334   -164.7133     18.8965    125.4622
  1447.5000     20.1573   -165.0892     18.5548    123.3953
  1447.7500     19.8074   -165.4533     18.1929    122.9498
  1448.0000     19.3021   -165.7919     17.8502    123.8300
  1448.2500     18.7231   -166.1085     17.5787    125.1113
  1448.5000     18.2332   -166.4088     17.4244    127.1330
  1448.7500     18.0497   -166.6930     17.4082    128.2030
  1449.0000     18.2447   -166.9593     17.5125    129.5675
  1449.2500     18.6318   -167.2077     17.6810    130.4506
  1449.5000     18.9515   -167.4408     17.8398    130.8535
  1449.7500     19.0578   -167.6628     17.9347    129.5095
  1450.0000     18.9308   -167.8849     17.9585    124.3556
  1450.2500     18.6111   -168.1266     17.9463    119.6648
  1450.5000     18.1450   -168.4049     17.9454    113.5371
  1450.7500     17.6597   -168.7171     17.9877    111.4581
  1451.0000     17.4763   -169.0396     18.0811    112.0812
  1451.2500     17.9430   -169.3458     18.2163    114.4066
  1451.5000     19.0851   -169.6281     18.3796    118.9046
  1451.7500     20.5573   -169.9019     18.5626    121.6642
  1452.0000     21.9504   -170.1907     18.7624    124.9362
  1452.2500     23.0357   -170.5035     18.9735    126.6394
  1452.5000     23.7394   -170.8219     19.1811    128.4626
  1452.7500     24.0706   -171.1059     19.3644    128.9746
  1453.0000     24.1086   -171.3153     19.5118    128.5075
  1453.2500     23.9374   -171.4337     19.6334    127.5319
  1453.5000     23.6001   -171.4789     19.7582    125.7241
  1453.7500     23.1476   -171.4894     19.9160    124.8925
  1454.0000     22.6601   -171.4985     20.1207    125.2840
  1454.2500     22.2211   -171.5142     20.3680    126.7614
  1454.5000     21.9434   -171.5216     20.6482    129.6487
  1454.7500     21.9804   -171.5045     20.9607    130.9467
  1455.0000     22.4167   -171.4628     21.3195    130.5225
  1455.2500     23.2028   -171.4109     21.7467    128.3904
  1455.5000     24.2291   -171.3624     22.2589    123.1743
  1455.7500     25.3286   -171.3209     22.8527    119.4838
  1456.0000     26.3025   -171.2832     23.4984    116.0574
  1456.2500     27.1113   -171.2441     24.1494    116.1252
  1456.5000     27.8879   -171.1952     24.7659    119.3807
  1456.7500     28.7200   -171.1244     25.3375    122.4016
  1457.0000     29.5919   -171.0210     25.8908    125.9070
  1457.2500     30.5046   -170.8818     26.4855    126.8772
  1457.5000     31.5102   -170.7172     27.2034    126.1795
  1457.7500     32.6525   -170.5510     28.1277    124.3396
  1458.0000     33.9588   -170.4152     29.3075    119.4304
  1458.2500     35.4679   -170.3379     30.7302    114.8858
  1458.5000     37.1924   -170.3325     32.3272    107.4404
  1458.7500     39.0469   -170.3963     34.0128    103.1092
  1459.0000     40.9100   -170.5137     35.7142     98.5182
  1459.2500     42.7599   -170.6604     37.3628     96.5114
