~Version Information
VERS.                      2.0: CWLS Log ASCII Standard - VERSION 2.0
WRAP.                       NO: One line per depth step
~Well Information Block
STRT.FT                 5.0000: 
STOP.FT               880.0000: 
STEP.FT                 0.2500: 
NULL.                -999.2500: 
COMP.          Pioneer Natural Resources: COMPANY
WELL.          Bienville 31-28: WELL
FLD.           Purgatoire River: FIELD
LOC.           1212' FNL & 2271' FEL: LOCATION
PROV.                 Colorado: PROVINCE
CNTY.               Las Animas: COUNTRY
SRVC.                Patterson: SERVICE COMPANY
DATE.          Tue Jan 24 11:44:03 2006: LOG DATE
UWI.           05 071 08666 00: UNIQUE WELL ID
~Curve Information Block
DEPT.FT            0 000 00 00: Depth
GR.GAPI                       : Gamma Ray
CCL.                          : Casing Collar Locator
TT3.usec                      : CBL 3' Travel Time
AMP3.mV                       : CBL 3' Amplitude
~Parameter Information Block
~A  Depth        GR         CCL         TT3         AMP3    
# ...
   507.5000     92.6128      0.0000    801.4617      7.4147
   507.7500     92.2467      0.0000    794.2926      7.3314
   508.0000     92.5144      0.0000    786.6281      7.1461
   508.2500     93.1046      0.0000    780.9828      6.8736
   508.5000     93.6721      0.0000    779.2103      6.5609
   508.7500     93.9957      0.0000    781.4199      6.2791
   509.0000     94.1607      0.0000    786.2783      6.1053
   509.2500     94.5413      0.0000    792.0274      6.0896
   509.5000     95.3855      0.0000    796.9817      6.2256
   509.7500     96.2463      0.0000    799.4886      6.4578
   510.0000     95.9987      0.0000    798.3474      6.7250
   510.2500     93.7381      0.0000    793.8284      6.9946
   510.5000     89.7201      0.0000    787.9861      7.2571
   510.7500     85.3111      0.0000    783.3016      7.4956
   511.0000     82.0888      0.0000    780.7138      7.6735
   511.2500     81.0694      0.0000    779.2116      7.7559
   511.5000     82.5150      0.0000    777.4482      7.7386
   511.7500     86.0211      0.0000    775.3323      7.6494
   512.0000     90.6118      0.0000    773.9099      7.5266
   512.2500     95.0272      0.0000    774.1609      7.3957
   512.5000     98.3427      0.0000    776.1231      7.2635
   512.7500    100.4501      0.0000    778.8478      7.1264
   513.0000    101.7974      0.0000    781.0626      6.9834
   513.2500    102.8019      0.0000    782.0011      6.8403
   513.5000    103.7598      0.0000    781.5415      6.6989
   513.7500    105.1347      0.0000    779.7388      6.5455
   514.0000    107.4403      0.0000    776.7628      6.3553
   514.2500    110.6331      0.0000    773.2579      6.1129
   514.5000    113.7480      0.0000    770.1606      5.8271
   514.7500    115.3966      0.0000    768.0381      5.5252
   515.0000    114.8611      0.0000    766.8473      5.2379
   515.2500    112.7393      0.0000    766.2645      4.9933
   515.5000    110.4626      0.0000    766.0396      4.8145
   515.7500    109.1289      0.0000    766.0728      4.7104
   516.0000    108.5601      0.0000    766.3317      4.6661
   516.2500    107.3238      0.0000    766.7759      4.6512
   516.5000    103.9725      0.0000    767.3834      4.6413
   516.7500     98.5907      0.0000    768.2733      4.6334
   517.0000     93.0048      0.0000    769.8228      4.6417
   517.2500     89.3031      0.0000    772.6267      4.6828
   517.5000     88.1455      0.0000    777.0911      4.7650
   517.7500     88.5308      0.0000    782.8223      4.8851
   518.0000     89.1295      0.0000    788.6096      5.0313
   518.2500     89.7010      0.0000    793.4269      5.1910
   518.5000     91.0391      0.0000    797.3229      5.3563
   518.7500     93.7419      0.0000    800.9195      5.5170
   519.0000     97.4529      0.0000    804.3099      5.6522
   519.2500    101.2329      0.0000    806.9689      5.7382
   519.5000    104.2643      0.0000    808.5235      5.7680
   519.7500    106.1762      0.0000    809.1046      5.7587
   520.0000    107.0659      0.0000    808.9731      5.7354
   520.2500    107.2914      0.0000    808.0536      5.7127
   520.5000    107.0033      0.0000    805.8998      5.6893
   520.7500    105.9710      0.0000    802.2281      5.6515
   521.0000    104.1379      0.0000    797.7016      5.5815
   521.2500    102.1278      0.0000    793.9891      5.4738
   521.5000    100.8025      0.0000    792.5513      5.3486
   521.7500    100.4155      0.0000    793.4140      5.2403
   522.0000    100.5178      0.0000    795.5629      5.1658
   522.2500    100.5557      0.0000    798.2661      5.1116
   522.5000    100.2454      0.0000    801.3488      5.0539
   522.7500     99.6250      0.0000    804.4777      4.9859
   523.0000     99.2893      0.0000    807.0001      4.9230
   523.2500    100.4747      0.0000    808.5147      4.8867
   523.5000    104.2642      0.0000    809.1575      4.8872
   523.7500    110.3360      0.0000    809.3223      4.9195
   524.0000    116.6585      0.0000    809.3311      4.9665
   524.2500    120.7073      0.0000    809.3412      5.0084
   524.5000    121.1594      0.0000    809.3965      5.0326
   524.7500    118.5754      0.0000    809.4919      5.0411
   525.0000    114.5624      0.0000    809.6171      5.0501
   525.2500    110.4288      0.0000    809.7684      5.0831
   525.5000    106.7266      0.0000    809.9402      5.1618
   525.7500    103.6670      0.0000    810.1145      5.2979
   526.0000    101.3757      0.0000    810.2720      5.4918
   526.2500     99.7807      0.0000    810.4082      5.7405
   526.5000     98.6794      0.0000    810.5298      6.0499
   526.7500     98.0522      0.0000    810.6398      6.4321
   527.0000     98.2148      0.0000    810.7400      6.8861
   527.2500     99.5213      0.0000    810.8363      7.3784
   527.5000    101.7259      0.0000    810.9330      7.8478
   527.7500    103.5986      0.0000    811.0334      8.2348
   528.0000    103.4641      0.0000    811.1433      8.5146
   528.2500    100.3594      0.0000    811.2513      8.7099
   528.5000     94.7591      0.0000    811.3533      8.8729
   528.7500     88.2904      0.0000    811.6128      9.0490
   529.0000     82.7205      0.0000    812.5812      9.2537
   529.2500     78.9789      0.0000    815.1906      9.4814
   529.5000     76.9732      0.0000    820.2168      9.7244
   529.7500     76.1955      0.0000    827.3503      9.9715
   530.0000     76.2097      0.0000    834.6493     10.1869
   530.2500     76.4225      0.0000    839.2172     10.3048
   530.5000     75.7513      0.0000    838.7876     10.2560
   530.7500     72.9903      0.0000    832.8945     10.0068
   531.0000     67.5718      0.0000    822.5562      9.5821
   531.2500     59.9568      0.0000    809.1290      9.0617
   531.5000     51.5396      0.0000    794.1738      8.5501
   531.7500     44.1928      0.0000    780.6652      8.1331
   532.0000     39.3872      0.0000    772.8920      7.8494
   532.2500     37.3738      0.0000    773.5071      7.6899
   532.5000     37.3275      0.0000    780.9770      7.6107
   532.7500     38.2091      0.0000    790.8816      7.5504
   533.0000     39.2756      0.0000    799.3480      7.4514
   533.2500     40.0294      0.0000    804.8818      7.2835
   533.5000     40.2774      0.0000    807.8651      7.0537
   533.7500     40.3871      0.0000    809.3480      6.7978
   534.0000     41.1216      0.0000    810.3488      6.5653
   534.2500     43.0219      0.0000    811.8022      6.4075
   534.5000     45.9841      0.0000    814.6466      6.3642
   534.7500     49.2407      0.0000    819.5304      6.4479
   535.0000     51.5454      0.0000    826.0791      6.6367
   535.2500     51.7222      0.0000    832.6473      6.8806
   535.5000     49.5926      0.0000    837.3416      7.1240
   535.7500     46.3534      0.0000    839.5458      7.3298
   536.0000     43.7035      0.0000    840.0180      7.4901
   536.2500     42.6108      0.0000    839.3158      7.6171
   536.5000     42.9727      0.0000    836.8002      7.7285
   536.7500     44.1052      0.0000    831.7228      7.8404
   537.0000     45.2820      0.0000    824.7992      7.9668
   537.2500     46.0591      0.0000    818.0273      8.1145
   537.5000     46.4572      0.0000    813.0897      8.2735
   537.7500     46.8563      0.0000    810.3486      8.4132
   538.0000     47.5947      0.0000    809.1920      8.4951
   538.2500     48.5857      0.0000    808.8489      8.4938
   538.5000     49.2643      0.0000    808.8125      8.4049
   538.7500     48.9372      0.0000    808.8506      8.2383
   539.0000     47.3550      0.0000    808.8912      8.0140
   539.2500     45.0521      0.0000    808.9318      7.7682
   539.5000     43.0712      0.0000    808.9658      7.5514
   539.7500     42.2836      0.0000    808.9129      7.4058
   540.0000     43.0234      0.0000    808.5235      7.3384
   540.2500     45.3182      0.0000    807.2147      7.3114
   540.5000     49.1551      0.0000    803.8724      7.2510
   540.7500     54.2571      0.0000    796.9450      7.0629
