~Version Information
VERS.                      2.0: CWLS Log ASCII Standard - VERSION 2.0
WRAP.                       NO: One line per depth step
~Well Information Block
STRT.FT               440.0000: 
STOP.FT              1300.5000: 
STEP.FT                 0.1000: 
NULL.                -999.2500: 
COMP.          Pioneer Natural Resources: COMPANY
WELL.              Yoshi 14-30: WELL
FLD.           Purgatoire River: FIELD
LOC.           993' FSL & 823' FWL: LOCATION
CNTY.               Las Animas: COUNTY
SRVC.                Patterson: SERVICE COMPANY
DATE.          Fri Feb 17 14:59:28 2006: LOG DATE
UWI.           05 071 08699 00: UNIQUE WELL ID
STAT.                 Colorado: STATE
~Curve Information Block
DEPT.FT            0 000 00 00: Depth
DCAL.in                       : CDL Caliper
RHOB.g/cc                     : CDL Bulk Density
RHOC.g/cc                     : CDL Density Correction
DPOR.pu                       : CDL Density Porosity
GR.GAPI                       : Gamma Ray
NPOR.pu                       : Neutron Porosity
~Parameter Information Block
~A  Depth       DCAL        RHOB        RHOC        DPOR         GR         NPOR    
# ...
   612.8000      8.0428      2.5370      0.0066      6.8481    165.1385     28.5019
   612.9000      8.0428      2.5649      0.0379      5.1576    156.1170     28.3757
   613.0000      8.0434      2.5872      0.0755      3.8082    148.6591     29.0018
   613.1000      8.0434      2.5970      0.0778      3.2110    143.7349     29.6931
   613.2000      8.0434      2.6057      0.0259      2.6843    140.3702     29.3468
   613.3000      8.0435      2.6191      0.0718      1.8741    137.5222     28.4051
   613.4000      8.0435      2.6205      0.0839      1.7880    132.9470     27.5588
   613.5000      8.0414      2.6032      0.0397      2.8349    125.7949     26.7789
   613.6000      8.0414      2.5887     -0.0112      3.7129    116.3448     26.1263
   613.7000      8.0414      2.5914     -0.0201      3.5532    105.7296     25.9685
   613.8000      8.0400      2.5994     -0.0039      3.0652     95.6252     26.4644
   613.9000      8.0400      2.5960     -0.0179      3.2738     86.7444     26.9163
   614.0000      8.0409      2.5811     -0.0425      4.1736     82.2807     26.6541
   614.1000      8.0409      2.5755     -0.0752      4.5141     84.2561     25.7904
   614.2000      8.0409      2.5830      0.0131      4.0612     85.1840     24.6251
   614.3000      8.0422      2.5821     -0.0093      4.1180     78.3481     23.4925
   614.4000      8.0422      2.5747     -0.0300      4.5655     70.9865     22.6538
   614.5000      8.0424      2.5786     -0.0022      4.3265     72.3407     22.2805
   614.6000      8.0424      2.5919      0.0105      3.5202     78.9420     22.3501
   614.7000      8.0424      2.6038      0.0228      2.8022     81.6847     22.5966
   614.8000      8.0412      2.6038      0.0234      2.7987     79.8450     22.8598
   614.9000      8.0412      2.5852      0.0128      3.9281     77.8266     23.1797
   615.0000      8.0397      2.5572     -0.0154      5.6220     75.7224     23.5905
   615.1000      8.0397      2.5468     -0.0408      6.2524     74.6983     23.7865
   615.2000      8.0397      2.5680      0.0148      4.9726     76.8505     23.4255
   615.3000      8.0398      2.5961      0.0947      3.2658     81.5669     22.9277
   615.4000      8.0398      2.6029      0.0657      2.8558     85.4317     22.7200
   615.5000      8.0409      2.5957      0.0230      3.2894     83.2827     22.7573
   615.6000      8.0409      2.5912      0.1094      3.5633     77.2135     22.8718
   615.7000      8.0409      2.5903      0.0718      3.6192     73.5494     22.9244
   615.8000      8.0415      2.5926      0.0760      3.4776     72.1039     22.9699
   615.9000      8.0415      2.5957      0.0909      3.2884     72.3472     23.1268
   616.0000      8.0417      2.5976      0.0514      3.1776     77.8996     23.3970
   616.1000      8.0417      2.6000      0.0704      3.0327     86.6737     23.5458
   616.2000      8.0417      2.5983      0.0805      3.1342     91.4057     23.4658
   616.3000      8.0410      2.5934      0.0559      3.4328     92.4597     23.4880
   616.4000      8.0410      2.5980      0.0445      3.1542     93.7017     23.6750
   616.5000      8.0402      2.6096      0.0952      2.4503     96.2316     23.5937
   616.6000      8.0402      2.6140      0.0439      2.1815    103.6440     23.4402
   616.7000      8.0402      2.6145      0.0318      2.1505    117.7856     23.7694
   616.8000      8.0415      2.6162      0.0469      2.0488    130.6183     24.4446
   616.9000      8.0415      2.6144      0.0297      2.1546    134.8913     24.9571
   617.0000      8.0431      2.6149      0.0164      2.1288    135.3033     25.2122
   617.1000      8.0431      2.6246      0.0249      1.5386    136.6218     25.6919
   617.2000      8.0431      2.6288      0.0785      1.2854    137.5260     26.4176
   617.3000      8.0436      2.6129      0.0237      2.2466    135.6209     26.9139
   617.4000      8.0436      2.5892      0.0199      3.6843    132.9393     27.5070
   617.5000      8.0439      2.5714      0.0284      4.7649    137.3327     28.4427
   617.6000      8.0439      2.5597      0.0317      5.4740    149.5680     29.0478
   617.7000      8.0439      2.5528      0.0012      5.8911    158.8434     28.8961
   617.8000      8.0444      2.5468      0.0164      6.2551    159.2593     28.4359
   617.9000      8.0444      2.5295     -0.0149      7.3017    154.8307     28.1749
   618.0000      8.0445      2.5032     -0.0458      8.8988    152.1191     28.3746
   618.1000      8.0445      2.4879     -0.0500      9.8256    156.4286     28.8483
   618.2000      8.0445      2.4895     -0.0229      9.7301    164.3081     29.0027
   618.3000      8.0434      2.4951     -0.0257      9.3849    166.8338     29.1317
   618.4000      8.0434      2.5037     -0.0202      8.8689    161.0391     29.7266
   618.5000      8.0405      2.5234     -0.0171      7.6702    154.8689     29.9352
   618.6000      8.0405      2.5461      0.0284      6.2950    154.6895     29.1399
   618.7000      8.0405      2.5541      0.0418      5.8141    155.9121     28.0275
   618.8000      8.0390      2.5454      0.0223      6.3365    155.9527     27.6102
   618.9000      8.0390      2.5318      0.0186      7.1622    158.0650     28.3150
   619.0000      8.0415      2.5209     -0.0148      7.8217    163.3836     29.1408
   619.1000      8.0415      2.5079     -0.0081      8.6150    168.7850     28.8233
   619.2000      8.0415      2.4822     -0.0254     10.1685    168.0183     27.6363
   619.3000      8.0434      2.4480     -0.0695     12.2433    160.7326     26.6318
   619.4000      8.0434      2.4199     -0.0740     13.9444    156.9074     26.5178
   619.5000      8.0429      2.4095     -0.0771     14.5772    160.9250     27.0542
   619.6000      8.0429      2.4144     -0.0345     14.2788    168.2914     27.3171
   619.7000      8.0429      2.4210     -0.0167     13.8774    175.9432     27.2594
   619.8000      8.0419      2.4302     -0.0410     13.3184    181.3312     27.6532
   619.9000      8.0419      2.4509      0.0074     12.0642    183.8950     28.6414
   620.0000      8.0420      2.4729      0.0253     10.7304    186.3061     29.2722
   620.1000      8.0420      2.4876      0.0436      9.8453    189.3149     29.0333
   620.2000      8.0420      2.5047      0.0472      8.8055    188.6513     28.6534
   620.3000      8.0428      2.5336      0.0580      7.0558    181.6348     28.6126
   620.4000      8.0428      2.5699      0.1369      4.8570    176.7589     28.7091
   620.5000      8.0429      2.5958      0.1404      3.2875    182.7727     28.7320
   620.6000      8.0429      2.5972      0.1312      3.1989    191.4193     28.6169
   620.7000      8.0429      2.5772      0.0897      4.4147    188.9620     28.6756
   620.8000      8.0427      2.5491      0.0517      6.1174    178.7525     29.0002
   620.9000      8.0427      2.5299      0.0330      7.2808    173.0266     28.9454
   621.0000      8.0434      2.5281      0.0295      7.3892    175.5357     28.0649
   621.1000      8.0434      2.5310      0.0771      7.2101    180.4162     27.0248
   621.2000      8.0434      2.5230      0.0196      7.6946    183.4834     26.7804
   621.3000      8.0445      2.5121     -0.0246      8.3561    188.9451     27.0354
   621.4000      8.0445      2.5088     -0.0141      8.5604    197.9321     26.9501
   621.5000      8.0442      2.5037     -0.0061      8.8639    200.8459     26.5303
   621.6000      8.0442      2.4865     -0.0119      9.9092    192.8467     26.1067
   621.7000      8.0442      2.4709     -0.0609     10.8573    180.3833     25.7514
   621.8000      8.0433      2.4768     -0.0205     10.4941    171.0776     25.5304
   621.9000      8.0433      2.4931      0.0060      9.5112    168.3945     25.4108
   622.0000      8.0428      2.4982      0.0004      9.2010    170.6235     25.5226
   622.1000      8.0428      2.4907     -0.0110      9.6517    172.9039     25.8361
   622.2000      8.0428      2.4796      0.0050     10.3292    173.2169     25.6038
   622.3000      8.0417      2.4750     -0.0357     10.6073    175.8205     24.9950
