~Version Information
VERS.                      2.0: CWLS Log ASCII Standard - VERSION 2.0
WRAP.                       NO: One line per depth step
~Well Information Block
STRT.FT               -12.0000: 
STOP.FT              1266.5000: 
STEP.FT                 0.2500: 
NULL.                -999.2500: 
COMP.          Pioneer Natural Resources: COMPANY
WELL.          Hot Tomatoes 22-20: WELL
FLD.           Purgatorie River: FIELD
LOC.           2120' FNL & 2585' FWL: LOCATION
CNTY.               Las Animas: COUNTY
SRVC.                Patterson: SERVICE COMPANY
DATE.          Thu Mar 02 13:59:39 2006: LOG DATE
UWI.           05 071 08701 00: UNIQUE WELL ID
STAT.                       CO: STATE
~Curve Information Block
DEPT.FT            0 000 00 00: Depth
GR.GAPI                       : Gamma Ray
CCL.                          : Casing Collar Locator
TT3.usec                      : CBL 3' Travel Time
AMP3.mV                       : CBL 3' Amplitude
~Parameter Information Block
~A  Depth        GR         CCL         TT3         AMP3    
# ...
  1227.5000    126.1669      0.0000    665.5547      2.5444
  1227.7500    127.0962      0.0000    652.6899      2.4197
  1228.0000    125.6886      0.0000    631.7347      2.4782
  1228.2500    122.6869      0.0000    617.1169      2.6313
  1228.5000    120.1678      0.0000    613.1383      2.6992
  1228.7500    119.5262      0.0000    613.0730      2.5664
  1229.0000    120.2009      0.0000    612.1404      2.2676
  1229.2500    120.6591      0.0000    615.9181      1.9623
  1229.5000    120.2980      0.0000    631.3158      1.8287
  1229.7500    119.7801      0.0000    651.9560      1.9271
  1230.0000    119.6729      0.0000    658.9588      2.1580
  1230.2500    119.7027      0.0000    638.2964      2.4031
  1230.5000    119.5598      0.0000    594.1545      2.6860
  1230.7500    119.4878      0.0000    543.9001      3.1316
  1231.0000    119.5686      0.0000    503.1448      3.7744
  1231.2500    119.1947      0.0000    477.2946      4.4757
  1231.5000    117.9163      0.0000    463.6515      5.0397
  1231.7500    116.5063      0.0000    457.0737      5.3693
  1232.0000    116.6675      0.0000    453.3475      5.5022
  1232.2500    119.5224      0.0000    449.8613      5.5400
  1232.5000    124.4304      0.0000    445.5039      5.5712
  1232.7500    129.2881      0.0000    440.7696      5.6418
  1233.0000    131.9812      0.0000    437.4687      5.7680
  1233.2500    131.7330      0.0000    437.3299      5.9530
  1233.5000    129.3257      0.0000    440.4047      6.1876
  1233.7500    126.1839      0.0000    445.0303      6.4423
  1234.0000    123.3589      0.0000    449.3085      6.6714
  1234.2500    121.3101      0.0000    452.3357      6.8337
  1234.5000    120.1212      0.0000    454.2010      6.9097
  1234.7500    119.3176      0.0000    455.3659      6.9032
  1235.0000    117.7908      0.0000    456.2211      6.8319
  1235.2500    114.9104      0.0000    456.9536      6.7196
  1235.5000    111.8788      0.0000    457.5716      6.5914
  1235.7500    111.1129      0.0000    458.0021      6.4735
  1236.0000    113.9392      0.0000    458.1865      6.3949
  1236.2500    119.3370      0.0000    458.1092      6.3801
  1236.5000    124.9400      0.0000    457.7834      6.4338
  1236.7500    128.7206      0.0000    457.2494      6.5370
  1237.0000    129.6615      0.0000    456.5856      6.6617
  1237.2500    127.4987      0.0000    455.8871      6.7890
  1237.5000    122.5911      0.0000    455.1790      6.9142
  1237.7500    116.1721      0.0000    454.2857      7.0413
  1238.0000    110.1608      0.0000    452.6998      7.1728
  1238.2500    106.1638      0.0000    449.5968      7.3032
  1238.5000    104.5734      0.0000    444.2250      7.4204
  1238.7500    104.6993      0.0000    436.6293      7.5122
  1239.0000    105.7809      0.0000    428.0608      7.5715
  1239.2500    107.7798      0.0000    420.3928      7.5935
  1239.5000    111.0946      0.0000    414.9254      7.5724
  1239.7500    115.5287      0.0000    411.7538      7.5058
  1240.0000    119.7082      0.0000    410.1587      7.4028
  1240.2500    121.7144      0.0000    409.3517      7.2843
  1240.5000    120.4946      0.0000    408.8575      7.1711
  1240.7500    116.7630      0.0000    408.4817      7.0738
  1241.0000    112.4541      0.0000    408.1583      6.9959
  1241.2500    109.3161      0.0000    407.8618      6.9391
  1241.5000    108.0542      0.0000    407.5862      6.9024
  1241.7500    108.5570      0.0000    407.3385      6.8787
  1242.0000    110.4825      0.0000    407.1169      6.8567
  1242.2500    113.4139      0.0000    406.8908      6.8267
  1242.5000    116.6644      0.0000    406.6056      6.7862
  1242.7500    119.3409      0.0000    406.1965      6.7428
  1243.0000    120.8040      0.0000    405.5830      6.7124
  1243.2500    121.0253      0.0000    404.6406      6.7102
  1243.5000    120.6808      0.0000    403.2008      6.7406
  1243.7500    120.9012      0.0000    401.1110      6.7978
  1244.0000    122.2865      0.0000    398.3074      6.8739
  1244.2500    123.8228      0.0000    394.8264      6.9588
  1244.5000    123.4317      0.0000    390.7612      7.0357
  1244.7500    120.0387      0.0000    386.2728      7.0942
  1245.0000    114.6302      0.0000    381.7226      7.1555
  1245.2500    109.1682      0.0000    377.8439      7.2710
  1245.5000    105.0442      0.0000    375.6758      7.4765
  1245.7500    102.6189      0.0000    375.9371      7.7425
  1246.0000    101.5309      0.0000    378.0563      7.9816
  1246.2500    101.2094      0.0000    379.9891      8.1172
  1246.5000    101.4987      0.0000    379.6685      8.1444
  1246.7500    102.9217      0.0000    376.9209      8.1189
  1247.0000    106.0440      0.0000    373.6531      8.0930
  1247.2500    110.5501      0.0000    372.1159      8.0716
  1247.5000    115.1889      0.0000    373.2747      8.0278
  1247.7500    118.6855      0.0000    376.6831      7.9430
  1248.0000    120.6613      0.0000    381.3237      7.8221
  1248.2500    121.7292      0.0000    386.3287      7.6763
  1248.5000    122.7276      0.0000    391.1788      7.5059
  1248.7500    123.7624      0.0000    395.6233      7.3060
  1249.0000    124.0344      0.0000    399.6727      7.0871
  1249.2500    122.9152      0.0000    403.8226      6.8806
  1249.5000    121.2852      0.0000    409.2532      6.7149
  1249.7500    121.3972      0.0000    417.4603      6.5919
  1250.0000    125.0379      0.0000    429.0950      6.4877
  1250.2500    131.7668      0.0000    442.5989      6.3726
  1250.5000    138.9511      0.0000    453.9150      6.2296
  1250.7500    143.4864      0.0000    458.2473      6.0636
  1251.0000    143.6661      0.0000    453.2511      5.9014
  1251.2500    139.8212      0.0000    440.7325      5.7689
  1251.5000    133.6363      0.0000    424.1673      5.6461
  1251.7500    127.2235      0.0000    403.3298      5.4249
  1252.0000    122.6252      0.0000    371.4954      4.9204
  1252.2500    121.1525      0.0000    319.8236      3.9710
  1252.5000    122.3389      0.0000    247.0077      2.5933
  1252.7500    123.8868      0.0000    164.9194      1.0464
  1253.0000    123.4493      0.0000     92.4529     -0.3043
  1253.2500    120.6097      0.0000     42.5950     -1.2238
  1253.5000    116.8409      0.0000     15.8846     -1.7121
  1253.7500    113.7501      0.0000      4.7424     -1.9144
  1254.0000    112.0480      0.0000      1.1233     -1.9798
  1254.2500    112.3016      0.0000      0.2080     -1.9963
  1254.5000    115.5369      0.0000      0.0277     -1.9995
  1254.7500    121.9661      0.0000   -999.2500   -999.2500
  1255.0000    129.4198      0.0000   -999.2500   -999.2500
  1255.2500    134.1413      0.0000   -999.2500   -999.2500
  1255.5000    133.5100      0.0000   -999.2500   -999.2500
  1255.7500    127.8332      0.0000   -999.2500   -999.2500
  1256.0000    119.8286      0.0000   -999.2500   -999.2500
  1256.2500    112.8100      0.0000   -999.2500   -999.2500
  1256.5000    108.9637      0.0000   -999.2500   -999.2500
  1256.7500    108.6111      0.0000   -999.2500   -999.2500
  1257.0000    110.7874      0.0000   -999.2500   -999.2500
  1257.2500    114.2809      0.0000   -999.2500   -999.2500
  1257.5000    118.0098      0.0000   -999.2500   -999.2500
  1257.7500    120.9495      0.0000   -999.2500   -999.2500
  1258.0000    122.4788      0.0000   -999.2500   -999.2500
  1258.2500    122.9781      0.0000   -999.2500   -999.2500
  1258.5000    123.7143      0.0000   -999.2500   -999.2500
  1258.7500    125.7988      0.0000   -999.2500   -999.2500
  1259.0000    129.2274      0.0000   -999.2500   -999.2500
  1259.2500    132.9388      0.0000   -999.2500   -999.2500
  1259.5000    135.6346      0.0000   -999.2500   -999.2500
  1259.7500    136.5541      0.0000   -999.2500   -999.2500
  1260.0000    135.7153      0.0000   -999.2500   -999.2500
  1260.2500    133.6543   -999.2500   -999.2500   -999.2500
  1260.5000    131.0114   -999.2500   -999.2500   -999.2500
  1260.7500    128.2807   -999.2500   -999.2500   -999.2500
