~Version Information
 VERS.                                  2.0 : CWLS LAS VERSION
 WRAP.                                   NO : WRAPING MODE
 SWARE .                 MController 2.5.0J : SOFTWARE VERSION
~Well Information
 WELL.YWAM 7-32R : WELL
 COMP.                Petrogulf Corporation : COMPANY
 FLD.                      Purgatoire River : FIELD
 LOC.                 SW/NE Sec 7 T33S R67W : LOCATION
 DATE.9/28/05 : DATE(S) LOGGED
 SRVC.       BLANCO Geological Services LLC : SERVICE COMPANY
 STAT.                                   CO : STATE
 CNTY.                           Las Animas : COUNTY
 CTRY.                                  USA : COUNTRY
 API.                       05-071-08518-00 : API NUMBER
 STRT.FT                               1.00 : START DEPTH
 STOP.FT                            2100.00 : STOP DEPTH
 STEP.FT                               1.00 : DEPTH INCREMENT
 NULL.                                -9999 : NULL VALUE
~Curve information
 DEPTH.FT                                   :
 ROP.MIN/FT                                 :
 GAS.UNITS                                  :
~ASCII Log data
# ...
      1601.0         0.63         27.0 
      1602.0         0.67         31.1 
      1603.0         0.43         33.1 
      1604.0         0.23         33.4 
      1605.0         0.28         33.8 
      1606.0         0.27         33.6 
      1607.0         0.30         33.5 
      1608.0         0.30         32.8 
      1609.0         0.80         30.0 
      1610.0         0.47         36.5 
      1611.0         0.33         40.2 
      1612.0         0.47         41.4 
      1613.0         0.48         40.8 
      1614.0         0.53         38.2 
      1615.0         0.83         32.1 
      1616.0         0.77         30.2 
      1617.0         0.50         30.0 
      1618.0         0.45         19.9 
      1619.0         0.90         51.4 
      1620.0         5.80        144.6 
      1621.0         0.43         29.6 
      1622.0         0.37         31.8 
      1623.0         0.37         32.3 
      1624.0         0.37         33.1 
      1625.0         0.43         34.4 
      1626.0         0.60         34.8 
      1627.0         0.62         34.4 
      1628.0         0.60         33.2 
      1629.0         0.43         32.4 
      1630.0         0.63         32.0 
      1631.0         0.73         31.1 
      1632.0         0.62         31.0 
      1633.0         0.43         30.7 
      1634.0         0.40         30.7 
      1635.0         0.40         31.3 
      1636.0         0.43         31.5 
      1637.0         0.40         31.2 
      1638.0         0.40         31.2 
      1639.0         0.40         31.4 
      1640.0         0.45         31.8 
      1641.0         0.43         31.9 
      1642.0         0.43         31.4 
      1643.0         0.47         31.0 
      1644.0         0.37         30.3 
      1645.0         0.30         29.1 
      1646.0         0.23         24.4 
      1647.0         0.27         18.5 
      1648.0         0.27         16.6 
      1649.0         0.68         42.0 
      1650.0         5.38        134.1 
      1651.0         0.60         30.2 
      1652.0         0.38         27.8 
      1653.0         0.43         30.6 
      1654.0         0.47         32.6 
      1655.0         0.53         33.9 
      1656.0         0.33         34.9 
      1657.0         0.47         35.1 
      1658.0         0.37         33.8 
      1659.0         0.37         33.4 
      1660.0         0.32         34.7 
      1661.0         0.33         35.5 
      1662.0         0.33         35.9 
      1663.0         0.40         35.9 
      1664.0         0.43         35.6 
      1665.0         0.40         34.3 
      1666.0         0.47         32.9 
      1667.0         0.60         31.5 
      1668.0         0.52         30.7 
      1669.0         0.33         31.2 
      1670.0         0.40         32.4 
      1671.0         0.40         33.3 
      1672.0         0.37         33.4 
      1673.0         0.33         32.9 
      1674.0         0.38         32.4 
      1675.0         0.33         32.0 
      1676.0         0.30         32.0 
      1677.0         0.33         32.1 
      1678.0         0.47         31.0 
      1679.0         0.37         27.3 
      1680.0         7.42        159.2 
      1681.0         0.60         30.5 
      1682.0         0.63         33.9 
      1683.0         0.53         33.9 
      1684.0         0.50         31.4 
      1685.0         0.68         28.2 
      1686.0         0.60         24.2 
      1687.0         0.47         24.2 
      1688.0         0.47         23.7 
      1689.0         0.70         23.8 
      1690.0         0.62         23.8 
      1691.0         0.63         24.7 
      1692.0         0.73         26.3 
      1693.0         0.57         29.9 
      1694.0         0.47         32.8 
      1695.0         0.48         33.1 
      1696.0         0.47         33.4 
      1697.0         0.40         33.4 
      1698.0         0.37         33.7 
      1699.0         0.43         33.8 
      1700.0         0.30         34.4 
      1701.0         0.33         34.3 
      1702.0         0.33         34.1 
      1703.0         0.30         33.6 
      1704.0         0.38         33.6 
      1705.0         0.40         32.7 
      1706.0         0.40         32.0 
      1707.0         0.37         30.3 
      1708.0         0.40         21.8 
      1709.0         0.37         14.3 
      1710.0         7.53        161.9 
      1711.0         0.62         32.2 
      1712.0         0.57         34.4 
      1713.0         0.63         34.6 
      1714.0         0.77         33.4 
      1715.0         1.12         31.3 
      1716.0         1.47         29.5 
      1717.0         1.40         25.6 
      1718.0         1.32         25.6 
      1719.0         1.03         25.7 
      1720.0       183.63       3462.5 
      1721.0         0.87         24.8 
      1722.0         0.28         24.2 
      1723.0         0.40         29.3 
      1724.0         0.47         35.2 
      1725.0         0.33         42.8 
      1726.0         0.40         51.9 
      1727.0         0.47         59.0 
      1728.0         0.47         69.2 
      1729.0         0.45         78.0 
      1730.0         0.43         83.8 
      1731.0         4.38         95.9 
      1732.0         0.65         76.9 
      1733.0         0.70         76.8 
      1734.0         0.70         68.8 
      1735.0         0.70         43.2 
      1736.0         1.03         33.1 
      1737.0         0.78         32.7 
      1738.0         0.73         29.6 
      1739.0         0.77         24.9 
      1740.0         0.78         19.3 
      1741.0         0.67         19.2 
      1742.0         0.73         19.8 
      1743.0         0.67         20.0 
      1744.0         0.63         21.5 
      1745.0         0.68         23.2 
      1746.0         0.87         24.3 
      1747.0         0.93         24.8 
      1748.0         1.68         24.8 
      1749.0         1.43         22.6 
      1750.0         0.95         24.7 
      1751.0         1.17         25.7 
      1752.0         1.18         24.6 
      1753.0         1.47         23.7 
      1754.0         1.25         27.2 
      1755.0         0.40         27.7 
      1756.0         0.40         27.4 
      1757.0         0.40         27.2 
      1758.0         0.33         26.9 
      1759.0         0.53         26.7 
      1760.0         0.57         25.8 
      1761.0         5.73         76.9 
      1762.0         0.40         66.8 
      1763.0         0.52         47.3 
      1764.0         0.43         29.0 
      1765.0         0.53         24.9 
      1766.0         0.33         22.5 
      1767.0         0.23         22.6 
      1768.0         0.33         23.1 
      1769.0         0.47         25.7 
      1770.0         0.55         26.6 
      1771.0         0.57         25.9 
      1772.0         0.47         25.2 
      1773.0         0.47         24.6 
      1774.0         0.50         23.7 
      1775.0         0.55         23.1 
      1776.0         0.57         22.2 
      1777.0         0.53         21.7 
      1778.0         0.53         21.0 
      1779.0         0.50         20.3 
      1780.0         0.45         19.9 
      1781.0         0.30         20.0 
      1782.0         0.33         20.1 
      1783.0         0.47         23.1 
      1784.0         0.50         23.7 
      1785.0         0.40         22.5 
      1786.0         0.47         21.8 
      1787.0         0.37         21.4 
      1788.0         0.25         21.9 
      1789.0         0.30         22.4 
      1790.0         0.50         25.2 
      1791.0         3.38        128.5 
      1792.0         0.73        119.8 
      1793.0         0.43         58.8 
      1794.0         0.50         30.6 
      1795.0         0.50         26.5 
      1796.0         0.58         29.4 
      1797.0         0.50         29.0 
      1798.0         0.40         27.9 
      1799.0         0.57         27.0 
      1800.0         0.43         28.5 
