~Version Information
VERS.                      2.0: CWLS Log ASCII Standard - VERSION 2.0
WRAP.                       NO: One line per depth step
~Well Information Block
STRT.FT               -10.2500: 
STOP.FT              2871.7500: 
STEP.FT                 0.2500: 
NULL.                -999.2500: 
COMP.          Pioneer Natural Resources: COMPANY
WELL.          Grey Goose 33-30: WELL
FLD.           Purgatorie River: FIELD
LOC.           2136' FSL & 2065' FEL--: LOCATION
STAT.                       CO: State
CNTY.               Las Animas: COUNTY
CTRY. USA : Country
SECT. 30  : Section
TOWN. 32S : Township
RANG. 67W : Range
SRVC.          Patterson Wireline: SERVICE COMPANY
DATE.          Tue Dec 06 12:24:57 2005: LOG DATE
API.            05 071 0854600: UNIQUE WELL ID
~Curve Information Block
DEPT.FT            0 000 00 00: Depth
CCL.                          : Casing Collar Locator
TT3.usec                      : CBL 3' Travel Time
AMP3.mV                       : CBL 3' Amplitude
GR.GAPI                       : Gamma Ray
~Parameter Information Block
~A  Depth       CCL         TT3         AMP3         GR     
   -10.2500   -999.2500   -999.2500   -999.2500     84.8409
   -10.0000   -999.2500   -999.2500   -999.2500     86.2462
    -9.7500   -999.2500   -999.2500   -999.2500     85.0987
    -9.5000   -999.2500   -999.2500   -999.2500     82.7829
    -9.2500   -999.2500   -999.2500   -999.2500     80.9253
    -9.0000   -999.2500   -999.2500   -999.2500     80.2292
    -8.7500   -999.2500   -999.2500   -999.2500     80.2479
    -8.5000   -999.2500   -999.2500   -999.2500     80.1892
    -8.2500   -999.2500   -999.2500   -999.2500     79.8755
    -8.0000   -999.2500   -999.2500   -999.2500     79.7774
    -7.7500   -999.2500   -999.2500   -999.2500     80.1753
    -7.5000   -999.2500   -999.2500   -999.2500     80.7326
    -7.2500   -999.2500   -999.2500   -999.2500     81.3226
    -7.0000   -999.2500   -999.2500   -999.2500     82.9629
    -6.7500   -999.2500   -999.2500   -999.2500     87.1401
    -6.5000   -999.2500   -999.2500   -999.2500     93.9650
    -6.2500   -999.2500   -999.2500   -999.2500    101.3942
    -6.0000   -999.2500   -999.2500   -999.2500    106.4938
    -5.7500   -999.2500   -999.2500   -999.2500    107.5540
    -5.5000   -999.2500   1170.0000      1.0428    105.2958
    -5.2500   -999.2500   1170.0000      1.0448    102.2913
    -5.0000   -999.2500   1170.0000      1.0515    101.0150
    -4.7500   -999.2500   1170.0000      1.0593    101.9133
    -4.5000   -999.2500   1170.0000      1.0648    102.7428
    -4.2500   -999.2500   1170.0000      1.0685     99.9904
    -4.0000   -999.2500   1170.0000      1.0729     91.8920
    -3.7500   -999.2500   1170.0000      1.0786     80.3510
    -3.5000   -999.2500   1170.0000      1.0818     69.5173
    -3.2500   -999.2500   1170.0000      1.0793     62.4562
    -3.0000   -999.2500   1170.0000      1.0737     59.1690
    -2.7500   -999.2500   1170.0000      1.0704     57.2916
    -2.5000   -999.2500   1170.0000      1.0709     54.3070
    -2.2500   -999.2500   1170.0000      1.0712     49.3430
    -2.0000   -999.2500   1170.0000      1.0678     43.3260
    -1.7500   -999.2500   1170.0000      1.0608     37.8060
    -1.5000   -999.2500   1170.0000      1.0524     33.7801
    -1.2500   -999.2500   1170.0000      1.0448     31.3733
    -1.0000   -999.2500   1170.0000      1.0394     30.1219
    -0.7500   -999.2500   1170.0000      1.0378     29.4845
    -0.5000   -999.2500   1170.0000      1.0403     29.3942
    -0.2500   -999.2500   1170.0000      1.0443     30.4819
     0.0000      0.0000   1170.0000      1.0456     33.6015
     0.2500      0.0000   1170.0000      1.0358     45.4964
     0.5000      0.0000   1170.0000      1.0322     51.4472
     0.7500      0.0000   1170.0000      1.0339     55.2532
     1.0000      0.0000   1170.0000      1.0388     56.5732
     1.2500      0.0000   1170.0000      1.0430     56.0668
     1.5000      0.0000   1170.0000      1.0439     54.4464
     1.7500      0.0000   1170.0000      1.0414     52.2180
     2.0000      0.0000   1170.0000      1.0380     50.2267
     2.2500      0.0000   1170.0000      1.0363     49.6526
     2.5000      0.0000   1170.0000      1.0376     51.0971
     2.7500      0.0000   1170.0000      1.0404     53.8452
     3.0000      0.0000   1170.0000      1.0422     56.1517
     3.2500      0.0000   1170.0000      1.0422     56.4810
     3.5000      0.0000   1170.0000      1.0424     54.8792
     3.7500      0.0000   1170.0000      1.0454     53.1406
     4.0000      0.0000   1170.0000      1.0515     53.2692
     4.2500      0.0000   1170.0000      1.0569     55.6811
     4.5000      0.0000   1170.0000      1.0566     58.9674
     4.7500      0.0000   1170.0000      1.0484     61.2256
     5.0000      0.0000   1170.0000      1.0351     61.4339
     5.2500      0.0000   1170.0000      1.0235     59.8895
     5.5000      0.0000   1170.0000      1.0195     57.8731
     5.7500      0.0000   1170.0000      1.0232     56.9373
     6.0000      0.0000   1170.0000      1.0294     58.0116
     6.2500      0.0000   1170.0000      1.0322     60.9409
     6.5000      0.0000   1170.0000      1.0302     64.9878
     6.7500      0.0000   1170.0000      1.0262     69.6566
     7.0000      0.0000   1170.0000      1.0238     74.7558
     7.2500      0.0000   1170.0000      1.0248     80.0388
     7.5000      0.0000   1170.0000      1.0293     85.4217
     7.7500      0.0000   1170.0000      1.0361     91.4007
     8.0000      0.0000   1170.0000      1.0434     98.7170
     8.2500      0.0000   1170.0000      1.0489    107.5141
     8.5000      0.0000   1170.0000      1.0502    116.7965
     8.7500      0.0000   1170.0000      1.0463    124.5163
     9.0000      0.0000   1170.0000      1.0384    128.6220
     9.2500      0.0000   1170.0000      1.0287    129.0320
     9.5000      0.0000   1170.0000      1.0200    128.4315
     9.7500      0.0000   1170.0000      1.0157    129.8789
    10.0000      0.0000   1170.0000      1.0180    133.2936
    10.2500      0.0000   1170.0000      1.0240    135.3977
    10.5000      0.0000   1170.0000      1.0271    133.5009
    10.7500      0.0000   1170.0000      1.0228    128.2628
    11.0000      0.0000   1170.0000      1.0132    122.2096
    11.2500      0.0000   1170.0000      1.0050    116.7219
    11.5000      0.0000   1170.0000      1.0039    111.5973
    11.7500      0.0000   1170.0000      1.0096    106.8564
    12.0000      0.0000   1170.0000      1.0167    103.4474
    12.2500      0.0000   1170.0000      1.0199    101.9577
    12.5000      0.0000   1170.0000      1.0183    101.6141
    12.7500      0.0000   1170.0000      1.0150    101.1190
    13.0000      0.0000   1170.0000      1.0144    100.2286
    13.2500      0.0000   1170.0000      1.0186     99.9910
    13.5000      0.0000   1170.0000      1.0266    101.2458
    13.7500      0.0000   1170.0000      1.0342    103.2503
    14.0000      0.0000   1170.0000      1.0375    104.1053
    14.2500      0.0000   1170.0000      1.0348    102.4493
    14.5000      0.0000   1170.0000      1.0284     98.6038
    14.7500      0.0000   1170.0000      1.0228     94.2617
    15.0000      0.0000   1170.0000      1.0216     91.2820
    15.2500      0.0000   1170.0000      1.0246     90.7032
    15.5000      0.0000   1170.0000      1.0286     92.5403
    15.7500      0.0000   1170.0000      1.0313     95.9536
    16.0000      0.0000   1170.0000      1.0332     99.2876
    16.2500      0.0000   1170.0000      1.0354    100.4167
    16.5000      0.0000   1170.0000      1.0373     97.9086
    16.7500      0.0000   1170.0000      1.0374     92.2138
    17.0000      0.0000   1170.0000      1.0362     85.5174
    17.2500      0.0000   1170.0000      1.0358     80.1653
    17.5000      0.0000   1170.0000      1.0379     77.1203
    17.7500      0.0000   1170.0000      1.0416     75.9068
    18.0000      0.0000   1170.0000      1.0445     75.9220
    18.2500      0.0000   1170.0000      1.0448     77.2294
    18.5000      0.0000   1170.0000      1.0429     79.6358
    18.7500      0.0000   1170.0000      1.0407     81.6710
    19.0000      0.0000   1170.0000      1.0404     81.7469
    19.2500      0.0000   1170.0000      1.0416     80.3465
    19.5000      0.0000   1170.0000      1.0419     79.8081
    19.7500      0.0000   1170.0000      1.0399     81.5234
    20.0000      0.0000   1170.0000      1.0362     84.4211
    20.2500      0.0000   1170.0000      1.0334     86.6854
    20.5000      0.0000   1170.0000      1.0333     88.0256
    20.7500      0.0000   1170.0000      1.0360     89.5436
    21.0000      0.0000   1170.0000      1.0389     91.7548
    21.2500      0.0000   1170.0000      1.0386     93.2936
    21.5000      0.0000   1170.0000      1.0327     91.8335
    21.7500      0.0000   1170.0000      1.0215     86.4508
    22.0000      0.0000   1170.0000      1.0086     78.9917
    22.2500      0.0000   1170.0000      0.9992     72.7306
    22.5000      0.0000   1170.0000      0.9983     69.6304
    22.7500      0.0000   1170.0000      1.0073     69.2536
    23.0000      0.0000   1170.0000      1.0235     70.2601
