~Version Information
VERS.                      2.0: CWLS Log ASCII Standard - VERSION 2.0
WRAP.                       NO: One line per depth step
~Well Information Block
STRT.FT               330.0000: 
STOP.FT              2874.7000: 
STEP.FT                 0.1000: 
NULL.                -999.2500: 
COMP.          Pioneer Natural Resources: COMPANY
WELL.                AMX 13-13: WELL
FLD.           Purgatoire River: FIELD
LOC.           2316' FSL & 865' FWL--: LOCATION
PROV.                 Colorado: PROVINCE
CNTY.               Las Animas: COUNTRY
SRVC.                Patterson: SERVICE COMPANY
DATE.          Tue Dec 20 09:57:28 2005: LOG DATE
UWI.           05 071 08630 00: UNIQUE WELL ID
~Curve Information Block
DEPT.FT            0 000 00 00: Depth
DCAL.in                       : CDL Caliper
RHOB.g/cc                     : CDL Bulk Density
RHOC.g/cc                     : CDL Density Correction
DPOR.pu                       : CDL Density Porosity
NPOR.pu                       : Neutron Porosity
GR.GAPI                       : Gamma Ray
~Parameter Information Block
~A  Depth       DCAL        RHOB        RHOC        DPOR        NPOR         GR     
# ...
  2346.0000      7.9853      2.4775      0.0804     10.4524     14.6093     68.6439
  2346.1000      7.9853      2.4685      0.0746     10.9988     14.7521     66.0778
  2346.2000      7.9853      2.4591      0.0368     11.5718     14.6683     61.9378
  2346.3000      7.9743      2.4615      0.0367     11.4233     14.4032     55.0717
  2346.4000      7.9743      2.4706      0.0586     10.8721     14.3212     50.3859
  2346.5000      7.9697      2.4771      0.0496     10.4808     14.6392     51.1719
  2346.6000      7.9697      2.4812      0.0723     10.2308     15.1659     52.3002
  2346.7000      7.9697      2.4798      0.1027     10.3154     15.1363     52.2733
  2346.8000      7.9765      2.4752      0.0525     10.5910     14.4512     54.7179
  2346.9000      7.9765      2.4808      0.0582     10.2564     14.0412     58.1765
  2347.0000      7.9888      2.4926      0.0908      9.5366     14.2457     60.2047
  2347.1000      7.9888      2.4929      0.0705      9.5187     14.6602     62.8414
  2347.2000      7.9888      2.4823      0.0235     10.1648     14.8438     64.7855
  2347.3000      7.9967      2.4769      0.0337     10.4928     14.5817     62.9595
  2347.4000      7.9967      2.4794      0.0614     10.3413     14.0798     59.1021
  2347.5000      7.9979      2.4828      0.0490     10.1357     14.2475     55.9534
  2347.6000      7.9979      2.4912      0.0094      9.6260     15.4633     53.2954
  2347.7000      7.9979      2.5041      0.0868      8.8433     16.4754     51.3121
  2347.8000      7.9974      2.5102      0.0576      8.4727     16.2954     52.1082
  2347.9000      7.9974      2.5126      0.0426      8.3258     15.6511     56.9199
  2348.0000      7.9982      2.5207      0.0617      7.8365     15.3335     63.2614
  2348.1000      7.9982      2.5309      0.0675      7.2192     15.2183     66.4408
  2348.2000      7.9982      2.5360      0.0596      6.9094     15.1471     66.4585
  2348.3000      7.9991      2.5376      0.0514      6.8093     15.2640     69.0458
  2348.4000      7.9991      2.5427      0.0280      6.5032     15.6364     74.1083
  2348.5000      7.9978      2.5475      0.0761      6.2100     16.1552     75.4554
  2348.6000      7.9978      2.5421      0.0385      6.5381     16.4067     74.5502
  2348.7000      7.9978      2.5344      0.0361      7.0072     16.0603     76.7882
  2348.8000      7.9945      2.5345      0.0572      6.9997     15.5318     78.6004
  2348.9000      7.9945      2.5346      0.0321      6.9948     15.5607     75.6235
  2349.0000      7.9875      2.5284      0.0341      7.3679     16.0451     70.9619
  2349.1000      7.9875      2.5246      0.0119      7.6020     16.3102     67.1821
  2349.2000      7.9875      2.5283      0.0525      7.3740     16.0428     64.8017
  2349.3000      7.9773      2.5280      0.0431      7.3930     15.3380     63.3188
  2349.4000      7.9773      2.5177      0.0265      8.0197     14.7587     62.2980
  2349.5000      7.9704      2.5018      0.0707      8.9828     14.5837     62.9873
  2349.6000      7.9704      2.4858      0.0361      9.9528     14.5321     65.2806
  2349.7000      7.9704      2.4738      0.0638     10.6815     14.3768     67.2534
  2349.8000      7.9681      2.4612      0.0292     11.4436     13.8899     67.7534
  2349.9000      7.9681      2.4506      0.0146     12.0876     13.2642     66.4841
  2350.0000      7.9674      2.4498      0.0189     12.1306     13.2174     62.3788
  2350.1000      7.9674      2.4518      0.0507     12.0150     13.8023     56.3586
  2350.2000      7.9674      2.4521      0.0257     11.9914     14.2018     53.7462
  2350.3000      7.9689      2.4565      0.0520     11.7272     13.8426     54.6483
  2350.4000      7.9689      2.4607      0.0517     11.4754     13.1315     53.1849
  2350.5000      7.9708      2.4583      0.1009     11.6209     12.8808     48.9740
  2350.6000      7.9708      2.4558      0.0327     11.7708     13.2063     44.9501
  2350.7000      7.9708      2.4635      0.0732     11.3050     13.6696     41.9818
  2350.8000      7.9703      2.4764      0.0505     10.5204     14.2735     39.5475
  2350.9000      7.9703      2.4864      0.0719      9.9127     15.3386     39.5142
  2351.0000      7.9687      2.4877      0.0778      9.8346     16.4149     44.6482
  2351.1000      7.9687      2.4842      0.0324     10.0480     16.7758     52.2863
  2351.2000      7.9687      2.4901      0.0727      9.6931     16.6760     56.6030
  2351.3000      7.9661      2.5027      0.0922      8.9246     16.6844     56.2486
  2351.4000      7.9661      2.5101      0.0529      8.4812     16.6692     54.3821
  2351.5000      7.9654      2.5131      0.0560      8.3000     16.3646     53.1324
  2351.6000      7.9654      2.5181      0.0532      7.9915     16.0407     54.8605
  2351.7000      7.9654      2.5261      0.0936      7.5090     15.7528     61.1687
  2351.8000      7.9675      2.5276      0.1017      7.4188     15.4693     67.7769
  2351.9000      7.9675      2.5123      0.0640      8.3446     15.3880     69.4112
  2352.0000      7.9677      2.4814      0.0515     10.2154     15.5706     65.9289
  2352.1000      7.9677      2.4489      0.0150     12.1852     15.7803     60.7224
  2352.2000      7.9677      2.4345      0.0224     13.0590     15.6993     56.3102
  2352.3000      7.9674      2.4410      0.0435     12.6646     15.2981     53.5661
  2352.4000      7.9674      2.4521      0.0357     11.9921     14.8252     52.2628
  2352.5000      7.9692      2.4566      0.0655     11.7217     14.6366     52.5574
  2352.6000      7.9692      2.4513      0.0664     12.0421     14.8406     55.0009
  2352.7000      7.9692      2.4411      0.0424     12.6586     14.9764     56.9786
  2352.8000      7.9695      2.4399      0.0217     12.7351     14.5910     55.4569
  2352.9000      7.9695      2.4482      0.0794     12.2319     14.0280     54.5529
  2353.0000      7.9677      2.4469      0.0951     12.3116     13.7462     57.4345
  2353.1000      7.9677      2.4260      0.0550     13.5762     13.5654     57.8309
  2353.2000      7.9677      2.4039      0.0015     14.9146     13.3728     52.5090
  2353.3000      7.9671      2.4041      0.0158     14.9013     13.4373     47.4729
  2353.4000      7.9671      2.4213      0.0555     13.8618     13.6610     46.7348
  2353.5000      7.9689      2.4314      0.0576     13.2476     13.5354     47.3970
  2353.6000      7.9689      2.4283      0.0147     13.4336     13.1019     45.8171
  2353.7000      7.9689      2.4226      0.0541     13.7814     12.8159     41.7493
  2353.8000      7.9738      2.4217      0.0388     13.8336     12.7960     38.0800
  2353.9000      7.9738      2.4337      0.0378     13.1095     13.2105     37.1376
  2354.0000      7.9795      2.4587      0.0600     11.5932     14.1545     37.4519
  2354.1000      7.9795      2.4775      0.0910     10.4562     14.9811     38.1148
  2354.2000      7.9795      2.4723      0.0990     10.7670     15.1936     40.5316
  2354.3000      7.9818      2.4516      0.0490     12.0243     15.2801     44.0511
  2354.4000      7.9818      2.4447      0.0215     12.4426     15.6843     47.7303
  2354.5000      7.9811      2.4665      0.0565     11.1228     16.2199     52.0741
  2354.6000      7.9811      2.5037      0.0665      8.8660     16.7328     56.7280
  2354.7000      7.9811      2.5445      0.0905      6.3916     17.2988     63.6526
  2354.8000      7.9792      2.5855      0.1246      3.9097     18.0114     75.4541
  2354.9000      7.9792      2.6157      0.1606      2.0799     18.8054     89.8171
  2355.0000      7.9784      2.6246      0.1298      1.5408     19.4736    102.7821
  2355.1000      7.9784      2.6165      0.1014      2.0320     19.9243    110.0754
  2355.2000      7.9784      2.6070      0.0411      2.6033     20.0765    107.6729
  2355.3000      7.9797      2.6057      0.0725      2.6869     19.8862     99.4032
  2355.4000      7.9797      2.6015      0.0869      2.9384     19.5204     95.3831
  2355.5000      7.9795      2.5867      0.0797      3.8344     19.3595     98.6018
