~Version Information
VERS.                      2.0: CWLS Log ASCII Standard - VERSION 2.0
WRAP.                       NO: One line per depth step
~Well Information Block
STRT.FT                -6.7500: 
STOP.FT              2034.2500: 
STEP.FT                 0.2500: 
NULL.                -999.2500: 
COMP.          Evergreen Operating Corp.: COMPANY
WELL.           Big Pine 32-15: WELL
FLD.           Purgatorie River: FIELD
LOC.           2590 FNL & 1442 FEL--: LOCATION
STAT.                       CO: State
CNTY.               Las Animas: COUNTY
CTRY. USA : Country
SECT. 15 : Section
TOWN. 33S : township
RANG. 67W : Range
SRVC.          Patterson Wireline, Inc.: SERVICE COMPANY
DATE.          Mon Mar 24 12:45:01 2003: LOG DATE
API.           05 071 07772 00: UNIQUE WELL ID
~Curve Information Block
DEPT.FT            0 000 00 00: Depth
HVOLTA.V                      : Head Voltage Apparent
CCL.                          : Casing Collar Locator
TT3.usec                      : CBL 3' Travel Time
AMP3.mV                       : CBL 3' Amplitude
GR.GAPI                       : Gamma Ray
~Parameter Information Block
~A  Depth      HVOLTA       CCL         TT3         AMP3         GR     
# ...
  1477.2500    121.4566      0.0000    699.6367      3.6573     92.0304
  1477.5000    121.4861      0.0000    700.2664      3.4467     95.1824
  1477.7500    121.5383      0.0000    700.3868      3.3437     95.5249
  1478.0000    121.4902      0.0000    700.2799      3.4240     91.7306
  1478.2500    121.4339      0.0000    699.5268      3.5548     84.3699
  1478.5000    121.3811      0.0000    697.2658      3.5853     75.2841
  1478.7500    121.6509      0.0000    693.3009      3.5730     66.6951
  1479.0000    121.4003      0.0000    689.7582      3.6053     60.6373
  1479.2500    121.4319      0.0000    689.7346      3.6525     58.5342
  1479.5000    121.3255      0.0000    693.3134      3.6643     60.9956
  1479.7500    121.4868      0.0000    697.4445      3.6703     67.9159
  1480.0000    121.4580      0.0000    699.8967      3.7571     78.5363
  1480.2500    121.6214      0.0000    700.8104      3.9101     91.4623
  1480.5000    121.5431      0.0000    701.1208      4.0251    105.0222
  1480.7500    121.3536      0.0000    701.3641      4.0591    117.8248
  1481.0000    121.4882      0.0000    701.6342      4.0315    128.9482
  1481.2500    121.4388      0.0000    701.8558      3.9671    137.8892
  1481.5000    121.4044      0.0000    702.0077      3.9228    144.7351
  1481.7500    121.3783      0.0000    702.1813      3.9892    150.2033
  1482.0000    121.5157      0.0000    702.4742      4.1214    154.8848
  1482.2500    121.4600      0.0000    702.8384      4.1531    158.3744
  1482.5000    121.5143      0.0000    703.0779      4.0190    159.7787
  1482.7500    121.5417      0.0000    703.0741      3.8310    159.2122
  1483.0000    121.5170      0.0000    702.9597      3.7674    158.1038
  1483.2500    121.4305      0.0000    702.9913      3.8417    157.7631
  1483.5000    121.6564      0.0000    703.2637      3.9016    158.0896
  1483.7500    121.4909      0.0000    703.7429      3.8228    157.8696
  1484.0000    121.4834      0.0000    704.9067      3.5808    156.0448
  1484.2500    121.5713      0.0000    707.8601      3.2975    152.7114
  1484.5000    121.5713      0.0000    712.4339      3.1828    149.0864
  1484.7500    121.5974      0.0000    716.2523      3.3080    146.4910
  1485.0000    121.4813      0.0000    718.8855      3.5171    145.3467
  1485.2500    121.5754      0.0000    723.8125      3.6770    145.2672
  1485.5000    121.4628      0.0000    732.0488      3.7874    145.9809
  1485.7500    121.6269      0.0000    739.4459      3.7918    147.8320
  1486.0000    121.4909      0.0000    742.3392      3.6504    151.1104
  1486.2500    121.8617      0.0000    740.3522      3.4923    155.1295
  1486.5000    121.4065      0.0000    735.0564      3.4318    158.4535
  1486.7500    121.3268      0.0000    728.8170      3.3847    160.0333
  1487.0000    121.5692      0.0000    722.3053      3.2182    159.8147
  1487.2500    121.5459      0.0000    714.9543      2.9950    158.3672
  1487.5000    121.5452      0.0000    709.0356      2.9176    156.3053
  1487.7500    121.5150      0.0000    706.7586      3.0631    154.2596
  1488.0000    121.3804      0.0000    706.4883      3.2668    153.0946
  1488.2500    121.5431      0.0000    707.6965      3.3373    153.5892
  1488.5000    121.5184      0.0000    712.0728      3.2522    155.6536
  1488.7500    121.4621      0.0000    718.7746      3.1096    158.0135
  1489.0000    121.4834      0.0000    725.2612      3.0416    158.7348
  1489.2500    121.4264      0.0000    730.3333      3.1070    156.0748
  1489.5000    121.4868      0.0000    734.2634      3.2445    149.2210
  1489.7500    121.4923      0.0000    737.2318      3.3343    138.9880
  1490.0000    121.5493      0.0000    737.7661      3.3039    128.2172
  1490.2500    121.5754      0.0000    734.6013      3.1699    120.9491
  1490.5000    121.4916      0.0000    729.7337      2.9832    120.0497
  1490.7500    121.6015      0.0000    727.0457      2.8304    125.1904
  1491.0000    121.5747      0.0000    728.0818      2.8188    133.4712
  1491.2500    121.5981      0.0000    731.2652      2.9712    142.0102
  1491.5000    121.6544      0.0000    735.0394      3.1929    149.4830
  1491.7500    121.4381      0.0000    739.0073      3.3900    155.3487
  1492.0000    121.4923      0.0000    742.3434      3.5103    158.6533
  1492.2500    121.5136      0.0000    744.1761      3.5173    158.5653
  1492.5000    121.4326      0.0000    744.7372      3.4207    155.9760
  1492.7500    121.3811      0.0000    744.7208      3.2526    153.6967
  1493.0000    121.4065      0.0000    744.3543      3.0753    154.5531
  1493.2500    121.5205      0.0000    742.8694      2.9966    159.3460
  1493.5000    121.5699      0.0000    738.4471      3.0405    166.5575
  1493.7500    121.5981      0.0000    730.2542      3.0644    173.4789
  1494.0000    121.3859      0.0000    720.9349      2.9918    177.3799
  1494.2500    121.5692      0.0000    713.3278      2.9784    176.4803
  1494.5000    121.4848      0.0000    705.3534      3.1537    170.9506
  1494.7500    121.5987      0.0000    694.6783      3.4381    163.0236
  1495.0000    121.6241      0.0000    684.9969      3.7140    155.3808
  1495.2500    121.6276      0.0000    681.4585      3.9335    149.1566
  1495.5000    121.5981      0.0000    684.5979      4.0645    143.6253
  1495.7500    121.5472      0.0000    690.8063      4.0835    137.7656
  1496.0000    121.6262      0.0000    695.9818      4.0017    131.8435
  1496.2500    121.5754      0.0000    698.5734      3.8890    127.3516
  1496.5000    121.6564      0.0000    699.1354      3.8245    125.6120
  1496.7500    121.6228      0.0000    698.1769      3.8423    126.7117
  1497.0000    121.5486      0.0000    696.2654      3.9507    129.8749
  1497.2500    121.6544      0.0000    694.8792      4.1566    134.6155
  1497.5000    121.5472      0.0000    694.7313      4.4710    141.0631
  1497.7500    121.6496      0.0000    694.9093      4.8662    148.8604
  1498.0000    121.4360      0.0000    695.4920      5.2498    156.1146
  1498.2500    121.4635      0.0000    697.4970      5.5503    160.1923
  1498.5000    121.4889      0.0000    700.1311      5.7804    159.5396
  1498.7500    121.4381      0.0000    701.7835      6.0002    154.2350
  1499.0000    121.5493      0.0000    702.2359      6.1967    145.0904
  1499.2500    121.5466      0.0000    702.3125      6.2201    133.0522
  1499.5000    121.4291      0.0000    703.0983      5.9405    119.4108
  1499.7500    121.4374      0.0000    705.3824      5.3973    105.8903
  1500.0000    121.4099      0.0000    707.9510      4.7765     94.2555
  1500.2500    121.5397      0.0000    707.5426      4.3559     86.0034
  1500.5000    121.6008      0.0000    703.3677      4.3094     82.3641
  1500.7500    121.7065      0.0000    698.5726      4.5278     84.3780
  1501.0000    121.4566      0.0000    695.6138      4.7666     92.8983
  1501.2500    121.6537      0.0000    695.1714      4.8675    108.3630
  1501.5000    121.6317      0.0000    697.2960      4.7473    130.0605
  1501.7500    121.5157      0.0000    700.6026      4.4098    155.2442
  1502.0000    121.5740      0.0000    703.9290      4.0511    179.4023
  1502.2500    121.6832      0.0000    708.1122      3.8641    198.2041
  1502.5000    121.6818      0.0000    713.3804      3.8654    209.5289
  1502.7500    121.5987      0.0000    717.2962      4.0852    213.7667
  1503.0000    121.4648      0.0000    718.7441      4.5704    212.6970
  1503.2500    121.6001      0.0000    720.4595      5.1529    208.3723
  1503.5000    121.6818      0.0000    724.4739      5.5742    202.4372
  1503.7500    121.4374      0.0000    730.4753      5.8390    195.8542
  1504.0000    121.4085      0.0000    737.6949      6.1799    189.2880
  1504.2500    121.7107      0.0000    744.0967      6.6620    183.8046
  1504.5000    121.5438      0.0000    747.4639      7.0742    180.7766
  1504.7500    121.4099      0.0000    747.3405      7.3173    180.7838
  1505.0000    121.4484      0.0000    743.8922      7.6303    182.7793
