~Version Information
VERS.                      2.0: CWLS Log ASCII Standard - VERSION 2.0
WRAP.                       NO: One line per depth step
~Well Information Block
STRT.FT               260.0000: 
STOP.FT              1229.5000: 
STEP.FT                 0.1000: 
NULL.                -999.2500: 
COMP.          Pioneer Natural Resources: COMPANY
WELL.             Mahalo 12-20: WELL
FLD.           Purgatoire River: FIELD
LOC.           1689' FNL & 479' FWL: LOCATION
CNTY.               Las Animas: COUNTY
SRVC.                Patterson: SERVICE COMPANY
DATE.          Mon Feb 27 07:00:19 2006: LOG DATE
UWI.           05 071 08700 00: UNIQUE WELL ID
STAT.                 Colorado: STATE
~Curve Information Block
DEPT.FT            0 000 00 00: Depth
DCAL.in                       : CDL Caliper
RHOB.g/cc                     : CDL Bulk Density
RHOC.g/cc                     : CDL Density Correction
DPOR.pu                       : CDL Density Porosity
GR.GAPI                       : Gamma Ray
NPOR.pu                       : Neutron Porosity
~Parameter Information Block
~A  Depth       DCAL        RHOB        RHOC        DPOR         GR         NPOR    
# ...
   452.0000      7.8297      2.5681      0.0787      4.9650    136.2033     25.2157
   452.1000      7.8297      2.5755      0.0634      4.5152    138.0199     25.5287
   452.2000      7.8297      2.5518      0.0129      5.9494    133.2685     25.0219
   452.3000      7.8282      2.5119      0.0260      8.3674    124.5767     24.1258
   452.4000      7.8282      2.4842     -0.1174     10.0484    115.0198     23.5123
   452.5000      7.8284      2.4869     -0.0253      9.8842    109.7074     23.0462
   452.6000      7.8284      2.5091      0.0119      8.5414    113.0254     22.5510
   452.7000      7.8284      2.5328      0.0410      7.1025    117.5542     22.5402
   452.8000      7.8192      2.5550      0.0355      5.7574    115.2041     22.9064
   452.9000      7.8192      2.5739      0.0630      4.6120    111.8140     22.8868
   453.0000      7.8216      2.5850      0.0574      3.9365    110.7403     22.4574
   453.1000      7.8216      2.5928      0.0414      3.4660    106.5393     22.0921
   453.2000      7.8216      2.5981      0.0769      3.1427    100.4562     21.8956
   453.3000      7.8224      2.5933      0.0580      3.4344     99.1185     21.7474
   453.4000      7.8224      2.5772      0.0483      4.4098    103.3712     21.2623
   453.5000      7.8211      2.5575      0.0025      5.6057    107.4840     20.2497
   453.6000      7.8211      2.5498      0.0017      6.0699    107.6289     19.0962
   453.7000      7.8211      2.5603      0.0376      5.4376    106.4426     18.2088
   453.8000      7.8307      2.5676      0.0530      4.9917    106.7544     18.1114
   453.9000      7.8307      2.5508      0.0180      6.0135    105.0460     18.7890
   454.0000      7.8344      2.5186     -0.0020      7.9661     97.6862     19.2145
   454.1000      7.8344      2.4935     -0.0286      9.4861     88.8737     18.7628
   454.2000      7.8344      2.4827      0.0198     10.1387     82.4887     18.0950
   454.3000      7.8332      2.4773      0.0242     10.4648     76.9509     17.8770
   454.4000      7.8332      2.4713     -0.0184     10.8301     71.9661     17.7841
   454.5000      7.8305      2.4713     -0.0071     10.8308     69.0644     17.5682
   454.6000      7.8305      2.4811      0.0262     10.2354     66.5258     17.2150
   454.7000      7.8305      2.4829      0.0757     10.1266     62.3844     16.5854
   454.8000      7.8235      2.4644      0.0237     11.2497     59.9013     16.0697
   454.9000      7.8235      2.4460      0.0189     12.3627     60.7908     16.2422
   455.0000      7.8242      2.4488      0.0419     12.1910     61.1419     16.6235
   455.1000      7.8242      2.4674      0.0524     11.0681     59.1475     16.4559
   455.2000      7.8242      2.4830      0.0574     10.1239     57.8051     15.8234
   455.3000      7.8264      2.4842      0.0895     10.0505     57.9660     15.1529
   455.4000      7.8264      2.4749      0.0668     10.6138     56.6294     14.9330
   455.5000      7.8276      2.4770      0.0554     10.4864     54.1189     15.1729
   455.6000      7.8276      2.5064      0.0869      8.7004     54.7767     15.1295
   455.7000      7.8276      2.5406      0.1249      6.6279     59.6751     14.5529
   455.8000      7.8329      2.5498      0.1068      6.0757     63.5840     14.0722
   455.9000      7.8329      2.5367      0.0954      6.8638     60.6433     14.1948
   456.0000      7.8353      2.5161      0.0721      8.1134     54.1771     14.9502
   456.1000      7.8353      2.5003      0.0218      9.0737     51.5730     15.5485
   456.2000      7.8353      2.5007      0.0312      9.0496     52.5652     15.3001
   456.3000      7.8318      2.5111      0.0629      8.4199     53.8853     14.6668
   456.4000      7.8318      2.5157      0.0442      8.1403     54.2886     14.0650
   456.5000      7.8322      2.5156      0.0442      8.1475     52.4330     13.6242
   456.6000      7.8322      2.5192      0.0558      7.9244     50.2909     13.4878
   456.7000      7.8322      2.5218      0.0652      7.7707     52.0663     13.6152
   456.8000      7.8318      2.5162      0.0525      8.1078     57.7081     13.9143
   456.9000      7.8318      2.5107      0.0067      8.4429     61.5023     14.5510
   457.0000      7.8327      2.5148      0.0191      8.1955     58.7359     15.8559
   457.1000      7.8327      2.5289     -0.0014      7.3405     50.8628     17.5418
   457.2000      7.8327      2.5444      0.0631      6.3997     43.7532     18.6707
   457.3000      7.8329      2.5463      0.0427      6.2849     40.8267     18.7948
   457.4000      7.8329      2.5351      0.0186      6.9655     39.6451     18.2765
   457.5000      7.8333      2.5258      0.0157      7.5278     38.7643     17.7626
   457.6000      7.8333      2.5249     -0.0045      7.5841     39.8571     17.5990
   457.7000      7.8333      2.5300     -0.0235      7.2751     41.1979     17.8282
   457.8000      7.8340      2.5368      0.0114      6.8616     41.9025     17.9306
   457.9000      7.8340      2.5402     -0.0047      6.6523     46.6708     17.2431
   458.0000      7.8338      2.5404     -0.0278      6.6409     53.7235     16.0848
   458.1000      7.8338      2.5375      0.0107      6.8185     54.5325     14.9668
   458.2000      7.8338      2.5298     -0.0331      7.2871     50.7024     14.2624
   458.3000      7.8322      2.5189     -0.0222      7.9454     49.3088     14.1386
   458.4000      7.8322      2.5098     -0.0305      8.4987     50.2955     14.0357
   458.5000      7.8343      2.5100     -0.0226      8.4847     50.7139     13.5869
   458.6000      7.8343      2.5210      0.0028      7.8157     52.3523     13.1561
   458.7000      7.8343      2.5288     -0.0117      7.3468     56.9520     13.0702
   458.8000      7.8327      2.5189      0.0318      7.9436     61.6020     13.2793
   458.9000      7.8327      2.5037     -0.0176      8.8661     63.5263     13.3902
   459.0000      7.8350      2.5069      0.0015      8.6702     62.4082     13.2146
   459.1000      7.8350      2.5198      0.0362      7.8915     60.1337     13.2420
   459.2000      7.8350      2.5172      0.0492      8.0479     59.9135     13.9201
   459.3000      7.8328      2.4968     -0.0011      9.2846     62.7492     15.0307
   459.4000      7.8328      2.4722      0.0018     10.7747     66.4135     16.1556
   459.5000      7.8329      2.4538     -0.0978     11.8914     67.4373     17.1911
   459.6000      7.8329      2.4466     -0.0317     12.3245     65.3099     18.0116
   459.7000      7.8329      2.4482     -0.0197     12.2312     62.6704     18.2587
   459.8000      7.8360      2.4594     -0.0177     11.5504     61.8076     18.0191
   459.9000      7.8360      2.4829      0.0172     10.1303     61.9131     17.8482
   460.0000      7.8491      2.5079      0.0343      8.6105     62.8796     18.1322
   460.1000      7.8491      2.5218      0.0723      7.7712     64.0319     18.7006
   460.2000      7.8491      2.5255      0.0367      7.5474     63.3701     19.1747
   460.3000      7.8352      2.5242      0.0708      7.6251     63.0577     19.4968
   460.4000      7.8352      2.5171      0.0261      8.0520     64.6859     19.7648
   460.5000      7.8341      2.5087      0.0407      8.5664     64.8697     19.6661
   460.6000      7.8341      2.5019      0.0602      8.9773     62.7914     18.7753
   460.7000      7.8341      2.5002     -0.0240      9.0802     62.4395     17.6849
   460.8000      7.8353      2.5100      0.0069      8.4835     66.7932     17.2236
   460.9000      7.8353      2.5212      0.0285      7.8035     72.9408     17.3747
   461.0000      7.8332      2.5237     -0.0041      7.6518     75.1238     17.8589
   461.1000      7.8332      2.5276     -0.0089      7.4188     73.0427     18.3492
   461.2000      7.8332      2.5396      0.0365      6.6909     74.9985     18.6480
   461.3000      7.8329      2.5560      0.0085      5.6953     83.8315     19.2118
   461.4000      7.8329      2.5748      0.0541      4.5583     91.3463     20.4180
   461.5000      7.8332      2.5821      0.0829      4.1145     96.0549     21.4796
