~Version Information
VERS.                      2.0: CWLS Log ASCII Standard - VERSION 2.0
WRAP.                       NO: One line per depth step
~Well Information Block
STRT.FT               745.0000: 
STOP.FT              1985.0000: 
STEP.FT                 0.1000: 
NULL.                -999.2500: 
COMP.          Pioneer Natural Resources: COMPANY
WELL.          Lorencito 15-36-33-67: WELL
FLD.           Purgatoire River: FIELD
LOC.           38' FSL & 1446' FEL: LOCATION
STAT.                 Colorado: State
CNTY.               Las Animas: COUNTY
CTRY. USA : Country
SECT. 36 : Section
TOWN. 33S : Township
RANG. 67W : Range
SRVC.                Patterson: SERVICE COMPANY
DATE.          Thu Oct 13 10:16:17 2005: LOG DATE
API.           05 071 08515 00: UNIQUE WELL ID
~Curve Information Block
DEPT.FT            0 000 00 00: Depth
DCAL.in                       : CDL Caliper
RHOB.g/cc                     : CDL Bulk Density
RHOC.g/cc                     : CDL Density Correction
DPOR.pu                       : CDL Density Porosity
GR.GAPI                       : Gamma Ray
NPOR.pu                       : Neutron Porosity
~Parameter Information Block
~A  Depth       DCAL        RHOB        RHOC        DPOR         GR         NPOR    
   745.0000      3.6259      2.2925      0.0967     21.6694     92.4403     17.0971
   745.1000      3.6259      2.2949      0.1044     21.5213     81.5695     17.0546
   745.2000      3.6259      2.2784      0.1178     22.5195     75.7054     16.9083
   745.3000      3.6211      2.2472      0.0554     24.4098     79.5314     16.9706
   745.4000      3.6211      2.2188      0.0377     26.1314     89.3408     17.3603
   745.5000      3.6201      2.2034      0.0278     27.0650     96.6040     17.6417
   745.6000      3.6201      2.1924      0.1078     27.7335     97.7879     17.4652
   745.7000      3.6201      2.1842      0.0156     28.2298     99.3549     16.9189
   745.8000      3.6258      2.1958      0.0383     27.5288    103.0796     16.4239
   745.9000      3.6258      2.2316      0.0529     25.3577    101.0383     16.4351
   746.0000      3.6321      2.2718      0.1322     22.9197     91.1519     17.1383
   746.1000      3.6321      2.2885      0.1464     21.9070     80.1454     18.0333
   746.2000      3.6321      2.2777      0.0936     22.5620     74.8940     18.5684
   746.3000      3.6242      2.2600      0.1239     23.6362     76.1832     18.7950
   746.4000      3.6242      2.2499      0.1061     24.2483     79.4050     18.7306
   746.5000      3.6196      2.2536      0.0639     24.0243     81.5634     18.5700
   746.6000      3.6196      2.2688      0.1350     23.1058     81.1088     18.4675
   746.7000      3.6196      2.2826      0.0975     22.2665     80.5402     18.2026
   746.8000      3.6232      2.2940      0.0831     21.5788     83.2629     17.5999
   746.9000      3.6232      2.3091      0.1011     20.6601     84.7552     16.9685
   747.0000      3.6239      2.3215      0.1242     19.9070     83.3511     16.8883
   747.1000      3.6239      2.3257      0.1109     19.6568     82.3452     17.5861
   747.2000      3.6239      2.3267      0.0979     19.5924     80.6699     18.5399
   747.3000      3.6204      2.3266      0.0931     19.5986     78.8676     18.9211
   747.4000      3.6204      2.3256      0.0886     19.6596     77.5945     18.4312
   747.5000      3.6350      2.3253      0.0986     19.6773     70.6282     17.7817
   747.6000      3.6350      2.3268      0.1040     19.5869     58.7198     17.6748
   747.7000      3.6350      2.3286      0.1103     19.4789     54.3405     17.9796
   747.8000      3.6286      2.3236      0.1235     19.7809     59.5259     18.0509
   747.9000      3.6286      2.3091      0.1139     20.6614     64.0319     17.7425
   748.0000      3.6274      2.2905      0.0932     21.7893     66.4376     17.6917
   748.1000      3.6274      2.2742      0.0643     22.7770     72.0442     18.0974
   748.2000      3.6274      2.2637      0.1031     23.4110     76.8929     18.4755
   748.3000      3.6297      2.2599      0.1035     23.6418     75.6064     18.6379
   748.4000      3.6297      2.2625      0.1384     23.4851     72.5388     18.6120
   748.5000      3.6329      2.2709      0.0812     22.9761     71.0117     18.1504
   748.6000      3.6329      2.2803      0.1032     22.4053     66.7602     17.5804
   748.7000      3.6329      2.2721      0.0943     22.9051     57.6488     17.4093
   748.8000      3.6307      2.2110      0.1339     26.6073     48.5289     17.3834
   748.9000      3.6307      2.0491      0.1357     36.4194     45.6519     17.3036
   749.0000      3.6339      1.7706      0.0215     53.2947     49.9438     17.3804
   749.1000      3.6339      1.4329     -0.1001     73.7613     54.7851     17.5070
   749.2000      3.6339      1.1156     -0.1607     92.9913     54.2099     17.5370
   749.3000      3.6810      0.8692     -0.2208    107.9264     51.4621     17.4600
   749.4000      3.6810      0.7345     -0.2852    116.0936     51.6120     17.2718
   749.5000      3.7261      0.7396     -0.1992    115.7823     54.2056     17.1910
   749.6000      3.7261      0.8383      0.1616    109.7999     57.1091     17.4294
   749.7000      3.7261      0.9161      0.3056    105.0877     59.4873     17.8218
   749.8000      3.7241      0.8931      0.2676    106.4778     59.6660     17.8547
   749.9000      3.7241      0.7727      0.0933    113.7776     56.0237     17.1977
   750.0000      3.7055      0.6007     -0.0950    124.2005     52.8132     16.4431
   750.1000      3.7055      0.4236     -0.3094    134.9331     54.2642     16.1174
   750.2000      3.7055      0.2755     -0.4629    143.9063     48.7122     15.8902
   750.3000      3.6787      0.1701     -0.5669    150.2963     47.7539     15.2707
   750.4000      3.6787      0.0947     -0.5755    154.8680     49.0186     14.4945
   750.5000      3.6947      0.0320     -0.6885    158.6675     53.7598     14.4043
   750.6000      3.6947     -0.0149     -0.7430    161.5113     54.2017     15.0606
   750.7000      3.6947     -0.0381     -0.7522    162.9166     48.0571     15.7820
   750.8000      3.6994     -0.0406     -0.7595    163.0657     40.8365     16.1798
   750.9000      3.6994     -0.0271     -0.7572    162.2471     36.9991     16.3518
   751.0000      3.6908     -0.0019     -0.7200    160.7233     38.2688     16.5819
   751.1000      3.6908      0.0272     -0.7005    158.9573     41.8988     16.9345
   751.2000      3.6908      0.0603     -0.7234    156.9489     38.5102     17.3290
   751.3000      3.7111      0.1067     -0.6677    154.1371     37.2387     17.7147
   751.4000      3.7111      0.1693     -0.5975    150.3458     34.6985     17.8721
   751.5000      3.7184      0.2488     -0.6044    145.5262     33.1301     17.7397
   751.6000      3.7184      0.3491     -0.4987    139.4511     34.6343     17.3888
   751.7000      3.7184      0.4632     -0.4252    132.5361     38.4876     17.0499
   751.8000      3.7301      0.5770     -0.2945    125.6358     43.1252     17.1147
   751.9000      3.7301      0.6840     -0.2621    119.1488     47.2892     17.4452
   752.0000      3.7600      0.7911     -0.1840    112.6605     48.3874     17.3943
   752.1000      3.7600      0.9070     -0.1067    105.6392     45.3290     17.1339
   752.2000      3.7600      1.0297     -0.0092     98.1970     35.1510     16.9207
   752.3000      3.7806      1.1491      0.0756     90.9642     33.9788     16.2989
   752.4000      3.7806      1.2579      0.1088     84.3668     38.4684     15.6417
   752.5000      3.7683      1.3550      0.1746     78.4844     43.8082     15.8579
   752.6000      3.7683      1.4361      0.2260     73.5722     45.4537     17.0942
   752.7000      3.7683      1.5012      0.2600     69.6272     46.5383     18.5455
   752.8000      3.7518      1.5622      0.2823     65.9259     50.0779     19.3023
   752.9000      3.7518      1.6286      0.3485     61.9038     52.9915     19.8897
   753.0000      3.7488      1.7001      0.3746     57.5672     52.8927     20.5687
   753.1000      3.7488      1.7744      0.4455     53.0692     51.7071     20.9426
   753.2000      3.7488      1.8537      0.4602     48.2589     51.1358     21.5208
   753.3000      3.7546      1.9575      0.4997     41.9699     50.6930     22.1653
   753.4000      3.7546      2.1062      0.5562     32.9573     49.3087     22.2031
   753.5000      3.7248      2.2883      0.6344     21.9214     49.8502     22.0002
   753.6000      3.7248      2.4664      0.6909     11.1277     56.1744     22.0009
   753.7000      3.7248      2.6218      0.7261      1.7089     64.9531     22.3477
   753.8000      3.7003      2.7790      0.7550     -7.8173     69.2001     22.7891
   753.9000      3.7003      2.9718      0.7733    -19.5022     66.7703     22.8087
   754.0000      4.1347      3.1619      0.8621    -31.0258     63.6407     22.5796
   754.1000      4.1347      3.2511      0.7623    -36.4296     65.8120     22.2164
   754.2000      4.1347      3.2109      0.5815    -33.9954     72.8937     21.7589
   754.3000      7.7189      3.0943      0.4403    -26.9266     80.5738     22.0823
   754.4000      7.7189      2.9346      0.3647    -17.2476     85.0048     23.4307
   754.5000      8.2916      2.7258      0.2554     -4.5961     83.5574     24.2925
