~Version Information
VERS.                      2.0: CWLS Log ASCII Standard - VERSION 2.0
WRAP.                       NO: One line per depth step
~Well Information Block
STRT.FT               -11.5000: 
STOP.FT              1961.7500: 
STEP.FT                 0.2500: 
NULL.                -999.2500: 
COMP.          Petrogulf Corporation: COMPANY
WELL.           State 16-23R-X: WELL
FLD.           Purgatorie River: FIELD
LOC.           2381' FSL & 2072' FWL--: LOCATION
PROV.                       CO: PROVINCE
CNTY.               Las Animas: COUNTRY
SRVC.          Patterson Wireline: SERVICE COMPANY
DATE.          Fri Sep 09 14:32:42 2005: LOG DATE
UWI.           05 071 08324 00: UNIQUE WELL ID
~Curve Information Block
DEPT.FT            0 000 00 00: Depth
CCL.                          : Casing Collar Locator
TT3.usec                      : CBL 3' Travel Time
AMP3.mV                       : CBL 3' Amplitude
GR.GAPI                       : Gamma Ray
~Parameter Information Block
~A  Depth       CCL         TT3         AMP3         GR     
# ...
   893.0000      0.0000    584.0497     13.3899     53.8559
   893.2500      0.0000    569.1783     13.3014     51.7864
   893.5000      0.0000    561.3174     13.3236     52.3017
   893.7500      0.0000    554.0060     13.5262     55.1292
   894.0000      0.0000    534.7277     14.0159     58.7323
   894.2500      0.0000    497.3973     14.8658     61.9550
   894.5000      0.0000    448.3435     16.0410     64.8395
   894.7500      0.0000    400.7762     17.3917     67.8350
   895.0000      0.0000    364.5286     18.7250     70.8720
   895.2500      0.0000    341.1293     19.8837     73.6248
   895.5000      0.0000    326.8102     20.7705     76.2937
   895.7500      0.0000    317.9588     21.3301     79.4854
   896.0000      0.0000    313.4787     21.5370     83.1530
   896.2500      0.0000    313.6792     21.3979     86.0988
   896.5000      0.0000    318.3960     20.9544     86.9061
   896.7500      0.0000    326.3495     20.2832     85.2375
   897.0000      0.0000    335.7130     19.4888     82.0090
   897.2500      0.0000    344.9489     18.6853     78.5547
   897.5000      0.0000    353.1605     17.9722     75.9485
   897.7500      0.0000    359.8956     17.4181     74.9569
   898.0000      0.0000    364.7515     17.0594     76.1100
   898.2500      0.0000    367.3274     16.9045     79.3990
   898.5000      0.0000    367.6144     16.9363     83.9396
   898.7500      0.0000    366.0049     17.1206     88.2453
   899.0000      0.0000    362.5978     17.4267     91.0381
   899.2500      0.0000    356.9175     17.8582     92.0219
   899.5000      0.0000    348.6776     18.4676     92.1283
   899.7500      0.0000    338.5063     19.3196     92.8822
   900.0000      0.0000    327.8215     20.4086     95.0945
   900.2500      0.0000    318.3991     21.5928     98.2061
   900.5000      0.0000    312.1051     22.6124    101.0947
   900.7500      0.0000    310.6419     23.1853    103.1795
   901.0000      0.0000    315.2039     23.1199    104.6189
   901.2500      0.0000    326.1712     22.3877    105.9643
   901.5000      0.0000    343.2666     21.1265    107.6628
   901.7500      0.0000    366.8870     19.5738    109.4031
   902.0000      0.0000    399.5677     17.9679    109.8789
   902.2500      0.0000    444.0857     16.4698    107.4629
   902.5000      0.0000    497.7701     15.1449    101.3786
   902.7500      0.0000    550.0385     13.9911     92.5125
   903.0000      0.0000    588.9522     12.9774     83.0871
   903.2500      0.0000    610.4203     12.0683     75.1967
   903.5000      0.0000    619.8087     11.2431     69.5682
   903.7500      0.0000    626.7841     10.5105     65.7692
   904.0000      0.0000    639.8043      9.9146     63.2163
   904.2500      0.0000    661.0046      9.5235     61.7076
   904.5000      0.0000    682.4127      9.3893     61.1798
   904.7500      0.0000    689.4035      9.4848     61.1312
   905.0000      0.0000    672.1315      9.6676     60.4460
   905.2500      0.0000    635.2716      9.7322     58.1373
   905.5000      0.0000    595.9095      9.5369     54.3600
   905.7500      0.0000    570.9736      9.0994     50.4299
   906.0000      0.0000    566.6334      8.5714     47.7409
   906.2500      0.0000    579.3058      8.1220     46.7239
   906.5000      0.0000    603.1340      7.8422     46.7294
   906.7500      0.0000    633.2291      7.7327     46.7782
   907.0000     -2.0000    664.2666      7.7433     46.5370
   907.2500      0.0000    690.5337      7.8138     46.6366
   907.5000      0.0000    707.8792      7.9002     47.9872
   907.7500      0.0000    714.8138      7.9976     50.7069
   908.0000      0.0000    713.0452      8.1592     53.7279
   908.2500      0.0000    707.1903      8.4784     55.5121
   908.5000      0.0000    701.8738      9.0231     55.2570
   908.7500      0.0000    698.1550      9.7650     53.5825
   909.0000      0.0000    693.7536     10.5653     52.2169
   909.2500      0.0000    686.9051     11.2416     52.9863
   909.5000      0.0000    678.7942     11.6732     56.9510
   909.7500      0.0000    672.0159     11.8620     64.1999
   910.0000      0.0000    667.9338     11.8925     74.0586
   910.2500      0.0000    666.1612     11.8458     85.3305
   910.5000      0.0000    665.6696     11.7531     96.6424
   910.7500      0.0000    665.7211     11.6107    106.9198
   911.0000      0.0000    666.0299     11.4072    115.5215
   911.2500      0.0000    666.6537     11.1307    121.9331
   911.5000      0.0000    668.0754     10.7672    125.7447
   911.7500      0.0000    671.5916     10.3108    127.2821
   912.0000      0.0000    679.5404      9.7851    127.9032
   912.2500      0.0000    694.2849      9.2523    129.0458
   912.5000      0.0000    715.8718      8.7865    130.9967
   912.7500      0.0000    740.5498      8.4301    133.0038
   913.0000      0.0000    762.5438      8.1748    134.5473
   913.2500      0.0000    777.8535      7.9875    135.8910
   913.5000      0.0000    786.2203      7.8469    137.0861
   913.7500      0.0000    789.8488      7.7606    137.0618
   914.0000      0.0000    791.0914      7.7667    134.6669
   914.2500      0.0000    791.2227      7.9314    130.5412
   914.5000      0.0000    790.2791      8.3312    127.0732
   914.7500      0.0000    787.0412      9.0106    126.2120
   915.0000      0.0000    779.1072      9.9438    127.8487
   915.2500      0.0000    763.7459     11.0434    130.3697
   915.5000      0.0000    739.4299     12.2217    132.1836
   915.7500      0.0000    706.0414     13.4579    132.6899
   916.0000      0.0000    662.7679     14.8187    132.1077
   916.2500      0.0000    607.2920     16.4144    130.7798
   916.5000      0.0000    539.9861     18.3094    129.1498
   916.7500      0.0000    468.7143     20.4525    128.3522
   917.0000      0.0000    406.1031     22.6849    129.7573
   917.2500      0.0000    360.7864     24.8127    133.1951
   917.5000      0.0000    332.8031     26.6695    136.2703
   917.7500      0.0000    317.0932     28.1168    136.2626
   918.0000      0.0000    309.0020     29.0153    132.6366
   918.2500      0.0000    306.1618     29.2435    127.4344
   918.5000      0.0000    307.2692     28.7884    123.4158
   918.7500      0.0000    310.5697     27.8365    121.8897
   919.0000      0.0000    313.6915     26.7339    122.2551
   919.2500      0.0000    314.9787     25.7872    123.3467
   919.5000      0.0000    314.9824     25.0751    124.6983
   919.7500      0.0000    316.1266     24.4605    126.5771
   920.0000      0.0000    320.4689     23.7853    129.4608
   920.2500      0.0000    327.6509     23.0455    133.4557
   920.5000      0.0000    334.9442     22.4005    137.6305
   920.7500      0.0000    339.1783     22.0568    140.2591
   921.0000      0.0000    338.8210     22.1491    140.3571
   921.2500      0.0000    334.5872     22.6821    138.7496
   921.5000      0.0000    328.4152     23.5271    137.2754
   921.7500      0.0000    322.0205     24.4700    137.1530
   922.0000      0.0000    316.2655     25.3095    138.1106
   922.2500      0.0000    311.5210     25.9500    138.8374
   922.5000      0.0000    308.2720     26.4146    138.2777
   922.7500      0.0000    307.3051     26.7746    136.4993
   923.0000      0.0000    309.5475     27.0535    134.3130
   923.2500      0.0000    316.0984     27.1631    132.2928
   923.5000      0.0000    328.3574     26.9209    130.3698
   923.7500      0.0000    347.5962     26.1647    128.2641
   924.0000      0.0000    374.5663     24.8814    126.0547
   924.2500      0.0000    410.5566     23.2140    124.2114
   924.5000      0.0000    457.9555     21.3350    123.1553
   924.7500      0.0000    516.2813     19.3416    122.8562
   925.0000      0.0000    577.1016     17.2832    122.7758
   925.2500      0.0000    627.1342     15.2476    122.0906
   925.5000      0.0000    658.4048     13.3795    120.0097
   925.7500      0.0000    673.1046     11.8150    116.2179
   926.0000      0.0000    678.5453     10.6163    111.2192
   926.2500      0.0000    680.7000      9.7726    106.0054
