~Version Information
VERS.                      2.0: CWLS Log ASCII Standard - VERSION 2.0
WRAP.                       NO: One line per depth step
~Well Information Block
STRT.FT                -6.0000: 
STOP.FT              1295.2500: 
STEP.FT                 0.2500: 
NULL.                -999.2500: 
COMP.          Pioneer Natural Resources: COMPANY
WELL.            Erin 21-15 Tr: WELL
FLD.           Purgatoire River: FIELD
LOC.           1217' FNL & 2284' FWL--: LOCATION
CNTY.               Las Animas: COUNTY
SRVC.                         : SERVICE COMPANY
DATE.          Fri Mar 10 09:14:17 2006: LOG DATE
UWI.           05 071 08712 00: UNIQUE WELL ID
STAT.                       CO: STATE
~Curve Information Block
DEPT.FT            0 000 00 00: Depth
GR.GAPI                       : Gamma Ray
CCL.                          : Casing Collar Locator
TT3.usec                      : CBL 3' Travel Time
AMP3.mV                       : CBL 3' Amplitude
~Parameter Information Block
~A  Depth        GR         CCL         TT3         AMP3    
# ...
   161.5000     78.7074      0.0000   1057.0823     11.6295
   161.7500     79.3962      0.0000   1087.5940     11.5412
   162.0000     78.4346      0.0000   1114.3588     11.6277
   162.2500     77.4135      0.0000   1132.1852     11.8692
   162.5000     77.7092      0.0000   1135.2045     12.1997
   162.7500     79.6401      0.0000   1119.7950     12.5375
   163.0000     82.4514      0.0000   1087.0253     12.8291
   163.2500     85.1744      0.0000   1043.7013     13.0743
   163.5000     87.4462      0.0000    999.9981     13.3052
   163.7500     89.4533      0.0000    963.8103     13.5370
   164.0000     91.2879      0.0000    937.2929     13.7451
   164.2500     92.7154      0.0000    918.9310     13.9020
   164.5000     93.6311      0.0000    907.0300     14.0365
   164.7500     94.4089      0.0000    900.2256     14.2384
   165.0000     95.5452      0.0000    896.1117     14.5943
   165.2500     97.0950      0.0000    891.0479     15.1160
   165.5000     98.6481      0.0000    881.5101     15.7215
   165.7500     99.6324      0.0000    865.5815     16.2784
   166.0000     99.3086      0.0000    843.3087     16.6819
   166.2500     96.7525      0.0000    814.6469     16.9222
   166.5000     91.4457      0.0000    776.0966     17.0869
   166.7500     83.9939      0.0000    720.8367     17.2822
   167.0000     75.9310      0.0000    645.4980     17.5437
   167.2500     68.6229      0.0000    558.3278     17.8262
   167.5000     62.5026      0.0000    478.8374     18.0675
   167.7500     57.3901      0.0000    427.9338     18.2290
   168.0000     53.2359      0.0000    418.2157     18.2707
   168.2500     50.2693      0.0000    450.6452     18.1293
   168.5000     48.4885      0.0000    514.6933     17.7561
   168.7500     47.3291      0.0000    590.6602     17.1652
   169.0000     46.0352      0.0000    657.3425     16.4303
   169.2500     44.2189      0.0000    702.2050     15.6502
   169.5000     41.9354      0.0000    725.1775     14.9196
   169.7500     39.3712      0.0000    733.8539     14.3006
   170.0000     36.6265      0.0000    736.6128     13.8017
   170.2500     33.8228      0.0000    738.7593     13.3939
   170.5000     31.3666      0.0000    741.7026     13.0503
   170.7500     29.9361      0.0000    744.3403     12.7603
   171.0000     29.9832      0.0000    745.9325     12.5153
   171.2500     31.2439      0.0000    747.9399     12.3041
   171.5000     32.9036      0.0000    752.6341     12.1238
   171.7500     34.2611      0.0000    760.3074     11.9794
   172.0000     35.1636      0.0000    768.7015     11.8721
   172.2500     35.8878      0.0000    775.1769     11.7958
   172.5000     36.8222      0.0000    778.7653     11.7503
   172.7500     38.2824      0.0000    780.1702     11.7526
   173.0000     40.3463      0.0000    780.5858     11.8333
   173.2500     42.6015      0.0000    780.8714     12.0160
   173.5000     44.1995      0.0000    781.4659     12.2893
   173.7500     44.4836      0.0000    782.6719     12.5957
   174.0000     43.6653      0.0000    784.7675     12.8576
   174.2500     42.7539      0.0000    787.6998     13.0261
   174.5000     42.7333      0.0000    790.5942     13.1068
   174.7500     43.7651      0.0000    791.9794     13.1397
   175.0000     45.1487      0.0000    791.1422     13.1623
   175.2500     46.0512      0.0000    789.2233     13.1942
   175.5000     46.2830      0.0000    788.0641     13.2461
   175.7500     46.3351      0.0000    787.4715     13.3347
   176.0000     46.7687      0.0000    784.5568     13.4790
   176.2500     47.7254      0.0000    776.7240     13.6741
   176.5000     48.9282      0.0000    764.8352     13.8725
   176.7500     49.8698      0.0000    752.6449     14.0045
   177.0000     49.9268      0.0000    743.4634     14.0359
   177.2500     48.5729      0.0000    738.1364     14.0136
   177.5000     45.8794      0.0000    735.8183     14.0523
   177.7500     42.7994      0.0000    735.1727     14.2622
   178.0000     40.6588      0.0000    733.6552     14.6743
   178.2500     40.2530      0.0000    727.0752     15.2270
   178.5000     41.4542      0.0000    713.1997     15.8113
   178.7500     43.3890      0.0000    697.2202     16.3198
   179.0000     44.8933      0.0000    690.4649     16.6694
   179.2500     45.2220      0.0000    700.0519     16.8115
   179.5000     44.6286      0.0000    721.1000     16.7428
   179.7500     44.0755      0.0000    741.7649     16.5092
   180.0000     44.2518      0.0000    754.3729     16.1979
   180.2500     45.0953      0.0000    759.5554     15.9011
   180.5000     46.3605      0.0000    761.7872     15.6600
   180.7500     48.3303      0.0000    764.1664     15.4335
   181.0000     51.6430      0.0000    767.4522     15.1191
   181.2500     56.5419      0.0000    771.7382     14.6291
   181.5000     62.6018      0.0000    777.3785     13.9733
   181.7500     69.0776      0.0000    785.2021     13.2606
   182.0000     75.1030      0.0000    796.8096     12.5995
   182.2500     79.6503      0.0000    813.3839     12.0163
   182.5000     81.9452      0.0000    832.3739     11.4830
   182.7500     82.2468      0.0000    846.9570     10.9785
   183.0000     81.9650      0.0000    851.6525     10.4929
   183.2500     82.7143      0.0000    847.8037     10.0061
   183.5000     85.1005      0.0000    841.8134      9.5103
   183.7500     88.3193      0.0000    839.2072      9.0527
   184.0000     91.0093      0.0000    841.8067      8.7314
   184.2500     92.5880      0.0000    849.1501      8.6347
   184.5000     93.6466      0.0000    860.3039      8.7692
   184.7500     95.0704      0.0000    873.8056      9.0247
   185.0000     97.0234      0.0000    887.7695      9.2052
   185.2500     98.8822      0.0000    901.4833      9.1304
   185.5000     99.9791      0.0000    915.4523      8.7522
   185.7500    100.3512      0.0000    929.1830      8.1895
   186.0000    100.8317      0.0000    941.6518      7.6395
   186.2500    102.2657      0.0000    955.1682      7.2548
   186.5000    104.3688      0.0000    974.3730      7.0987
   186.7500    105.5935      0.0000    999.2001      7.1845
   187.0000    104.5851      0.0000   1022.8981      7.5054
   187.2500    101.8146      0.0000   1038.6206      8.0037
   187.5000     99.3557      0.0000   1043.8344      8.5410
   187.7500     98.8723      0.0000   1037.9110      8.9475
   188.0000    100.1453      0.0000   1021.4622      9.1215
   188.2500    101.6618      0.0000    999.6001      9.0858
   188.5000    102.1752      0.0000    980.4351      8.9650
   188.7500    101.4346      0.0000    968.2739      8.9127
   189.0000     99.9057      0.0000    962.5608      9.0224
   189.2500     98.2669      0.0000    964.4510      9.2664
   189.5000     97.0157      0.0000    979.1028      9.5238
   189.7500     96.3258      2.0000   1008.3043      9.6916
   190.0000     96.2199      2.0000   1043.9288      9.7940
   190.2500     96.6774      0.0000   1071.6449     10.0118
   190.5000     97.5236      0.0000   1081.0398     10.5817
   190.7500     98.4992      0.0000   1073.7736     11.5810
   191.0000     99.5147      0.0000   1063.4500     12.7778
   191.2500    100.7274      0.0000   1064.8229     13.7753
   191.5000    102.3843      0.0000   1081.5575     14.3459
   191.7500    104.6997      0.0000   1106.5616     14.5532
   192.0000    107.8659      0.0000   1132.3480     14.5562
   192.2500    111.9726      0.0000   1155.9789     14.4366
   192.5000    116.6284      0.0000   1175.1700     14.2428
   192.7500    120.6233      0.0000   1185.7009     14.0657
   193.0000    122.4430      0.0000   1184.8335     13.9943
   193.2500    121.4967      0.0000   1174.3003     14.0418
   193.5000    118.5726      0.0000   1157.7786     14.1486
   193.7500    114.8647      0.0000   1136.9612     14.2227
   194.0000    111.0308      0.0000   1112.9921     14.1710
   194.2500    107.5795      0.0000   1091.4185     13.9500
   194.5000    105.6023      0.0000   1080.9843     13.6226
   194.7500    106.2870      0.0000   1084.6029     13.3344
