~Version Information
 VERS.                                  2.0 : CWLS LAS VERSION
 WRAP.                                   NO : WRAPING MODE
 SWARE .                 MController 2.5.0J : SOFTWARE VERSION
~Well Information
 WELL.                         Croc 42-09Tr : WELL
 COMP.    Pioneer Natural Resources USA Inc : COMPANY
 FLD.                      Purgatoire River : FIELD
 LOC.                 SE/NE Sec09 T32S R66W : LOCATION
 DATE.                             10/13/05 : DATE(S) LOGGED
 SRVC.       Blanco Geological Services LLC : SERVICE COMPANY
 STAT.                             Colorado : STATE
 CNTY.                           Las Animas : COUNTY
 CTRY.                                  USA : COUNTRY
 API.                       05-071-08550-00 : API NUMBER
 STRT.FT                             326.00 : START DEPTH
 STOP.FT                            1150.00 : STOP DEPTH
 STEP.FT                               1.00 : DEPTH INCREMENT
 NULL.                                -9999 : NULL VALUE
~Curve information
 DEPTH.FT                                   :
 ROP.MIN/FT                                 :
 GAS.UNITS                                  :
~ASCII Log data
# ...
       926.0         3.88       5620.5 
       927.0         0.85       4548.6 
       928.0         0.67       4570.2 
       929.0         0.50       4396.5 
       930.0         0.50       4069.1 
       931.0         0.40       3706.9 
       932.0         0.43       3434.5 
       933.0         0.47       3247.3 
       934.0         0.42       3062.3 
       935.0         0.50       3065.2 
       936.0         0.43       3074.9 
       937.0         0.43       3074.9 
       938.0         0.43       3032.7 
       939.0         0.50       3005.3 
       940.0         0.43       3001.4 
       941.0         0.43       2971.1 
       942.0         0.42       2900.9 
       943.0         0.47       2970.2 
       944.0         0.43       3006.2 
       945.0         0.43       3017.2 
       946.0         0.43       2956.9 
       947.0         0.40       2882.8 
       948.0         0.43       2980.8 
       949.0         0.45       3015.6 
       950.0         0.43       3085.8 
       951.0         0.53       3143.5 
       952.0         0.53       3175.1 
       953.0         0.53       3155.5 
       954.0         0.53       3016.2 
       955.0         0.63       3139.7 
       956.0         3.08       5710.1 
       957.0         1.02       5116.4 
       958.0         0.67       4105.8 
       959.0         0.60       4204.8 
       960.0         0.50       4116.8 
       961.0         0.50       3849.0 
       962.0         0.52       3679.1 
       963.0         0.43       3421.3 
       964.0         0.50       3307.6 
       965.0         0.40       3106.5 
       966.0         0.47       3086.5 
       967.0         0.43       3075.9 
       968.0         0.43       3115.2 
       969.0         0.43       3170.6 
       970.0         0.42       3184.8 
       971.0         0.43       3196.1 
       972.0         0.37       3189.6 
       973.0         0.33       3176.4 
       974.0         0.33       3163.2 
       975.0         0.30       3163.8 
       976.0         0.43       3153.5 
       977.0         0.70       3099.4 
       978.0         0.82       3108.4 
       979.0         0.87       3191.2 
       980.0         1.33       3159.3 
       981.0         0.88       3351.1 
       982.0         0.73       3355.6 
       983.0         0.40       3325.9 
       984.0         0.23       3304.0 
       985.0         0.20       3265.7 
       986.0         3.75       5799.0 
       987.0         0.50       4283.7 
       988.0         0.72       4359.1 
       989.0         0.73       4212.2 
       990.0         0.93       4375.6 
       991.0         1.00       3962.7 
       992.0         0.72       3125.5 
       993.0         0.60       2729.7 
       994.0         0.63       2944.4 
       995.0         0.60       3067.8 
       996.0         0.73       3153.2 
       997.0         0.78       3161.3 
       998.0         0.73       3149.0 
       999.0         0.73       3097.5 
      1000.0         0.50       3207.0 
      1001.0         0.40       3325.9 
      1002.0         0.30       3325.6 
      1003.0         0.30       3232.8 
      1004.0         0.35       3141.6 
      1005.0         0.37       3047.8 
      1006.0         0.47       3150.3 
      1007.0         0.50       3234.4 
      1008.0         0.37       3224.7 
      1009.0         0.43       3205.4 
      1010.0         0.40       3111.6 
      1011.0         0.37       3071.0 
      1012.0         0.42       3027.8 
      1013.0         0.37       3047.8 
      1014.0         0.47       3077.5 
      1015.0         0.53       3131.3 
      1016.0         4.62       5884.7 
      1017.0         0.58       4574.4 
      1018.0         0.53       4367.2 
      1019.0         0.50       4064.9 
      1020.0         0.47       3736.8 
      1021.0         0.40       3342.0 
      1022.0         0.37       3224.7 
      1023.0         0.37       3052.0 
      1024.0         0.37       2997.2 
      1025.0         0.38       2985.9 
      1026.0         0.47       2994.6 
      1027.0         0.27       2963.7 
      1028.0         0.37       2937.3 
      1029.0         0.63       2923.1 
      1030.0         0.47       3012.4 
      1031.0         0.40       3037.5 
      1032.0         0.40       3053.6 
      1033.0         0.38       3054.6 
      1034.0         0.33       3055.2 
      1035.0         0.30       3032.7 
      1036.0         0.30       2903.8 
      1037.0         0.37       2792.9 
      1038.0         0.33       2879.0 
      1039.0         0.30       2894.1 
      1040.0         0.33       2879.6 
      1041.0         0.33       2850.6 
      1042.0         0.37       2904.7 
      1043.0         0.42       3013.0 
      1044.0         0.43       3271.5 
      1045.0         1.80       2931.8 
      1046.0         0.90       5712.0 
      1047.0         0.58       5625.3 
      1048.0         0.70       4610.5 
      1049.0         0.57       4376.8 
      1050.0         0.53       4133.9 
      1051.0         0.57       3702.7 
      1052.0         0.68       3581.8 
      1053.0         0.73       3485.1 
      1054.0         0.70       3399.7 
      1055.0         0.57       3272.1 
      1056.0         0.57       3204.8 
      1057.0         0.62       3172.5 
      1058.0         0.47       3118.4 
      1059.0         0.50       3061.0 
      1060.0         0.60       3011.7 
      1061.0         0.57       3009.5 
      1062.0         0.63       3005.3 
      1063.0         0.62       3012.4 
      1064.0         0.57       2993.4 
      1065.0         0.57       2950.8 
      1066.0         0.57       2916.3 
      1067.0         0.60       2903.1 
      1068.0         0.53       2861.2 
      1069.0         0.65       2855.4 
      1070.0         0.60       2872.8 
      1071.0         0.57       2872.8 
      1072.0         0.50       2891.5 
      1073.0         0.47       2932.1 
      1074.0         0.43       2988.8 
      1075.0         0.47       3022.4 
      1076.0         5.67       6078.1 
      1077.0         1.03       4569.2 
      1078.0         0.75       3656.6 
      1079.0         0.50       3664.6 
      1080.0         0.30       3361.7 
      1081.0         0.40       3019.1 
      1082.0         0.43       2948.2 
      1083.0         0.40       2900.9 
      1084.0         0.33       2949.5 
      1085.0         0.38       2997.2 
      1086.0         0.37       3039.8 
      1087.0         0.33       3062.3 
      1088.0         0.37       3078.4 
      1089.0         0.33       3076.8 
      1090.0         0.30       3076.5 
      1091.0         0.27       3070.4 
      1092.0         0.33       3068.4 
      1093.0         0.37       3062.3 
      1094.0         0.37       3053.9 
      1095.0         0.38       3052.0 
      1096.0         0.33       3054.3 
      1097.0         0.40       3069.7 
      1098.0         0.37       3085.8 
      1099.0         0.27       3100.7 
      1100.0         0.43       3128.1 
      1101.0         0.37       3122.9 
      1102.0         0.40       3112.6 
      1103.0         0.40       3095.2 
      1104.0         0.48       3138.7 
      1105.0         1.00       2899.9 
      1106.0         1.73       5512.2 
      1107.0         1.15       6118.7 
      1108.0         0.63       4366.2 
      1109.0         0.53       4277.9 
      1110.0         0.63       3915.0 
      1111.0         0.60       3821.9 
      1112.0         0.62       3679.1 
      1113.0         0.60       3519.0 
      1114.0         0.53       3276.3 
      1115.0         0.57       3159.3 
      1116.0         0.57       3007.5 
      1117.0         0.53       2947.0 
      1118.0         0.45       2908.3 
      1119.0         0.50       2895.4 
      1120.0         0.47       2891.2 
      1121.0         0.50       2901.8 
      1122.0         0.47       2923.1 
      1123.0         0.53       2921.5 
      1124.0         0.47       2949.9 
      1125.0         0.52       2922.8 
