~Version Information
VERS.                      2.0: CWLS Log ASCII Standard - VERSION 2.0
WRAP.                       NO: One line per depth step
~Well Information Block
STRT.FT               370.0000: 
STOP.FT              1259.0000: 
STEP.FT                 0.1000: 
NULL.                -999.2500: 
COMP.          Pioneer Natural Resources: COMPANY
WELL.           Tennis 7-12 Tr: WELL
FLD.           Purgatoire River: FIELD
LOC.           1794' FNL & 1563' FEL: LOCATION
PROV.                 Colorado: PROVINCE
CNTY.               Las Animas: COUNTRY
SRVC.                Patterson: SERVICE COMPANY
DATE.          Tue Dec 20 13:35:40 2005: LOG DATE
UWI.           05 071 08635 00: UNIQUE WELL ID
~Curve Information Block
DEPT.FT            0 000 00 00: Depth
DCAL.in                       : CDL Caliper
RHOB.g/cc                     : CDL Bulk Density
RHOC.g/cc                     : CDL Density Correction
DPOR.pu                       : CDL Density Porosity
GR.GAPI                       : Gamma Ray
~Parameter Information Block
~A  Depth       DCAL        RHOB        RHOC        DPOR         GR     
# ...
   482.0000      7.9220      2.5225      0.0312      7.7250    131.5040
   482.1000      7.9220      2.5307      0.0500      7.2304    128.3775
   482.2000      7.9220      2.5238      0.0091      7.6495    127.1519
   482.3000      7.9218      2.5213      0.0228      7.7992    130.5871
   482.4000      7.9218      2.5459      0.0614      6.3115    134.9560
   482.5000      7.9218      2.6003      0.1101      3.0151    139.5372
   482.6000      7.9218      2.6677      0.1537     -1.0715    143.7927
   482.7000      7.9218      2.7181      0.1840     -4.1260    143.8536
   482.8000      7.9221      2.7277      0.1512     -4.7070    141.8362
   482.9000      7.9221      2.7040      0.0698     -3.2740    142.0485
   483.0000      7.9219      2.6760      0.0664     -1.5772    141.3876
   483.1000      7.9219      2.6506      0.0881     -0.0392    136.9223
   483.2000      7.9219      2.6124      0.0288      2.2809    131.0256
   483.3000      7.9214      2.5748     -0.0462      4.5568    125.1960
   483.4000      7.9214      2.5631     -0.0437      5.2645    120.9913
   483.5000      7.9212      2.5649     -0.0059      5.1554    121.8284
   483.6000      7.9212      2.5699     -0.0017      4.8569    127.5372
   483.7000      7.9212      2.5927      0.0825      3.4745    134.1212
   483.8000      7.9214      2.6253      0.0993      1.4963    136.8765
   483.9000      7.9214      2.6383      0.1268      0.7075    134.1028
   484.0000      7.9214      2.6238      0.1248      1.5871    129.7457
   484.1000      7.9214      2.5991      0.0873      3.0833    128.8086
   484.2000      7.9214      2.5817      0.0431      4.1393    132.4011
   484.3000      7.9211      2.5742      0.0644      4.5942    136.4218
   484.4000      7.9211      2.5666      0.0571      5.0533    134.5286
   484.5000      7.9206      2.5492      0.0376      6.1100    127.4070
   484.6000      7.9206      2.5245     -0.0082      7.6067    122.7672
   484.7000      7.9206      2.5101     -0.0061      8.4809    124.3564
   484.8000      7.9202      2.5182      0.0343      7.9896    128.5987
   484.9000      7.9202      2.5411      0.0486      6.6022    128.8652
   485.0000      7.9207      2.5635      0.0300      5.2414    123.8928
   485.1000      7.9207      2.5731      0.0657      4.6622    118.9366
   485.2000      7.9207      2.5719     -0.0023      4.7344    116.1858
   485.3000      7.9216      2.5762      0.0246      4.4710    116.5160
   485.4000      7.9216      2.5786      0.0776      4.3267    121.6589
   485.5000      7.9214      2.5590      0.0081      5.5149    127.3826
   485.6000      7.9214      2.5275      0.0173      7.4220    129.0889
   485.7000      7.9214      2.5091     -0.0220      8.5384    129.8482
   485.8000      7.9207      2.5120     -0.0143      8.3613    132.0538
   485.9000      7.9207      2.5260      0.0412      7.5137    132.7336
   486.0000      7.9211      2.5354      0.0754      6.9477    130.6760
   486.1000      7.9211      2.5278      0.0881      7.4041    127.6593
   486.2000      7.9211      2.4975      0.0863      9.2448    125.1971
   486.3000      7.9218      2.4500      0.0372     12.1227    125.8418
   486.4000      7.9218      2.4002      0.0533     15.1422    130.6525
   486.5000      7.9223      2.3560     -0.0005     17.8201    135.9947
   486.6000      7.9223      2.3151     -0.0265     20.2994    138.1639
   486.7000      7.9223      2.2627      0.0263     23.4723    137.0917
   486.8000      7.9232      2.1790      0.0106     28.5461    133.1812
   486.9000      7.9232      2.0679     -0.0452     35.2795    128.2857
   487.0000      7.9243      1.9658     -0.0858     41.4681    127.2527
   487.1000      7.9243      1.9159     -0.1057     44.4926    129.8936
   487.2000      7.9243      1.9285      0.0028     43.7278    131.2057
   487.3000      7.9254      1.9651      0.0857     41.5081    130.2883
   487.4000      7.9254      1.9823      0.1399     40.4691    126.8742
   487.5000      7.9266      1.9714      0.2130     41.1255    123.1274
   487.6000      7.9266      1.9433      0.2359     42.8273    123.1988
   487.7000      7.9266      1.9068      0.2156     45.0439    123.0639
   487.8000      7.9282      1.8724      0.1364     47.1268    119.1460
   487.9000      7.9282      1.8522      0.1177     48.3489    116.3029
   488.0000      7.9294      1.8446      0.1067     48.8108    117.0696
   488.1000      7.9294      1.8451      0.0564     48.7837    118.5385
   488.2000      7.9294      1.8677      0.0785     47.4144    118.0843
   488.3000      7.9290      1.9277      0.1560     43.7781    116.2032
   488.4000      7.9290      2.0126      0.2370     38.6318    113.5651
   488.5000      7.9208      2.0926      0.2589     33.7805    108.1714
   488.6000      7.9208      2.1551      0.1874     29.9962    101.3633
   488.7000      7.9208      2.2061      0.1581     26.9058     97.6527
   488.8000      7.8973      2.2566      0.0896     23.8452     98.3823
   488.9000      7.8973      2.3231      0.1075     19.8130     96.2895
   489.0000      7.8691      2.4072      0.1593     14.7144     86.9377
   489.1000      7.8691      2.4810      0.1807     10.2452     81.8645
   489.2000      7.8691      2.5251      0.1173      7.5673     87.1199
   489.3000      7.8536      2.5584      0.0594      5.5491     93.3112
   489.4000      7.8536      2.5986      0.1378      3.1159     94.6292
   489.5000      7.8495      2.6325      0.1486      1.0620     94.4501
   489.6000      7.8495      2.6452      0.1697      0.2923     94.9251
   489.7000      7.8495      2.6385      0.1622      0.6975     94.0990
   489.8000      7.8493      2.6209      0.1307      1.7615     92.9505
   489.9000      7.8493      2.6000      0.1090      3.0329     94.3399
   490.0000      7.8500      2.5824      0.0657      4.1000     96.9888
   490.1000      7.8500      2.5733      0.0912      4.6461     98.2977
   490.2000      7.8500      2.5670      0.1003      5.0304     98.1406
   490.3000      7.8507      2.5506      0.0700      6.0238     98.0342
   490.4000      7.8507      2.5288      0.0129      7.3459     98.5221
   490.5000      7.8513      2.5198      0.0400      7.8896    100.3623
   490.6000      7.8513      2.5234      0.0428      7.6726    102.8041
   490.7000      7.8513      2.5216      0.0436      7.7844    101.1574
   490.8000      7.8515      2.5100      0.0206      8.4874     95.3076
   490.9000      7.8515      2.5036     -0.0002      8.8725     90.9953
   491.0000      7.8515      2.5122      0.0076      8.3496     90.6626
   491.1000      7.8515      2.5273      0.0552      7.4337     95.2507
   491.2000      7.8515      2.5383      0.0640      6.7694    103.7574
   491.3000      7.8511      2.5476      0.0905      6.2048    109.4388
   491.4000      7.8511      2.5600      0.0756      5.4573    109.7405
   491.5000      7.8509      2.5782      0.0669      4.3521    109.6963
   491.6000      7.8509      2.6025      0.0991      2.8779    108.9674
   491.7000      7.8509      2.6080      0.1770      2.5456    106.0710
   491.8000      7.8510      2.5670      0.0910      5.0294    105.1004
   491.9000      7.8510      2.5024      0.0290      8.9437    103.4305
   492.0000      7.8515      2.4579     -0.0181     11.6446     96.0195
   492.1000      7.8515      2.4460     -0.0142     12.3659     89.0640
   492.2000      7.8515      2.4504      0.0238     12.0982     89.4089
   492.3000      7.8516      2.4576      0.0105     11.6635     93.9982
   492.4000      7.8516      2.4757      0.0057     10.5664     96.7370
   492.5000      7.8505      2.5143      0.0614      8.2257     95.5336
   492.6000      7.8505      2.5610      0.1145      5.3914     92.7703
   492.7000      7.8505      2.5915      0.1446      3.5484     90.7216
   492.8000      7.8491      2.5926      0.1464      3.4788     90.2605
   492.9000      7.8491      2.5755      0.1005      4.5179     91.9527
   493.0000      7.8493      2.5623      0.0905      5.3166     95.4093
   493.1000      7.8493      2.5644      0.0802      5.1858     98.7488
