~Version Information
 VERS.                                  2.0 : CWLS LAS VERSION
 WRAP.                                   NO : WRAPING MODE
 SWARE .                 MController 2.5.0J : SOFTWARE VERSION
~Well Information
 WELL.                       Cooper 11-13Tr : WELL
 COMP.    Pioneer Natural Resources USA Inc : COMPANY
 FLD.                      Purgatoire River : FIELD
 LOC.                 NW/NW SEC13 T32S R67W : LOCATION
 DATE.                             09/24/05 : DATE(S) LOGGED
 SRVC.       Blanco Geological Services LLC : SERVICE COMPANY
 STAT.                             Colorado : STATE
 CNTY.                           Las Animas : COUNTY
 CTRY.                                  USA : COUNTRY
 API.                       05-071-08525-00 : API NUMBER
 STRT.FT                             327.00 : START DEPTH
 STOP.FT                            1876.00 : STOP DEPTH
 STEP.FT                               1.00 : DEPTH INCREMENT
 NULL.                                -9999 : NULL VALUE
~Curve information
 DEPTH.FT                                   :
 ROP.MIN/FT                                 :
 GAS.UNITS                                  :
~ASCII Log data
       327.0     -9999.00          2.5 
       328.0         0.25          2.9 
       329.0         0.03          2.9 
       330.0         0.13          2.8 
       331.0         0.13          2.8 
       332.0         0.13          2.8 
       333.0         0.13          3.0 
       334.0         0.13          3.0 
       335.0         0.17          3.0 
       336.0         0.17          3.2 
       337.0         0.20          2.8 
       338.0         0.17          3.3 
       339.0         0.13          3.3 
       340.0         0.17          3.6 
       341.0         0.13          3.2 
       342.0         0.17          3.3 
       343.0         0.13          3.4 
       344.0         0.13          3.4 
       345.0         0.25          3.8 
       346.0         0.20          3.4 
       347.0         0.17          3.4 
       348.0         0.13          3.6 
       349.0         0.17          3.4 
       350.0         0.13          3.8 
       351.0         0.13          3.8 
       352.0         0.13          3.8 
       353.0         0.20          4.0 
       354.0         0.30          3.8 
       355.0         0.27          4.3 
       356.0         2.95          4.4 
       357.0         0.57          4.0 
       358.0         0.27          3.9 
       359.0         0.23          3.8 
       360.0         0.27          3.5 
       361.0         0.23          3.8 
       362.0         0.25          3.9 
       363.0         0.23          4.3 
       364.0         0.23          4.0 
       365.0         0.27          3.8 
       366.0         0.23          4.3 
       367.0         0.27          3.9 
       368.0         0.23          4.2 
       369.0         0.27          4.1 
       370.0         0.17          4.1 
       371.0         0.23          4.1 
       372.0         0.20          4.1 
       373.0         0.20          4.4 
       374.0         0.20          4.2 
       375.0         0.20          4.5 
       376.0         0.23          4.4 
       377.0         0.22          4.2 
       378.0         0.23          4.2 
       379.0         0.23          4.2 
       380.0         0.23          4.3 
       381.0         0.23          4.6 
       382.0         0.20          4.2 
       383.0         0.23          4.4 
       384.0         0.27          4.5 
       385.0         0.27          4.4 
       386.0         1.42          4.7 
       387.0         0.23          4.3 
       388.0         0.30          4.4 
       389.0         0.30          4.3 
       390.0         0.30          4.4 
       391.0         0.27          4.2 
       392.0         0.23          4.4 
       393.0         0.17          4.3 
       394.0         0.20          4.2 
       395.0         0.23          4.3 
       396.0         0.23          4.3 
       397.0         0.27          4.5 
       398.0         0.20          4.7 
       399.0         0.23          4.3 
       400.0         0.22          4.5 
       401.0         0.27          4.8 
       402.0         0.20          4.5 
       403.0         0.23          4.4 
       404.0         0.20          4.6 
       405.0         0.20          4.8 
       406.0         0.20          4.9 
       407.0         0.23          4.7 
       408.0         0.23          4.9 
       409.0         0.23          4.9 
       410.0         0.23          4.8 
       411.0         0.20          4.4 
       412.0         0.20          4.9 
       413.0         0.17          4.9 
       414.0         0.20          4.5 
       415.0         0.45          4.7 
       416.0         1.97          4.9 
       417.0         0.27          5.0 
       418.0         0.27          4.8 
       419.0         0.23          4.8 
       420.0         0.20          4.7 
       421.0         0.17          5.0 
       422.0         0.22          5.2 
       423.0         0.20          4.9 
       424.0         0.20          4.9 
       425.0         0.20          4.8 
       426.0         0.20          4.8 
       427.0         0.23          4.9 
       428.0         0.17          5.1 
       429.0         0.17          4.9 
       430.0         0.17          4.9 
       431.0         0.17          4.9 
       432.0         0.20          5.1 
       433.0         0.20          5.4 
       434.0         0.20          5.1 
       435.0         0.23          5.4 
       436.0         0.23          5.1 
       437.0         0.23          5.6 
       438.0         0.22          5.2 
       439.0         0.20          4.9 
       440.0         0.20          5.3 
       441.0         0.20          5.3 
       442.0         0.20          5.1 
       443.0         0.20          5.6 
       444.0         0.20          5.6 
       445.0         0.23          5.4 
       446.0         1.63          5.4 
       447.0         0.17          5.2 
       448.0         0.35          5.4 
       449.0         0.23          5.0 
       450.0         0.17          5.1 
       451.0         0.20          5.0 
       452.0         0.20          5.5 
       453.0         0.20          5.4 
       454.0         0.20          5.5 
       455.0         0.20          5.6 
       456.0         0.23          5.4 
       457.0         0.17          5.5 
       458.0         0.20          5.3 
       459.0         0.17          5.4 
       460.0         0.17          5.4 
       461.0         0.17          5.2 
       462.0         0.17          5.7 
       463.0         0.17          5.7 
       464.0         0.20          5.5 
       465.0         0.18          5.3 
       466.0         0.17          5.4 
       467.0         0.17          5.6 
       468.0         0.20          5.3 
       469.0         0.17          5.3 
       470.0         0.20          5.2 
       471.0         0.20          5.3 
       472.0         0.23          5.0 
       473.0         0.20          5.0 
       474.0         0.20          5.6 
       475.0         0.47          5.5 
       476.0         1.98          6.2 
       477.0         0.27          5.7 
       478.0         0.27          5.7 
       479.0         0.27          5.6 
       480.0         0.20          5.6 
       481.0         0.17          5.6 
       482.0         0.20          5.5 
       483.0         0.20          5.8 
       484.0         0.23          6.0 
       485.0         0.20          5.9 
       486.0         0.23          6.4 
       487.0         0.22          5.5 
       488.0         0.23          5.5 
       489.0         0.20          6.0 
       490.0         0.20          6.0 
       491.0         0.20          6.0 
       492.0         0.20          6.0 
       493.0         0.23          5.9 
       494.0         0.20          5.8 
       495.0         0.20          5.8 
       496.0         0.30          6.0 
       497.0         0.30          5.9 
       498.0         0.20          5.8 
       499.0         0.20          5.4 
       500.0         0.17          5.4 
       501.0         0.20          5.7 
       502.0         0.17          5.9 
       503.0         0.22          6.0 
       504.0         0.17          6.2 
       505.0         0.23          5.7 
       506.0         1.67          6.5 
       507.0         0.43          6.1 
       508.0         0.33          5.6 
       509.0         0.30          6.0 
       510.0         0.38          5.8 
       511.0         0.33          5.7 
       512.0         0.33          5.7 
       513.0         0.47          5.5 
       514.0         0.37          5.0 
       515.0         0.50          5.5 
       516.0         0.40          5.4 
       517.0         0.30          5.6 
       518.0         0.28          5.7 
       519.0         0.23          5.2 
       520.0         0.17          5.3 
       521.0         0.17          5.3 
       522.0         0.20          5.5 
       523.0         0.17          5.5 
       524.0         0.20          5.1 
       525.0         0.20          5.3 
       526.0         0.20          5.6 
