~Version Information
VERS.                      2.0: CWLS Log ASCII Standard - VERSION 2.0
WRAP.                       NO: One line per depth step
~Well Information Block
STRT.FT                -7.7500: 
STOP.FT              2446.5000: 
STEP.FT                 0.2500: 
NULL.                -999.2500: 
COMP.          XTO Energy Inc.: COMPANY
WELL.          Hill Ranch 15-09: WELL
FLD.           Purgatoire River: FIELD
LOC.           1816' FSL & 521' FEL: LOCATION
STAT.                 Colorado: State
CNTY.               Las Animas: COUNTY
CTRY. USA : Country
SECT. 15 : Section
TOWN. 35S : Township
RANG. 67W : Range
SRVC.          Patterson Wireline: SERVICE COMPANY
DATE.          Fri Dec 09 17:49:58 2005: LOG DATE
API. 05-071-08474                          : UNIQUE WELL ID
~Curve Information Block
DEPT.FT            0 000 00 00: Depth
CCL.                          : Casing Collar Locator
TT3.usec                      : CBL 3' Travel Time
AMP3.mV                       : CBL 3' Amplitude
AMP5.mV                       : CBL 5' Amplitude
GR.GAPI                       : Gamma Ray
~Parameter Information Block
~A  Depth       CCL         TT3         AMP3        AMP5         GR     
# ...
  1616.2500      0.0000    685.8790      3.3650      0.8720    126.7858
  1616.5000      0.0000    678.6699      3.3615      0.7886    127.2476
  1616.7500      0.0000    675.4321      3.3597      0.7074    129.8405
  1617.0000      0.0000    673.8715      3.3658      0.6508    135.8024
  1617.2500      0.0000    673.5357      3.3776      0.6309    144.7542
  1617.5000      0.0000    675.3839      3.3861      0.6423    154.0334
  1617.7500      0.0000    679.4949      3.3836      0.6733    159.8867
  1618.0000      0.0000    683.7397      3.3670      0.7230    160.1499
  1618.2500      0.0000    685.2697      3.3411      0.7967    155.8381
  1618.5000      0.0000    683.2435      3.3187      0.8864    149.7111
  1618.7500      0.0000    679.3815      3.3154      0.9683    143.5309
  1619.0000      0.0000    676.0613      3.3398      1.0197    137.2774
  1619.2500      0.0000    674.6207      3.3895      1.0306    130.4830
  1619.5000      0.0000    675.5117      3.4529      1.0038    123.4096
  1619.7500      0.0000    679.3635      3.5135      0.9505    117.1266
  1620.0000     -2.0000    687.4690      3.5562      0.8862    113.1552
  1620.2500      0.0000    700.6352      3.5747      0.8233    112.8857
  1620.5000      0.0000    716.6458      3.5728      0.7687    116.8071
  1620.7500      0.0000    729.3018      3.5593      0.7314    124.1253
  1621.0000      0.0000    732.3712      3.5450      0.7280    132.8938
  1621.2500      0.0000    725.8640      3.5362      0.7697    140.4628
  1621.5000      0.0000    716.7988      3.5270      0.8442    144.5372
  1621.7500      0.0000    712.4795      3.5015      0.9188    144.7343
  1622.0000      0.0000    714.3474      3.4503      0.9671    143.0930
  1622.2500      0.0000    718.7236      3.3832      0.9868    142.5043
  1622.5000      0.0000    721.3625      3.3212      0.9899    144.3714
  1622.7500      0.0000    720.2034      3.2807      0.9842    147.7400
  1623.0000      0.0000    715.1398      3.2646      0.9747    150.4132
  1623.2500      0.0000    706.6098      3.2657      0.9715    150.6788
  1623.5000      0.0000    694.9521      3.2777      0.9787    148.3117
  1623.7500      0.0000    681.2600      3.2992      0.9815    144.5673
  1624.0000      0.0000    668.3301      3.3300      0.9636    141.2952
  1624.2500      0.0000    659.8157      3.3653      0.9346    139.6056
  1624.5000      0.0000    658.3658      3.3989      0.9231    139.0802
  1624.7500      0.0000    664.5589      3.4276      0.9451    138.1479
  1625.0000      0.0000    676.7096      3.4528      0.9891    135.0632
  1625.2500      0.0000    691.2319      3.4803      1.0293    128.9601
  1625.5000      0.0000    704.0601      3.5191      1.0472    120.8571
  1625.7500      0.0000    712.5911      3.5719      1.0456    113.8648
  1626.0000      0.0000    716.3148      3.6255      1.0440    111.6049
  1626.2500      0.0000    715.7416      3.6538      1.0575    115.7237
  1626.5000      0.0000    711.4513      3.6363      1.0811    124.7645
  1626.7500      0.0000    704.4467      3.5751      1.0980    135.1890
  1627.0000      0.0000    696.7343      3.4932      1.1026    143.3691
  1627.2500      0.0000    690.5262      3.4177      1.1076    147.3705
  1627.5000      0.0000    686.5956      3.3645      1.1264    147.8179
  1627.7500      0.0000    683.9273      3.3375      1.1556    147.1932
  1628.0000      0.0000    681.2100      3.3328      1.1796    147.7697
  1628.2500      0.0000    678.2397      3.3420      1.1862    149.9518
  1628.5000      0.0000    675.6982      3.3543      1.1729    152.4976
  1628.7500      0.0000    674.1089      3.3617      1.1431    153.9643
  1629.0000      0.0000    673.3808      3.3645      1.1053    153.8114
  1629.2500      0.0000    673.0969      3.3672      1.0730    152.6161
  1629.5000      0.0000    672.9238      3.3716      1.0535    151.6468
  1629.7500      0.0000    672.7737      3.3738      1.0407    152.0470
  1630.0000      0.0000    672.7243      3.3691      1.0254    154.0101
  1630.2500      0.0000    672.8676      3.3570      1.0118    156.5026
  1630.5000      0.0000    673.2317      3.3432      1.0153    157.8060
  1630.7500      0.0000    673.8088      3.3377      1.0430    156.5625
  1631.0000      0.0000    674.5797      3.3503      1.0818    152.5152
  1631.2500      0.0000    675.4625      3.3859      1.1084    146.3184
  1631.5000      0.0000    676.2894      3.4406      1.1100    138.6530
  1631.7500      0.0000    676.9696      3.5013      1.0929    129.6575
  1632.0000      0.0000    677.7691      3.5534      1.0709    119.4927
  1632.2500      0.0000    679.4547      3.5893      1.0535    109.3977
  1632.5000      0.0000    683.0464      3.6106      1.0462    101.5860
  1632.7500      0.0000    689.3739      3.6195      1.0520     97.7038
  1633.0000      0.0000    698.7009      3.6107      1.0635     97.7620
  1633.2500      0.0000    710.0883      3.5752      1.0635    100.7527
  1633.5000      0.0000    720.6374      3.5124      1.0415    105.6931
  1633.7500      0.0000    726.4441      3.4343      1.0052    111.6564
  1634.0000      0.0000    725.5602      3.3594      0.9707    117.4478
  1634.2500      0.0000    719.0989      3.3027      0.9459    121.9860
  1634.5000      0.0000    708.7136      3.2723      0.9255    124.9959
  1634.7500      0.0000    694.9952      3.2690      0.8970    127.1142
  1635.0000      0.0000    679.3564      3.2852      0.8529    129.4581
  1635.2500      0.0000    665.2167      3.3055      0.8026    133.0613
  1635.5000      0.0000    655.8930      3.3148      0.7688    138.2184
  1635.7500      0.0000    652.2971      3.3095      0.7655    144.0353
  1636.0000      0.0000    652.9454      3.2986      0.7842    148.7615
  1636.2500      0.0000    655.2287      3.2913      0.8092    150.8748
  1636.5000      0.0000    656.7635      3.2894      0.8393    150.0631
  1636.7500      0.0000    656.7677      3.2908      0.8811    147.2450
  1637.0000      0.0000    656.5255      3.2959      0.9266    143.8350
  1637.2500      0.0000    658.0883      3.3068      0.9535    141.1177
  1637.5000      0.0000    662.3848      3.3209      0.9515    139.9628
  1637.7500      0.0000    668.6684      3.3291      0.9361    140.4528
  1638.0000      0.0000    675.3534      3.3234      0.9320    141.6652
  1638.2500      0.0000    680.9752      3.3064      0.9476    142.4826
  1638.5000      0.0000    684.8860      3.2912      0.9690    143.0901
  1638.7500      0.0000    688.0079      3.2905      0.9738    145.0177
  1639.0000      0.0000    692.6820      3.3097      0.9513    149.0303
  1639.2500      0.0000    700.5223      3.3464      0.9117    153.4701
  1639.5000      0.0000    710.1198      3.3922      0.8765    155.4577
  1639.7500      0.0000    717.6992      3.4372      0.8594    153.5628
  1640.0000      0.0000    720.1950      3.4752      0.8603    148.9281
  1640.2500      0.0000    716.9067      3.5031      0.8733    143.9697
  1640.5000      0.0000    708.8284      3.5176      0.8968    140.3755
  1640.7500      0.0000    698.4618      3.5179      0.9333    138.3996
  1641.0000      0.0000    690.3047      3.5153      0.9815    137.5216
  1641.2500      0.0000    689.1156      3.5305      1.0312    136.8844
  1641.5000      0.0000    696.1740      3.5759      1.0684    135.0078
  1641.7500      0.0000    707.5236      3.6383      1.0846    130.1672
  1642.0000      0.0000    716.3564      3.6854      1.0811    121.8800
  1642.2500      0.0000    717.6730      3.6904      1.0678    111.8239
  1642.5000      0.0000    711.3724      3.6513      1.0600    103.0702
  1642.7500      0.0000    701.4866      3.5891      1.0678     98.4995
  1643.0000      0.0000    693.0412      3.5261      1.0817     99.8283
  1643.2500      0.0000    689.6670      3.4686      1.0758    107.5891
  1643.5000      0.0000    692.3749      3.4108      1.0335    121.2875
  1643.7500      0.0000    698.4704      3.3532      0.9673    139.0422
  1644.0000      0.0000    702.3288      3.3086      0.9048    157.4208
