~Version Information
VERS.                      2.0: CWLS Log ASCII Standard - VERSION 2.0
WRAP.                       NO: One line per depth step
~Well Information Block
STRT.FT               694.2000: 
STOP.FT              1498.5000: 
STEP.FT                 0.1000: 
NULL.                -999.2500: 
COMP.          Pioneer Natural Resources: COMPANY
WELL.          Pallet Ranch 34-25 Tr: WELL
FLD.           Purgatoire River: FIELD
LOC.           465' FSL & 2138' FEL: LOCATION
PROV.                 Colorado: PROVINCE
CNTY.               Las Animas: COUNTRY
SRVC.                Patterson: SERVICE COMPANY
DATE.          Thu Jan 19 06:39:54 2006: LOG DATE
UWI.           05 071 08657 00: UNIQUE WELL ID
~Curve Information Block
DEPT.FT            0 000 00 00: Depth
DCAL.in                       : CDL Caliper
RHOB.g/cc                     : CDL Bulk Density
RHOC.g/cc                     : CDL Density Correction
DPOR.pu                       : CDL Density Porosity
GR.GAPI                       : Gamma Ray
~Parameter Information Block
~A  Depth       DCAL        RHOB        RHOC        DPOR         GR     
# ...
   806.2000      8.0704      2.5980      0.0324      3.1509    125.0596
   806.3000      7.9885      2.5789      0.0310      4.3105    122.9027
   806.4000      7.9885      2.5648      0.0715      5.1631    121.6564
   806.5000      7.9661      2.5625      0.0172      5.3057    123.1179
   806.6000      7.9661      2.5801      0.0094      4.2376    123.8394
   806.7000      7.9661      2.6104      0.0408      2.4006    123.9637
   806.8000      7.9627      2.6325      0.0271      1.0636    129.1836
   806.9000      7.9627      2.6349      0.0176      0.9143    136.8054
   807.0000      7.9655      2.6137      0.0584      2.2015    139.2359
   807.1000      7.9655      2.5799     -0.0150      4.2472    138.2319
   807.2000      7.9655      2.5610      0.0053      5.3928    137.3233
   807.3000      7.9863      2.5689     -0.0128      4.9130    134.5493
   807.4000      7.9863      2.5921      0.0721      3.5067    127.8571
   807.5000      7.9699      2.6196      0.0280      1.8405    118.9447
   807.6000      7.9699      2.6582      0.0839     -0.4985    114.7866
   807.7000      7.9699      2.7028      0.1077     -3.2024    120.1924
   807.8000      7.9452      2.7297      0.1460     -4.8327    126.2247
   807.9000      7.9452      2.7342      0.1265     -5.1055    123.1674
   808.0000      7.9474      2.7369      0.0764     -5.2662    115.3562
   808.1000      7.9474      2.7516      0.1048     -6.1599    110.0286
   808.2000      7.9474      2.7629      0.0908     -6.8395    108.2699
   808.3000      7.9315      2.7475      0.0360     -5.9069    108.5036
   808.4000      7.9315      2.7128      0.0051     -3.8079    109.8591
   808.5000      7.9296      2.6895      0.0644     -2.3929    112.3568
   808.6000      7.9296      2.6891      0.0646     -2.3722    115.8475
   808.7000      7.9296      2.6953      0.0692     -2.7469    118.3531
   808.8000      7.9590      2.6900      0.0733     -2.4241    119.4507
   808.9000      7.9590      2.6706      0.0412     -1.2472    123.5174
   809.0000      7.9741      2.6439      0.0320      0.3714    131.2603
   809.1000      7.9741      2.6083      0.0827      2.5246    135.4709
   809.2000      7.9741      2.5638     -0.0040      5.2254    130.6364
   809.3000      7.9466      2.5272     -0.0143      7.4449    121.7879
   809.4000      7.9466      2.5101     -0.0245      8.4776    117.3950
   809.5000      7.9532      2.5137      0.0322      8.2636    122.0055
   809.6000      7.9532      2.5420      0.0083      6.5471    131.9628
   809.7000      7.9532      2.5881      0.1427      3.7496    136.4699
   809.8000      7.9607      2.6207      0.1436      1.7775    132.9818
   809.9000      7.9607      2.6240      0.0881      1.5768    127.1113
   810.0000      7.9497      2.6109      0.0846      2.3676    121.7301
   810.1000      7.9497      2.5855      0.1100      3.9100    119.4029
   810.2000      7.9497      2.5507      0.0294      6.0153    118.3037
   810.3000      7.9492      2.5270      0.0151      7.4569    113.9726
   810.4000      7.9492      2.5298      0.0067      7.2819    109.5632
   810.5000      7.9198      2.5643      0.0238      5.1942    110.2104
   810.6000      7.9198      2.6190      0.1015      1.8763    111.4743
   810.7000      7.9198      2.6633      0.1085     -0.8087    109.4638
   810.8000      7.9127      2.6841      0.1211     -2.0650    107.4675
   810.9000      7.9127      2.6908      0.1895     -2.4724    106.6795
   811.0000      7.9192      2.6832      0.1623     -2.0136    104.6006
   811.1000      7.9192      2.6508      0.1154     -0.0465     99.4764
   811.2000      7.9192      2.6032      0.0431      2.8346     94.1700
   811.3000      7.9226      2.5728     -0.0192      4.6775     93.2060
   811.4000      7.9226      2.5712      0.0607      4.7743     97.0015
   811.5000      7.9210      2.5814      0.0380      4.1601    100.6550
   811.6000      7.9210      2.5912      0.0333      3.5631    101.9536
   811.7000      7.9210      2.5988      0.0787      3.1005    106.3408
   811.8000      7.9382      2.6091      0.0407      2.4764    114.7095
   811.9000      7.9382      2.6228      0.0684      1.6510    120.3900
   812.0000      7.9692      2.6249      0.0149      1.5236    118.5145
   812.1000      7.9692      2.6131      0.0359      2.2342    111.0967
   812.2000      7.9692      2.5984      0.0333      3.1243    103.2973
   812.3000      7.9921      2.5909     -0.0117      3.5814     96.3903
   812.4000      7.9921      2.5945      0.0882      3.3662     91.0717
   812.5000      7.9678      2.5929      0.0566      3.4614     88.4589
   812.6000      7.9678      2.5734      0.0095      4.6413     85.7388
   812.7000      7.9678      2.5464     -0.0029      6.2765     83.2172
   812.8000      7.9498      2.5263     -0.0261      7.4965     85.6404
   812.9000      7.9498      2.5225     -0.0178      7.7259     90.1401
   813.0000      8.0229      2.5388     -0.0442      6.7402     89.9313
   813.1000      8.0229      2.5644      0.0026      5.1873     84.3642
   813.2000      8.0229      2.5756      0.0029      4.5119     76.9870
   813.3000      8.0061      2.5626      0.0306      5.2984     73.1934
   813.4000      8.0061      2.5475     -0.0226      6.2125     75.4887
   813.5000      8.0097      2.5556      0.0438      5.7202     80.6779
   813.6000      8.0097      2.5828      0.0355      4.0734     82.6673
   813.7000      8.0097      2.6108      0.1054      2.3786     77.7852
   813.8000      7.9836      2.6232      0.1534      1.6237     69.7053
   813.9000      7.9836      2.6134      0.1252      2.2202     63.9745
   814.0000      7.9669      2.5919      0.1497      3.5222     60.9860
   814.1000      7.9669      2.5717      0.1600      4.7480     59.9377
   814.2000      7.9669      2.5575      0.1429      5.6070     61.8779
   814.3000      7.9233      2.5509      0.1458      6.0085     65.3902
   814.4000      7.9233      2.5489      0.1391      6.1284     66.7701
   814.5000      7.9051      2.5429      0.1266      6.4903     66.2845
   814.6000      7.9051      2.5313      0.1055      7.1951     66.4259
   814.7000      7.9051      2.5258      0.0885      7.5288     66.1095
   814.8000      7.9151      2.5263      0.1229      7.4945     63.4455
   814.9000      7.9151      2.5158      0.0951      8.1313     59.5361
   815.0000      7.9500      2.4932      0.0463      9.5015     56.7278
   815.1000      7.9500      2.4707      0.0430     10.8653     57.3697
   815.2000      7.9500      2.4552      0.0077     11.8069     62.3369
   815.3000      7.9648      2.4576     -0.0475     11.6602     67.5583
   815.4000      7.9648      2.4904     -0.0160      9.6729     68.9534
   815.5000      7.9601      2.5454      0.1284      6.3403     68.0660
   815.6000      7.9601      2.5925      0.1334      3.4867     67.9149
   815.7000      7.9601      2.6084      0.1445      2.5207     67.3851
   815.8000      7.9450      2.5977      0.1095      3.1710     65.7956
   815.9000      7.9450      2.5821      0.0908      4.1125     64.5286
   816.0000      7.9334      2.5734      0.0904      4.6454     62.5806
   816.1000      7.9334      2.5649      0.1192      5.1555     58.9466
   816.2000      7.9334      2.5493      0.0636      6.1013     57.9906
   816.3000      7.9292      2.5344      0.0645      7.0088     63.0235
   816.4000      7.9292      2.5337      0.0410      7.0502     68.9292
   816.5000      7.9325      2.5433      0.0885      6.4688     70.3567
   816.6000      7.9325      2.5461      0.0719      6.2997     69.8135
   816.7000      7.9325      2.5378      0.0217      6.8021     71.8393
   816.8000      7.9539      2.5308      0.0248      7.2265     76.9379
   816.9000      7.9539      2.5362      0.0671      6.8946     83.3865
   817.0000      7.9606      2.5538      0.0612      5.8313     86.2651
   817.1000      7.9606      2.5753      0.1034      4.5262     82.9534
   817.2000      7.9606      2.5877      0.1271      3.7781     77.9106
   817.3000      7.9871      2.5778      0.1230      4.3777     76.0211
