~Version Information
VERS.                      2.0: CWLS Log ASCII Standard - VERSION 2.0
WRAP.                       NO: One line per depth step
~Well Information Block
STRT.FT                 0.0000: 
STOP.FT              2072.7500: 
STEP.FT                 0.2500: 
NULL.                -999.2500: 
COMP.          Pioneer Natural Resources: COMPANY
WELL.          Greenwood 43-29 Tr: WELL
FLD.           Purgatorie River: FIELD
LOC.           1478' FSL & 744' FEL: LOCATION
STAT.                 Colorado: State
CNTY.               Las Animas: COUNTY
CTRY. USA : Country
SECT. 29 : Section
TOWN. 32S : Township
RANG. 67W : Range
SRVC.                Patterson: SERVICE COMPANY
DATE.          Tue Sep 06 12:54:40 2005: LOG DATE
API. 05-071-08478                          : UNIQUE WELL ID
~Curve Information Block
DEPT.FT            0 000 00 00: Depth
GR.GAPI                       : Gamma Ray
CCL.                          : Casing Collar Locator
TT3.usec                      : CBL 3' Travel Time
AMP3.mV                       : CBL 3' Amplitude
~Parameter Information Block
~A  Depth        GR         CCL         TT3         AMP3    
     0.0000   -999.2500   -999.2500   1200.0000      0.8079
     0.2500   -999.2500   -999.2500   1200.0000      0.7916
     0.5000   -999.2500   -999.2500   1200.0000      0.7981
     0.7500   -999.2500   -999.2500   1200.0000      0.8018
     1.0000   -999.2500   -999.2500   1200.0000      0.7986
     1.2500   -999.2500   -999.2500   1200.0000      0.8018
     1.5000   -999.2500   -999.2500   1200.0000      0.8173
     1.7500   -999.2500   -999.2500   1200.0000      0.8336
     2.0000   -999.2500      0.0000   1200.0000      0.8390
     2.2500   -999.2500      0.0000   1200.0000      0.8316
     2.5000   -999.2500      0.0000   1200.0000      0.8161
     2.7500   -999.2500      0.0000   1200.0000      0.7986
     3.0000   -999.2500      0.0000   1200.0000      0.7850
     3.2500   -999.2500      0.0000   1200.0000      0.7769
     3.5000   -999.2500      0.0000   1200.0000      0.7717
     3.7500   -999.2500      0.0000   1200.0000      0.7685
     4.0000   -999.2500      0.0000   1200.0000      0.7706
     4.2500   -999.2500      0.0000   1200.0000      0.7805
     4.5000   -999.2500      0.0000   1200.0000      0.7964
     4.7500   -999.2500      0.0000   1200.0000      0.8136
     5.0000   -999.2500      0.0000   1200.0000      0.8255
     5.2500   -999.2500      0.0000   1200.0000      0.8291
     5.5000   -999.2500      0.0000   1200.0000      0.8280
     5.7500   -999.2500      0.0000   1200.0000      0.8279
     6.0000   -999.2500      0.0000   1200.0000      0.8286
     6.2500   -999.2500      0.0000   1200.0000      0.8232
     6.5000   -999.2500      0.0000   1200.0000      0.8066
     6.7500   -999.2500      0.0000   1200.0000      0.7818
     7.0000   -999.2500      0.0000   1200.0000      0.7599
     7.2500   -999.2500      0.0000   1200.0000      0.7514
     7.5000   -999.2500      0.0000   1200.0000      0.7582
     7.7500     60.5207      0.0000   1200.0000      0.7706
     8.0000     61.4319      0.0000   1200.0000      0.7759
     8.2500     62.0512      0.0000   1200.0000      0.7749
     8.5000     63.3206      0.0000   1200.0000      0.7763
     8.7500     65.7730      0.0000   1200.0000      0.7772
     9.0000     68.9311      0.0000   1200.0000      0.7669
     9.2500     71.3314      0.0000   1200.0000      0.7521
     9.5000     71.6482      0.0000   1200.0000      0.7539
     9.7500     69.9050      0.0000   1200.0000      0.7735
    10.0000     67.3931      0.0000   1200.0000      0.7908
    10.2500     65.3196      0.0000   1200.0000      0.7960
    10.5000     63.7490      0.0000   1200.0000      0.8011
    10.7500     61.9412      0.0000   1200.0000      0.8161
    11.0000     59.3192      0.0000   1200.0000      0.8306
    11.2500     55.8099      0.0000   1200.0000      0.8267
    11.5000     51.6078      0.0000   1200.0000      0.8023
    11.7500     47.1489      0.0000   1200.0000      0.7730
    12.0000     43.3240      0.0000   1199.9574      0.7588
    12.2500     41.2621      0.0000   1199.4669      0.7698
    12.5000     41.6279      0.0000   1195.8475      0.8010
    12.7500     44.1340      0.0000   1178.6860      0.8480
    13.0000     47.7177      0.0000   1126.3723      0.9386
    13.2500     51.1398      0.0000   1022.4889      1.2773
    13.5000     53.5322      0.0000    881.6124      2.6497
    13.7500     54.6412      0.0000    731.9372      6.6749
    14.0000     54.6153      0.0000    579.7513     14.4597
    14.2500     53.5521      0.0000    432.8656     24.1859
    14.5000     51.4538      0.0000    323.0057     32.0030
    14.7500     48.6674      0.0000    267.1837     36.0585
    15.0000     46.0121      0.0000    248.7008     37.4464
    15.2500     44.3115      0.0000    244.6943     37.8091
    15.5000     43.9368      0.0000    244.0797     37.9550
    15.7500     44.6833      0.0000    244.0171     38.0727
    16.0000     45.8140      0.0000    244.0503     38.1545
    16.2500     46.3384      0.0000    244.0821     38.2061
    16.5000     45.6304      0.0000    244.0798     38.2664
    16.7500     43.9332      0.0000    244.0420     38.3374
    17.0000     42.1037      0.0000    243.9938     38.3753
    17.2500     40.7384      0.0000    243.9650     38.3587
    17.5000     39.7173      0.0000    243.9656     38.3182
    17.7500     38.7575      0.0000    243.9789     38.2899
    18.0000     38.1371      0.0000    243.9864     38.2689
    18.2500     38.4684      0.0000    243.9923     38.2285
    18.5000     39.7406      0.0000    243.9951     38.1813
    18.7500     40.9503      0.0000    243.9733     38.1801
    19.0000     40.9038      0.0000    243.9319     38.2420
    19.2500     39.3001      0.0000    243.9114     38.3210
    19.5000     36.9322      0.0000    243.9266     38.3753
    19.7500     34.9954      0.0000    243.9441     38.4157
    20.0000     34.3918      0.0000    243.9329     38.4759
    20.2500     35.5476      0.0000    243.8985     38.5640
    20.5000     38.4803      0.0000    243.8624     38.6553
    20.7500     42.7727      0.0000    243.8366     38.7301
    21.0000     47.5706      0.0000    243.8165     38.7972
    21.2500     51.8290      0.0000    243.7975     38.8560
    21.5000     54.6901      0.0000    243.7870     38.8768
    21.7500     55.8514      0.0000    243.7843     38.8531
    22.0000     55.8504      0.0000    243.7715     38.8318
    22.2500     55.8915      0.0000    243.7386     38.8635
    22.5000     57.1953      0.0000    243.7000     38.9461
    22.7500     60.5709      0.0000    243.6694     39.0343
    23.0000     66.3464      0.0000    243.6388     39.0934
    23.2500     74.0545      0.0000    243.6016     39.1252
    23.5000     82.1543      0.0000    243.5780     39.1477
    23.7500     88.6231      0.0000    243.5925     39.1652
    24.0000     92.0572      0.0000    243.6421     39.1677
    24.2500     92.2566      0.0000    243.7112     39.1613
    24.5000     90.2043      0.0000    243.8360     39.1838
    24.7500     87.7150      0.0000    244.2330     39.2603
    25.0000     86.6493      0.0000    245.5484     39.3616
    25.2500     87.8583      0.0000    248.9645     39.4433
    25.5000     90.6193      0.0000    255.1854     39.5059
    25.7500     93.1945      0.0000    262.7465     39.5826
    26.0000     94.1824      0.0000    268.7923     39.6764
    26.2500     93.4522      0.0000    272.0398     39.7451
    26.5000     91.8471      0.0000    273.3531     39.7626
    26.7500     90.1776      0.0000    273.9026     39.7523
    27.0000     88.6678      0.0000    274.2062     39.7388
    27.2500     87.2700      0.0000    274.3860     39.7147
    27.5000     86.2879      0.0000    274.4749     39.6777
    27.7500     86.6451      0.0000    274.4956     39.6590
    28.0000     89.5950      0.0000    274.4761     39.6900
    28.2500     95.8357      0.0000    274.4516     39.7524
    28.5000    104.4201      0.0000    274.4449     39.7898
    28.7500    112.6693      0.0000    274.4577     39.7743
    29.0000    117.7833      0.0000    274.4800     39.7370
    29.2500    118.6567      0.0000    274.5032     39.7254
    29.5000    115.9644      0.0000    274.5255     39.7404
    29.7500    111.0739      0.0000    274.5410     39.7307
    30.0000    105.4959      0.0000    274.5371     39.6557
    30.2500    100.7967      0.0000    274.5139     39.5406
    30.5000     98.0014      0.0000    274.4877     39.4520
    30.7500     96.8894      0.0000    274.4664     39.4288
    31.0000     96.1538      0.0000    274.4460     39.4639
    31.2500     94.3624      0.0000    274.4310     39.5436
    31.5000     90.9670      0.0000    274.4314     39.6563
    31.7500     86.5501      0.0000    274.4488     39.7632
    32.0000     82.0588      0.0000    274.4736     39.8129
    32.2500     77.8983      0.0000    274.4950     39.7945
    32.5000     74.0857      0.0000    274.5121     39.7510
    32.7500     71.0795      0.0000    274.5339     39.7332
    33.0000     69.6982      0.0000    274.5653     39.7504
    33.2500     70.1324      0.0000    274.6008     39.7708
