~Version Information
VERS.                      2.0: CWLS Log ASCII Standard - VERSION 2.0
WRAP.                       NO: One line per depth step
~Well Information Block
STRT.FT               620.0000: 
STOP.FT              3067.2000: 
STEP.FT                 0.1000: 
NULL.                -999.2500: 
COMP.          Pioneer Natural Resources: COMPANY
WELL.          Interceptor 43-13 Kv: WELL
FLD.           Purgatoire River: FIELD
LOC.           2073' FSL & 519' FEL--: LOCATION
PROV.                 Colorado: PROVINCE
CNTY.               Las Animas: COUNTRY
SRVC.                Patterson: SERVICE COMPANY
DATE.          Sat Jan 14 20:27:27 2006: LOG DATE
UWI.           05 071 08655 00: UNIQUE WELL ID
~Curve Information Block
DEPT.FT            0 000 00 00: Depth
DCAL.in                       : CDL Caliper
RHOB.g/cc                     : CDL Bulk Density
RHOC.g/cc                     : CDL Density Correction
DPOR.pu                       : CDL Density Porosity
NPOR.pu                       : Neutron Porosity
GR.GAPI                       : Gamma Ray
~Parameter Information Block
~A  Depth       DCAL        RHOB        RHOC        DPOR        NPOR         GR     
# ...
   783.2000      7.9735      2.4706      0.0334     10.8756     16.7995     66.9067
   783.3000      7.9700      2.4981      0.0504      9.2040     16.8630     65.5696
   783.4000      7.9700      2.5258      0.0874      7.5270     17.2555     64.6239
   783.5000      7.9646      2.5440      0.0685      6.4267     17.8224     65.6965
   783.6000      7.9646      2.5462      0.0838      6.2899     18.4250     67.6748
   783.7000      7.9646      2.5350      0.0604      6.9691     18.6890     70.0865
   783.8000      7.9632      2.5174      0.0790      8.0336     18.3687     72.3199
   783.9000      7.9632      2.5034      0.0170      8.8870     17.8766     74.0229
   784.0000      7.9654      2.4942      0.0564      9.4403     17.8909     74.2072
   784.1000      7.9654      2.4705      0.0804     10.8770     18.5178     72.2680
   784.2000      7.9654      2.4338     -0.0103     13.1054     19.2909     73.0441
   784.3000      7.9658      2.4179     -0.0436     14.0648     19.6665     77.2012
   784.4000      7.9658      2.4318      0.0220     13.2254     19.4115     78.5392
   784.5000      7.9665      2.4492      0.0220     12.1692     18.9059     76.1350
   784.6000      7.9665      2.4482      0.0687     12.2299     18.6131     74.0953
   784.7000      7.9665      2.4280      0.0154     13.4538     18.4596     73.2397
   784.8000      7.9656      2.4070     -0.0134     14.7280     18.2034     72.7222
   784.9000      7.9656      2.3959      0.0037     15.4021     17.9739     73.9567
   785.0000      7.9616      2.3897      0.0040     15.7782     17.8974     76.1938
   785.1000      7.9616      2.3930     -0.0132     15.5773     17.8867     75.5997
   785.2000      7.9616      2.4126      0.0722     14.3865     17.8620     70.6904
   785.3000      7.9600      2.4351      0.0950     13.0238     17.7995     67.1668
   785.4000      7.9600      2.4482      0.0732     12.2281     17.5547     71.0307
   785.5000      7.9642      2.4583      0.0805     11.6191     17.0792     78.5642
   785.6000      7.9642      2.4675      0.0615     11.0634     16.7461     83.4352
   785.7000      7.9642      2.4718      0.0565     10.7973     16.6379     85.0832
   785.8000      7.9710      2.4740      0.0472     10.6661     16.6365     83.0472
   785.9000      7.9710      2.4667      0.1038     11.1097     16.9430     75.4699
   786.0000      7.9745      2.4421      0.0172     12.6005     17.4917     66.2198
   786.1000      7.9745      2.4216      0.0281     13.8408     17.6664     61.6267
   786.2000      7.9745      2.4226      0.0654     13.7794     17.2523     62.8649
   786.3000      7.9743      2.4316      0.0713     13.2344     16.8410     64.4315
   786.4000      7.9743      2.4383      0.0290     12.8306     16.9214     63.1641
   786.5000      7.9744      2.4471      0.0271     12.2993     17.2472     61.1244
   786.6000      7.9744      2.4534      0.0772     11.9134     17.1641     58.1036
   786.7000      7.9744      2.4522      0.0423     11.9907     16.5548     53.7245
   786.8000      7.9750      2.4453      0.0478     12.4086     15.7732     51.6999
   786.9000      7.9750      2.4262      0.0493     13.5649     15.1675     53.7780
   787.0000      7.9743      2.3982     -0.0115     15.2612     14.9189     55.1806
   787.1000      7.9743      2.3905     -0.0320     15.7266     14.8469     51.8023
   787.2000      7.9743      2.4166      0.0319     14.1434     14.7226     48.1087
   787.3000      7.9757      2.4523      0.0395     11.9831     14.6381     49.1437
   787.4000      7.9757      2.4713      0.0854     10.8327     14.7750     53.2926
   787.5000      7.9766      2.4689      0.0694     10.9769     14.8455     57.6211
   787.6000      7.9766      2.4529      0.0283     11.9424     14.5221     59.7950
   787.7000      7.9766      2.4421      0.0128     12.6011     14.2883     58.9835
   787.8000      7.9740      2.4535      0.0258     11.9116     14.4711     56.7545
   787.9000      7.9740      2.4766      0.0758     10.5109     14.7026     54.6809
   788.0000      7.9725      2.4893      0.0718      9.7383     14.8329     53.3104
   788.1000      7.9725      2.4895      0.0702      9.7262     14.9704     52.8169
   788.2000      7.9725      2.4844      0.0617     10.0362     15.0896     55.2100
   788.3000      7.9750      2.4722      0.0645     10.7765     15.0494     61.1650
   788.4000      7.9750      2.4582      0.0331     11.6252     14.7458     64.4962
   788.5000      7.9783      2.4622      0.0635     11.3839     14.3379     60.8184
   788.6000      7.9783      2.4857      0.0799      9.9566     14.2862     57.6491
   788.7000      7.9783      2.5054      0.1021      8.7618     14.8193     62.1643
   788.8000      7.9791      2.5060      0.0870      8.7254     15.5206     70.9504
   788.9000      7.9791      2.4954      0.1241      9.3695     16.0021     77.7781
   789.0000      7.9796      2.4880      0.1188      9.8164     16.3947     79.1894
   789.1000      7.9796      2.4912      0.0673      9.6253     16.9726     76.0725
   789.2000      7.9796      2.4954      0.0672      9.3706     17.5854     72.4364
   789.3000      7.9811      2.4877      0.0806      9.8353     17.8060     70.8291
   789.4000      7.9811      2.4784      0.0205     10.4030     17.5130     70.0611
   789.5000      7.9817      2.4834      0.0148     10.0951     17.1416     70.0140
   789.6000      7.9817      2.4883      0.0772      9.8005     17.1121     72.0025
   789.7000      7.9817      2.4683      0.0415     11.0094     17.1635     73.8039
   789.8000      7.9814      2.4407     -0.0147     12.6830     16.9383     72.9001
   789.9000      7.9814      2.4384      0.0344     12.8258     16.6520     70.7600
   790.0000      7.9803      2.4516      0.0388     12.0239     16.4630     69.0258
   790.1000      7.9803      2.4514      0.0329     12.0350     16.3894     67.0020
   790.2000      7.9803      2.4377     -0.0054     12.8647     16.5218     66.0002
   790.3000      7.9789      2.4261      0.0111     13.5701     16.8843     65.6232
   790.4000      7.9789      2.4149      0.0228     14.2477     17.2853     63.6738
   790.5000      7.9776      2.3989     -0.0030     15.2174     17.4206     62.1590
   790.6000      7.9776      2.3933     -0.0322     15.5550     17.1635     63.0277
   790.7000      7.9776      2.4099      0.0131     14.5537     16.5943     65.4301
   790.8000      7.9754      2.4245      0.0915     13.6695     15.9130     67.6597
   790.9000      7.9754      2.4116      0.0376     14.4504     15.2071     67.3591
   791.0000      7.9736      2.3828      0.0154     16.1958     14.5592     64.5675
   791.1000      7.9736      2.3679     -0.0450     17.0958     14.2808     62.2741
   791.2000      7.9736      2.3797      0.0182     16.3800     14.5549     61.4781
   791.3000      7.9729      2.4032      0.0468     14.9577     15.0452     62.3000
   791.4000      7.9729      2.4223      0.0210     13.8015     15.1970     67.0182
   791.5000      7.9727      2.4353      0.0509     13.0144     15.0616     71.8146
   791.6000      7.9727      2.4457      0.0360     12.3816     15.0340     70.6427
   791.7000      7.9727      2.4553      0.0583     11.8022     15.1437     67.2950
   791.8000      7.9739      2.4601      0.0475     11.5079     15.2137     66.6233
   791.9000      7.9739      2.4624      0.0374     11.3721     15.3296     67.9520
   792.0000      7.9749      2.4726      0.0242     10.7523     15.8512     71.6204
   792.1000      7.9749      2.4903      0.0726      9.6797     16.6462     76.7540
   792.2000      7.9749      2.5029      0.0499      8.9123     17.2561     78.6520
   792.3000      7.9765      2.5070      0.0435      8.6663     17.7990     76.3772
   792.4000      7.9765      2.5050      0.0109      8.7864     18.6715     73.5958
   792.5000      7.9779      2.5010     -0.0085      9.0307     19.9830     74.0198
   792.6000      7.9779      2.5041      0.0088      8.8427     21.4120     79.6859
   792.7000      7.9779      2.5222      0.0232      7.7468     22.4160     87.1124
