~Version Information
VERS.                      2.0: CWLS Log ASCII Standard - VERSION 2.0
WRAP.                       NO: One line per depth step
~Well Information Block
STRT.FT                -6.2500: 
STOP.FT              2245.0000: 
STEP.FT                 0.0500: 
NULL.                -999.2500: 
COMP.          Pioneer Natural Resources: COMPANY
WELL.          Roadster 41-33 Kv: WELL
FLD.           Purgatoire River: FIELD
LOC.           903' FNL & 248' FEL--: LOCATION
PROV.                 Colorado: PROVINCE
CNTY.               Las Animas: COUNTRY
SRVC.                Patterson: SERVICE COMPANY
DATE.          Tue Jan 17 11:20:00 2006: LOG DATE
UWI.           05 071 08615 00: UNIQUE WELL ID
~Curve Information Block
DEPT.FT            0 000 00 00: Depth
CCL.                          : Casing Collar Locator
TT3.usec                      : CBL 3' Travel Time
AMP3.mV                       : CBL 3' Amplitude
GR.GAPI                       : Gamma Ray
~Parameter Information Block
~A  Depth       CCL         TT3         AMP3         GR     
# ...
     0.4500   -999.2500   1491.0000      1.4783     18.7344
     0.5000   -999.2500   1491.0000      1.4885     11.5757
     0.5500   -999.2500   1491.0000      1.4885     11.5757
     0.6000   -999.2500   1491.0000      1.4885     11.5757
     0.6500   -999.2500   1491.0000      1.4885     11.5757
     0.7000   -999.2500   1491.0000      1.4885     11.5757
     0.7500   -999.2500   1491.0000      1.4845      5.0895
     0.8000   -999.2500   1491.0000      1.4845      5.0895
     0.8500   -999.2500   1491.0000      1.4845      5.0895
     0.9000   -999.2500   1491.0000      1.4845      5.0895
     0.9500   -999.2500   1491.0000      1.4845      5.0895
     1.0000   -999.2500   1491.0000      1.4694     -0.2109
     1.0500   -999.2500   1491.0000      1.4694     -0.2109
     1.1000   -999.2500   1491.0000      1.4694     -0.2109
     1.1500   -999.2500   1491.0000      1.4694     -0.2109
     1.2000   -999.2500   1491.0000      1.4694     -0.2109
     1.2500   -999.2500   1491.0000      1.4514     -3.0867
     1.3000   -999.2500   1491.0000      1.4514     -3.0867
     1.3500   -999.2500   1491.0000      1.4514     -3.0867
     1.4000   -999.2500   1491.0000      1.4514     -3.0867
     1.4500   -999.2500   1491.0000      1.4514     -3.0867
     1.5000   -999.2500   1491.0000      1.4209      1.0898
     1.5500   -999.2500   1491.0000      1.4209      1.0898
     1.6000   -999.2500   1491.0000      1.4209      1.0898
     1.6500   -999.2500   1491.0000      1.4209      1.0898
     1.7000   -999.2500   1491.0000      1.4209      1.0898
     1.7500   -999.2500   1491.0000      1.4124      7.1421
     1.8000   -999.2500   1491.0000      1.4124      7.1421
     1.8500   -999.2500   1491.0000      1.4124      7.1421
     1.9000   -999.2500   1491.0000      1.4124      7.1421
     1.9500   -999.2500   1491.0000      1.4124      7.1421
     2.0000   -999.2500   1491.0000      1.4160     14.5295
     2.0500   -999.2500   1491.0000      1.4160     14.5295
     2.1000   -999.2500   1491.0000      1.4160     14.5295
     2.1500   -999.2500   1491.0000      1.4160     14.5295
     2.2000   -999.2500   1491.0000      1.4160     14.5295
     2.2500   -999.2500   1491.0000      1.4363     21.9406
     2.3000   -999.2500   1491.0000      1.4363     21.9406
     2.3500   -999.2500   1491.0000      1.4363     21.9406
     2.4000   -999.2500   1491.0000      1.4363     21.9406
     2.4500   -999.2500   1491.0000      1.4363     21.9406
     2.5000   -999.2500   1491.0000      1.4700     27.7977
     2.5500   -999.2500   1491.0000      1.4700     27.7977
     2.6000   -999.2500   1491.0000      1.4700     27.7977
     2.6500   -999.2500   1491.0000      1.4700     27.7977
     2.7000   -999.2500   1491.0000      1.4700     27.7977
     2.7500   -999.2500   1491.0000      1.5053     31.1124
     2.8000   -999.2500   1491.0000      1.5053     31.1124
     2.8500   -999.2500   1491.0000      1.5053     31.1124
     2.9000   -999.2500   1491.0000      1.5053     31.1124
     2.9500   -999.2500   1491.0000      1.5053     31.1124
     3.0000   -999.2500   1491.0000      1.5282     32.3405
     3.0500   -999.2500   1491.0000      1.5282     32.3405
     3.1000   -999.2500   1491.0000      1.5282     32.3405
     3.1500   -999.2500   1491.0000      1.5282     32.3405
     3.2000   -999.2500   1491.0000      1.5282     32.3405
     3.2500   -999.2500   1491.0000      1.5310     33.0465
     3.3000   -999.2500   1491.0000      1.5310     33.0465
     3.3500   -999.2500   1491.0000      1.5310     33.0465
     3.4000   -999.2500   1491.0000      1.5310     33.0465
     3.4500   -999.2500   1491.0000      1.5310     33.0465
     3.5000   -999.2500   1491.0000      1.5194     34.5758
     3.5500   -999.2500   1491.0000      1.5194     34.5758
     3.6000   -999.2500   1491.0000      1.5194     34.5758
     3.6500   -999.2500   1491.0000      1.5194     34.5758
     3.7000   -999.2500   1491.0000      1.5194     34.5758
     3.7500   -999.2500   1491.0000      1.5082     37.1002
     3.8000      0.0000   1491.0000      1.5082     37.1002
     3.8500      0.0000   1491.0000      1.5082     37.1002
     3.9000      0.0000   1491.0000      1.5082     37.1002
     3.9500      0.0000   1491.0000      1.5082     37.1002
     4.0000      0.0000   1491.0000      1.5084     39.8659
     4.0500      0.0000   1491.0000      1.5084     39.8659
     4.1000      0.0000   1491.0000      1.5084     39.8659
     4.1500      0.0000   1491.0000      1.5084     39.8659
     4.2000      0.0000   1491.0000      1.5084     39.8659
     4.2500      0.0000   1491.0000      1.5189     42.0980
     4.3000      0.0000   1491.0000      1.5189     42.0980
     4.3500      0.0000   1491.0000      1.5189     42.0980
     4.4000      0.0000   1491.0000      1.5189     42.0980
     4.4500      0.0000   1491.0000      1.5189     42.0980
     4.5000      0.0000   1491.0000      1.5311     43.6049
     4.5500      0.0000   1491.0000      1.5311     43.6049
     4.6000      0.0000   1491.0000      1.5311     43.6049
     4.6500      0.0000   1491.0000      1.5311     43.6049
     4.7000      0.0000   1491.0000      1.5311     43.6049
     4.7500      0.0000   1491.0000      1.5377     45.0229
     4.8000      0.0000   1491.0000      1.5377     45.0229
     4.8500      0.0000   1491.0000      1.5377     45.0229
     4.9000      0.0000   1491.0000      1.5377     45.0229
     4.9500      0.0000   1491.0000      1.5377     45.0229
     5.0000      0.0000   1491.0000      1.5364     47.8274
     5.0500      0.0000   1491.0000      1.5364     47.8274
     5.1000      0.0000   1491.0000      1.5364     47.8274
     5.1500      0.0000   1491.0000      1.5364     47.8274
     5.2000      0.0000   1491.0000      1.5364     47.8274
     5.2500      0.0000   1491.0000      1.5273     53.5505
     5.3000      0.0000   1491.0000      1.5273     53.5505
     5.3500      0.0000   1491.0000      1.5273     53.5505
     5.4000      0.0000   1491.0000      1.5273     53.5505
     5.4500      0.0000   1491.0000      1.5273     53.5505
     5.5000      0.0000   1491.0000      1.5141     62.5139
     5.5500      0.0000   1491.0000      1.5141     62.5139
     5.6000      0.0000   1491.0000      1.5141     62.5139
     5.6500      0.0000   1491.0000      1.5141     62.5139
     5.7000      0.0000   1491.0000      1.5141     62.5139
     5.7500      0.0000   1491.0000      1.5033     73.4499
     5.8000      0.0000   1491.0000      1.5033     73.4499
     5.8500      0.0000   1491.0000      1.5033     73.4499
     5.9000      0.0000   1491.0000      1.5033     73.4499
     5.9500      0.0000   1491.0000      1.5033     73.4499
     6.0000      0.0000   1491.0000      1.5027     84.2839
     6.0500      0.0000   1491.0000      1.5027     84.2839
     6.1000      0.0000   1491.0000      1.5027     84.2839
     6.1500      0.0000   1491.0000      1.5027     84.2839
     6.2000      0.0000   1491.0000      1.5027     84.2839
     6.2500      0.0000   1491.0000      1.5150     92.9706
     6.3000      0.0000   1491.0000      1.5150     92.9706
     6.3500      0.0000   1491.0000      1.5150     92.9706
     6.4000      0.0000   1491.0000      1.5150     92.9706
     6.4500      0.0000   1491.0000      1.5150     92.9706
     6.5000      0.0000   1491.0000      1.5333     97.9176
     6.5500      0.0000   1491.0000      1.5333     97.9176
     6.6000      0.0000   1491.0000      1.5333     97.9176
     6.6500      0.0000   1491.0000      1.5333     97.9176
     6.7000      0.0000   1491.0000      1.5333     97.9176
     6.7500      0.0000   1491.0000      1.5436     98.4497
     6.8000      0.0000   1491.0000      1.5436     98.4497
     6.8500      0.0000   1491.0000      1.5436     98.4497
     6.9000      0.0000   1491.0000      1.5436     98.4497
     6.9500      0.0000   1491.0000      1.5436     98.4497
     7.0000      0.0000   1491.0000      1.5340     95.2831
     7.0500      0.0000   1491.0000      1.5340     95.2831
     7.1000      0.0000   1491.0000      1.5340     95.2831
