~Version Information
VERS.                      2.0: CWLS Log ASCII Standard - VERSION 2.0
WRAP.                       NO: One line per depth step
~Well Information Block
STRT.FT               491.0000: 
STOP.FT              1911.5000: 
STEP.FT                 0.2500: 
NULL.                -999.2500: 
COMP.          Pioneer Natural Resources: COMPANY
WELL.            Corazon 13-10: WELL
FLD.           Purgatoire River: FIELD
LOC.           2510' FSL & 439' FWL: LOCATION
PROV.                 Colorado: PROVINCE
CNTY.               Las Animas: COUNTRY
SRVC.                Patterson: SERVICE COMPANY
DATE.          Wed Nov 30 22:14:48 2005: LOG DATE
UWI.           05 071 08613 00: UNIQUE WELL ID
~Curve Information Block
DEPT.FT            0 000 00 00: Depth
SN.Ohm-m                      : IEL Short Normal
SP.mV                         : IEL Spontaneous Potential
DIR.Ohm-m                     : IEL Induction Resistivity
GR.GAPI                       : Gamma Ray
~Parameter Information Block
~A  Depth        SN          SP         DIR          GR     
# ...
   658.5000   2000.0000   2000.0000     10.2074    122.9417
   658.7500   2000.0000   2000.0000      9.6187    122.4095
   659.0000   2000.0000   2000.0000      9.0903    121.4493
   659.2500   2000.0000   2000.0000      8.6154    121.2959
   659.5000   2000.0000   2000.0000      8.1889    122.3739
   659.7500   2000.0000   2000.0000      7.8082    123.8874
   660.0000   2000.0000   2000.0000      7.4727    126.6664
   660.2500   2000.0000   2000.0000      7.1836    128.4099
   660.5000   2000.0000   2000.0000      6.9428    130.6021
   660.7500   2000.0000   2000.0000      6.7515    132.0723
   661.0000   2000.0000   2000.0000      6.6080    135.0656
   661.2500   2000.0000   2000.0000      6.5087    137.7373
   661.5000   2000.0000   2000.0000      6.4500    142.2070
   661.7500   2000.0000   2000.0000      6.4305    144.9402
   662.0000   2000.0000   2000.0000      6.4516    147.9713
   662.2500   2000.0000   2000.0000      6.5179    149.2799
   662.5000   2000.0000   2000.0000      6.6353    151.0220
   662.7500   2000.0000   2000.0000      6.8100    152.7890
   663.0000   2000.0000   2000.0000      7.0474    157.1583
   663.2500   2000.0000   2000.0000      7.3514    161.0309
   663.5000   2000.0000   2000.0000      7.7235    166.9259
   663.7500   2000.0000   2000.0000      8.1625    169.8459
   664.0000   2000.0000   2000.0000      8.6640    170.8395
   664.2500   2000.0000   2000.0000      9.2201    168.2436
   664.5000   2000.0000   2000.0000      9.8225    158.3634
   664.7500   2000.0000   2000.0000     10.4687    147.8936
   665.0000   2000.0000   2000.0000     11.1694    128.1968
   665.2500   2000.0000   2000.0000     11.9501    114.1976
   665.5000   2000.0000   2000.0000     12.8430     95.1820
   665.7500   2000.0000   2000.0000     13.8758     85.2742
   666.0000   2000.0000   2000.0000     15.0607     75.5906
   666.2500   2000.0000   2000.0000     16.3873     72.4222
   666.5000   2000.0000   2000.0000     17.8157     71.8223
   666.7500   2000.0000   2000.0000     19.2700     73.8043
   667.0000   2000.0000   2000.0000     20.6378     79.6932
   667.2500   2000.0000   2000.0000     21.7811     84.8522
   667.5000   2000.0000   2000.0000     22.5700     92.2678
   667.7500   2000.0000   2000.0000     22.9279     95.3500
   668.0000   2000.0000   2000.0000     22.8578     94.9825
   668.2500   2000.0000   2000.0000     22.4273     91.4044
   668.5000   2000.0000   2000.0000     21.7377     83.8231
   668.7500   2000.0000   2000.0000     20.9067     79.8147
   669.0000   2000.0000   2000.0000     20.0609     78.9050
   669.2500   2000.0000   2000.0000     19.3175     82.4113
   669.5000   2000.0000   2000.0000     18.7562     92.5916
   669.7500   2000.0000   2000.0000     18.3977    101.1558
   670.0000   2000.0000   2000.0000     18.2008    114.4449
   670.2500   2000.0000   2000.0000     18.0787    122.9004
   670.5000   2000.0000   2000.0000     17.9320    134.1042
   670.7500   2000.0000   2000.0000     17.6885    139.8433
   671.0000   2000.0000   2000.0000     17.3236    144.5139
   671.2500   2000.0000   2000.0000     16.8519    144.6951
   671.5000   2000.0000   2000.0000     16.3033    141.4325
   671.7500   2000.0000   2000.0000     15.7057    138.2182
   672.0000   2000.0000   2000.0000     15.0839    134.8614
   672.2500   2000.0000   2000.0000     14.4638    135.0398
   672.5000   2000.0000   2000.0000     13.8738    139.4736
   672.7500   2000.0000   2000.0000     13.3400    144.3187
   673.0000   2000.0000   2000.0000     12.8798    151.9276
   673.2500   2000.0000   2000.0000     12.4972    155.9581
   673.5000   2000.0000   2000.0000     12.1832    159.5470
   673.7500   2000.0000   2000.0000     11.9205    160.6155
   674.0000   2000.0000   2000.0000     11.6901    161.3546
   674.2500   2000.0000   2000.0000     11.4780    161.6319
   674.5000   2000.0000   2000.0000     11.2789    161.7556
   674.7500   2000.0000   2000.0000     11.0962    161.8203
   675.0000   2000.0000   2000.0000     10.9393    162.7561
   675.2500   2000.0000   2000.0000     10.8205    164.1883
   675.5000   2000.0000   2000.0000     10.7518    166.6911
   675.7500   2000.0000   2000.0000     10.7421    167.7057
   676.0000   2000.0000   2000.0000     10.7956    167.1830
   676.2500   2000.0000   2000.0000     10.9107    165.2668
   676.5000   2000.0000   2000.0000     11.0823    160.1720
   676.7500   2000.0000   2000.0000     11.3044    155.6608
   677.0000   2000.0000   2000.0000     11.5715    148.1495
   677.2500   2000.0000   2000.0000     11.8774    143.0096
   677.5000   2000.0000   2000.0000     12.2142    135.3285
   677.7500   2000.0000   2000.0000     12.5721    130.5446
   678.0000   2000.0000   2000.0000     12.9416    125.0852
   678.2500   2000.0000   2000.0000     13.3158    123.2440
   678.5000   2000.0000   2000.0000     13.6903    123.2469
   678.7500   2000.0000   2000.0000     14.0565    124.5053
   679.0000   2000.0000   2000.0000     14.3950    127.0140
   679.2500   2000.0000   2000.0000     14.6739    128.6702
   679.5000   2000.0000   2000.0000     14.8576    131.1826
   679.7500   2000.0000   2000.0000     14.9230    133.1078
   680.0000   2000.0000   2000.0000     14.8722    136.3062
   680.2500   2000.0000   2000.0000     14.7318    138.1579
   680.5000   2000.0000   2000.0000     14.5406    139.3867
   680.7500   2000.0000   2000.0000     14.3330    138.7796
   681.0000   2000.0000   2000.0000     14.1281    135.9614
   681.2500   2000.0000   2000.0000     13.9276    133.4646
   681.5000   2000.0000   2000.0000     13.7236    130.4163
   681.7500   2000.0000   2000.0000     13.5095    129.6774
   682.0000   2000.0000   2000.0000     13.2887    130.8585
   682.2500   2000.0000   2000.0000     13.0750    132.6764
   682.5000   2000.0000   2000.0000     12.8870    135.7632
   682.7500   2000.0000   2000.0000     12.7387    137.6496
   683.0000   2000.0000   2000.0000     12.6332    139.8715
   683.2500   2000.0000   2000.0000     12.5612    140.6311
   683.5000   2000.0000   2000.0000     12.5044    140.1463
   683.7500   2000.0000   2000.0000     12.4447    138.9152
   684.0000   2000.0000   2000.0000     12.3748    137.0907
   684.2500   2000.0000   2000.0000     12.3052    136.7578
   684.5000   2000.0000   2000.0000     12.2611    137.8263
   684.7500   2000.0000   2000.0000     12.2694    138.8885
   685.0000   2000.0000   2000.0000     12.3460    139.4674
   685.2500   2000.0000   2000.0000     12.4908    138.7795
   685.5000   2000.0000   2000.0000     12.6946    136.8649
   685.7500   2000.0000   2000.0000     12.9500    136.0116
   686.0000   2000.0000   2000.0000     13.2585    136.8230
   686.2500   2000.0000   2000.0000     13.6314    138.7218
   686.5000   2000.0000   2000.0000     14.0829    141.8759
   686.7500   2000.0000   2000.0000     14.6205    142.9392
   687.0000   2000.0000   2000.0000     15.2391    141.9408
   687.2500   2000.0000   2000.0000     15.9228    139.6895
   687.5000   2000.0000   2000.0000     16.6592    134.5371
   687.7500   2000.0000   2000.0000     17.4549    130.0826
   688.0000   2000.0000   2000.0000     18.3418    121.8928
   688.2500   2000.0000   2000.0000     19.3641    115.4542
   688.5000   2000.0000   2000.0000     20.5539    104.4641
   688.7500   2000.0000   2000.0000     21.9094     96.3838
   689.0000   2000.0000   2000.0000     23.3902     83.5644
   689.2500   2000.0000   2000.0000     24.9398     74.9263
   689.5000   2000.0000   2000.0000     26.5204     62.5327
   689.7500   2000.0000   2000.0000     28.1294     55.0276
   690.0000   2000.0000   2000.0000     29.7806     45.5169
   690.2500   2000.0000   2000.0000     31.4732     40.6505
   690.5000   2000.0000   2000.0000     33.1829     35.8401
   690.7500   2000.0000   2000.0000     34.8711     34.2618
   691.0000   2000.0000   2000.0000     36.4840     34.0438
   691.2500   2000.0000   2000.0000     37.9315     35.0732
   691.5000   2000.0000   2000.0000     39.0651     37.7879
   691.7500   2000.0000   2000.0000     39.6948     39.9918
