~Version Information
VERS.                      2.0: CWLS Log ASCII Standard - VERSION 2.0
WRAP.                       NO: One line per depth step
~Well Information Block
STRT.FT               330.0000: 
STOP.FT              2874.7000: 
STEP.FT                 0.1000: 
NULL.                -999.2500: 
COMP.          Pioneer Natural Resources: COMPANY
WELL.                AMX 13-13: WELL
FLD.           Purgatoire River: FIELD
LOC.           2316' FSL & 865' FWL--: LOCATION
PROV.                 Colorado: PROVINCE
CNTY.               Las Animas: COUNTRY
SRVC.                Patterson: SERVICE COMPANY
DATE.          Tue Dec 20 09:57:28 2005: LOG DATE
UWI.           05 071 08630 00: UNIQUE WELL ID
~Curve Information Block
DEPT.FT            0 000 00 00: Depth
DCAL.in                       : CDL Caliper
RHOB.g/cc                     : CDL Bulk Density
RHOC.g/cc                     : CDL Density Correction
DPOR.pu                       : CDL Density Porosity
NPOR.pu                       : Neutron Porosity
GR.GAPI                       : Gamma Ray
~Parameter Information Block
~A  Depth       DCAL        RHOB        RHOC        DPOR        NPOR         GR     
# ...
  2010.0000      8.0056      2.4809      0.0854     10.2469     24.5914    161.6291
  2010.1000      8.0056      2.5053      0.0887      8.7682     24.1968    157.7374
  2010.2000      8.0056      2.5231      0.1008      7.6885     23.9788    150.2914
  2010.3000      8.0059      2.5406      0.0889      6.6297     24.0654    148.3376
  2010.4000      8.0059      2.5660      0.1135      5.0895     24.2336    154.9602
  2010.5000      8.0021      2.5822      0.1460      4.1095     24.3679    163.5876
  2010.6000      8.0021      2.5650      0.1237      5.1535     24.6787    171.0461
  2010.7000      8.0021      2.5252      0.0376      7.5629     25.0722    173.5842
  2010.8000      7.9978      2.4986      0.0442      9.1759     25.1258    165.1437
  2010.9000      7.9978      2.5001      0.0358      9.0848     24.6550    149.3574
  2011.0000      8.0057      2.5139      0.0722      8.2474     24.0182    135.8103
  2011.1000      8.0057      2.5237      0.0647      7.6541     23.8205    127.0892
  2011.2000      8.0057      2.5314      0.0732      7.1884     24.4210    123.5554
  2011.3000      8.0256      2.5429      0.0735      6.4928     25.3719    128.0480
  2011.4000      8.0256      2.5637      0.0452      5.2299     25.7293    134.6999
  2011.5000      8.0504      2.5903      0.1160      3.6159     25.3778    135.5343
  2011.6000      8.0504      2.6024      0.0979      2.8842     24.9371    132.6708
  2011.7000      8.0504      2.5906      0.1052      3.5990     24.6127    130.8377
  2011.8000      8.0799      2.5686      0.0708      4.9320     24.4038    130.4188
  2011.9000      8.0799      2.5533      0.0784      5.8614     24.5584    129.7527
  2012.0000      8.1047      2.5495      0.0872      6.0914     24.9242    130.1695
  2012.1000      8.1047      2.5552      0.1030      5.7432     24.9104    134.5556
  2012.2000      8.1047      2.5660      0.1189      5.0937     24.5039    140.1046
  2012.3000      8.1067      2.5780      0.1085      4.3635     24.1660    142.5280
  2012.4000      8.1067      2.6010      0.0421      2.9693     24.1530    143.7745
  2012.5000      8.0840      2.6442      0.1099      0.3511     24.3175    145.3230
  2012.6000      8.0840      2.6888      0.1659     -2.3523     24.3677    145.7946
  2012.7000      8.0840      2.7097      0.1855     -3.6180     24.4762    147.1281
  2012.8000      8.0530      2.7077      0.1221     -3.4951     24.7565    149.5973
  2012.9000      8.0530      2.6943      0.1445     -2.6826     25.0373    150.3988
  2013.0000      8.0431      2.6733      0.1213     -1.4131     25.2155    147.5178
  2013.1000      8.0431      2.6511      0.0851     -0.0686     25.1036    141.0197
  2013.2000      8.0431      2.6297      0.0539      1.2304     24.5577    137.5357
  2013.3000      8.0537      2.6055      0.0387      2.6951     24.0796    140.6903
  2013.4000      8.0537      2.5835     -0.0042      4.0282     24.2551    145.2294
  2013.5000      8.0604      2.5673      0.0216      5.0134     24.6952    145.1492
  2013.6000      8.0604      2.5494      0.0115      6.0976     24.6068    138.6204
  2013.7000      8.0604      2.5358     -0.0173      6.9190     24.0744    128.1042
  2013.8000      8.0568      2.5448     -0.0165      6.3784     23.4982    117.9306
  2013.9000      8.0568      2.5731      0.0543      4.6636     23.0722    113.6034
  2014.0000      8.0546      2.5989      0.0659      3.0993     23.1064    118.5741
  2014.1000      8.0546      2.6059      0.0695      2.6749     23.6557    127.3550
  2014.2000      8.0546      2.5916      0.0622      3.5376     24.1685    133.2457
  2014.3000      8.0549      2.5688      0.0192      4.9209     24.2061    137.4636
  2014.4000      8.0549      2.5479      0.0621      6.1892     24.1246    139.4927
  2014.5000      8.0521      2.5271     -0.0147      7.4479     24.1774    136.7920
  2014.6000      8.0521      2.5106     -0.0039      8.4499     24.3102    131.1206
  2014.7000      8.0521      2.5041      0.0259      8.8418     24.4717    127.4623
  2014.8000      8.0501      2.5037      0.0294      8.8642     24.8319    131.2888
  2014.9000      8.0501      2.5021      0.0409      8.9611     25.5486    140.3857
  2015.0000      8.0591      2.4979      0.0076      9.2207     25.9458    145.2735
  2015.1000      8.0591      2.4923      0.0287      9.5554     25.4397    143.8143
  2015.2000      8.0591      2.4856      0.0017      9.9652     24.6407    141.6945
  2015.3000      8.0802      2.4806      0.0146     10.2637     24.3369    144.7191
  2015.4000      8.0802      2.4847     -0.0030     10.0194     24.5169    150.5847
  2015.5000      8.1027      2.5076      0.0446      8.6293     24.9085    152.3344
  2015.6000      8.1027      2.5433      0.1241      6.4664     25.4595    153.0519
  2015.7000      8.1027      2.5708      0.0988      4.8021     25.9066    158.8756
  2015.8000      8.1222      2.5856      0.1482      3.9025     25.9435    163.3120
  2015.9000      8.1222      2.5952      0.1690      3.3194     25.7970    159.0193
  2016.0000      8.1379      2.5979      0.1837      3.1586     25.7551    148.4268
  2016.1000      8.1379      2.5877      0.1603      3.7731     25.7123    138.1960
  2016.2000      8.1379      2.5696      0.0941      4.8707     25.4986    131.0876
  2016.3000      8.1496      2.5583      0.0612      5.5582     25.2881    128.4447
  2016.4000      8.1496      2.5609      0.0741      5.4008     25.3771    132.1223
  2016.5000      8.1601      2.5654      0.0728      5.1281     25.5180    140.2499
  2016.6000      8.1601      2.5544      0.0431      5.7955     25.2034    148.8213
  2016.7000      8.1601      2.5353      0.0096      6.9516     24.7994    153.4186
  2016.8000      8.1893      2.5336      0.0338      7.0546     25.1705    150.4402
  2016.9000      8.1893      2.5493      0.1433      6.1011     26.2269    141.9738
  2017.0000      8.2678      2.5605      0.1281      5.4224     26.8668    135.1727
  2017.1000      8.2678      2.5661      0.1189      5.0846     26.5435    133.4504
  2017.2000      8.2678      2.5731      0.1308      4.6590     25.7777    137.2922
  2017.3000      8.3651      2.5676      0.1103      4.9949     25.0232    147.5418
  2017.4000      8.3651      2.5372      0.0607      6.8382     24.4642    156.8149
  2017.5000      8.3732      2.4948     -0.0326      9.4078     24.2563    159.3789
  2017.6000      8.3732      2.4552     -0.0322     11.8089     24.4376    158.3672
  2017.7000      8.3732      2.4172     -0.0044     14.1080     25.0090    153.2053
  2017.8000      8.2762      2.3846     -0.0137     16.0860     25.8606    144.8526
  2017.9000      8.2762      2.3649      0.0060     17.2766     26.4510    138.5180
  2018.0000      8.1844      2.3554      0.0096     17.8522     26.3167    134.4285
  2018.1000      8.1844      2.3594     -0.0090     17.6137     25.9578    131.0188
  2018.2000      8.1844      2.3911      0.0081     15.6893     25.9934    129.8612
  2018.3000      8.1429      2.4524      0.0689     11.9752     26.2171    133.0617
  2018.4000      8.1429      2.5267      0.1510      7.4728     26.1695    136.9185
  2018.5000      8.1236      2.5945      0.2166      3.3648     25.8794    137.3770
  2018.6000      8.1236      2.6495      0.2523      0.0329     25.5600    136.8031
  2018.7000      8.1236      2.6920      0.3737     -2.5430     25.4014    133.6711
  2018.8000      8.1240      2.7115      0.3478     -3.7281     25.4022    125.0589
  2018.9000      8.1240      2.7074      0.2781     -3.4799     25.3254    113.4453
  2019.0000      8.1332      2.6932      0.2140     -2.6210     25.2372    104.1069
  2019.1000      8.1332      2.6645      0.2159     -0.8798     25.1265    102.3140
  2019.2000      8.1332      2.6058      0.1208      2.6814     24.6481    107.9882
  2019.3000      8.1259      2.5342      0.0107      7.0210     24.1417    115.7488
  2019.4000      8.1259      2.4907     -0.0354      9.6543     24.3371    119.2894
  2019.5000      8.1058      2.4887     -0.0157      9.7774     25.0604    120.5018
