~Version Information
VERS.                      2.0: CWLS Log ASCII Standard - VERSION 2.0
WRAP.                       NO: One line per depth step
~Well Information Block
STRT.FT                -8.5000: 
STOP.FT              2823.2500: 
STEP.FT                 0.2500: 
NULL.                -999.2500: 
COMP.          Pioneer Natural Resources: COMPANY
WELL.                AMX 13-13: WELL
FLD.           Purgatorie River: FIELD
LOC.           2316' FSL & 865' FWL--: LOCATION
PROV.                       CO: PROVINCE
CNTY.               Las Animas: COUNTRY
SRVC.          Patterson Wireline: SERVICE COMPANY
DATE.          Tue Dec 27 10:40:58 2005: LOG DATE
UWI.           05 071 08630 00: UNIQUE WELL ID
~Curve Information Block
DEPT.FT            0 000 00 00: Depth
CCL.                          : Casing Collar Locator
TT3.usec                      : CBL 3' Travel Time
AMP3.mV                       : CBL 3' Amplitude
GR.GAPI                       : Gamma Ray
~Parameter Information Block
~A  Depth       CCL         TT3         AMP3         GR     
# ...
  2236.0000      0.0000    540.7319      8.3444    104.9219
  2236.2500      0.0000    590.7523      8.5095    103.8698
  2236.5000      0.0000    640.3831      8.6966    100.9362
  2236.7500      0.0000    676.0396      8.8807     97.7906
  2237.0000      0.0000    695.5146      9.0460     96.6379
  2237.2500      0.0000    703.8346      9.1909     98.3390
  2237.5000      0.0000    706.7584      9.3169    101.6609
  2237.7500      0.0000    707.6702      9.4135    104.8666
  2238.0000      0.0000    707.7888      9.4574    107.7021
  2238.2500      0.0000    707.0159      9.4316    111.0831
  2238.5000      0.0000    703.9332      9.3427    115.1420
  2238.7500      0.0000    694.8925      9.2180    118.5488
  2239.0000      0.0000    673.6798      9.0848    119.7235
  2239.2500      0.0000    634.3483      8.9582    118.0612
  2239.5000      0.0000    577.2369      8.8464    114.1433
  2239.7500      0.0000    512.5330      8.7597    109.5237
  2240.0000      0.0000    455.4196      8.7068    106.2894
  2240.2500      0.0000    416.1963      8.6876    106.0457
  2240.5000      0.0000    395.3552      8.6939    108.8201
  2240.7500      0.0000    387.0461      8.7133    113.1414
  2241.0000      0.0000    385.0154      8.7302    117.3014
  2241.2500      0.0000    385.3944      8.7265    120.3860
  2241.5000      0.0000    386.3931      8.6867    122.1879
  2241.7500      0.0000    387.2910      8.6060    122.6533
  2242.0000      0.0000    387.8479      8.4932    121.9068
  2242.2500      0.0000    388.0248      8.3658    120.7436
  2242.5000      0.0000    387.8631      8.2414    120.5984
  2242.7500      0.0000    387.4478      8.1328    122.7013
  2243.0000      0.0000    386.9073      8.0460    127.1187
  2243.2500      0.0000    386.3815      7.9803    132.6486
  2243.5000      0.0000    386.0104      7.9283    137.5627
  2243.7500      0.0000    386.2201      7.8807    140.3114
  2244.0000      0.0000    388.5169      7.8310    139.8362
  2244.2500      0.0000    396.6922      7.7790    135.9243
  2244.5000      0.0000    417.1147      7.7269    129.4849
  2244.7500      0.0000    455.8044      7.6699    122.0908
  2245.0000      0.0000    512.4029      7.5931    114.9833
  2245.2500      0.0000    576.6847      7.4838    108.6644
  2245.5000      0.0000    633.4289      7.3519    103.3923
  2245.7500      0.0000    672.2228      7.2360     99.6715
  2246.0000      0.0000    692.2773      7.1803     98.2008
  2246.2500      0.0000    698.9585      7.2026     99.5621
  2246.5000      0.0000    698.1341      7.2847    103.9770
  2246.7500      0.0000    693.9830      7.3952    111.1997
  2247.0000      0.0000    689.6838      7.5192    120.5119
  2247.2500      0.0000    687.8283      7.6637    130.6397
  2247.5000      0.0000    689.5817      7.8369    139.6177
  2247.7500      0.0000    694.0684      8.0301    145.1557
  2248.0000      0.0000    699.1711      8.2231    145.6340
  2248.2500      0.0000    703.1159      8.4016    141.1035
  2248.5000      0.0000    705.3484      8.5603    133.7173
  2248.7500      0.0000    706.2759      8.6903    127.1048
  2249.0000      0.0000    706.5736      8.7724    124.3675
  2249.2500      0.0000    706.7811      8.7842    125.8410
  2249.5000      0.0000    707.3022      8.7055    128.9875
  2249.7500      0.0000    708.4012      8.5144    130.9330
  2250.0000      0.0000    709.7371      8.2025    131.1248
  2250.2500      0.0000    709.6357      7.8184    131.4087
  2250.5000      0.0000    705.2742      7.4791    133.8044
  2250.7500      0.0000    694.3273      7.2914    138.5050
  2251.0000      0.0000    676.8529      7.2571    143.8234
  2251.2500      0.0000    655.8076      7.2912    147.4394
  2251.5000      0.0000    635.8359      7.3241    147.6993
  2251.7500      0.0000    620.6157      7.3459    144.6040
  2252.0000      0.0000    610.8057      7.3735    140.1479
  2252.2500      2.0000    605.6696      7.4169    137.2099
  2252.5000      2.0000    606.5562      7.4764    137.3430
  2252.7500      0.0000    615.4360      7.5521    139.5061
  2253.0000      0.0000    629.4100      7.6508    141.3059
  2253.2500      0.0000    641.0382      7.7728    141.4558
  2253.5000      0.0000    646.2268      7.8826    140.6477
  2253.7500      0.0000    648.5203      7.9162    140.1258
  2254.0000      0.0000    653.7113      7.8413    140.1779
  2254.2500      0.0000    663.0881      7.6871    140.1908
  2254.5000      0.0000    673.7283      7.5005    139.5363
  2254.7500      0.0000    682.6362      7.3052    138.2179
  2255.0000      0.0000    688.4477      7.1124    137.0481
  2255.2500      0.0000    690.7560      6.9358    137.1486
  2255.5000      0.0000    689.6500      6.7811    138.9757
  2255.7500      0.0000    685.4462      6.6409    142.0045
  2256.0000      0.0000    677.9781      6.5078    145.4671
  2256.2500      0.0000    666.2838      6.3869    149.0872
  2256.5000      0.0000    650.2518      6.2956    152.8227
  2256.7500      0.0000    633.3743      6.2524    155.9768
  2257.0000      0.0000    622.6441      6.2635    157.0783
  2257.2500      0.0000    622.7681      6.3167    155.2798
  2257.5000      0.0000    630.1172      6.3876    151.8549
  2257.7500      0.0000    634.9480      6.4507    149.3324
  2258.0000      0.0000    630.5363      6.4893    148.6913
  2258.2500      0.0000    618.3380      6.4973    148.3433
  2258.5000      0.0000    604.3804      6.4739    146.5177
  2258.7500      0.0000    593.1809      6.4207    143.6701
  2259.0000      0.0000    585.4384      6.3438    141.6022
  2259.2500      0.0000    579.0916      6.2578    140.8599
  2259.5000      0.0000    571.6437      6.1852    140.1598
  2259.7500      0.0000    562.4636      6.1450    138.3358
  2260.0000      0.0000    552.8057      6.1399    135.9080
  2260.2500      0.0000    543.1682      6.1524    134.4936
  2260.5000      0.0000    532.0641      6.1596    135.3858
  2260.7500      0.0000    518.5554      6.1522    138.8370
  2261.0000      0.0000    504.5951      6.1387    143.8433
  2261.2500      0.0000    493.4150      6.1316    148.2529
  2261.5000      0.0000    486.4981      6.1335    149.7697
  2261.7500      0.0000    482.9077      6.1351    147.5825
  2262.0000      0.0000    480.7627      6.1253    143.1899
  2262.2500      0.0000    478.5930      6.1025    139.4303
  2262.5000      0.0000    475.9730      6.0747    138.2689
  2262.7500      0.0000    473.9882      6.0509    139.3502
  2263.0000      0.0000    475.4535      6.0341    140.7954
  2263.2500      0.0000    483.7581      6.0258    141.3016
  2263.5000      0.0000    500.2402      6.0313    141.2639
  2263.7500      0.0000    522.3455      6.0598    141.8860
  2264.0000      0.0000    544.8443      6.1173    143.5128
  2264.2500      0.0000    562.9806      6.2014    145.0719
  2264.5000      0.0000    574.4732      6.3037    145.1203
  2264.7500      0.0000    579.2670      6.4151    143.3407
  2265.0000      0.0000    578.4209      6.5263    141.0886
  2265.2500      0.0000    573.5422      6.6253    140.2728
  2265.5000      0.0000    566.6680      6.6983    141.3008
  2265.7500      0.0000    559.6921      6.7350    142.2028
  2266.0000      0.0000    553.4119      6.7346    140.0545
  2266.2500      0.0000    547.5317      6.7098    133.4232
  2266.5000      0.0000    542.2469      6.6851    123.8370
  2266.7500      0.0000    540.1151      6.6866    115.3284
  2267.0000      0.0000    546.0245      6.7265    112.0546
  2267.2500      0.0000    564.3291      6.7943    115.4700
  2267.5000      0.0000    594.7536      6.8638    123.5952
  2267.7500      0.0000    630.8292      6.9123    132.8732
  2268.0000      0.0000    663.3405      6.9314    140.2221
  2268.2500      0.0000    686.1485      6.9240    143.6227
  2268.5000      0.0000    698.8885      6.8969    142.1594
  2268.7500      0.0000    704.9242      6.8597    136.4736
  2269.0000      0.0000    707.7717      6.8244    128.7908
  2269.2500      0.0000    708.9913      6.7982    121.8539
