~Version Information
VERS.                      2.0: CWLS Log ASCII Standard - VERSION 2.0
WRAP.                       NO: One line per depth step
~Well Information Block
STRT.FT                -7.7500: 
STOP.FT              1519.0000: 
STEP.FT                 0.2500: 
NULL.                -999.2500: 
COMP.          Pioneer Natural Resources: COMPANY
WELL.          Mow 8-14-33-67 Tr: WELL
FLD.           Purgatorie River: FIELD
LOC.           2258' FNL & 929' FEL--: LOCATION
CNTY.               Las Animas: COUNTY
SRVC.          Patterson Wireline: SERVICE COMPANY
DATE.          Thu Feb 02 10:06:28 2006: LOG DATE
UWI.           05 071 08684 00: UNIQUE WELL ID
STAT.                       CO: STATE
~Curve Information Block
DEPT.FT            0 000 00 00: Depth
MINMK.                        : Magnetic Mark Ticks
CCL.                          : Casing Collar Locator
TT3.usec                      : CBL 3' Travel Time
AMP3.mV                       : CBL 3' Amplitude
GR.GAPI                       : Gamma Ray
~Parameter Information Block
~A  Depth      MINMK        CCL         TT3         AMP3         GR     
# ...
   692.2500      0.0000      0.0000    263.0326     79.7449    113.2956
   692.5000      0.0000      0.0000    263.0365     79.6734    117.3567
   692.7500      0.0000      0.0000    263.0393     79.6083    124.3850
   693.0000      0.0000      0.0000    263.0406     79.5630    132.1392
   693.2500      0.0000      0.0000    263.0399     79.5457    137.8778
   693.5000      0.0000      0.0000    263.0374     79.5454    140.8189
   693.7500      0.0000      0.0000    263.0343     79.5354    142.7208
   694.0000      0.0000      0.0000    263.0318     79.4962    145.5472
   694.2500      0.0000      0.0000    263.0314     79.4391    149.2140
   694.5000      0.0000      0.0000    263.0336     79.4070    152.3021
   694.7500      0.0000      0.0000    263.0367     79.4476    154.2373
   695.0000      0.0000      0.0000    263.0382     79.5781    155.4104
   695.2500      0.0000      0.0000    263.0367     79.7690    155.3710
   695.5000      0.0000      0.0000    263.0337     79.9608    152.6049
   695.7500      0.0000      0.0000    263.0318     80.1000    146.7402
   696.0000      0.0000      0.0000    263.0317     80.1664    139.7794
   696.2500      0.0000      0.0000    263.0316     80.1770    134.3683
   696.5000      0.0000      0.0000    263.0297     80.1667    131.4595
   696.7500      0.0000      0.0000    263.0262     80.1636    130.0731
   697.0000      0.0000      0.0000    263.0230     80.1772    128.8895
   697.2500      0.0000      0.0000    263.0219     80.2058    127.5890
   697.5000      0.0000      0.0000    263.0224     80.2488    126.4715
   697.7500      0.0000      0.0000    263.0227     80.3080    125.0010
   698.0000      0.0000      0.0000    263.0211     80.3817    121.3687
   698.2500      0.0000      0.0000    263.0176     80.4614    113.8391
   698.5000      0.0000      0.0000    263.0135     80.5340    102.3154
   698.7500      0.0000      0.0000    263.0094     80.5835     88.6172
   699.0000      0.0000      0.0000    263.0045     80.5946     75.8018
   699.2500      0.0000      0.0000    262.9981     80.5591     67.2465
   699.5000      0.0000      0.0000    262.9911     80.4822     65.5179
   699.7500      0.0000      0.0000    262.9856     80.3802     71.2136
   700.0000      0.0000      0.0000    262.9832     80.2721     82.5169
   700.2500      0.0000      0.0000    262.9833     80.1671     96.1082
   700.5000      0.0000      0.0000    262.9836     80.0542    109.0945
   700.7500      0.0000      0.0000    262.9824     79.8804    120.2990
   701.0000      0.0000      0.0000    262.9818     79.4951    129.7091
   701.2500      0.0000      0.0000    262.9973     78.5809    137.2221
   701.5000      0.0000      0.0000    263.0750     76.6704    142.3978
   701.7500      0.0000      0.0000    263.3123     73.4276    144.9877
   702.0000      0.0000      0.0000    263.8521     69.0903    145.1367
   702.2500      0.0000      0.0000    264.8103     64.5216    143.3431
   702.5000      0.0000      0.0000    266.1540     60.5709    140.5659
   702.7500      0.0000      0.0000    267.6383     57.4715    138.0423
   703.0000      0.0000      0.0000    268.9143     55.0612    136.6034
   703.2500      0.0000      0.0000    269.7472     53.3123    136.1518
   703.5000      0.0000      0.0000    270.1403     52.3123    135.8001
   703.7500      0.0000      0.0000    270.2602     51.9425    134.4604
   704.0000      0.0000     -2.0000    270.2838     51.8996    131.5704
   704.2500      0.0000      0.0000    270.3178     51.9767    127.6335
   704.5000      0.0000      0.0000    270.3915     52.2824    124.0408
   704.7500      0.0000      0.0000    270.4398     53.3113    122.1475
   705.0000      0.0000      0.0000    270.2756     55.7074    122.3744
   705.2500      0.0000      0.0000    269.6607     59.6353    123.9661
   705.5000      0.0000      0.0000    268.5009     64.3570    125.4490
   705.7500      0.0000      0.0000    266.9897     68.7526    125.5135
   706.0000      0.0000      0.0000    265.5113     72.2316    123.6882
   706.2500      0.0000      0.0000    264.3850     74.8685    120.4298
   706.5000      0.0000      0.0000    263.7037     76.8431    116.7707
   706.7500      0.0000      0.0000    263.3731     78.1713    113.7960
   707.0000      0.0000      0.0000    263.2426     78.8967    112.1354
   707.2500      0.0000      0.0000    263.1971     79.2097    111.6967
   707.5000      0.0000      0.0000    263.1759     79.3311    111.9169
   707.7500      0.0000      0.0000    263.1570     79.3884    112.4862
   708.0000      0.0000      0.0000    263.1361     79.4127    113.8845
   708.2500      0.0000      0.0000    263.1141     79.3898    116.9431
   708.5000      0.0000      0.0000    263.0918     79.3070    121.6480
   708.7500      0.0000      0.0000    263.0701     79.1678    126.6023
   709.0000      0.0000      0.0000    263.0500     78.9864    130.0625
   709.2500      0.0000      0.0000    263.0331     78.7826    131.4901
   709.5000      0.0000      0.0000    263.0205     78.5848    131.8501
   709.7500      0.0000      0.0000    263.0130     78.4344    132.5007
   710.0000      0.0000      0.0000    263.0096     78.3715    133.8916
   710.2500      0.0000      0.0000    263.0076     78.4071    135.1090
   710.5000      0.0000      0.0000    263.0046     78.5119    134.6332
   710.7500      0.0000      0.0000    263.0001     78.6337    131.8330
   711.0000      0.0000      0.0000    262.9949     78.7279    127.8847
   711.2500      0.0000      0.0000    262.9900     78.7724    125.1961
   711.5000      0.0000      0.0000    262.9854     78.7590    125.8771
   711.7500      0.0000      0.0000    262.9814     78.6797    130.4402
   712.0000      0.0000      0.0000    262.9773     78.5307    137.4529
   712.2500      0.0000      0.0000    262.9723     78.3332    144.2844
   712.5000      0.0000      0.0000    262.9656     78.1385    148.5316
   712.7500      0.0000      0.0000    262.9581     78.0009    149.0794
   713.0000      0.0000      0.0000    262.9507     77.9464    146.1219
   713.2500      1.0000      0.0000    262.9444     77.9686    140.7976
   713.5000      0.0000      0.0000    262.9387     78.0510    135.2296
   713.7500      0.0000      0.0000    262.9330     78.1835    132.2212
   714.0000      0.0000      0.0000    262.9287     78.3552    133.7111
   714.2500      0.0000      0.0000    262.9286     78.5394    139.3557
   714.5000      0.0000      0.0000    262.9347     78.6964    147.0716
   714.7500      0.0000      0.0000    262.9462     78.7981    154.6365
   715.0000      0.0000      0.0000    262.9597     78.8548    160.2555
   715.2500      0.0000      0.0000    262.9731     78.9150    162.3869
   715.5000      0.0000      0.0000    262.9868     79.0304    160.4006
   715.7500      0.0000      0.0000    263.0008     79.2149    155.4376
   716.0000      0.0000      0.0000    263.0128     79.4341    149.7025
   716.2500      0.0000      0.0000    263.0204     79.6369    144.7439
   716.5000      0.0000      0.0000    263.0237     79.7954    140.8354
   716.7500      0.0000      0.0000    263.0260     79.9213    137.6825
   717.0000      0.0000      0.0000    263.0312     80.0497    134.9081
   717.2500      0.0000      0.0000    263.0421     80.2094    131.8980
   717.5000      0.0000      0.0000    263.0589     80.3999    128.0395
   717.7500      0.0000      0.0000    263.0782     80.5910    123.3137
   718.0000      0.0000      0.0000    263.0956     80.7425    118.2206
   718.2500      0.0000      0.0000    263.1078     80.8263    113.3794
   718.5000      0.0000      0.0000    263.1150     80.8350    109.7884
   718.7500      0.0000      0.0000    263.1191     80.7783    108.9767
   719.0000      0.0000      0.0000    263.1216     80.6752    111.7895
   719.2500      0.0000      0.0000    263.1222     80.5440    116.9266
   719.5000      0.0000      0.0000    263.1193     80.3992    121.3824
   719.7500      0.0000      0.0000    263.1129     80.2514    122.6451
   720.0000      0.0000      0.0000    263.1053     80.1088    120.4176
