~Version Information
VERS.                      2.0: CWLS Log ASCII Standard - VERSION 2.0
WRAP.                       NO: One line per depth step
~Well Information Block
STRT.FT               520.0000: 
STOP.FT              2555.2000: 
STEP.FT                 0.1000: 
NULL.                -999.2500: 
COMP.          Pioneer Natural Resources: COMPANY
WELL.          Horsefeathers 24-34: WELL
FLD.           Purgatoire River: FIELD
LOC.           183' FSL & 1570' FWL--: LOCATION
CNTY.               Las Animas: COUNTY
SRVC.                Patterson: SERVICE COMPANY
DATE.          Mon Feb 06 08:03:40 2006: LOG DATE
UWI.           05 071 08675 00: UNIQUE WELL ID
STAT.                 Colorado: STATE
~Curve Information Block
DEPT.FT            0 000 00 00: Depth
DCAL.in                       : CDL Caliper
RHOB.g/cc                     : CDL Bulk Density
RHOC.g/cc                     : CDL Density Correction
DPOR.pu                       : CDL Density Porosity
NPOR.pu                       : Neutron Porosity
GR.GAPI                       : Gamma Ray
~Parameter Information Block
~A  Depth       DCAL        RHOB        RHOC        DPOR        NPOR         GR     
# ...
  1720.0000      8.0099      2.6075      0.0592      2.5770     10.7284     40.0394
  1720.1000      8.0099      2.6133      0.0527      2.2250     10.7202     40.5444
  1720.2000      8.0099      2.6192      0.0334      1.8645     10.8062     45.0278
  1720.3000      8.0108      2.6260      0.0394      1.4532     11.1565     48.6962
  1720.4000      8.0108      2.6281      0.0688      1.3280     11.5668     51.9207
  1720.5000      8.0137      2.6142      0.0728      2.1669     11.8388     54.3651
  1720.6000      8.0137      2.5926      0.0448      3.4809     11.9872     55.5542
  1720.7000      8.0137      2.5845      0.0269      3.9716     12.0213     56.8779
  1720.8000      8.0189      2.5818      0.0758      4.1317     11.9650     57.2448
  1720.9000      8.0189      2.5731     -0.0053      4.6577     11.9684     57.2055
  1721.0000      8.0239      2.5827      0.0225      4.0778     12.1194     57.9442
  1721.1000      8.0239      2.6240      0.0619      1.5740     12.3665     58.3920
  1721.2000      8.0239      2.6673      0.1048     -1.0479     12.5568     58.7423
  1721.3000      8.0256      2.6772      0.1184     -1.6465     12.8324     58.5805
  1721.4000      8.0256      2.6606      0.1022     -0.6427     13.0662     57.9782
  1721.5000      8.0252      2.6464      0.0901      0.2198     12.8925     57.5706
  1721.6000      8.0252      2.6412      0.0851      0.5350     12.5891     56.6108
  1721.7000      8.0252      2.6296      0.1202      1.2371     12.8979     56.1170
  1721.8000      8.0262      2.6013      0.0558      2.9501     13.8471     58.1565
  1721.9000      8.0262      2.5671      0.0483      5.0268     14.4985     61.2076
  1722.0000      8.0264      2.5365      0.0476      6.8813     14.5172     61.2133
  1722.1000      8.0264      2.5120      0.0196      8.3610     14.4397     59.7627
  1722.2000      8.0264      2.4998      0.0169      9.1053     14.7353     60.4522
  1722.3000      8.0271      2.5009      0.0299      9.0371     15.4681     62.9923
  1722.4000      8.0271      2.5039      0.0597      8.8524     16.1016     66.2386
  1722.5000      8.0313      2.5019      0.0150      8.9753     16.0636     68.7232
  1722.6000      8.0313      2.5060      0.0323      8.7277     15.5334     68.5234
  1722.7000      8.0313      2.5195      0.0576      7.9087     15.0696     65.0714
  1722.8000      8.0361      2.5325      0.0445      7.1237     15.0959     59.8509
  1722.9000      8.0361      2.5398      0.0989      6.6763     15.6270     56.6305
  1723.0000      8.0420      2.5395      0.0734      6.6984     16.2055     56.9457
  1723.1000      8.0420      2.5334      0.0576      7.0653     16.4953     59.5563
  1723.2000      8.0420      2.5303      0.0492      7.2541     16.5678     62.3793
  1723.3000      8.0512      2.5324      0.0734      7.1273     16.6193     62.8196
  1723.4000      8.0512      2.5330      0.0774      7.0926     16.6072     59.9310
  1723.5000      8.0582      2.5297      0.0849      7.2885     16.4890     57.4783
  1723.6000      8.0582      2.5297      0.0572      7.2934     16.6190     59.4821
  1723.7000      8.0582      2.5407      0.0398      6.6268     16.9610     63.4109
  1723.8000      8.0600      2.5489      0.1099      6.1298     16.9932     63.2079
  1723.9000      8.0600      2.5319      0.0645      7.1571     16.9702     58.4115
  1724.0000      8.0580      2.5047      0.0330      8.8059     17.3700     54.9325
  1724.1000      8.0580      2.4978      0.0270      9.2220     17.7788     57.4638
  1724.2000      8.0580      2.5021      0.0865      8.9629     17.6900     63.9036
  1724.3000      8.0554      2.4894      0.0507      9.7356     17.2930     66.6857
  1724.4000      8.0554      2.4659      0.0143     11.1587     16.9533     65.2851
  1724.5000      8.0552      2.4529      0.0500     11.9441     16.9729     66.2298
  1724.6000      8.0552      2.4532      0.0551     11.9278     17.2510     70.6239
  1724.7000      8.0552      2.4581      0.0455     11.6331     17.0565     72.7550
  1724.8000      8.0563      2.4593      0.0426     11.5548     16.4759     68.6177
  1724.9000      8.0563      2.4627      0.0352     11.3493     16.4424     61.7715
  1725.0000      8.0574      2.4786      0.0619     10.3874     16.9657     58.9927
  1725.1000      8.0574      2.4957      0.0942      9.3495     17.0985     62.7424
  1725.2000      8.0574      2.4985      0.0866      9.1792     16.6081     67.0986
  1725.3000      8.0593      2.4935      0.0487      9.4819     16.4396     64.2046
  1725.4000      8.0593      2.4915      0.0884      9.6072     17.0130     55.6645
  1725.5000      8.0598      2.4898      0.0686      9.7113     17.6846     49.1251
  1725.6000      8.0598      2.4803      0.0813     10.2872     17.8022     46.9785
  1725.7000      8.0598      2.4605      0.0595     11.4852     17.1539     46.0334
  1725.8000      8.0577      2.4467      0.0363     12.3223     16.1105     46.3681
  1725.9000      8.0577      2.4567      0.0102     11.7123     15.2970     49.4126
  1726.0000      8.0555      2.4782      0.0828     10.4104     15.1427     52.6387
  1726.1000      8.0555      2.4814      0.0611     10.2196     15.6906     54.6888
  1726.2000      8.0555      2.4659      0.0526     11.1598     16.3348     56.0616
  1726.3000      8.0540      2.4599      0.0254     11.5225     16.3638     55.3454
  1726.4000      8.0540      2.4743      0.0357     10.6511     15.9713     52.7222
  1726.5000      8.0521      2.4859      0.0716      9.9432     15.4903     50.6839
  1726.6000      8.0521      2.4755      0.0373     10.5760     14.9811     49.4150
  1726.7000      8.0521      2.4503      0.0345     12.1024     14.9178     49.1704
  1726.8000      8.0504      2.4254      0.0323     13.6146     15.4947     50.9940
  1726.9000      8.0504      2.4182     -0.0166     14.0476     15.7954     55.8916
  1727.0000      8.0524      2.4432      0.0141     12.5348     15.3287     60.5728
  1727.1000      8.0524      2.4869      0.0928      9.8820     14.8802     59.0848
  1727.2000      8.0524      2.5189      0.0976      7.9439     14.9059     54.7794
  1727.3000      8.0579      2.5270      0.0731      7.4543     15.2939     54.7251
  1727.4000      8.0579      2.5157      0.1015      8.1364     15.6976     58.0426
  1727.5000      8.0622      2.4945      0.0470      9.4220     15.7723     61.2647
  1727.6000      8.0622      2.4829      0.0482     10.1253     15.7027     63.6491
  1727.7000      8.0622      2.4896      0.0798      9.7231     15.8321     63.4624
  1727.8000      8.0638      2.4986      0.0742      9.1733     16.2872     60.9325
  1727.9000      8.0638      2.4872      0.0756      9.8681     17.2656     59.9936
  1728.0000      8.0659      2.4455      0.0433     12.3929     18.7963     60.5291
  1728.1000      8.0659      2.3871      0.0071     15.9313     20.3080     59.1447
  1728.2000      8.0659      2.3306      0.0103     19.3583     21.4258     56.8193
  1728.3000      8.0660      2.2757      0.0130     22.6821     22.7731     57.2626
  1728.4000      8.0660      2.2116      0.0234     26.5687     24.7671     59.8182
  1728.5000      8.0628      2.1432     -0.0313     30.7150     26.4247     62.0331
  1728.6000      8.0628      2.0892     -0.0485     33.9908     27.2891     65.4368
  1728.7000      8.0628      2.0496     -0.0309     36.3904     28.0286     71.4862
  1728.8000      8.0603      2.0138     -0.0215     38.5575     28.7626     79.6545
  1728.9000      8.0603      1.9934     -0.0476     39.7954     29.2699     89.0249
  1729.0000      8.0600      2.0036      0.0397     39.1751     29.5352     98.5698
  1729.1000      8.0600      2.0347      0.1278     37.2894     29.5290    109.0676
  1729.2000      8.0600      2.0739      0.1476     34.9170     29.1401    118.5426
  1729.3000      8.0616      2.1186      0.1581     32.2068     28.6904    123.1943
  1729.4000      8.0616      2.1623      0.1996     29.5595     28.8311    123.8862
  1729.5000      8.0649      2.2058      0.1421     26.9237     29.4030    123.4769
