~Version Information
VERS.                      2.0: CWLS Log ASCII Standard - VERSION 2.0
WRAP.                       NO: One line per depth step
~Well Information Block
STRT.FT               491.0000: 
STOP.FT              1911.5000: 
STEP.FT                 0.2500: 
NULL.                -999.2500: 
COMP.          Pioneer Natural Resources: COMPANY
WELL.            Corazon 13-10: WELL
FLD.           Purgatoire River: FIELD
LOC.           2510' FSL & 439' FWL: LOCATION
PROV.                 Colorado: PROVINCE
CNTY.               Las Animas: COUNTRY
SRVC.                Patterson: SERVICE COMPANY
DATE.          Wed Nov 30 22:14:48 2005: LOG DATE
UWI.           05 071 08613 00: UNIQUE WELL ID
~Curve Information Block
DEPT.FT            0 000 00 00: Depth
SN.Ohm-m                      : IEL Short Normal
SP.mV                         : IEL Spontaneous Potential
DIR.Ohm-m                     : IEL Induction Resistivity
GR.GAPI                       : Gamma Ray
~Parameter Information Block
~A  Depth        SN          SP         DIR          GR     
   491.0000   2000.0000   2000.0000     86.5322     89.8228
   491.2500   2000.0000   2000.0000     86.3300     88.1799
   491.5000   2000.0000   2000.0000     86.6331     85.5765
   491.7500   2000.0000   2000.0000     87.3846     81.1511
   492.0000   2000.0000   2000.0000     88.4454     78.7881
   492.2500   2000.0000   2000.0000     89.5893     77.0649
   492.5000   2000.0000   2000.0000     90.5446     74.4717
   492.7500   2000.0000   2000.0000     91.1081     65.5824
   493.0000   2000.0000   2000.0000     91.2610     64.9913
   493.2500   2000.0000   2000.0000     91.1881     65.5711
   493.5000   2000.0000   2000.0000     91.1712     67.8329
   493.7500   2000.0000   2000.0000     91.4323     61.8917
   494.0000   2000.0000   2000.0000     92.0343     64.6919
   494.2500   2000.0000   2000.0000     92.8940     66.0485
   494.5000   2000.0000   2000.0000     93.8675     67.2089
   494.7500   2000.0000   2000.0000     94.8139     59.0333
   495.0000   2000.0000   2000.0000     95.5900     60.8597
   495.2500   2000.0000   2000.0000     96.0381     63.0608
   495.5000   2000.0000   2000.0000     96.0635     67.4614
   495.7500   2000.0000   2000.0000     95.7501     70.4964
   496.0000   2000.0000   2000.0000     95.3574     74.3668
   496.2500   2000.0000   2000.0000     95.1509     76.4349
   496.5000   2000.0000   2000.0000     95.2297     78.9010
   496.7500   2000.0000   2000.0000     95.4790     80.0292
   497.0000   2000.0000   2000.0000     95.6631     80.8316
   497.2500   2000.0000   2000.0000     95.5543     81.0775
   497.5000   2000.0000   2000.0000     95.0051     81.9802
   497.7500   2000.0000   2000.0000     93.9341     83.2923
   498.0000   2000.0000   2000.0000     92.2843     86.0205
   498.2500   2000.0000   2000.0000     89.9876     87.8093
   498.5000   2000.0000   2000.0000     86.9836     89.7115
   498.7500   2000.0000   2000.0000     83.2939     90.4276
   499.0000   2000.0000   2000.0000     79.1276     91.2016
   499.2500   2000.0000   2000.0000     74.8611     91.8846
   499.5000   2000.0000   2000.0000     70.8249     93.4471
   499.7500   2000.0000   2000.0000     67.0567     94.8012
   500.0000   2000.0000   2000.0000     63.2863     97.0177
   500.2500   2000.0000   2000.0000     59.2139     98.3403
   500.5000   2000.0000   2000.0000     54.8192     99.4712
   500.7500   2000.0000   2000.0000     50.4004     99.3821
   501.0000   2000.0000   2000.0000     46.3999     97.9546
   501.2500   2000.0000   2000.0000     43.3178     96.3281
   501.5000   2000.0000   2000.0000     41.7883     93.2493
   501.7500   2000.0000   2000.0000     42.7560     90.9258
   502.0000   2000.0000   2000.0000     47.9444     87.3742
   502.2500   2000.0000   2000.0000     61.3928     85.3546
   502.5000   2000.0000   2000.0000     95.4729     83.6632
   502.7500   2000.0000   2000.0000    207.1007     83.6594
   503.0000   2000.0000   2000.0000   1405.5050     85.0283
   503.2500   2000.0000   2000.0000 100000.0000     86.4484
   503.5000   2000.0000   2000.0000 100000.0000     88.7916
   503.7500   2000.0000   2000.0000 100000.0000     90.3913
   504.0000   2000.0000   2000.0000   1355.8085     92.8956
   504.2500   2000.0000   2000.0000    774.5199     94.6538
   504.5000   2000.0000   2000.0000   1067.6744     97.2373
   504.7500   2000.0000   2000.0000 100000.0000     98.5761
   505.0000   2000.0000   2000.0000 100000.0000     99.0478
   505.2500   2000.0000   2000.0000 100000.0000     97.9321
   505.5000   2000.0000   2000.0000 100000.0000     94.5448
   505.7500   2000.0000   2000.0000 100000.0000     92.0549
   506.0000   2000.0000   2000.0000 100000.0000     89.7589
   506.2500   2000.0000   2000.0000 100000.0000     89.9072
   506.5000   2000.0000   2000.0000 100000.0000     93.0778
   506.7500   2000.0000   2000.0000 100000.0000     96.8974
   507.0000   2000.0000   2000.0000 100000.0000    103.8335
   507.2500   2000.0000   2000.0000 100000.0000    108.1211
   507.5000   2000.0000   2000.0000 100000.0000    112.2141
   507.7500   2000.0000   2000.0000 100000.0000    112.7064
   508.0000   2000.0000   2000.0000 100000.0000    109.6649
   508.2500   2000.0000   2000.0000 100000.0000    105.1426
   508.5000   2000.0000   2000.0000 100000.0000     94.9418
   508.7500   2000.0000   2000.0000 100000.0000     86.3516
   509.0000   2000.0000   2000.0000     23.4267     72.5879
   509.2500   2000.0000   2000.0000      6.2118     64.3904
   509.5000   2000.0000   2000.0000      3.7896     56.0815
   509.7500   2000.0000   2000.0000      3.0923     53.9432
   510.0000   2000.0000   2000.0000      3.0012     55.6272
   510.2500   2000.0000   2000.0000      3.2703     59.4028
   510.5000   2000.0000   2000.0000      3.8665     68.0176
   510.7500   2000.0000   2000.0000      4.9044     75.2651
   511.0000   2000.0000   2000.0000      6.7819     87.3245
   511.2500   2000.0000   2000.0000     10.6984     95.1325
   511.5000   2000.0000   2000.0000     20.9222    104.5859
   511.7500   2000.0000   2000.0000     59.7774    108.8070
   512.0000   2000.0000   2000.0000    298.9301    112.4256
   512.2500   2000.0000   2000.0000    178.0906    113.6751
   512.5000   2000.0000   2000.0000     55.9596    114.4515
   512.7500   2000.0000   2000.0000     30.1850    114.1228
   513.0000   2000.0000   2000.0000     21.7585    112.0483
   513.2500   2000.0000   2000.0000     18.4546    109.9058
   513.5000   2000.0000   2000.0000     17.1643    106.9178
   513.7500   2000.0000   2000.0000     16.7854    105.8514
   514.0000   2000.0000   2000.0000     16.8635    106.0786
   514.2500   2000.0000   2000.0000     17.2232    107.1611
   514.5000   2000.0000   2000.0000     17.8358    109.2616
   514.7500   2000.0000   2000.0000     18.7838    110.4604
   515.0000   2000.0000   2000.0000     20.2555    111.3544
   515.2500   2000.0000   2000.0000     22.5217    111.1989
   515.5000   2000.0000   2000.0000     25.8230    109.8963
   515.7500   2000.0000   2000.0000     30.0890    108.5204
   516.0000   2000.0000   2000.0000     34.5202    106.4143
   516.2500   2000.0000   2000.0000     37.5999    105.5956
   516.5000   2000.0000   2000.0000     38.2260    106.1797
   516.7500   2000.0000   2000.0000     36.7274    107.9106
   517.0000   2000.0000   2000.0000     34.1969    111.7405
   517.2500   2000.0000   2000.0000     31.4622    114.1967
   517.5000   2000.0000   2000.0000     28.9115    116.1622
   517.7500   2000.0000   2000.0000     26.7254    116.0358
   518.0000   2000.0000   2000.0000     25.0190    114.7779
   518.2500   2000.0000   2000.0000     23.8534    114.3554
   518.5000   2000.0000   2000.0000     23.2170    115.7064
   518.7500   2000.0000   2000.0000     23.0282    117.9129
   519.0000   2000.0000   2000.0000     23.1610    121.7644
   519.2500   2000.0000   2000.0000     23.4806    123.4596
   519.5000   2000.0000   2000.0000     23.8768    123.1358
   519.7500   2000.0000   2000.0000     24.2818    120.9777
   520.0000   2000.0000   2000.0000     24.6690    116.1621
   520.2500   2000.0000   2000.0000     25.0398    112.8476
   520.5000   2000.0000   2000.0000     25.4067    108.6112
   520.7500   2000.0000   2000.0000     25.7811    106.3054
   521.0000   2000.0000   2000.0000     26.1655    103.4006
   521.2500   2000.0000   2000.0000     26.5495    101.8952
   521.5000   2000.0000   2000.0000     26.9130    100.9457
   521.7500   2000.0000   2000.0000     27.2344    101.6182
   522.0000   2000.0000   2000.0000     27.4928    104.4790
   522.2500   2000.0000   2000.0000     27.6546    106.8811
   522.5000   2000.0000   2000.0000     27.6541    109.5961
   522.7500   2000.0000   2000.0000     27.3984    110.2969
   523.0000   2000.0000   2000.0000     26.8191    109.9354
   523.2500   2000.0000   2000.0000     25.9391    109.3131
   523.5000   2000.0000   2000.0000     24.8880    108.9191
   523.7500   2000.0000   2000.0000     23.8395    109.5649
   524.0000   2000.0000   2000.0000     22.9276    112.2953
   524.2500   2000.0000   2000.0000     22.2049    115.0918
