~Version Information
VERS.                      2.0: CWLS Log ASCII Standard - VERSION 2.0
WRAP.                       NO: One line per depth step
~Well Information Block
STRT.FT                -5.2500: 
STOP.FT              1184.2500: 
STEP.FT                 0.2500: 
NULL.                -999.2500: 
COMP.          Pioneer Natural Resources: COMPANY
WELL.          Lucky Lady 42-29: WELL
FLD.           Purgatoire River: FIELD
LOC.           2482' FNL & 662' FEL: LOCATION
CNTY.               Las Animas: COUNTY
SRVC.                         : SERVICE COMPANY
DATE.          Tue Mar 14 14:47:22 2006: LOG DATE
UWI.           05 071 08659 00: UNIQUE WELL ID
STAT.                       CO: STATE
~Curve Information Block
DEPT.FT            0 000 00 00: Depth
GR.GAPI                       : Gamma Ray
CCL.                          : Casing Collar Locator
TT3.usec                      : CBL 3' Travel Time
AMP3.mV                       : CBL 3' Amplitude
~Parameter Information Block
~A  Depth        GR         CCL         TT3         AMP3    
# ...
   463.7500     95.0376      0.0000    809.3335      8.7625
   464.0000     97.2548      0.0000    812.4848      8.7483
   464.2500    104.1812      0.0000    814.2390      8.7519
   464.5000    116.1540      0.0000    815.0015      8.7968
   464.7500    131.1496      0.0000    815.2145      8.8830
   465.0000    145.6260      0.0000    815.0865      8.9939
   465.2500    156.0698      0.0000    814.4725      9.1105
   465.5000    160.7726      0.0000    812.7921      9.2116
   465.7500    160.9716      0.0000    809.2281      9.2655
   466.0000    159.8927      0.0000    803.5270      9.2409
   466.2500    159.8286      0.0000    796.9035      9.1364
   466.5000    160.2705      0.0000    791.7226      8.9919
   466.7500    159.0755      0.0000    789.7217      8.8609
   467.0000    154.5894      0.0000    790.6728      8.7699
   467.2500    146.1820      0.0000    792.8979      8.7052
   467.5000    133.8519      0.0000    794.5061      8.6385
   467.7500    118.3844      0.0000    793.9279      8.5549
   468.0000    101.6759      0.0000    790.1234      8.4608
   468.2500     86.3041      0.0000    783.0038      8.3702
   468.5000     74.5911      0.0000    773.4794      8.2887
   468.7500     67.7996      0.0000    762.9342      8.2057
   469.0000     65.7925      0.0000    752.8376      8.1065
   469.2500     67.3340      0.0000    744.6085      7.9935
   469.5000     70.8729      0.0000    739.2392      7.8896
   469.7500     75.1639      0.0000    736.9521      7.8212
   470.0000     79.2512      0.0000    737.4374      7.7984
   470.2500     82.2800      0.0000    740.4163      7.8121
   470.5000     83.9977      0.0000    745.7262      7.8414
   470.7500     85.6156      0.0000    752.7703      7.8630
   471.0000     89.6144      0.0000    760.0967      7.8594
   471.2500     98.0095      0.0000    765.8378      7.8245
   471.5000    110.5442      0.0000    768.7609      7.7684
   471.7500    124.6293      0.0000    769.0231      7.7177
   472.0000    137.0377      0.0000    768.0540      7.7074
   472.2500    145.7108      0.0000    767.6222      7.7632
   472.5000    150.4429      0.0000    768.6503      7.8867
   472.7500    152.5337      0.0000    770.7396      8.0509
   473.0000    153.8309      0.0000    772.7949      8.2088
   473.2500    155.4897      0.0000    773.8998      8.3090
   473.5000    157.2153      0.0000    773.4587      8.3203
   473.7500    157.7535      0.0000    770.8171      8.2457
   474.0000    156.2664      0.0000    765.3590      8.1176
   474.2500    153.3089      0.0000    757.4130      7.9796
   474.5000    150.6330      0.0000    749.0340      7.8675
   474.7500    149.9805      0.0000    743.3875      7.7947
   475.0000    151.6858      0.0000    742.8190      7.7503
   475.2500    154.2056      0.0000    747.1412      7.7113
   475.5000    155.1335      0.0000    753.7032      7.6618
   475.7500    152.8457      0.0000    759.3954      7.6013
   476.0000    147.3962      0.0000    762.9679      7.5410
   476.2500    140.2225      0.0000    765.5125      7.4955
   476.5000    133.0479      0.0000    768.9012      7.4788
   476.7500    126.5732      0.0000    774.2105      7.4999
   477.0000    119.9215      0.0000    781.3857      7.5537
   477.2500    111.6654      0.0000    789.2767      7.6164
   477.5000    101.5921      0.0000    795.2963      7.6616
   477.7500     91.2585      0.0000    795.8318      7.6881
   478.0000     82.8941      0.0000    788.4634      7.7288
   478.2500     78.0869      0.0000    774.8270      7.8254
   478.5000     77.3959      0.0000    761.1552      7.9887
   478.7500     80.6138      0.0000    754.6509      8.1830
   479.0000     86.9429      0.0000    757.9976      8.3501
   479.2500     94.9402      0.0000    767.1754      8.4511
   479.5000    102.7723      0.0000    774.9261      8.4874
   479.7500    109.1052      0.0000    776.2591      8.4882
   480.0000    113.9134      0.0000    770.8162      8.4793
   480.2500    118.3549      0.0000    761.3531      8.4587
   480.5000    123.9096      0.0000    751.3293      8.4017
   480.7500    131.3772      0.0000    743.5709      8.2942
   481.0000    140.1159      0.0000    739.7361      8.1632
   481.2500    148.0779      0.0000    740.1485      8.0686
   481.5000    153.0251      0.0000    744.0022      8.0670
   481.7500    154.0251      0.0000    749.9897      8.1774
   482.0000    151.6197      0.0000    756.9946      8.3710
   482.2500    146.6346      0.0000    764.3405      8.5918
   482.5000    139.5301      0.0000    771.5048      8.7935
   482.7500    131.2074      0.0000    777.7740      8.9635
   483.0000    123.6975      0.0000    782.3914      9.1127
   483.2500    119.3013      0.0000    785.3939      9.2478
   483.5000    119.0393      0.0000    788.1673      9.3612
   483.7500    122.0427      0.0000    791.7594      9.4532
   484.0000    126.1190      0.0000    793.7294      9.5641
   484.2500    128.7579      0.0000    788.1582      9.7730
   484.5000    128.2842      0.0000    770.5692     10.1441
   484.7500    124.9102      0.0000    742.6152     10.6668
   485.0000    120.7642      0.0000    711.4304     11.2423
   485.2500    118.3905      0.0000    685.3731     11.7058
   485.5000    118.7303      0.0000    670.4067     11.8564
   485.7500    120.2341      0.0000    668.3233     11.5417
   486.0000    120.0357      0.0000    676.4367     10.7887
   486.2500    116.3554      0.0000    689.0216      9.8258
   486.5000    109.8788      0.0000    700.0944      8.9186
   486.7500    102.9753      0.0000    705.8704      8.1967
   487.0000     97.8809      1.6943    705.7366      7.6499
   487.2500     95.4334      1.3721    701.8052      7.2334
   487.5000     94.9280      0.0000    697.5239      6.9462
   487.7500     95.0078      0.0000    695.9213      6.8334
   488.0000     94.9575      0.0000    698.3393      6.9227
   488.2500     95.2820      0.0000    704.1082      7.1401
   488.5000     97.0321      0.0000    711.1060      7.3128
   488.7500    100.4868      0.0000    716.9276      7.3064
   489.0000    104.3901      0.0000    719.9929      7.1466
   489.2500    106.5960      0.0000    719.9297      6.9690
   489.5000    105.7955      0.0000    717.4008      6.8732
   489.7500    102.7427      0.0000    713.9839      6.8588
   490.0000     99.7524      0.0000    711.8336      6.8751
   490.2500     98.9758      0.0000    712.4780      6.8858
   490.5000    100.8962      0.0000    715.5207      6.8887
   490.7500    104.2191      0.0000    718.8500      6.9035
   491.0000    107.3005      0.0000    720.3900      6.9550
   491.2500    109.5470      0.0000    719.6902      7.0561
   491.5000    111.0844      0.0000    718.0642      7.1982
   491.7500    111.5131      0.0000    717.3420      7.3538
   492.0000    109.8770      0.0000    718.2433      7.4938
   492.2500    105.9748      0.0000    719.8512      7.6022
   492.5000    101.1514      0.0000    720.8383      7.6773
   492.7500     97.5168      0.0000    721.1227      7.7232
   493.0000     96.4645      0.0000    722.0625      7.7433
   493.2500     97.9129      0.0000    725.0468      7.7411
   493.5000    100.8996      0.0000    730.0734      7.7234
   493.7500    104.8488      0.0000    735.6832      7.7000
   494.0000    110.0981      0.0000    740.1165      7.6824
   494.2500    117.1501      0.0000    742.4612      7.6838
   494.5000    125.6047      0.0000    742.7171      7.7139
   494.7500    134.0424      0.0000    741.1364      7.7746
   495.0000    141.0515      0.0000    738.0236      7.8681
   495.2500    146.3537      0.0000    734.1271      8.0064
   495.5000    150.7640      0.0000    730.7300      8.2023
   495.7500    154.9952      0.0000    729.2498      8.4481
   496.0000    158.7572      0.0000    730.7568      8.7171
   496.2500    161.2412      0.0000    735.6619      8.9825
   496.5000    162.2455      0.0000    743.5953      9.2202
   496.7500    162.5035      0.0000    753.4321      9.3973
   497.0000    162.8582      0.0000    763.5272      9.4835
