~Version Information
VERS.                      2.0: CWLS Log ASCII Standard - VERSION 2.0
WRAP.                       NO: One line per depth step
~Well Information Block
STRT.FT                -6.7500: 
STOP.FT              1466.2500: 
STEP.FT                 0.2500: 
NULL.                -999.2500: 
COMP.          Pioneer Natural Resources: COMPANY
WELL.          Pallet Ranch 34-15 Tr: WELL
FLD.           Purgatorie River: FIELD
LOC.           465' FSL & 2138' FEL--: LOCATION
PROV.                       CO: PROVINCE
CNTY.               Las Animas: COUNTRY
SRVC.          Patterson Wireline: SERVICE COMPANY
DATE.          Wed Jan 25 09:38:09 2006: LOG DATE
UWI.           05 071 08657 00: UNIQUE WELL ID
~Curve Information Block
DEPT.FT            0 000 00 00: Depth
CCL.                          : Casing Collar Locator
TT3.usec                      : CBL 3' Travel Time
AMP3.mV                       : CBL 3' Amplitude
GR.GAPI                       : Gamma Ray
~Parameter Information Block
~A  Depth       CCL         TT3         AMP3         GR     
# ...
   763.7500      0.0000    685.0799      6.6015     82.1915
   764.0000      0.0000    687.0053      6.5993     81.6220
   764.2500      0.0000    690.6677      6.6014     81.4111
   764.5000      0.0000    695.9988      6.6048     81.6771
   764.7500      0.0000    702.3777      6.6059     82.0938
   765.0000      0.0000    709.0005      6.5987     81.7766
   765.2500      0.0000    715.1608      6.5778     79.7028
   765.5000      0.0000    720.2597      6.5421     75.8121
   765.7500      0.0000    723.8766      6.4948     71.6697
   766.0000      0.0000    725.9059      6.4412     69.5655
   766.2500      0.0000    726.4352      6.3876     70.7631
   766.5000      0.0000    725.4276      6.3399     74.8489
   766.7500      0.0000    722.6442      6.3001     80.7624
   767.0000      0.0000    718.1332      6.2623     87.8538
   767.2500      0.0000    713.0290      6.2178     95.5186
   767.5000      0.0000    709.5869      6.1651    102.2994
   767.7500      0.0000    709.7285      6.1113    106.2422
   768.0000      0.0000    713.3054      6.0634    106.4913
   768.2500      0.0000    718.1970      6.0227    104.2227
   768.5000      0.0000    722.1405      5.9875    101.5480
   768.7500      0.0000    724.0860      5.9596     99.5188
   769.0000      0.0000    723.8990      5.9453     97.7244
   769.2500      0.0000    721.4381      5.9540     95.7280
   769.5000      0.0000    716.3919      5.9957     93.9838
   769.7500      0.0000    709.0099      6.0768     93.0871
   770.0000      0.0000    700.6706      6.1935     93.0082
   770.2500      0.0000    693.3444      6.3284     93.5833
   770.5000      0.0000    688.3983      6.4566     95.1576
   770.7500      0.0000    686.0789      6.5617     98.1759
   771.0000      0.0000    686.1151      6.6506    102.4130
   771.2500      0.0000    688.5148      6.7493    107.1463
   771.5000      0.0000    693.5452      6.8770    112.1569
   771.7500      0.0000    700.9184      7.0265    118.0970
   772.0000      0.0000    709.2252      7.1722    125.4747
   772.2500      0.0000    716.5118      7.2933    133.3941
   772.5000      0.0000    721.5130      7.3807    139.7895
   772.7500      0.0000    724.2266      7.4326    143.1784
   773.0000      0.0000    725.4200      7.4559    143.9683
   773.2500      0.0000    725.8701      7.4747    143.7370
   773.5000      0.0000    726.0259      7.5295    143.6094
   773.7500      0.0000    726.0560      7.6610    143.7659
   774.0000      0.0000    725.9591      7.8830    143.9319
   774.2500      0.0000    725.6073      8.1573    143.6499
   774.5000      0.0000    724.7100      8.4017    142.5041
   774.7500      0.0000    722.8314      8.5419    140.5297
   775.0000      0.0000    719.6913      8.5660    138.0699
   775.2500      0.0000    715.6575      8.5225    135.1369
   775.5000      0.0000    711.8451      8.4713    131.3516
   775.7500      0.0000    709.3916      8.4469    126.5145
   776.0000      0.0000    708.4703      8.4617    120.8096
   776.2500      0.0000    708.0436      8.5193    114.5593
   776.5000      0.0000    706.5731      8.6091    108.1503
   776.7500      0.0000    702.9225      8.6932    102.0743
   777.0000      0.0000    696.7206      8.7051     96.8372
   777.2500      0.0000    688.5650      8.5788     92.9584
   777.5000      0.0000    680.7408      8.2980     91.1275
   777.7500      0.0000    677.6118      7.9218     91.9896
   778.0000      0.0000    683.7668      7.5535     95.3514
   778.2500      0.0000    700.1612      7.2811     99.5864
   778.5000      0.0000    722.0606      7.1422    102.1841
   778.7500      0.0000    741.7214      7.1198    101.2877
   779.0000      0.0000    753.2681      7.1550     97.1276
   779.2500      0.0000    755.1815      7.1767     92.1487
   779.5000     -2.0000    749.6731      7.1380     89.3136
   779.7500      0.0000    741.0414      7.0367     89.7111
   780.0000      0.0000    733.7084      6.9252     91.9171
   780.2500      0.0000    729.7183      6.9085     93.9695
   780.5000      0.0000    727.5547      7.0936     95.5555
   780.7500      0.0000    724.4616      7.4864     97.8075
   781.0000      0.0000    720.1290      7.9466    101.4113
   781.2500      0.0000    717.0079      8.2911    105.8358
   781.5000      0.0000    717.0420      8.4395    110.4290
   781.7500      0.0000    719.5038      8.4389    115.2981
   782.0000      0.0000    722.2142      8.3764    120.7043
   782.2500      0.0000    723.5861      8.3059    126.2449
   782.5000      0.0000    723.1559      8.2442    131.1755
   782.7500      0.0000    721.1582      8.1982    135.2333
   783.0000      0.0000    718.2397      8.1773    138.7191
   783.2500      0.0000    715.0959      8.1821    141.8116
   783.5000      0.0000    711.9408      8.1960    144.0726
   783.7500      0.0000    708.5798      8.1965    144.7685
   784.0000      0.0000    705.0747      8.1749    143.7250
   784.2500      0.0000    701.8318      8.1415    141.7006
   784.5000      0.0000    699.0889      8.1161    139.8664
   784.7500      0.0000    697.0729      8.1156    139.0950
   785.0000      0.0000    696.6370      8.1438    139.5450
   785.2500      0.0000    698.8739      8.1856    140.3794
   785.5000      0.0000    703.7307      8.2127    140.0992
   785.7500      0.0000    709.4380      8.2006    137.9521
   786.0000      0.0000    713.8033      8.1409    134.9353
   786.2500      0.0000    716.0750      8.0430    132.5836
   786.5000      0.0000    717.2118      7.9242    130.9819
   786.7500      0.0000    718.2406      7.7996    128.9102
   787.0000      0.0000    718.8406      7.6779    125.8452
   787.2500      0.0000    717.8649      7.5670    122.8986
   787.5000      0.0000    714.8889      7.4790    121.6469
   787.7500      0.0000    710.8808      7.4268    122.6701
   788.0000      0.0000    707.6309      7.4137    125.4515
   788.2500      0.0000    706.7831      7.4265    129.2862
   788.5000      0.0000    708.8887      7.4397    133.9170
   788.7500      0.0000    712.7324      7.4308    139.3521
   789.0000      0.0000    715.7772      7.4026    145.4509
   789.2500      0.0000    715.9738      7.3901    151.6358
   789.5000      0.0000    713.4666      7.4395    156.5446
   789.7500      0.0000    710.3949      7.5733    158.2883
   790.0000      0.0000    708.7893      7.7730    156.0426
   790.2500      0.0000    708.7094      7.9981    151.4433
   790.5000      0.0000    708.6544      8.2170    147.5545
   790.7500      0.0000    707.5665      8.4181    146.1065
   791.0000      0.0000    706.0710      8.5994    146.1658
   791.2500      0.0000    705.9161      8.7536    145.6103
   791.5000      0.0000    708.4316      8.8670    143.3619
   791.7500      0.0000    713.3392      8.9329    140.0428
   792.0000      0.0000    718.9373      8.9663    137.0632
   792.2500      0.0000    723.4641      8.9972    135.3381
   792.5000      0.0000    726.1993      9.0432    134.4941
   792.7500      0.0000    727.4268      9.0870    133.1903
   793.0000      0.0000    727.7864      9.0840    130.5362
   793.2500      0.0000    727.8079      8.9919    127.1927
   793.5000      0.0000    727.7905      8.7974    124.7414
   793.7500      0.0000    727.8409      8.5225    123.9371
   794.0000      0.0000    727.9523      8.2121    123.8733
   794.2500      0.0000    728.0709      7.9150    123.0616
   794.5000      0.0000    728.1396      7.6652    121.1748
   794.7500      0.0000    728.1177      7.4722    119.4799
   795.0000      0.0000    727.9943      7.3287    119.5502
   795.2500      0.0000    727.8032      7.2293    121.7419
   795.5000      0.0000    727.6719      7.1794    125.0142
   795.7500      0.0000    727.8972      7.1849    128.0657
   796.0000      0.0000    729.0205      7.2361    130.3010
   796.2500      0.0000    731.6326      7.3032    131.5878
   796.5000      0.0000    735.6491      7.3498    131.4608
   796.7500      0.0000    739.5624      7.3538    129.2406
   797.0000      0.0000    740.9515      7.3196    125.2237
