~Version Information
 VERS.                                  2.0 : CWLS LAS VERSION
 WRAP.                                   NO : WRAPING MODE
 SWARE .                 MController 2.5.0N : SOFTWARE VERSION
~Well Information
 WELL.                     Challenger 31-29 : WELL
 COMP.   Pioneer Natural Resources USA, Inc : COMPANY
 FLD.                      Purgatoire River : FIELD
 LOC.               NW/NE Sec 29 T33S  R65W : LOCATION
 DATE.                             09/15/05 : DATE(S) LOGGED
 SRVC.       BLANCO Geological Services LLC : SERVICE COMPANY
 STAT.                                   CO : STATE
 CNTY.                           Las Animas : COUNTY
 CTRY.                                  USA : COUNTRY
 API.                       05-071-08514-00 : API NUMBER
 STRT.FT                             396.00 : START DEPTH
 STOP.FT                            1345.00 : STOP DEPTH
 STEP.FT                               1.00 : DEPTH INCREMENT
 NULL.                                -9999 : NULL VALUE
~Curve information
 DEPTH.FT                                   :
 ROP.MIN/FT                                 :
 GAS.UNITS                                  :
~ASCII Log data
# ...
       596.0         2.12          2.9 
       597.0         0.27          3.4 
       598.0         0.27          3.0 
       599.0         0.47          2.4 
       600.0         0.17          1.5 
       601.0         0.17          1.6 
       602.0         0.20          1.6 
       603.0         0.30          1.7 
       604.0         0.23          1.8 
       605.0         0.22          2.0 
       606.0         0.33          1.4 
       607.0         0.27          1.3 
       608.0         0.20          2.0 
       609.0         0.17          1.9 
       610.0         0.10          2.6 
       611.0         0.17          1.7 
       612.0         0.43          2.3 
       613.0         0.17          2.6 
       614.0         0.13          1.9 
       615.0         0.13          1.6 
       616.0         0.07          1.6 
       617.0         0.17          1.6 
       618.0         0.20          2.0 
       619.0         0.20          1.6 
       620.0         0.23          2.0 
       621.0         0.20          1.7 
       622.0         0.22          1.7 
       623.0         0.30          1.9 
       624.0         0.20          1.7 
       625.0         0.23          1.6 
       626.0         1.83          2.8 
       627.0         0.20          2.8 
       628.0         0.23          3.2 
       629.0         0.38          1.8 
       630.0         0.27          1.5 
       631.0         0.23          1.2 
       632.0         0.20          1.1 
       633.0         0.13          1.1 
       634.0         0.20          1.5 
       635.0         0.13          1.9 
       636.0         0.20          1.9 
       637.0         0.17          1.2 
       638.0         0.17          1.0 
       639.0         0.23          0.8 
       640.0         0.23          1.3 
       641.0         0.23          1.2 
       642.0         0.27          1.3 
       643.0         0.23          1.9 
       644.0         0.20          1.6 
       645.0         0.18          2.0 
       646.0         0.13          2.0 
       647.0         0.17          1.9 
       648.0         0.13          1.9 
       649.0         0.17          2.0 
       650.0         0.17          2.0 
       651.0         0.17          2.2 
       652.0         0.13          1.5 
       653.0         0.13          0.9 
       654.0         0.17          1.4 
       655.0         0.17          1.7 
       656.0         1.23          3.1 
       657.0         0.68          6.2 
       658.0         0.37          6.1 
       659.0         0.20          3.7 
       660.0         0.17          3.1 
       661.0         0.17          2.7 
       662.0         0.20          2.7 
       663.0         0.30          2.1 
       664.0         0.17          2.0 
       665.0         0.20          2.2 
       666.0         0.20          2.0 
       667.0         0.20          2.3 
       668.0         0.17          1.4 
       669.0         0.17          1.8 
       670.0         0.20          1.3 
       671.0         0.17          1.7 
       672.0         0.13          2.4 
       673.0         0.18          1.8 
       674.0         0.20          1.3 
       675.0         0.20          2.2 
       676.0         0.13          2.0 
       677.0         0.17          1.6 
       678.0         0.13          2.0 
       679.0         0.17          2.0 
       680.0         0.17          1.9 
       681.0         0.13          1.7 
       682.0         0.27          1.4 
       683.0         0.20          1.4 
       684.0         0.53          2.2 
       685.0         0.77          4.6 
       686.0         0.82          5.9 
       687.0         0.17          3.4 
       688.0         0.23          2.7 
       689.0         0.30          2.5 
       690.0         0.17          2.8 
       691.0         0.13          2.2 
       692.0         0.17          2.7 
       693.0         0.27          2.1 
       694.0         0.23          2.0 
       695.0         0.20          2.2 
       696.0         0.17          1.9 
       697.0         0.13          1.8 
       698.0         0.13          1.8 
       699.0         0.13          2.4 
       700.0         0.13          2.7 
       701.0         0.13          2.9 
       702.0         0.18          2.6 
       703.0         0.20          2.5 
       704.0         0.20          2.7 
       705.0         0.17          2.9 
       706.0         0.17          2.4 
       707.0         0.17          2.5 
       708.0         0.13          2.5 
       709.0         0.20          2.2 
       710.0         0.20          1.3 
       711.0         0.23          2.0 
       712.0         0.13          2.0 
       713.0         0.13          2.1 
       714.0         0.13          1.7 
       715.0         0.27          1.5 
       716.0         1.08          5.4 
       717.0         0.40          6.6 
       718.0         0.27          5.1 
       719.0         0.20          3.8 
       720.0         0.27          3.3 
       721.0         0.17          2.5 
       722.0         0.23          3.0 
       723.0         0.20          1.7 
       724.0         0.20          2.2 
       725.0         0.17          1.8 
       726.0         0.20          2.2 
       727.0         0.20          1.6 
       728.0         0.13          2.3 
       729.0         0.17          2.2 
       730.0         0.17          2.2 
       731.0         0.17          1.9 
       732.0         0.15          3.2 
       733.0         0.17          5.1 
       734.0         0.13          6.6 
       735.0         0.17          7.9 
       736.0         0.17          8.5 
       737.0         0.17          8.7 
       738.0         0.20          7.8 
       739.0         0.17          7.1 
       740.0         0.20          7.1 
       741.0         0.13          6.2 
       742.0         0.20          5.2 
       743.0         0.17          4.1 
       744.0         0.13          4.1 
       745.0         0.17          4.1 
       746.0         1.52          8.9 
       747.0         0.20         10.9 
       748.0         0.27         21.4 
       749.0         0.30         24.7 
       750.0         0.30         21.9 
       751.0         0.40         16.0 
       752.0         0.23         11.6 
       753.0         0.20          8.1 
       754.0         0.17          7.9 
       755.0         0.53         34.0 
       756.0         0.23         37.6 
       757.0         0.25         38.2 
       758.0         0.17         37.5 
       759.0         0.17         37.6 
       760.0         0.27         36.7 
       761.0         0.20         36.6 
       762.0         0.17         35.6 
       763.0         0.17         34.3 
       764.0         0.13         34.5 
       765.0         0.17         32.8 
       766.0         0.17         31.9 
       767.0         0.23         30.6 
       768.0         0.17         31.3 
       769.0         0.17         29.3 
       770.0         0.17         28.0 
       771.0         0.13         28.0 
       772.0         0.13         27.8 
       773.0         0.20         23.0 
       774.0         0.20         22.8 
       775.0         0.25         18.7 
       776.0         0.67         28.9 
       777.0         0.23         34.3 
       778.0         0.43         51.0 
       779.0         0.33         50.7 
       780.0         0.23         46.1 
       781.0         0.17         45.2 
       782.0         0.20         37.9 
       783.0         0.17         32.1 
       784.0         0.13         30.9 
       785.0         0.17         27.9 
       786.0         0.17         26.3 
       787.0         0.17         24.8 
       788.0         0.13         25.3 
       789.0         0.12         27.3 
       790.0         0.13         33.8 
       791.0         0.10         33.8 
       792.0         0.13         36.8 
       793.0         0.17         38.2 
       794.0         0.17         38.9 
       795.0         0.17         39.6 
