~Version Information
VERS.                      2.0: CWLS Log ASCII Standard - VERSION 2.0
WRAP.                       NO: One line per depth step
~Well Information Block
STRT.FT                -9.2500: 
STOP.FT              1854.7500: 
STEP.FT                 0.2500: 
NULL.                -999.2500: 
COMP.          Pioneer Natural Resources: COMPANY
WELL.          State Wildlife 32-16 Tr: WELL
FLD.           Purgatoire River: FIELD
LOC.           1838' FNL & 1850' FEL--: LOCATION
STAT.                       CO: State
CNTY.               Las Animas: COUNTY
CTRY. USA : Country
SECT. 16 : Section
TOWN. 32S : Township
RANG. 66W : Range
SRVC.          Patterson Wireline: SERVICE COMPANY
DATE.          Tue Nov 22 10:17:13 2005: LOG DATE
API.           05 071 08568 00: UNIQUE WELL ID
~Curve Information Block
DEPT.FT            0 000 00 00: Depth
CCL.                          : Casing Collar Locator
TT3.usec                      : CBL 3' Travel Time
AMP3.mV                       : CBL 3' Amplitude
GR.GAPI                       : Gamma Ray
~Parameter Information Block
~A  Depth       CCL         TT3         AMP3         GR     
# ...
  1096.2500      0.0000    719.8542      9.9189    142.4885
  1096.5000      0.0000    693.8571      9.9645    137.4988
  1096.7500      0.0000    658.3060     10.0000    130.9359
  1097.0000      0.0000    613.8856     10.0109    124.8474
  1097.2500      0.0000    569.6674     10.0028    120.6039
  1097.5000      0.0000    535.8680      9.9937    118.4212
  1097.7500      0.0000    516.4336      9.9965    117.7537
  1098.0000      0.0000    509.6548     10.0094    118.0209
  1098.2500      0.0000    513.8958     10.0225    118.9097
  1098.5000      0.0000    531.1948     10.0290    120.3457
  1098.7500      0.0000    565.1522     10.0256    122.6088
  1099.0000      0.0000    615.0258     10.0079    126.1783
  1099.2500      0.0000    672.2495      9.9728    130.8579
  1099.5000      0.0000    724.6149      9.9265    135.1738
  1099.7500      0.0000    764.3743      9.8897    137.2010
  1100.0000      0.0000    791.0355      9.8906    136.1960
  1100.2500      0.0000    806.9315      9.9394    133.3225
  1100.5000      0.0000    813.1089      9.9980    130.5892
  1100.7500      0.0000    810.5120      9.9838    129.1296
  1101.0000      0.0000    802.3796      9.8230    128.6789
  1101.2500      0.0000    792.9645      9.5074    128.5650
  1101.5000      0.0000    784.5482      9.1026    128.5632
  1101.7500      0.0000    777.1138      8.7172    128.4798
  1102.0000      0.0000    770.5723      8.4584    127.4402
  1102.2500      0.0000    766.2272      8.3840    124.3118
  1102.5000      0.0000    765.6578      8.4655    119.0018
  1102.7500      0.0000    768.6306      8.6019    113.1197
  1103.0000      0.0000    772.8099      8.6831    109.1770
  1103.2500      0.0000    775.6754      8.6524    108.8082
  1103.5000      0.0000    776.7635      8.5292    111.4995
  1103.7500      0.0000    778.1016      8.3829    115.1001
  1104.0000      0.0000    781.9141      8.2765    117.6297
  1104.2500      0.0000    787.0643      8.2291    118.5820
  1104.5000      0.0000    788.5771      8.2443    118.6388
  1104.7500      0.0000    782.3701      8.3571    118.4616
  1105.0000      0.0000    770.0656      8.6118    117.9307
  1105.2500      0.0000    757.8019      8.9926    116.4307
  1105.5000      0.0000    750.7646      9.4155    113.6818
  1105.7500      0.0000    749.1300      9.8010    110.2466
  1106.0000      0.0000    747.0570     10.1410    107.2144
  1106.2500      0.0000    734.5324     10.4961    105.4577
  1106.5000      0.0000    704.1346     10.9289    105.1828
  1106.7500      0.0000    660.4089     11.4214    106.0686
  1107.0000      0.0000    619.7176     11.8709    107.8370
  1107.2500      0.0000    594.0473     12.1973    110.6646
  1107.5000      0.0000    575.9554     12.4320    114.8334
  1107.7500      0.0000    546.8130     12.6562    119.8869
  1108.0000      0.0000    499.6441     12.8679    124.4601
  1108.2500      0.0000    446.6583     12.9631    127.0736
  1108.5000      0.0000    404.7152     12.8529    126.8479
  1108.7500      0.0000    380.5184     12.5617    123.7448
  1109.0000      0.0000    370.4094     12.2056    118.7045
  1109.2500      0.0000    368.1798     11.9051    113.2066
  1109.5000      0.0000    370.0854     11.7215    108.1099
  1109.7500      0.0000    374.8110     11.6485    103.2713
  1110.0000      0.0000    381.3216     11.6414     98.6726
  1110.2500      0.0000    387.6129     11.6555     95.2717
  1110.5000      0.0000    391.9995     11.6707     94.1280
  1110.7500      0.0000    396.3115     11.6804     95.2240
  1111.0000      0.0000    407.7501     11.6655     97.6873
  1111.2500      0.0000    435.6348     11.5934    100.6210
  1111.5000      0.0000    482.5449     11.4521    103.1587
  1111.7500      0.0000    536.2479     11.2727    104.3129
  1112.0000      0.0000    572.7189     11.1071    103.7066
  1112.2500      0.0000    572.3561     10.9880    102.3966
  1112.5000      0.0000    535.7141     10.9111    102.3063
  1112.7500      0.0000    482.5565     10.8517    104.6243
  1113.0000      0.0000    435.6786     10.7924    108.8286
  1113.2500      0.0000    406.3004     10.7377    113.0088
  1113.5000      0.0000    392.4493     10.7065    114.9642
  1113.7500      0.0000    386.7097     10.7099    113.4239
  1114.0000      0.0000    383.4609     10.7385    108.7804
  1114.2500      0.0000    380.5508     10.7763    102.8978
  1114.5000      0.0000    377.4689     10.8267     98.0613
  1114.7500      0.0000    374.0656     10.9149     95.6809
  1115.0000      0.0000    370.6375     11.0635     95.5885
  1115.2500      0.0000    367.8434     11.2676     96.5380
  1115.5000      0.0000    366.0957     11.4920     97.3706
  1115.7500      0.0000    365.3704     11.6851     97.6353
  1116.0000      0.0000    365.8623     11.7968     97.3751
  1116.2500      0.0000    369.1845     11.7960     96.8089
  1116.5000      0.0000    379.5586     11.6818     96.0794
  1116.7500      0.0000    403.2047     11.4824     94.8450
  1117.0000      0.0000    443.3678     11.2456     92.4459
  1117.2500      0.0000    492.7650     11.0376     88.9490
  1117.5000      0.0000    533.4122     10.9330     85.6061
  1117.7500      0.0000    549.6512     10.9745     83.7859
  1118.0000      0.0000    541.5776     11.1287     83.7094
  1118.2500      0.0000    521.8310     11.2943     84.6062
  1118.5000      0.0000    502.8541     11.3570     86.0197
  1118.7500      0.0000    493.6451     11.2288     88.6783
  1119.0000      0.0000    503.1881     10.8662     93.9021
  1119.2500      0.0000    535.7405     10.3025    101.9994
  1119.5000      0.0000    583.3296      9.6621    111.2150
  1119.7500      0.0000    630.7831      9.1013    118.4959
  1120.0000      0.0000    668.3680      8.7218    121.4093
  1120.2500      0.0000    695.1393      8.5440    119.1966
  1120.5000      0.0000    711.9679      8.5296    112.3980
  1120.7500      0.0000    717.7114      8.5980    102.3931
  1121.0000      0.0000    713.7678      8.6593     91.3649
  1121.2500     -2.0000    707.9738      8.6692     81.6505
  1121.5000      2.0000    709.9734      8.6442     74.5026
  1121.7500      0.0000    722.6533      8.6217     69.7591
  1122.0000      0.0000    739.5632      8.6347     66.7081
  1122.2500      0.0000    749.7906      8.7394     64.8237
  1122.5000      0.0000    743.5070      9.0330     63.7153
  1122.7500      0.0000    714.2744      9.5914     63.0585
  1123.0000      0.0000    660.6190     10.3738     62.8166
  1123.2500      0.0000    588.5714     11.2150     63.0677
  1123.5000      0.0000    511.9779     11.9294     63.4176
  1123.7500      0.0000    446.9047     12.4136     63.0299
  1124.0000      0.0000    402.9538     12.6653     61.5531
  1124.2500      0.0000    379.5056     12.7401     59.6236
  1124.5000      0.0000    369.6465     12.7004     58.0356
  1124.7500      0.0000    366.3525     12.5889     56.7394
  1125.0000      0.0000    365.4347     12.4327     55.0723
  1125.2500      0.0000    365.1647     12.2599     52.7348
  1125.5000      0.0000    365.0208     12.1000     50.2600
  1125.7500      0.0000    364.8949     11.9666     48.6067
  1126.0000      0.0000    364.7672     11.8452     48.3516
  1126.2500      0.0000    364.6440     11.7014     49.2383
  1126.5000      0.0000    364.5321     11.5060     50.4978
  1126.7500      0.0000    364.4372     11.2570     51.6085
  1127.0000      0.0000    364.3607     10.9854     52.5685
  1127.2500      0.0000    364.2971     10.7426     53.3616
  1127.5000      0.0000    364.2362     10.5777     53.5538
  1127.7500      0.0000    364.1705     10.5163     52.7841
  1128.0000      0.0000    364.1008     10.5521     51.3514
  1128.2500      0.0000    364.0297     10.6542     49.9290
  1128.5000      0.0000    363.9527     10.7833     49.0103
  1128.7500      0.0000    363.8666     10.9044     49.0585
  1129.0000      0.0000    363.7925     10.9904     50.7284
  1129.2500      0.0000    363.7868     11.0213     54.1691
  1129.5000      0.0000    363.9642     10.9849     58.1794
