~Version Information
VERS.                      2.0: CWLS Log ASCII Standard - VERSION 2.0
WRAP.                       NO: One line per depth step
~Well Information Block
STRT.FT               550.0000: 
STOP.FT              1664.0000: 
STEP.FT                 0.2500: 
NULL.                -999.2500: 
COMP.          Pioneer Natural Resources: COMPANY
WELL.          Stock Canyon 34-33: WELL
FLD.           Purgatorie River: FIELD
LOC.           980' FSL & 2191' FEL: LOCATION
PROV.                 Colorado: PROVINCE
CNTY.               Las Animas: COUNTRY
SRVC.                Patterson: SERVICE COMPANY
DATE.          Mon Dec 05 09:58:03 2005: LOG DATE
UWI.                          : UNIQUE WELL ID
~Curve Information Block
DEPT.FT            0 000 00 00: Depth
SN.Ohm-m                      : IEL Short Normal
SP.mV                         : IEL Spontaneous Potential
DIR.Ohm-m                     : IEL Induction Resistivity
GR.GAPI                       : Gamma Ray
~Parameter Information Block
~A  Depth        SN          SP         DIR          GR     
# ...
  1119.5000     19.3031    314.8797     14.4060     70.6435
  1119.7500     17.9927    315.6664     13.9912     78.1292
  1120.0000     16.9400    316.2029     13.6131     92.5053
  1120.2500     16.1400    316.4883     13.2926    102.8884
  1120.5000     15.5719    316.5533     13.0392    117.3414
  1120.7500     15.2142    316.4356     12.8581    125.1411
  1121.0000     15.0513    316.1684     12.7582    132.9343
  1121.2500     15.0747    315.7896     12.7528    135.3052
  1121.5000     15.2790    315.3479     12.8533    135.1856
  1121.7500     15.6575    314.8875     13.0613    133.4740
  1122.0000     16.1976    314.4334     13.3656    129.9473
  1122.2500     16.8778    313.9969     13.7452    127.3018
  1122.5000     17.6677    313.5957     14.1746    122.5329
  1122.7500     18.5300    313.2604     14.6273    118.6625
  1123.0000     19.4235    313.0232     15.0765    112.4054
  1123.2500     20.3040    312.9001     15.4899    108.3689
  1123.5000     21.1233    312.8798     15.8293    102.3853
  1123.7500     21.8277    312.9240     16.0640     98.0017
  1124.0000     22.3614    312.9809     16.1976     90.6077
  1124.2500     22.6770    313.0071     16.2845     85.6502
  1124.5000     22.7519    312.9834     16.4097     79.9452
  1124.7500     22.6031    312.9152     16.6443     78.4157
  1125.0000     22.2926    312.8216     17.0085     80.5051
  1125.2500     21.9169    312.7239     17.4690     84.4383
  1125.5000     21.5840    312.6412     17.9700     92.3521
  1125.7500     21.3871    312.5913     18.4721     97.9877
  1126.0000     21.3881    312.5907     18.9671    106.2629
  1126.2500     21.6170    312.6489     19.4590    111.7048
  1126.5000     22.0846    312.7620     19.9358    119.8580
  1126.7500     22.7971    312.9140     20.3641    124.9301
  1127.0000     23.7583    313.0912     20.7097    130.1830
  1127.2500     24.9545    313.2957     20.9683    130.6290
  1127.5000     26.3283    313.5438     21.1772    124.9355
  1127.7500     27.7605    313.8528     21.3920    117.0506
  1128.0000     29.0738    314.2300     21.6388    101.4513
  1128.2500     30.0652    314.6667     21.8750     90.5629
  1128.5000     30.5547    315.1338     21.9884     76.7104
  1128.7500     30.4319    315.5822     21.8448     70.2928
  1129.0000     29.6796    315.9597     21.3582     65.4314
  1129.2500     28.3689    316.2341     20.5363     65.1405
  1129.5000     26.6319    316.4009     19.4686     68.3927
  1129.7500     24.6257    316.4676     18.2763     72.4172
  1130.0000     22.5013    316.4402     17.0646     79.8769
  1130.2500     20.3837    316.3295     15.9018     85.0961
  1130.5000     18.3656    316.1668     14.8223     92.9614
  1130.7500     16.5094    316.0020     13.8388     98.5788
  1131.0000     14.8555    315.8828     12.9530    108.4501
  1131.2500     13.4282    315.8374     12.1599    116.2700
  1131.5000     12.2389    315.8760     11.4516    129.3837
  1131.7500     11.2856    316.0016     10.8226    138.0159
  1132.0000     10.5518    316.2157     10.2734    148.0826
  1132.2500     10.0095    316.5148      9.8114    151.5074
  1132.5000      9.6252    316.8845      9.4432    151.4520
  1132.7500      9.3667    317.2949      9.1683    149.3125
  1133.0000      9.2069    317.6938      8.9755    146.4439
  1133.2500      9.1243    318.0016      8.8468    146.0669
  1133.5000      9.1001    318.1298      8.7640    147.2483
  1133.7500      9.1158    318.0210      8.7131    147.7433
  1134.0000      9.1536    317.6765      8.6860    145.8202
  1134.2500      9.1978    317.1493      8.6786    142.3505
  1134.5000      9.2380    316.5129      8.6889    134.5416
  1134.7500      9.2689    315.8357      8.7153    128.4105
  1135.0000      9.2893    315.1675      8.7560    119.5884
  1135.2500      9.3002    314.5347      8.8087    115.1871
  1135.5000      9.3031    313.9427      8.8695    112.7040
  1135.7500      9.3002    313.3898      8.9331    114.1568
  1136.0000      9.2950    312.8857      8.9927    119.6345
  1136.2500      9.2922    312.4607      9.0422    123.9144
  1136.5000      9.2981    312.1588      9.0787    129.0620
  1136.7500      9.3202    312.0249      9.1045    131.3510
  1137.0000      9.3669    312.0892      9.1276    133.8131
  1137.2500      9.4461    312.3504      9.1587    135.1243
  1137.5000      9.5634    312.7676      9.2101    136.3157
  1137.7500      9.7203    313.2744      9.2940    136.4327
  1138.0000      9.9139    313.8024      9.4231    136.1669
  1138.2500     10.1401    314.2957      9.6087    136.3108
  1138.5000     10.3973    314.7131      9.8564    137.5080
  1138.7500     10.6901    315.0295     10.1614    138.6473
  1139.0000     11.0292    315.2416     10.5080    139.6656
  1139.2500     11.4280    315.3706     10.8744    139.2581
  1139.5000     11.8956    315.4530     11.2416    136.8004
  1139.7500     12.4307    315.5189     11.5977    134.3194
  1140.0000     13.0176    315.5726     11.9356    130.3766
  1140.2500     13.6257    315.5952     12.2485    128.1761
  1140.5000     14.2146    315.5706     12.5305    126.1578
  1140.7500     14.7407    315.5129     12.7827    125.6387
  1141.0000     15.1654    315.4689     13.0160    125.2021
  1141.2500     15.4610    315.4943     13.2451    124.4369
  1141.5000     15.6139    315.6251     13.4770    121.9864
  1141.7500     15.6237    315.8618     13.7023    119.5842
  1142.0000     15.4989    316.1680     13.8945    115.3436
  1142.2500     15.2519    316.4792     14.0216    112.6272
  1142.5000     14.8951    316.7213     14.0614    110.3150
  1142.7500     14.4420    316.8362     14.0107    110.9601
  1143.0000     13.9139    316.8021     13.8813    115.8372
  1143.2500     13.3472    316.6354     13.6860    120.9939
  1143.5000     12.7949    316.3732     13.4310    128.7703
  1143.7500     12.3186    316.0544     13.1217    132.0725
  1144.0000     11.9707    315.7142     12.7747    132.2287
  1144.2500     11.7765    315.3858     12.4209    129.2955
  1144.5000     11.7252    315.0976     12.0980    122.3824
  1144.7500     11.7740    314.8643     11.8360    117.4977
  1145.0000     11.8643    314.6806     11.6472    111.1708
  1145.2500     11.9409    314.5295     11.5231    107.8420
  1145.5000     11.9652    314.4015     11.4383    104.5713
  1145.7500     11.9208    314.3122     11.3607    104.0307
  1146.0000     11.8099    314.2967     11.2647    106.0390
  1146.2500     11.6465    314.3813     11.1387    108.6059
  1146.5000     11.4484    314.5547     10.9859    112.2059
  1146.7500     11.2305    314.7609     10.8171    113.6151
  1147.0000     11.0024    314.9205     10.6442    114.6926
  1147.2500     10.7689    314.9659     10.4764    115.6724
  1147.5000     10.5333    314.8678     10.3195    118.6194
  1147.7500     10.3006    314.6376     10.1751    121.4939
  1148.0000     10.0778    314.3090     10.0414    126.4218
  1148.2500      9.8726    313.9166      9.9145    129.6857
  1148.5000      9.6899    313.4854      9.7910    134.1082
  1148.7500      9.5299    313.0295      9.6724    136.6370
  1149.0000      9.3896    312.5562      9.5649    139.4202
  1149.2500      9.2651    312.0703      9.4757    140.0988
  1149.5000      9.1550    311.5813      9.4073    138.7852
  1149.7500      9.0614    311.1115      9.3547    136.7332
  1150.0000      8.9889    310.6962      9.3080    133.5341
  1150.2500      8.9413    310.3706      9.2579    132.2698
  1150.5000      8.9186    310.1552      9.2014    132.3738
  1150.7500      8.9152    310.0518      9.1421    133.3825
  1151.0000      8.9213    310.0479      9.0884    134.5229
  1151.2500      8.9250    310.1166      9.0487    134.1149
  1151.5000      8.9168    310.2135      9.0260    131.9213
  1151.7500      8.8923    310.2847      9.0162    130.4251
  1152.0000      8.8527    310.2864      9.0105    129.4460
  1152.2500      8.8039    310.2034      9.0019    129.3323
  1152.5000      8.7534    310.0518      8.9900    128.4605
  1152.7500      8.7079    309.8660      8.9805    127.0150
