~Version Information
VERS.                      2.0: CWLS Log ASCII Standard - VERSION 2.0
WRAP.                       NO: One line per depth step
~Well Information Block
STRT.FT               410.0000: 
STOP.FT              1530.5000: 
STEP.FT                 0.1000: 
NULL.                -999.2500: 
COMP.          Pioneer Natural Resources: COMPANY
WELL.          Pioneer 34-27 Tr: WELL
FLD.           Purgatoire River: FIELD
LOC.           243' FSL & 1593' FEL: LOCATION
STAT.                 Colorado: State
CNTY.               Las Animas: COUNTY
CTRY. USA : Country
SECT. 27 : Section
TOWN. 32S : Township
RANG. 67W : Range 
SRVC.                Patterson: SERVICE COMPANY
DATE.          Fri Oct 07 07:11:38 2005: LOG DATE
API.           05 071 08548 00: UNIQUE WELL ID
~Curve Information Block
DEPT.FT            0 000 00 00: Depth
DCAL.in                       : CDL Caliper
RHOB.g/cc                     : CDL Bulk Density
RHOC.g/cc                     : CDL Density Correction
DPOR.pu                       : CDL Density Porosity
GR.GAPI                       : Gamma Ray
NPOR.pu                       : Neutron Porosity
~Parameter Information Block
~A  Depth       DCAL        RHOB        RHOC        DPOR         GR         NPOR    
# ...
   851.6000      8.1381      2.6174      0.2220      1.9760    133.9636     28.0376
   851.7000      8.1381      2.6447      0.2519      0.3192    124.6301     28.1379
   851.8000      8.1316      2.6417      0.1963      0.5006    116.2139     27.8945
   851.9000      8.1316      2.6320      0.1708      1.0928    110.3939     27.5771
   852.0000      8.1550      2.6359      0.1404      0.8524    104.8178     27.4196
   852.1000      8.1550      2.6446      0.1766      0.3297     95.7540     27.0997
   852.2000      8.1550      2.6321      0.1501      1.0856     87.9524     26.3861
   852.3000      8.1470      2.5989      0.0936      3.0998     87.8824     25.7560
   852.4000      8.1470      2.5806      0.0459      4.2054     89.4997     25.4500
   852.5000      8.1161      2.5996      0.1130      3.0556     86.2300     25.0222
   852.6000      8.1161      2.6260      0.1931      1.4538     83.1508     24.3180
   852.7000      8.1161      2.6238      0.1473      1.5862     84.3680     23.7435
   852.8000      8.0799      2.6113      0.0859      2.3483     86.7837     23.4603
   852.9000      8.0799      2.6197      0.1515      1.8380     87.6234     23.1626
   853.0000      8.0525      2.6409      0.1763      0.5545     87.4429     22.7095
   853.1000      8.0525      2.6541      0.1900     -0.2475     87.9287     22.2180
   853.2000      8.0525      2.6548      0.1840     -0.2922     91.1539     21.7532
   853.3000      8.0203      2.6464      0.1643      0.2209     96.5008     21.4904
   853.4000      8.0203      2.6255      0.1894      1.4878    100.0727     21.5807
   853.5000      8.0258      2.5938      0.1173      3.4091    102.2259     21.9184
   853.6000      8.0258      2.5680      0.1541      4.9727    106.9406     22.2547
   853.7000      8.0258      2.5584      0.1229      5.5486    114.4331     22.5139
   853.8000      8.0560      2.5627      0.1046      5.2920    121.4655     22.7421
   853.9000      8.0560      2.5690      0.1755      4.9092    126.4855     22.9255
   854.0000      8.1066      2.5696      0.1643      4.8742    130.3390     23.2972
   854.1000      8.1066      2.5749      0.1480      4.5485    133.9332     23.9418
   854.2000      8.1066      2.5897      0.1703      3.6538    136.8149     24.5036
   854.3000      8.0987      2.5962      0.1964      3.2600    135.9354     24.9314
   854.4000      8.0987      2.5846      0.1722      3.9629    132.2473     25.5756
   854.5000      8.1609      2.5776      0.0921      4.3858    130.8221     26.4830
   854.6000      8.1609      2.6008      0.0957      2.9799    132.9920     27.0461
   854.7000      8.1609      2.6411      0.1922      0.5387    136.3093     26.8003
   854.8000      8.1791      2.6657      0.2006     -0.9535    139.8251     26.2609
   854.9000      8.1791      2.6660      0.1883     -0.9707    143.4925     25.8817
   855.0000      8.1913      2.6492      0.1525      0.0505    143.2664     25.4194
   855.1000      8.1913      2.6188      0.1210      1.8913    136.9424     24.8985
   855.2000      8.1913      2.5703      0.1393      4.8312    131.6395     24.7974
   855.3000      8.1957      2.5039      0.0447      8.8563    132.1453     25.1486
   855.4000      8.1957      2.4497     -0.0068     12.1393    134.0492     25.5046
   855.5000      8.2009      2.4342      0.0375     13.0816    133.2655     25.7595
   855.6000      8.2009      2.4386      0.0807     12.8094    131.2870     26.1625
   855.7000      8.2009      2.4382      0.1212     12.8391    129.0922     26.5312
   855.8000      8.2037      2.4455      0.0485     12.3948    127.2624     26.5329
   855.9000      8.2037      2.4796      0.1307     10.3258    129.0621     26.3999
   856.0000      8.2096      2.5260      0.2006      7.5181    133.4689     26.6303
   856.1000      8.2096      2.5643      0.1952      5.1924    135.0053     27.1473
   856.2000      8.2096      2.5920      0.2240      3.5144    133.0396     27.3567
   856.3000      8.2129      2.6090      0.2043      2.4832    134.0262     27.1476
   856.4000      8.2129      2.6126      0.2044      2.2687    141.2311     27.1161
   856.5000      8.2006      2.6044      0.1757      2.7664    149.7491     27.6192
   856.6000      8.2006      2.5906      0.1865      3.5983    153.5025     28.1995
   856.7000      8.2006      2.5680      0.1807      4.9673    154.1928     28.2778
   856.8000      8.1912      2.5362      0.0918      6.8988    154.8939     27.9348
   856.9000      8.1912      2.5190      0.0845      7.9382    153.8176     27.5628
   857.0000      8.1969      2.5329      0.0999      7.0946    153.7827     27.4511
   857.1000      8.1969      2.5632      0.1359      5.2579    158.7303     27.5899
   857.2000      8.1969      2.5824      0.1299      4.0983    163.1160     27.6924
   857.3000      8.2209      2.5775      0.1313      4.3969    162.1648     27.7044
   857.4000      8.2209      2.5563      0.1074      5.6763    157.7302     27.6504
   857.5000      8.2558      2.5324      0.0606      7.1277    150.9477     27.3539
   857.6000      8.2558      2.5165      0.0286      8.0895    146.9114     26.8826
   857.7000      8.2558      2.5163      0.0399      8.1028    149.0041     26.4577
   857.8000      8.2749      2.5270      0.0657      7.4527    151.5834     26.3239
   857.9000      8.2749      2.5332      0.0899      7.0783    148.3991     26.6689
   858.0000      8.3154      2.5268      0.1026      7.4691    141.0947     27.1352
   858.1000      8.3154      2.5206      0.0342      7.8394    137.1888     27.2209
   858.2000      8.3154      2.5278      0.0915      7.4087    137.9615     27.1539
   858.3000      8.3604      2.5358      0.0748      6.9232    137.4812     27.2890
   858.4000      8.3604      2.5368      0.0187      6.8589    135.3205     27.4122
   858.5000      8.3670      2.5394      0.0785      6.7004    136.1405     27.4670
   858.6000      8.3670      2.5448      0.0933      6.3753    139.1645     27.6166
   858.7000      8.3670      2.5560      0.1059      5.6987    140.2195     27.6790
   858.8000      8.2858      2.5775      0.1206      4.3956    136.8023     27.5085
   858.9000      8.2858      2.6027      0.1431      2.8658    131.0837     27.3006
   859.0000      8.2012      2.6272      0.1185      1.3795    126.3183     27.2948
   859.1000      8.2012      2.6499      0.1358      0.0071    124.8053     27.5354
   859.2000      8.2012      2.6607      0.1512     -0.6498    127.0863     27.6890
   859.3000      8.1531      2.6579      0.0950     -0.4781    126.7980     27.5624
   859.4000      8.1531      2.6512      0.0966     -0.0745    122.2808     27.2727
   859.5000      8.1011      2.6430      0.0773      0.4230    119.8314     27.1312
   859.6000      8.1011      2.6335      0.0608      1.0029    119.9942     27.2889
   859.7000      8.1011      2.6281      0.0250      1.3261    122.3039     27.4524
   859.8000      8.0831      2.6276      0.0634      1.3557    124.5768     27.5251
   859.9000      8.0831      2.6255      0.0665      1.4868    120.5602     27.5773
   860.0000      8.1096      2.6206      0.0556      1.7814    112.6701     27.4952
   860.1000      8.1096      2.6136      0.0982      2.2037    106.7497     27.2819
   860.2000      8.1096      2.6022      0.0768      2.8970    102.3791     27.1228
   860.3000      8.1503      2.5918      0.0552      3.5252     97.9497     27.1328
   860.4000      8.1503      2.5916      0.0404      3.5384     95.4795     27.1556
   860.5000      8.1502      2.6000      0.0948      3.0292     95.2553     26.8745
   860.6000      8.1502      2.6101      0.0741      2.4209     94.8971     26.1996
   860.7000      8.1502      2.6199      0.1205      1.8256     92.9935     25.5353
   860.8000      8.1110      2.6308      0.0851      1.1640     89.5651     25.2564
   860.9000      8.1110      2.6428      0.1026      0.4388     88.1928     25.1231
   861.0000      8.0695      2.6523      0.1049     -0.1374     91.9935     24.8309
   861.1000      8.0695      2.6558      0.1246     -0.3494     98.8817     24.4269
