~Version Information
VERS.                      2.0: CWLS Log ASCII Standard - VERSION 2.0
WRAP.                       NO: One line per depth step
~Well Information Block
STRT.FT               230.0000: 
STOP.FT               706.5000: 
STEP.FT                 0.1000: 
NULL.                -999.2500: 
COMP.          Pioneer Natural Resources: COMPANY
WELL.          Razor Clam 23-27: WELL
FLD.           Purgatoire River: FIELD
LOC.           2499' FSL & 2636' FWL: LOCATION
CNTY.               Las Animas: COUNTY
SRVC.                Patterson: SERVICE COMPANY
DATE.          Mon Feb 13 07:31:47 2006: LOG DATE
UWI.           05 071 08667 00: UNIQUE WELL ID
STAT.                 Colorado: STATE
~Curve Information Block
DEPT.FT            0 000 00 00: Depth
DCAL.in                       : CDL Caliper
RHOB.g/cc                     : CDL Bulk Density
RHOC.g/cc                     : CDL Density Correction
DPOR.pu                       : CDL Density Porosity
GR.GAPI                       : Gamma Ray
NPOR.pu                       : Neutron Porosity
~Parameter Information Block
~A  Depth       DCAL        RHOB        RHOC        DPOR         GR         NPOR    
# ...
   633.2000      7.8724      2.4275      0.0593     13.4842    108.2890     26.0877
   633.3000      7.8727      2.4330      0.0371     13.1498    107.8536     25.9992
   633.4000      7.8727      2.4302      0.0325     13.3194    103.9778     25.5902
   633.5000      7.8651      2.4298      0.0124     13.3467     93.4469     25.6244
   633.6000      7.8651      2.4353      0.0480     13.0113     81.3106     26.5926
   633.7000      7.8651      2.4289      0.0459     13.4001     78.3594     27.5763
   633.8000      7.8724      2.4051      0.0037     14.8447     88.1441     27.7194
   633.9000      7.8724      2.3838     -0.0407     16.1342    100.8024     27.3291
   634.0000      7.8746      2.3776      0.0173     16.5119    105.0943     27.0244
   634.1000      7.8746      2.3803     -0.0057     16.3446    101.8632     27.0308
   634.2000      7.8746      2.3872      0.0077     15.9288     96.9588     27.5549
   634.3000      7.8737      2.3912      0.0407     15.6835     91.7852     28.2588
   634.4000      7.8737      2.3860     -0.0196     16.0022     87.3948     28.4075
   634.5000      7.8743      2.3819      0.0259     16.2463     86.9394     27.8365
   634.6000      7.8743      2.3911     -0.0060     15.6883     90.8167     26.8840
   634.7000      7.8743      2.4012      0.0493     15.0783     93.8556     26.4136
   634.8000      7.8743      2.3907      0.0097     15.7161     94.7203     26.8364
   634.9000      7.8743      2.3750     -0.0435     16.6690     97.4721     27.4803
   635.0000      7.8751      2.3804      0.0321     16.3390    101.3678     27.8850
   635.1000      7.8751      2.3973      0.0249     15.3144    101.9295     28.0264
   635.2000      7.8751      2.4090      0.0118     14.6037    101.0419     27.8239
   635.3000      7.8745      2.4154      0.0213     14.2159     99.1979     27.3112
   635.4000      7.8745      2.4177      0.0294     14.0771     94.7930     26.7846
   635.5000      7.8735      2.4166      0.0417     14.1465     91.4120     26.3772
   635.6000      7.8735      2.4162     -0.0090     14.1705     89.0022     26.1267
   635.7000      7.8735      2.4156      0.0441     14.2066     84.7097     25.9849
   635.8000      7.8735      2.4068      0.0108     14.7418     82.0175     25.9819
   635.9000      7.8735      2.3961     -0.0235     15.3853     86.7159     26.4782
   636.0000      7.8740      2.3945      0.0274     15.4863     96.6094     27.2544
   636.1000      7.8740      2.3962      0.0180     15.3789    104.3518     27.4420
   636.2000      7.8740      2.4016      0.0250     15.0554    106.5318     27.0500
   636.3000      7.8737      2.4209      0.0104     13.8867    104.6858     26.5840
   636.4000      7.8737      2.4484      0.0330     12.2208    104.1480     25.9251
   636.5000      7.8734      2.4604      0.0664     11.4895    107.4618     25.2130
   636.6000      7.8734      2.4468      0.0201     12.3142    110.3643     25.1770
   636.7000      7.8734      2.4212      0.0222     13.8646    111.6902     25.5213
   636.8000      7.8733      2.4015     -0.0130     15.0595    113.9851     25.0566
   636.9000      7.8733      2.3961      0.0034     15.3879    115.4357     24.0366
   637.0000      7.8729      2.4010      0.0329     15.0888    112.4218     23.7902
   637.1000      7.8729      2.4090      0.0423     14.6072    105.9420     24.2423
   637.2000      7.8729      2.4136      0.0466     14.3262    100.9042     24.6510
   637.3000      7.8721      2.4084      0.0228     14.6401     99.4315     25.2779
   637.4000      7.8721      2.3965      0.0094     15.3648    100.1701     26.7010
   637.5000      7.8733      2.3906      0.0079     15.7230    104.2122     28.1465
   637.6000      7.8733      2.3927      0.0356     15.5936    106.7502     28.2817
   637.7000      7.8733      2.3891      0.0169     15.8107    102.7339     27.4906
   637.8000      7.8744      2.3759     -0.0117     16.6110    100.6753     26.9966
   637.9000      7.8744      2.3648     -0.0315     17.2868    104.4333     27.0767
   638.0000      7.8770      2.3641     -0.0032     17.3245    106.5462     27.3516
   638.1000      7.8770      2.3753     -0.0044     16.6494    103.1158     27.4867
   638.2000      7.8770      2.3949      0.0331     15.4593     98.8948     27.4504
   638.3000      7.8736      2.4114      0.0237     14.4586     97.4467     27.0873
   638.4000      7.8736      2.4168      0.0221     14.1359     96.7591     26.7312
   638.5000      7.8736      2.4160      0.0471     14.1811     96.2638     26.8780
   638.6000      7.8736      2.4161      0.0131     14.1760     94.8261     27.2016
   638.7000      7.8736      2.4196      0.0367     13.9615     91.7559     27.2334
   638.8000      7.8753      2.4266      0.0210     13.5401     88.5419     26.6367
   638.9000      7.8753      2.4339      0.0317     13.0956     83.9910     26.0867
   639.0000      7.8726      2.4386      0.0182     12.8136     81.8343     26.8014
   639.1000      7.8726      2.4412      0.0315     12.6540     88.2565     28.4370
   639.2000      7.8726      2.4426      0.0387     12.5678     98.2944     29.5510
   639.3000      7.8744      2.4387      0.0402     12.8063    105.4030     29.5294
   639.4000      7.8744      2.4277      0.0388     13.4723    112.3558     28.8074
   639.5000      7.8737      2.4201      0.0209     13.9336    120.8704     28.0615
   639.6000      7.8737      2.4243      0.0371     13.6779    127.0237     27.5829
   639.7000      7.8737      2.4319      0.0447     13.2168    126.4356     27.0334
   639.8000      7.8724      2.4300      0.0604     13.3347    118.1119     26.2132
   639.9000      7.8724      2.4190      0.0372     13.9999    106.9164     25.5353
   640.0000      7.8721      2.4119      0.0284     14.4330     98.8719     25.5143
   640.1000      7.8721      2.4167      0.0030     14.1398     96.0608     26.2177
   640.2000      7.8721      2.4261      0.0461     13.5674     95.8508     26.7839
   640.3000      7.8733      2.4271      0.0033     13.5072     94.2362     26.7914
   640.4000      7.8733      2.4242      0.0153     13.6877     93.1674     27.0867
   640.5000      7.8739      2.4301      0.0140     13.3295     96.0975     27.8421
   640.6000      7.8739      2.4410      0.0442     12.6647    100.9868     28.3451
   640.7000      7.8739      2.4387      0.0490     12.8042    103.4488     27.8242
   640.8000      7.8727      2.4184      0.0176     14.0358     99.5964     26.1106
   640.9000      7.8727      2.4035     -0.0199     14.9377     90.1311     24.4329
   641.0000      7.8721      2.4166      0.0155     14.1477     85.3034     23.5621
   641.1000      7.8721      2.4444      0.0191     12.4593     92.8800     22.9290
   641.2000      7.8721      2.4603      0.0551     11.4997    105.4903     22.3251
   641.3000      7.8735      2.4672      0.0119     11.0767    109.6219     22.0218
   641.4000      7.8735      2.4898      0.0039      9.7074    102.4023     22.3246
   641.5000      7.8737      2.5291      0.0838      7.3273     93.6323     23.1364
   641.6000      7.8737      2.5602      0.0826      5.4421     92.2422     23.7023
   641.7000      7.8737      2.5681      0.0888      4.9626     95.4853     23.4490
   641.8000      7.8736      2.5650     -0.0109      5.1525     97.1704     22.6395
   641.9000      7.8736      2.5702      0.0031      4.8353     96.0757     21.4359
   642.0000      7.8744      2.5810      0.0196      4.1825     97.1779     19.5114
   642.1000      7.8744      2.5829      0.0209      4.0671    101.3233     17.8521
   642.2000      7.8744      2.5757     -0.0265      4.5028    102.5361     17.6239
   642.3000      7.8720      2.5693     -0.0015      4.8916    101.6203     17.9727
   642.4000      7.8720      2.5651      0.0027      5.1441     99.9887     17.9469
   642.5000      7.8728      2.5596      0.0294      5.4800     94.2601     17.9723
   642.6000      7.8728      2.5559      0.0112      5.7021     86.8070     18.4378
   642.7000      7.8728      2.5569      0.0477      5.6409     86.4021     19.4615
