~Version Information
VERS.                      2.0: CWLS Log ASCII Standard - VERSION 2.0
WRAP.                       NO: One line per depth step
~Well Information Block
STRT.FT               430.0000: 
STOP.FT              2074.0000: 
STEP.FT                 0.1000: 
NULL.                -999.2500: 
COMP.          Pioneer Natural Resources: COMPANY
WELL.             Fleming 11-2: WELL
FLD.           Purgatoire River: FIELD
LOC.           534' FNL & 160' FWL: LOCATION
CNTY.               Las Animas: COUNTY
SRVC.                Patterson: SERVICE COMPANY
DATE.          Tue Jun 27 10:07:47 2006: LOG DATE
UWI.           05 071 08491 00: UNIQUE WELL ID
STAT.                 Colorado: STATE
~Curve Information Block
DEPT.FT            0 000 00 00: Depth
DCAL.in                       : CDL Caliper
RHOB.g/cc                     : CDL Bulk Density
RHOC.g/cc                     : CDL Density Correction
DPOR.pu                       : CDL Density Porosity
GR.GAPI                       : Gamma Ray
NPOR.pu                       : Neutron Porosity
~Parameter Information Block
~A  Depth       DCAL        RHOB        RHOC        DPOR         GR         NPOR    
# ...
  1630.0000      7.9129      2.4187      0.0598     14.0189     32.6150     18.5983
  1630.1000      7.9129      2.4255      0.0075     13.6091     34.2782     18.0990
  1630.2000      7.9129      2.4426      0.0374     12.5698     33.9965     17.4812
  1630.3000      7.9118      2.4585      0.0434     11.6040     32.4808     18.1988
  1630.4000      7.9118      2.4691      0.0232     10.9617     33.4178     19.1577
  1630.5000      7.9133      2.4804      0.0311     10.2790     36.6481     19.3883
  1630.6000      7.9133      2.4925      0.0280      9.5466     38.0034     20.0482
  1630.7000      7.9133      2.5038      0.0430      8.8625     36.6771     21.4424
  1630.8000      7.9146      2.5168      0.0519      8.0725     35.8479     22.5215
  1630.9000      7.9146      2.5338      0.0564      7.0447     37.3251     22.8410
  1631.0000      7.9144      2.5537      0.0670      5.8376     39.0746     22.4076
  1631.1000      7.9144      2.5711      0.0803      4.7796     40.4480     21.4867
  1631.2000      7.9144      2.5795      0.0647      4.2731     43.8868     20.4492
  1631.3000      7.9133      2.5740      0.0533      4.6058     48.8414     19.6144
  1631.4000      7.9133      2.5580      0.0304      5.5786     52.0206     19.5433
  1631.5000      7.9126      2.5375      0.0310      6.8152     51.7269     20.1082
  1631.6000      7.9126      2.5092      0.0295      8.5316     47.4978     20.5785
  1631.7000      7.9126      2.4734     -0.0244     10.7025     41.4228     20.7048
  1631.8000      7.9132      2.4408     -0.0425     12.6812     37.8866     20.4299
  1631.9000      7.9132      2.4182     -0.0246     14.0477     37.6490     19.6006
  1632.0000      7.9144      2.4070     -0.0064     14.7280     37.2193     18.7412
  1632.1000      7.9144      2.4058      0.0200     14.8001     34.7494     18.7445
  1632.2000      7.9144      2.4111      0.0223     14.4815     31.0854     19.5190
  1632.3000      7.9149      2.4165      0.0143     14.1496     26.7254     19.6837
  1632.4000      7.9149      2.4203      0.0084     13.9208     23.6438     18.2780
  1632.5000      7.9141      2.4245      0.0461     13.6669     23.6413     16.3739
  1632.6000      7.9141      2.4297      0.0412     13.3516     24.2445     15.3616
  1632.7000      7.9141      2.4316      0.0796     13.2343     22.8756     15.3443
  1632.8000      7.9133      2.4199      0.0679     13.9465     21.0707     15.7469
  1632.9000      7.9133      2.4013      0.0114     15.0702     21.5996     15.9278
  1633.0000      7.9130      2.3986      0.0369     15.2355     23.7725     15.5777
  1633.1000      7.9130      2.4146      0.0412     14.2664     24.1608     15.3510
  1633.2000      7.9130      2.4348      0.0519     13.0400     22.5848     15.6802
  1633.3000      7.9122      2.4489      0.0695     12.1897     22.7687     16.2226
  1633.4000      7.9122      2.4545      0.0482     11.8488     25.5972     16.4976
  1633.5000      7.9117      2.4565      0.0639     11.7255     27.5224     16.1998
  1633.6000      7.9117      2.4678      0.0187     11.0416     26.5627     15.6195
  1633.7000      7.9117      2.4953      0.0577      9.3773     24.1511     14.6902
  1633.8000      7.9119      2.5278      0.0487      7.4084     22.8072     13.2740
  1633.9000      7.9119      2.5514      0.1084      5.9764     23.3724     12.0996
  1634.0000      7.9117      2.5607      0.0601      5.4112     23.4860     11.4488
  1634.1000      7.9117      2.5579      0.0364      5.5818     21.8646     11.4196
  1634.2000      7.9117      2.5458      0.0486      6.3152     21.1050     12.0803
  1634.3000      7.9113      2.5289      0.0012      7.3410     22.9839     12.6524
  1634.4000      7.9113      2.5156      0.0391      8.1431     25.9418     12.5237
  1634.5000      7.9113      2.5110      0.0361      8.4253     28.0420     12.2342
  1634.6000      7.9113      2.5116      0.0366      8.3900     27.6478     12.7438
  1634.7000      7.9113      2.5063      0.0352      8.7106     25.1418     14.2019
  1634.8000      7.9113      2.4889      0.0097      9.7631     24.1836     15.5167
  1634.9000      7.9113      2.4694      0.0046     10.9456     25.8993     15.8161
  1635.0000      7.9121      2.4633      0.0013     11.3126     27.8464     15.5038
  1635.1000      7.9121      2.4720      0.0853     10.7849     29.2037     15.4186
  1635.2000      7.9121      2.4849      0.0320     10.0039     31.4401     15.9112
  1635.3000      7.9128      2.4966      0.0591      9.2962     34.9783     16.5743
  1635.4000      7.9128      2.5060      0.0838      8.7296     37.9978     16.6509
  1635.5000      7.9115      2.5149      0.0624      8.1891     39.0040     15.8108
  1635.6000      7.9115      2.5310      0.0455      7.2126     39.3170     14.8085
  1635.7000      7.9115      2.5537      0.0611      5.8362     40.9080     14.6761
  1635.8000      7.9101      2.5637      0.0855      5.2309     42.2393     15.1767
  1635.9000      7.9101      2.5495      0.0258      6.0925     41.3054     15.2222
  1636.0000      7.9082      2.5304     -0.0214      7.2467     39.0675     14.8462
  1636.1000      7.9082      2.5299      0.0034      7.2798     37.1665     14.1047
  1636.2000      7.9082      2.5453      0.0496      6.3447     36.3183     13.1214
  1636.3000      7.9037      2.5603      0.0447      5.4340     35.9250     13.2656
  1636.4000      7.9037      2.5666      0.0771      5.0533     34.4426     14.6555
  1636.5000      7.9003      2.5663      0.0375      5.0742     32.2968     15.6275
  1636.6000      7.9003      2.5603      0.0499      5.4378     30.9497     15.5559
  1636.7000      7.9003      2.5498      0.0380      6.0697     29.8395     14.9376
  1636.8000      7.9003      2.5412      0.0289      6.5932     28.9620     14.0482
  1636.9000      7.9003      2.5345      0.0497      6.9990     29.9793     13.5105
  1637.0000      7.9016      2.5312      0.0132      7.1998     32.2108     14.3140
  1637.1000      7.9016      2.5388      0.0159      6.7406     33.9513     16.7240
  1637.2000      7.9016      2.5520      0.0439      5.9369     36.8332     19.2815
  1637.3000      7.9038      2.5571      0.0325      5.6291     42.2467     19.9847
  1637.4000      7.9038      2.5495      0.0441      6.0906     48.8288     19.1964
  1637.5000      7.9072      2.5361      0.0197      6.9022     56.3682     18.7423
  1637.6000      7.9072      2.5238      0.0166      7.6479     66.0281     19.1386
  1637.7000      7.9072      2.5153     -0.0214      8.1630     77.0059     19.9188
  1637.8000      7.9128      2.5102     -0.0010      8.4744     85.5465     21.2904
  1637.9000      7.9128      2.4986      0.0120      9.1764     88.9155     23.7512
  1638.0000      7.9212      2.4799     -0.0202     10.3120     89.7040     26.1112
  1638.1000      7.9212      2.4752     -0.0131     10.5936     91.3862     26.6067
  1638.2000      7.9212      2.4971      0.0229      9.2676     92.7968     25.7190
  1638.3000      7.9266      2.5341      0.0606      7.0266     90.2663     25.2396
  1638.4000      7.9266      2.5714      0.0478      4.7642     84.1593     26.0390
  1638.5000      7.9258      2.5925      0.1189      3.4842     80.4871     27.2504
  1638.6000      7.9258      2.5812      0.0838      4.1692     84.4836     27.4058
  1638.7000      7.9258      2.5496      0.0032      6.0855     94.3104     26.1588
  1638.8000      7.9221      2.5311      0.0054      7.2038    102.3638     25.0509
  1638.9000      7.9221      2.5420      0.0319      6.5455    104.9432     25.0596
  1639.0000      7.9199      2.5701      0.0636      4.8427    103.8895     25.5047
  1639.1000      7.9199      2.5922      0.0890      3.5001    103.7553     26.0009
  1639.2000      7.9199      2.5934      0.0581      3.4284    123.8417     26.9944
  1639.3000      7.9202      2.5742      0.0689      4.5910    124.1167     28.7527
  1639.4000      7.9202      2.5476      0.0373      6.2046    120.2589     30.4654
  1639.5000      7.9216      2.5356      0.0287      6.9335    118.7933     30.8975
