~Version Information
VERS.                      2.0: CWLS Log ASCII Standard - VERSION 2.0
WRAP.                       NO: One line per depth step
~Well Information Block
STRT.FT                -8.0000: 
STOP.FT               918.7500: 
STEP.FT                 0.2500: 
NULL.                -999.2500: 
COMP.          Pioneer Natural Resources: COMPANY
WELL.          Sculpin 32-30 Tr: WELL
FLD.           Purgatorie River: FIELD
LOC.           1600' FNL & 1857' FEL--: LOCATION
CNTY.               Las Animas: COUNTY
SRVC.          Patterson Wireline: SERVICE COMPANY
DATE.          Thu Aug 03 08:40:45 2006: LOG DATE
UWI.           05 071 08706 00: UNIQUE WELL ID
STAT.                       CO: STATE
~Curve Information Block
DEPT.FT            0 000 00 00: Depth
CCL.                          : Casing Collar Locator
TT3.usec                      : CBL 3' Travel Time
AMP3.mV                       : CBL 3' Amplitude
GR.GAPI                       : Gamma Ray
~Parameter Information Block
~A  Depth       CCL         TT3         AMP3         GR     
# ...
   595.0000      0.0000    662.6741      3.3311     99.1190
   595.2500      0.0000    662.9211      3.4009    100.1793
   595.5000      0.0000    663.2548      3.4761     99.1632
   595.7500      0.0000    663.7111      3.5361     98.4124
   596.0000      0.0000    664.2630      3.5673    100.4334
   596.2500      0.0000    664.7383      3.5644    106.4946
   596.5000      0.0000    664.7277      3.5309    115.8546
   596.7500      0.0000    663.4709      3.4754    126.0968
   597.0000      0.0000    659.7001      3.4055    134.6233
   597.2500      0.0000    652.0109      3.3260    140.0972
   597.5000      0.0000    640.4631      3.2445    142.5628
   597.7500      0.0000    628.4827      3.1790    142.5215
   598.0000      0.0000    622.0704      3.1550    140.3050
   598.2500      0.0000    625.2377      3.1892    136.2480
   598.5000      0.0000    635.8492      3.2756    130.8375
   598.7500      0.0000    646.3126      3.3899    124.4301
   599.0000      0.0000    648.3098      3.5113    117.3161
   599.2500      0.0000    637.7585      3.6304    110.3028
   599.5000      0.0000    617.6103      3.7321    104.8390
   599.7500      0.0000    596.8738      3.7819    102.2030
   600.0000     -2.0000    584.9857      3.7465    102.5298
   600.2500      0.0000    584.9704      3.6281    104.6542
   600.5000      0.0000    591.7423      3.4718    106.8780
   600.7500      0.0000    597.1027      3.3374    108.0358
   601.0000      0.0000    595.2213      3.2617    108.0222
   601.2500      0.0000    583.3227      3.2461    107.3324
   601.5000      0.0000    560.7979      3.2719    106.2731
   601.7500      0.0000    530.8807      3.3207    104.9887
   602.0000      0.0000    501.1814      3.3798    103.9339
   602.2500      0.0000    479.7562      3.4391    103.4284
   602.5000      0.0000    471.3122      3.4924    102.6978
   602.7500      0.0000    477.3337      3.5414    100.1986
   603.0000      0.0000    496.6290      3.5921     95.1455
   603.2500      0.0000    523.1231      3.6443     88.4069
   603.5000      0.0000    545.7590      3.6844     81.9522
   603.7500      0.0000    555.8071      3.6919     77.6008
   604.0000      0.0000    555.3975      3.6579     76.0222
   604.2500      0.0000    555.6369      3.5970     76.6657
   604.5000      0.0000    565.4861      3.5364     78.5861
   604.7500      0.0000    584.7645      3.4932     81.2155
   605.0000      0.0000    607.3834      3.4657     84.3658
   605.2500      0.0000    628.0550      3.4446     87.9047
   605.5000      0.0000    645.4740      3.4264     91.5442
   605.7500      0.0000    661.0841      3.4135     94.5405
   606.0000      0.0000    675.7958      3.4094     95.7470
   606.2500      0.0000    688.0428      3.4148     94.7954
   606.5000      0.0000    695.0798      3.4248     93.4020
   606.7500      0.0000    695.5980      3.4302     94.7268
   607.0000      0.0000    690.8308      3.4250    100.8776
   607.2500      0.0000    683.8288      3.4124    110.9984
   607.5000      0.0000    678.0765      3.4016    121.7779
   607.7500      0.0000    676.3130      3.4000    129.9250
   608.0000      0.0000    679.9395      3.4075    134.4656
   608.2500      0.0000    688.8301      3.4176    136.9490
   608.5000      0.0000    701.3474      3.4193    139.6558
   608.7500      0.0000    714.9095      3.4002    143.6176
   609.0000      0.0000    727.2153      3.3535    147.9561
   609.2500      0.0000    737.0977      3.2827    150.7242
   609.5000      0.0000    744.0870      3.1996    150.3519
   609.7500      0.0000    747.4598      3.1171    146.3739
   610.0000      0.0000    746.3390      3.0460    138.9538
   610.2500      0.0000    740.8784      2.9961    128.1168
   610.5000      0.0000    732.9351      2.9757    113.9192
   610.7500      0.0000    725.1881      2.9874     97.5268
   611.0000      0.0000    719.5953      3.0260     81.7021
   611.2500      0.0000    716.7281      3.0775     69.4957
   611.5000      0.0000    716.3156      3.1216     62.2776
   611.7500      0.0000    717.9677      3.1380     59.2466
   612.0000      0.0000    721.2927      3.1143     58.6942
   612.2500      0.0000    725.5947      3.0527     59.4118
   612.5000      0.0000    729.9879      2.9689     60.9065
   612.7500      0.0000    734.1498      2.8838     62.7277
   613.0000      0.0000    738.8547      2.8122     64.2207
   613.2500      0.0000    745.1728      2.7586     65.1297
   613.5000      0.0000    752.6578      2.7209     65.8465
   613.7500      0.0000    758.7128      2.6978     66.5638
   614.0000      0.0000    760.8671      2.6937     66.6256
   614.2500      0.0000    759.9238      2.7148     65.1994
   614.5000      0.0000    759.7099      2.7624     62.2455
   614.7500      0.0000    763.2397      2.8290     58.5704
   615.0000      0.0000    770.1442      2.9011     55.3806
   615.2500      0.0000    778.0065      2.9643     53.8441
   615.5000      0.0000    784.8156      3.0099     54.5259
   615.7500      0.0000    789.6348      3.0377     57.1036
   616.0000      0.0000    792.1744      3.0538     60.9916
   616.2500      0.0000    792.7524      3.0663     66.3923
   616.5000      0.0000    792.5045      3.0815     74.4152
   616.7500      0.0000    792.8923      3.1015     85.6717
   617.0000      0.0000    794.5706      3.1249     98.7646
   617.2500      0.0000    796.7739      3.1499    110.7159
   617.5000      0.0000    797.9518      3.1779    119.1643
   617.7500      0.0000    796.8648      3.2119    123.8669
   618.0000      0.0000    793.2483      3.2526    126.1417
   618.2500      0.0000    787.9820      3.2966    127.5390
   618.5000      0.0000    782.7075      3.3357    129.1678
   618.7500      0.0000    778.7236      3.3592    131.6734
   619.0000      0.0000    776.0692      3.3599    135.3438
   619.2500      0.0000    773.9160      3.3389    139.9730
   619.5000      0.0000    771.6313      3.3026    144.5624
   619.7500      0.0000    769.0646      3.2586    147.4742
   620.0000      0.0000    766.0881      3.2131    147.4215
   620.2500      0.0000    762.4746      3.1722    144.6747
   620.5000      0.0000    758.4170      3.1438    141.2384
   620.7500      0.0000    755.0129      3.1352    139.4563
   621.0000      0.0000    753.8163      3.1498    140.3625
   621.2500      0.0000    755.5760      3.1832    143.4929
   621.5000      0.0000    759.5912      3.2254    147.9205
   621.7500      0.0000    764.5782      3.2660    152.8140
   622.0000      0.0000    769.5425      3.2996    157.1724
   622.2500      0.0000    773.2399      3.3235    159.9877
   622.5000      0.0000    773.6813      3.3320    161.1122
   622.7500      0.0000    769.3290      3.3197    161.3264
   623.0000      0.0000    760.4517      3.2897    161.0103
   623.2500      0.0000    748.7671      3.2594    159.3024
   623.5000      0.0000    736.3798      3.2510    155.3212
   623.7500      0.0000    725.3042      3.2767    149.7932
   624.0000      0.0000    716.9779      3.3305    144.7329
   624.2500      0.0000    711.5082      3.3943    141.6028
   624.5000      0.0000    707.6372      3.4510    140.2890
   624.7500      0.0000    703.7510      3.4937    139.8425
   625.0000      0.0000    698.9411      3.5223    139.7607
   625.2500      0.0000    693.2737      3.5343    140.2076
   625.5000      0.0000    687.4198      3.5246    141.1942
   625.7500      0.0000    682.3773      3.4955    141.9035
   626.0000      0.0000    679.1617      3.4622    141.0046
   626.2500      0.0000    677.7244      3.4428    137.7947
   626.5000      0.0000    675.2830      3.4466    133.2057
   626.7500      0.0000    666.2127      3.4742    129.6075
   627.0000      0.0000    645.4341      3.5242    129.2846
   627.2500      0.0000    613.6990      3.5943    132.7834
   627.5000      0.0000    579.1426      3.6757    138.5124
   627.7500      0.0000    551.5633      3.7488    143.7342
   628.0000      0.0000    534.3316      3.7895    146.0387
   628.2500      0.0000    522.8945      3.7828    144.3418
