~Version Information
VERS.                      2.0: CWLS Log ASCII Standard - VERSION 2.0
WRAP.                       NO: One line per depth step
~Well Information Block
STRT.FT               -10.0000: 
STOP.FT              2073.0000: 
STEP.FT                 0.2500: 
NULL.                -999.2500: 
COMP.          Pioneer Natural Resources: COMPANY
WELL.              Joplin 44-5: WELL
FLD.           Purgatorie River: FIELD
LOC.           262' FSL & 418' FEL--: LOCATION
PROV.                       CO: PROVINCE
CNTY.               Las Animas: COUNTRY
SRVC.          Patterson Wireline: SERVICE COMPANY
DATE.          Mon Dec 19 09:21:33 2005: LOG DATE
UWI.           05 071 08623 00: UNIQUE WELL ID
~Curve Information Block
DEPT.FT            0 000 00 00: Depth
CCL.                          : Casing Collar Locator
TT3.usec                      : CBL 3' Travel Time
AMP3.mV                       : CBL 3' Amplitude
GR.GAPI                       : Gamma Ray
~Parameter Information Block
~A  Depth       CCL         TT3         AMP3         GR     
# ...
  1363.5000      0.0000    701.1545      6.8022    132.1997
  1363.7500      0.0000    702.9135      6.8922    131.3288
  1364.0000      0.0000    705.3122      6.9211    130.3103
  1364.2500      0.0000    709.1771      6.8888    129.2747
  1364.5000      0.0000    714.1988      6.8114    127.7854
  1364.7500      0.0000    718.9877      6.7145    126.0261
  1365.0000      0.0000    722.1384      6.6257    124.5389
  1365.2500      0.0000    723.2620      6.5662    123.1856
  1365.5000      0.0000    723.4156      6.5451    121.0774
  1365.7500      0.0000    724.9238      6.5597    117.3181
  1366.0000      0.0000    730.1433      6.5953    111.5502
  1366.2500      0.0000    739.3856      6.6275    104.2366
  1366.5000      0.0000    750.1965      6.6318     96.4735
  1366.7500      0.0000    759.4210      6.5981     89.0373
  1367.0000      0.0000    765.4064      6.5363     81.7974
  1367.2500      0.0000    767.3184      6.4652     74.5374
  1367.5000      0.0000    763.6517      6.3982     68.1440
  1367.7500      0.0000    753.4766      6.3410     64.4592
  1368.0000      0.0000    738.8119      6.2964     64.7939
  1368.2500      0.0000    723.9747      6.2675     68.6527
  1368.5000      0.0000    712.3074      6.2544     73.9631
  1368.7500      0.0000    704.2295      6.2519     78.4429
  1369.0000      0.0000    698.0753      6.2521     80.7391
  1369.2500      0.0000    691.6202      6.2500     80.6012
  1369.5000      0.0000    682.8715      6.2461     78.6331
  1369.7500      0.0000    670.5651      6.2433     76.1611
  1370.0000      0.0000    654.3134      6.2391     74.7621
  1370.2500      0.0000    634.0401      6.2243     75.1271
  1370.5000      0.0000    610.1173      6.1905     76.4188
  1370.7500      0.0000    585.1820      6.1411     77.0771
  1371.0000      0.0000    564.7701      6.0897     76.0745
  1371.2500      0.0000    554.4154      6.0494     73.3232
  1371.5000      0.0000    555.6112      6.0249     69.5081
  1371.7500      0.0000    564.2128      6.0130     65.9509
  1372.0000      0.0000    572.2413      6.0075     64.1745
  1372.2500      0.0000    572.4275      6.0017     64.9907
  1372.5000      0.0000    563.0318      5.9901     67.9061
  1372.7500      0.0000    548.5980      5.9675     71.3848
  1373.0000      0.0000    535.5476      5.9253     73.6286
  1373.2500      0.0000    527.5387      5.8518     73.3996
  1373.5000      0.0000    525.1658      5.7438     70.8315
  1373.7500      0.0000    528.8008      5.6139     67.7198
  1374.0000      0.0000    540.5576      5.4792     66.4809
  1374.2500      0.0000    562.9617      5.3486     68.3315
  1374.5000      0.0000    595.3096      5.2365     72.6105
  1374.7500      0.0000    631.7417      5.1825     77.6479
  1375.0000      0.0000    663.9916      5.2359     81.9237
  1375.2500      0.0000    686.2653      5.4196     84.7763
  1375.5000      0.0000    697.2846      5.7212     86.5103
  1375.7500      0.0000    699.4284      6.1204     87.5962
  1376.0000      0.0000    697.7595      6.6189     87.7277
  1376.2500      2.0000    698.5242      7.2475     86.2456
  1376.5000      0.0000    705.6816      8.0517     83.5158
  1376.7500      0.0000    717.9882      9.0815     81.1532
  1377.0000      0.0000    729.8790     10.3648     80.6356
  1377.2500      0.0000    734.6636     11.8205     82.0418
  1377.5000      0.0000    726.2837     13.1822     84.2196
  1377.7500      0.0000    699.6227     14.0957     85.8296
  1378.0000      0.0000    652.4786     14.3735     86.0636
  1378.2500      0.0000    590.1346     14.1284     84.6451
  1378.5000      0.0000    528.3858     13.6338     81.7635
  1378.7500      0.0000    488.9418     13.1053     78.3389
  1379.0000      0.0000    487.5386     12.6237     75.9885
  1379.2500      0.0000    523.5806     12.1828     76.0154
  1379.5000      0.0000    580.2267     11.7527     78.1527
  1379.7500      0.0000    635.3541     11.3105     80.5387
  1380.0000      0.0000    674.2063     10.8482     81.2892
  1380.2500      0.0000    693.3730     10.3721     80.1779
  1380.5000      0.0000    695.2220      9.8974     78.6245
  1380.7500      0.0000    681.2031      9.4438     77.8870
  1381.0000      0.0000    651.6763      9.0294     77.5391
  1381.2500      0.0000    610.8895      8.6652     76.0769
  1381.5000      0.0000    568.3712      8.3497     72.7911
  1381.7500      0.0000    532.2627      8.0694     68.6149
  1382.0000      0.0000    502.8578      7.8059     65.3658
  1382.2500      0.0000    475.9410      7.5467     64.5698
  1382.5000      0.0000    450.6536      7.2949     66.6955
  1382.7500      0.0000    430.4069      7.0696     70.9139
  1383.0000      0.0000    417.7032      6.8925     75.5683
  1383.2500      0.0000    411.4754      6.7732     79.1626
  1383.5000      0.0000    408.9495      6.7049     81.0864
  1383.7500      0.0000    408.0029      6.6733     81.6071
  1384.0000      0.0000    407.7296      6.6672     81.3888
  1384.2500      0.0000    408.1961      6.6833     80.9792
  1384.5000      0.0000    410.6787      6.7229     80.5113
  1384.7500      0.0000    418.6147      6.7864     79.6004
  1385.0000      0.0000    437.9491      6.8695     77.6315
  1385.2500      0.0000    474.4101      6.9613     74.4761
  1385.5000      0.0000    527.7774      7.0505     70.9554
  1385.7500      0.0000    588.5103      7.1356     68.3787
  1386.0000      0.0000    642.3259      7.2254     67.7553
  1386.2500      0.0000    679.5048      7.3295     69.7051
  1386.5000      0.0000    699.5555      7.4491     75.0317
  1386.7500      0.0000    708.0107      7.5762     85.0277
  1387.0000      0.0000    710.7958      7.6947    100.7540
  1387.2500      0.0000    711.4145      7.7819    121.5696
  1387.5000      0.0000    711.0985      7.8149    144.3233
  1387.7500      0.0000    709.9721      7.7818    164.5271
  1388.0000      0.0000    708.1317      7.6872    178.7454
  1388.2500      0.0000    706.2576      7.5485    186.1134
  1388.5000      0.0000    705.3613      7.3859    188.2081
  1388.7500      0.0000    705.9152      7.2174    187.9346
  1389.0000      0.0000    707.3881      7.0568    188.0638
  1389.2500      0.0000    708.8194      6.9107    189.9951
  1389.5000      0.0000    709.6683      6.7748    193.4524
  1389.7500      0.0000    709.9736      6.6357    197.1973
  1390.0000      0.0000    709.9481      6.4818    200.1579
  1390.2500      0.0000    709.6826      6.3163    201.9926
  1390.5000      0.0000    709.2017      6.1590    202.6328
  1390.7500      0.0000    708.6283      6.0359    201.5156
  1391.0000      0.0000    708.2205      5.9657    197.6878
  1391.2500      0.0000    708.1550      5.9514    190.8079
  1391.5000      0.0000    708.0441      5.9812    181.7654
  1391.7500      0.0000    706.2255      6.0377    172.3243
  1392.0000      0.0000    699.3434      6.1086    164.3378
  1392.2500      0.0000    683.5532      6.1905    159.0501
  1392.5000      0.0000    657.7903      6.2835    156.6113
  1392.7500      0.0000    626.8337      6.3872    156.1574
  1393.0000      0.0000    600.7665      6.5018    156.4509
  1393.2500      0.0000    590.3829      6.6292    156.6621
  1393.5000      0.0000    601.3054      6.7693    156.8154
  1393.7500      0.0000    630.3715      6.9144    157.4065
  1394.0000      0.0000    667.1191      7.0486    158.3577
  1394.2500      0.0000    699.8436      7.1570    158.6728
  1394.5000      0.0000    721.4442      7.2376    157.5705
  1394.7500      0.0000    731.0629      7.3027    155.6509
  1395.0000      0.0000    732.1204      7.3680    154.3679
  1395.2500      0.0000    729.3145      7.4367    154.3872
  1395.5000      0.0000    726.2138      7.4951    155.0684
  1395.7500      0.0000    724.2217      7.5233    155.6993
  1396.0000      0.0000    723.1143      7.5113    156.4756
  1396.2500      0.0000    722.1349      7.4663    157.9483
  1396.5000      0.0000    720.5958      7.4015    160.2935
  1396.7500      0.0000    718.2028      7.3203    163.5220
