~Version Information
VERS.                      2.0: CWLS Log ASCII Standard - VERSION 2.0
WRAP.                       NO: One line per depth step
~Well Information Block
STRT.FT               240.0000: 
STOP.FT               902.0000: 
STEP.FT                 0.1000: 
NULL.                -999.2500: 
COMP.          Pioneer Natural Resources: COMPANY
WELL.          Bienville 31-28: WELL
FLD.           Purgatoire River: FIELD
LOC.           1212' FNL & 2271' FEL: LOCATION
PROV.                 Colorado: PROVINCE
CNTY.               Las Animas: COUNTRY
SRVC.                Patterson: SERVICE COMPANY
DATE.          Mon Jan 16 13:39:21 2006: LOG DATE
UWI.           05 071 08666 00: UNIQUE WELL ID
~Curve Information Block
DEPT.FT            0 000 00 00: Depth
DCAL.in                       : CDL Caliper
RHOB.g/cc                     : CDL Bulk Density
RHOC.g/cc                     : CDL Density Correction
DPOR.pu                       : CDL Density Porosity
GR.GAPI                       : Gamma Ray
NPOR.pu                       : Neutron Porosity
~Parameter Information Block
~A  Depth       DCAL        RHOB        RHOC        DPOR         GR         NPOR    
# ...
   624.0000      7.8883      2.5068      0.0039      8.6796     92.2337     20.9761
   624.1000      7.8883      2.4737     -0.0771     10.6860     90.7225     19.9903
   624.2000      7.8883      2.4630      0.0463     11.3324     91.5034     19.0495
   624.3000      7.9000      2.4428      0.0128     12.5546     94.6749     18.2380
   624.4000      7.9000      2.4020     -0.0423     15.0276     96.1663     17.4092
   624.5000      7.8688      2.3506      0.0036     18.1473     96.0861     16.4642
   624.6000      7.8688      2.2725     -0.0059     22.8779     95.8814     15.5687
   624.7000      7.8688      2.1534     -0.0693     30.0982     93.4965     14.9163
   624.8000      7.8886      2.0108     -0.0368     38.7382     90.5141     14.5574
   624.9000      7.8886      1.8723     -0.0979     47.1324     89.2493     14.3134
   625.0000      7.9010      1.7585     -0.1381     54.0304     87.8231     13.7997
   625.1000      7.9010      1.6810     -0.0881     58.7271     84.2340     13.0951
   625.2000      7.9010      1.6403     -0.1128     61.1965     80.1400     12.6823
   625.3000      7.9344      1.6258     -0.0128     62.0738     78.2673     12.6318
   625.4000      7.9344      1.6190      0.0249     62.4831     76.8780     12.7658
   625.5000      8.0236      1.6209      0.0308     62.3726     72.1596     13.0101
   625.6000      8.0236      1.6486      0.1297     60.6891     64.1077     13.3894
   625.7000      8.0236      1.7001      0.2083     57.5727     58.6666     14.0754
   625.8000      8.1109      1.7673      0.2242     53.4960     60.5271     15.3465
   625.9000      8.1109      1.8561      0.2814     48.1175     64.4720     17.0574
   626.0000      8.1609      1.9606      0.2826     41.7830     63.4566     18.6571
   626.1000      8.1609      2.0587      0.2476     35.8334     58.6073     19.8666
   626.2000      8.1609      2.1406      0.2490     30.8714     53.8778     20.5726
   626.3000      8.1381      2.2136      0.2732     26.4456     52.0587     20.6956
   626.4000      8.1381      2.2774      0.3198     22.5790     54.9345     20.4601
   626.5000      7.9986      2.3205      0.2431     19.9698     61.6814     20.4012
   626.6000      7.9986      2.3471      0.1682     18.3572     68.8409     20.7579
   626.7000      7.9986      2.3682      0.1967     17.0774     74.3021     21.2486
   626.8000      8.0226      2.3820      0.0841     16.2435     78.0374     21.4729
   626.9000      8.0226      2.3918      0.0999     15.6479     78.4564     21.1665
   627.0000      7.9727      2.4015      0.0755     15.0604     74.5919     20.5308
   627.1000      7.9727      2.3975      0.0930     15.3000     70.2758     19.9248
   627.2000      7.9727      2.3688      0.0400     17.0446     69.1121     19.3938
   627.3000      7.9356      2.3232      0.0570     19.8074     68.1149     18.9335
   627.4000      7.9356      2.2701      0.0231     23.0237     65.6805     18.5588
   627.5000      7.9121      2.2113      0.0412     26.5852     64.1442     18.4671
   627.6000      7.9121      2.1538     -0.0121     30.0734     64.8803     18.7138
   627.7000      7.9121      2.1112     -0.0248     32.6550     64.4420     18.9948
   627.8000      7.9199      2.0814      0.0162     34.4590     60.1055     19.2823
   627.9000      7.9199      2.0564      0.0323     35.9761     57.9175     19.5760
   628.0000      7.8971      2.0504      0.0226     36.3406     61.6303     19.7792
   628.1000      7.8971      2.0806      0.0497     34.5072     66.4161     20.1557
   628.2000      7.8971      2.1364      0.1215     31.1259     68.3657     20.9925
   628.3000      7.8789      2.1994      0.1100     27.3092     70.6945     22.0451
   628.4000      7.8789      2.2638      0.2040     23.4077     74.7186     22.9037
   628.5000      7.8921      2.3250      0.1358     19.6962     75.7905     23.5690
   628.6000      7.8921      2.3789      0.2050     16.4275     74.9862     24.2968
   628.7000      7.8921      2.4165      0.2147     14.1505     76.2330     25.2682
   628.8000      7.8526      2.4337      0.1301     13.1116     78.7974     26.1501
   628.9000      7.8526      2.4473      0.0536     12.2824     80.5014     26.0945
   629.0000      7.8637      2.4771      0.0560     10.4799     80.6854     25.1509
   629.1000      7.8637      2.5194      0.0505      7.9170     78.5536     24.5384
   629.2000      7.8637      2.5584      0.0642      5.5521     74.2745     24.8070
   629.3000      7.8983      2.5852      0.0734      3.9297     73.3657     25.3938
   629.4000      7.8983      2.5972      0.0690      3.1985     78.0524     25.6744
   629.5000      7.9152      2.5971      0.0649      3.2049     83.2617     25.6450
   629.6000      7.9152      2.5890      0.0904      3.6974     84.4750     25.4316
   629.7000      7.9152      2.5772      0.0923      4.4141     82.0257     25.0902
   629.8000      7.9290      2.5709      0.0502      4.7921     79.0427     25.1382
   629.9000      7.9290      2.5756      0.0696      4.5066     77.6524     25.5747
   630.0000      7.9078      2.5873      0.0277      3.7990     77.5190     25.5937
   630.1000      7.9078      2.6033      0.0638      2.8287     77.5151     24.8252
   630.2000      7.9078      2.6185      0.0697      1.9081     76.9409     23.6155
   630.3000      7.8773      2.6278      0.0601      1.3476     76.2312     22.6470
   630.4000      7.8773      2.6331      0.0844      1.0219     77.0606     22.4809
   630.5000      7.8498      2.6348      0.0742      0.9213     79.4234     22.9716
   630.6000      7.8498      2.6333      0.0589      1.0120     80.8099     23.4734
   630.7000      7.8498      2.6343      0.0772      0.9494     79.0383     23.7670
   630.8000      7.8539      2.6317      0.1025      1.1089     74.7814     23.9729
   630.9000      7.8539      2.6151      0.0575      2.1151     70.0753     23.9952
   631.0000      7.8557      2.5914      0.0425      3.5502     69.3078     23.7146
   631.1000      7.8557      2.5659      0.0721      5.0999     74.2638     23.4242
   631.2000      7.8557      2.5382      0.0443      6.7763     78.4585     23.5118
   631.3000      7.8607      2.5209      0.0353      7.8253     78.3326     23.9302
   631.4000      7.8607      2.5251      0.0589      7.5671     77.7175     24.3823
   631.5000      7.8606      2.5396      0.0030      6.6937     79.9557     24.6667
   631.6000      7.8606      2.5459     -0.0012      6.3093     82.9348     24.6105
   631.7000      7.8606      2.5493      0.0031      6.1060     81.1177     24.4111
   631.8000      7.8696      2.5666      0.0373      5.0527     73.8920     24.5434
   631.9000      7.8696      2.5966      0.0865      3.2368     68.7635     24.8827
   632.0000      7.8601      2.6206      0.1290      1.7817     71.1657     24.9831
   632.1000      7.8601      2.6168      0.1362      2.0121     76.6415     24.7984
   632.2000      7.8601      2.5870      0.0450      3.8204     81.8159     24.4764
   632.3000      7.8553      2.5620      0.0147      5.3351     85.7898     24.0605
   632.4000      7.8553      2.5584      0.0180      5.5502     84.8316     23.8199
   632.5000      7.8666      2.5637      0.0388      5.2324     81.2591     23.9069
   632.6000      7.8666      2.5679     -0.0111      4.9728     80.3910     23.8559
   632.7000      7.8666      2.5746      0.0484      4.5706     83.1861     23.6182
   632.8000      7.8564      2.5812      0.0582      4.1682     87.7098     23.7216
   632.9000      7.8564      2.5811      0.0728      4.1777     90.8987     24.2011
   633.0000      7.8573      2.5758      0.0617      4.4994     91.7577     24.6544
   633.1000      7.8573      2.5751      0.0055      4.5393     89.1444     24.9491
   633.2000      7.8573      2.5743      0.0679      4.5858     81.6961     25.0838
   633.3000      7.8567      2.5615      0.0173      5.3652     74.6977     24.9378
   633.4000      7.8567      2.5509     -0.0086      6.0052     72.7614     24.7039
   633.5000      7.8523      2.5593      0.0216      5.4992     73.9054     24.8969
