~Version Information
VERS.                      2.0: CWLS Log ASCII Standard - VERSION 2.0
WRAP.                       NO: One line per depth step
~Well Information Block
STRT.FT                 8.2500: 
STOP.FT              1156.2500: 
STEP.FT                 0.2500: 
NULL.                -999.2500: 
COMP.          Pioneer Natural Resources: COMPANY
WELL.              Davida 34-8: WELL
FLD.           Purgatoire River: FIELD
LOC.           418' FSL & 1923' FEL: LOCATION
CNTY.               Las Animas: COUNTY
SRVC.                Patterson: SERVICE COMPANY
DATE.          Thu Mar 30 09:09:42 2006: LOG DATE
UWI.           05 071 08722 00: UNIQUE WELL ID
STAT.                 Colorado: STATE
~Curve Information Block
DEPT.FT            0 000 00 00: Depth
GR.GAPI                       : Gamma Ray
CCL.                          : Casing Collar Locator
TT3.usec                      : CBL 3' Travel Time
AMP3.mV                       : CBL 3' Amplitude
~Parameter Information Block
~A  Depth        GR         CCL         TT3         AMP3    
     8.2500   -999.2500   -999.2500   -999.2500   -999.2500
     8.5000   -999.2500   -999.2500   -999.2500   -999.2500
     8.7500   -999.2500   -999.2500   -999.2500   -999.2500
     9.0000   -999.2500   -999.2500   -999.2500   -999.2500
     9.2500   -999.2500   -999.2500    530.6352     36.3469
     9.5000   -999.2500   -999.2500    430.8228     52.4579
     9.7500   -999.2500   -999.2500    349.7236     65.3569
    10.0000   -999.2500   -999.2500    297.6576     72.0969
    10.2500   -999.2500   -999.2500    272.3160     72.5926
    10.5000   -999.2500   -999.2500    265.4641     68.6873
    10.7500   -999.2500   -999.2500    270.5545     62.4597
    11.0000   -999.2500   -999.2500    285.0106     55.3523
    11.2500   -999.2500   -999.2500    307.9130     48.1776
    11.5000   -999.2500   -999.2500    336.8849     41.3643
    11.7500   -999.2500   -999.2500    367.2758     35.1159
    12.0000   -999.2500   -999.2500    394.3401     29.5051
    12.2500   -999.2500   -999.2500    416.3038     24.5507
    12.5000   -999.2500   -999.2500    435.3275     20.2841
    12.7500   -999.2500   -999.2500    455.5352     16.7724
    13.0000   -999.2500   -999.2500    479.5720     14.0886
    13.2500   -999.2500   -999.2500    506.2250     12.2453
    13.5000   -999.2500   -999.2500    531.1335     11.1420
    13.7500   -999.2500   -999.2500    549.7961     10.5807
    14.0000   -999.2500   -999.2500    559.4267     10.3396
    14.2500   -999.2500   -999.2500    558.1974     10.2458
    14.5000   -999.2500   -999.2500    544.6854     10.2007
    14.7500   -999.2500      0.0000    519.9074     10.1652
    15.0000   -999.2500      0.0000    489.2809     10.1325
    15.2500   -999.2500      0.0000    460.7805     10.1056
    15.5000   -999.2500      0.0000    440.6298     10.0853
    15.7500   -999.2500      0.0000    431.0168     10.0702
    16.0000   -999.2500      0.0000    431.1460     10.0630
    16.2500   -999.2500      0.0000    439.4781     10.0723
    16.5000   -999.2500      0.0000    455.1310     10.1057
    16.7500   -999.2500      0.0000    477.8466     10.1649
    17.0000   -999.2500      0.0000    507.0648     10.2440
    17.2500   -999.2500      0.0000    541.1950     10.3333
    17.5000   -999.2500      0.0000    577.5815     10.4251
    17.7500   -999.2500      0.0000    612.7242     10.5167
    18.0000   -999.2500      0.0000    642.7304     10.6091
    18.2500   -999.2500      0.0000    664.6111     10.7029
    18.5000   -999.2500      0.0000    677.8833     10.7967
    18.7500   -999.2500      0.0000    684.8520     10.8893
    19.0000   -999.2500      0.0000    689.3427     10.9814
    19.2500   -999.2500      0.0000    695.1471     11.0750
    19.5000     71.0374      0.0000    704.8185     11.1733
    19.7500     71.9685      0.0000    718.6117     11.2817
    20.0000     72.0520      0.0000    734.1350     11.4002
    20.2500     71.8862      0.0000    747.7708     11.5150
    20.5000     72.7581      0.0000    757.1117     11.6004
    20.7500     75.3054      0.0000    762.1564     11.6341
    21.0000     78.8346      0.0000    764.4319     11.6147
    21.2500     81.8659      0.0000    765.4218     11.5636
    21.5000     83.2337      0.0000    765.7341     11.5082
    21.7500     82.7569      0.0000    765.0814     11.4610
    22.0000     81.2063      0.0000    762.6027     11.4088
    22.2500     79.7864      0.0000    757.4584     11.3218
    22.5000     79.4055      0.0000    749.7096     11.1726
    22.7500     80.2241      0.0000    740.8021     10.9552
    23.0000     81.7854      0.0000    732.8815     10.6945
    23.2500     83.4191      0.0000    727.4341     10.4360
    23.5000     84.5611      0.0000    724.6743     10.2183
    23.7500     84.9964      0.0000    724.1324     10.0495
    24.0000     84.9780      0.0000    725.3893      9.9084
    24.2500     84.9153      0.0000    727.9498      9.7688
    24.5000     84.7879      0.0000    730.6435      9.6213
    24.7500     84.0817      0.0000    731.8344      9.4761
    25.0000     82.3643      0.0000    730.6817      9.3480
    25.2500     79.7072      0.0000    727.9407      9.2411
    25.5000     76.6862      0.0000    725.1777      9.1465
    25.7500     74.2840      0.0000    723.4034      9.0539
    26.0000     73.5064      0.0000    722.6506      8.9645
    26.2500     74.6416      0.0000    722.5269      8.8917
    26.5000     76.9873      0.0000    722.8651      8.8501
    26.7500     79.4855      0.0000    724.0392      8.8443
    27.0000     81.4732      0.0000    726.9166      8.8680
    27.2500     82.7672      0.0000    732.2759      8.9112
    27.5000     83.3419      0.0000    739.6903      8.9637
    27.7500     83.1451      0.0000    746.7716      9.0162
    28.0000     82.1537      0.0000    749.9526      9.0615
    28.2500     80.5613      0.0000    746.8169      9.0981
    28.5000     78.9859      0.0000    738.1249      9.1345
    28.7500     78.4062      0.0000    727.3014      9.1858
    29.0000     79.5672      0.0000    717.4196      9.2641
    29.2500     82.2389      0.0000    708.9215      9.3676
    29.5000     85.1799      0.0000    700.5617      9.4814
    29.7500     87.0161      0.0000    691.4258      9.5885
    30.0000     87.2016      0.0000    680.5776      9.6832
    30.2500     86.1544      0.0000    665.3527      9.7676
    30.5000     84.7333      0.0000    642.2543      9.8399
    30.7500     83.7854      0.0000    611.1785      9.8904
    31.0000     83.8369      0.0000    578.7143      9.9126
    31.2500     84.6528      0.0000    555.9591      9.9104
    31.5000     85.1978      0.0000    551.5016      9.8934
    31.7500     84.4638      0.0000    565.4506      9.8682
    32.0000     82.3555      0.0000    590.2200      9.8335
    32.2500     79.6257      0.0000    617.5235      9.7817
    32.5000     77.1040      0.0000    643.7017      9.7071
    32.7500     75.2024      0.0000    667.6179      9.6132
    33.0000     73.9861      0.0000    686.6017      9.5078
    33.2500     73.3883      0.0000    698.3553      9.3939
    33.5000     73.3100      0.0000    705.4058      9.2705
    33.7500     73.6217      0.0000    713.8608      9.1461
    34.0000     74.0321      0.0000    727.2962      9.0443
    34.2500     74.0620      0.0000    743.3590      8.9929
    34.5000     73.5460      0.0000    756.3552      9.0038
    34.7500     73.1629      0.0000    762.2581      9.0625
    35.0000     73.9084      0.0000    761.4592      9.1357
    35.2500     75.7523      0.0000    757.7720      9.1922
    35.5000     77.1220      0.0000    755.0370      9.2190
    35.7500     76.0142      0.0000    754.1527      9.2210
    36.0000     71.6679      0.0000    753.2068      9.2096
    36.2500     65.2119      0.0000    750.2548      9.1938
    36.5000     58.7966      0.0000    745.2202      9.1811
    36.7500     54.1612      0.0000    738.9951      9.1808
    37.0000     51.9449      0.0000    732.0276      9.2030
    37.2500     52.0015      0.0000    724.7498      9.2525
    37.5000     53.9500      0.0000    718.2882      9.3259
    37.7500     57.4058      0.0000    713.3123      9.4141
    38.0000     61.9275      0.0000    708.8005      9.5078
    38.2500     66.8144      0.0000    703.2742      9.6014
    38.5000     70.9946      0.0000    696.8450      9.6941
    38.7500     73.4490      0.0000    691.0416      9.7875
    39.0000     74.0920      0.0000    687.0439      9.8807
    39.2500     74.0311      0.0000    684.8631      9.9661
    39.5000     74.5471      0.0000    683.8819     10.0324
    39.7500     75.8421      0.0000    683.5276     10.0728
    40.0000     77.0108      0.0000    683.4624     10.0914
    40.2500     77.1041      0.0000    683.5070     10.1004
    40.5000     75.9568      0.0000    683.5748     10.1125
    40.7500     74.1147      0.0000    683.6556     10.1326
    41.0000     72.3224      0.0000    683.9069     10.1537
    41.2500     71.0913      0.0000    684.9006     10.1633
    41.5000     70.5035      0.0000    688.0251     10.1558
