~Version Information
VERS.                      2.0: CWLS Log ASCII Standard - VERSION 2.0
WRAP.                       NO: One line per depth step
~Well Information Block
STRT.FT                -0.5000: 
STOP.FT              1417.0000: 
STEP.FT                 0.2500: 
NULL.                -999.2500: 
COMP.          Pioneer Natural Resources: COMPANY
WELL.              Darren 11-7: WELL
FLD.           Purgatoire River: FIELD
LOC.           230' FNL & 596' FWL: LOCATION
CNTY.               Las Animas: COUNTY
SRVC.                Patterson: SERVICE COMPANY
DATE.          Thu Mar 30 10:43:52 2006: LOG DATE
UWI.           05 071 08720 00: UNIQUE WELL ID
STAT.                 Colorado: STATE
~Curve Information Block
DEPT.FT            0 000 00 00: Depth
GR.GAPI                       : Gamma Ray
CCL.                          : Casing Collar Locator
TT3.usec                      : CBL 3' Travel Time
AMP3.mV                       : CBL 3' Amplitude
~Parameter Information Block
~A  Depth        GR         CCL         TT3         AMP3    
# ...
   636.0000    121.9012      0.0000    717.1263      5.9454
   636.2500    128.8625      0.0000    716.9321      5.7275
   636.5000    133.1028      0.0000    716.7478      5.5297
   636.7500    133.5124      0.0000    716.6402      5.3843
   637.0000    131.4945      0.0000    716.6252      5.3053
   637.2500    129.8792      0.0000    716.6742      5.2901
   637.5000    130.2562      0.0000    716.7958      5.3272
   637.7500    131.5715      0.0000    717.1710      5.3989
   638.0000    131.5679      0.0000    718.2603      5.4843
   638.2500    129.2231      0.0000    720.7012      5.5668
   638.5000    125.5168      0.0000    724.7523      5.6365
   638.7500    122.4029      0.0000    729.4999      5.6871
   639.0000    121.6845      0.0000    732.8401      5.7190
   639.2500    124.3370      0.0000    732.8974      5.7442
   639.5000    129.7641      0.0000    729.6755      5.7801
   639.7500    135.4595      0.0000    724.9644      5.8324
   640.0000    138.1835      0.0000    720.5983      5.8882
   640.2500    136.1693      0.0000    717.0949      5.9280
   640.5000    130.2723      0.0000    713.8925      5.9389
   640.7500    123.0053      0.0000    710.5440      5.9200
   641.0000    116.8154      0.0000    707.5338      5.8813
   641.2500    113.2067      0.0000    705.7446      5.8376
   641.5000    112.6536      0.0000    704.8236      5.7996
   641.7500    114.6812      0.0000    702.1115      5.7682
   642.0000    118.1853      0.0000    693.6789      5.7376
   642.2500    122.1132      0.0000    677.1188      5.7021
   642.5000    126.0119      0.0000    654.0256      5.6610
   642.7500    129.9656      0.0000    629.8508      5.6197
   643.0000    134.1595      0.0000    610.7371      5.5875
   643.2500    138.4682      0.0000    599.9284      5.5714
   643.5000    142.1419      0.0000    596.8542      5.5703
   643.7500    143.8133      0.0000    599.2304      5.5786
   644.0000    142.4193      0.0000    605.7382      5.5978
   644.2500    138.5496      0.0000    616.5784      5.6368
   644.5000    134.3735      0.0000    631.4451      5.6970
   644.7500    131.6618      0.0000    647.6434      5.7578
   645.0000    130.1333      0.0000    661.2317      5.7854
   645.2500    128.0185      0.0000    670.0770      5.7611
   645.5000    124.0306      0.0000    675.1668      5.6988
   645.7500    118.7439      0.0000    678.9159      5.6310
   646.0000    114.4025      0.0000    682.8333      5.5775
   646.2500    113.3391      0.0000    687.2359      5.5307
   646.5000    116.1398      0.0000    692.3995      5.4703
   646.7500    121.1179      0.0000    698.5845      5.3868
   647.0000    125.7411      0.0000    705.0872      5.2916
   647.2500    128.5574      0.0000    710.4800      5.2074
   647.5000    129.6017      0.0000    713.8874      5.1439
   647.7500    129.3724      0.0000    715.4396      5.0796
   648.0000    128.1329      0.0000    715.6478      4.9824
   648.2500    126.0946      0.0000    714.9965      4.8617
   648.5000    123.5712      0.0000    714.4325      4.7817
   648.7500    120.7785      0.0000    715.9728      4.7920
   649.0000    117.8698      0.0000    721.9478      4.8615
   649.2500    115.2239      0.0000    732.8304      4.9132
   649.5000    113.3928      0.0000    746.0970      4.9068
   649.7500    112.7576      0.0000    757.8539      4.8592
   650.0000    113.3942      0.0000    765.2640      4.8091
   650.2500    115.2187      3.0000    767.4103      4.7934
   650.5000    118.0518      0.0000    765.1378      4.8432
   650.7500    121.2881      0.0000    760.5402      4.9852
   651.0000    123.5106      0.0000    755.3685      5.2430
   651.2500    122.9976      0.0000    749.5639      5.6176
   651.5000    119.1294      0.0000    742.2285      6.0447
   651.7500    113.2176      0.0000    733.7864      6.4007
   652.0000    107.7438      0.0000    726.1215      6.5967
   652.2500    104.7571      0.0000    720.7883      6.6505
   652.5000    104.6598      0.0000    717.9113      6.6403
   652.7500    106.0498      0.0000    716.6475      6.6178
   653.0000    106.7777      0.0000    716.0488      6.5875
   653.2500    105.5771      0.0000    715.3864      6.5377
   653.5000    102.9418      0.0000    713.9650      6.4632
   653.7500    100.5218      0.0000    710.9368      6.3726
   654.0000     99.7221      0.0000    705.6785      6.2843
   654.2500    100.7509      0.0000    698.7594      6.2147
   654.5000    102.8061      0.0000    692.4744      6.1651
   654.7500    105.1054      0.0000    689.7685      6.1247
   655.0000    107.6109      0.0000    692.0259      6.0822
   655.2500    110.6434      0.0000    697.8630      6.0338
   655.5000    114.0851      0.0000    704.1431      5.9835
   655.7500    117.3741      0.0000    707.8796      5.9409
   656.0000    120.1710      0.0000    706.9114      5.9198
   656.2500    122.5365      0.0000    699.4217      5.9344
   656.5000    124.3254      0.0000    684.4927      5.9902
   656.7500    124.8782      0.0000    664.4644      6.0779
   657.0000    123.5707      0.0000    646.0591      6.1749
   657.2500    120.2836      0.0000    636.7974      6.2540
   657.5000    115.1398      0.0000    638.6852      6.2920
   657.7500    108.2764      0.0000    645.3394      6.2756
   658.0000    100.3322      0.0000    645.6475      6.2022
   658.2500     92.9367      0.0000    632.0358      6.0842
   658.5000     88.1962      0.0000    608.4557      5.9483
   658.7500     87.4139      0.0000    590.5739      5.8221
   659.0000     90.3625      0.0000    594.0154      5.7138
   659.2500     95.7719      0.0000    620.2758      5.6092
   659.5000    102.2131      0.0000    656.0566      5.4937
   659.7500    108.3795      0.0000    686.1373      5.3743
   660.0000    113.1190      0.0000    704.1409      5.2782
   660.2500    116.0545      0.0000    712.1519      5.2306
   660.5000    118.2655      0.0000    714.7623      5.2350
   660.7500    121.7376      0.0000    715.2547      5.2759
   661.0000    127.6687      0.0000    715.1542      5.3367
   661.2500    135.2660      0.0000    714.9752      5.4106
   661.5000    142.1777      0.0000    714.8367      5.4907
   661.7500    145.9151      0.0000    714.7475      5.5595
   662.0000    144.9382      0.0000    714.6866      5.5960
   662.2500    138.9405      0.0000    714.6320      5.5921
   662.5000    128.7125      0.0000    714.5814      5.5597
   662.7500    116.0259      0.0000    714.5549      5.5226
   663.0000    103.5806      0.0000    714.5588      5.5067
   663.2500     94.4473      0.0000    714.5584      5.5325
   663.5000     90.6033      0.0000    714.4997      5.6100
   663.7500     91.5547      0.0000    714.3465      5.7360
   664.0000     94.7742      0.0000    714.1010      5.8926
   664.2500     97.8834      0.0000    713.8068      6.0471
   664.5000    100.3513      0.0000    713.5297      6.1581
   664.7500    103.2117      0.0000    713.3212      6.1921
   665.0000    107.6497      0.0000    713.0798      6.1388
   665.2500    113.9269      0.0000    712.3137      6.0142
   665.5000    121.1765      0.0000    709.9244      5.8509
   665.7500    127.9010      0.0000    704.6101      5.6827
   666.0000    132.7242      0.0000    696.4035      5.5323
   666.2500    134.8910      0.0000    688.1957      5.4087
   666.5000    134.2262      0.0000    684.5855      5.3123
   666.7500    130.7344      0.0000    687.9358      5.2406
   667.0000    124.6586      0.0000    696.0253      5.1920
   667.2500    117.2215      0.0000    704.3571      5.1670
   667.5000    110.7272      0.0000    710.0500      5.1681
   667.7500    107.1835      0.0000    712.9669      5.1970
   668.0000    106.8433      0.0000    714.2203      5.2519
   668.2500    108.3588      0.0000    714.6535      5.3251
   668.5000    110.1028      0.0000    714.3194      5.3994
   668.7500    111.1813      0.0000    712.3831      5.4518
   669.0000    111.8092      0.0000    707.0298      5.4636
   669.2500    113.2331      0.0000    695.9268      5.4306
