~Version Information
VERS.                      2.0: CWLS Log ASCII Standard - VERSION 2.0
WRAP.                       NO: One line per depth step
~Well Information Block
STRT.FT                 0.0000: 
STOP.FT              1426.7500: 
STEP.FT                 0.2500: 
NULL.                -999.2500: 
COMP.          Pioneer Natural Resources: COMPANY
WELL.            Bordeaux 42-2: WELL
FLD.           Purgatorie River: FIELD
LOC.           1963' FNL & 1148' FEL: LOCATION
PROV.                 Colorado: PROVINCE
CNTY.               Las Animas: COUNTRY
SRVC.                Patterson: SERVICE COMPANY
DATE.          Fri Dec 02 09:28:20 2005: LOG DATE
UWI.                          : UNIQUE WELL ID
~Curve Information Block
DEPT.FT            0 000 00 00: Depth
CCL.                          : Casing Collar Locator
TT3.usec                      : CBL 3' Travel Time
AMP3.mV                       : CBL 3' Amplitude
GR.GAPI                       : Gamma Ray
~Parameter Information Block
~A  Depth       CCL         TT3         AMP3         GR     
# ...
   938.0000      0.0000    795.1483     12.7984     78.3470
   938.2500      0.0000    795.4905     12.8559     78.2356
   938.5000      0.0000    795.7252     12.8901     78.5200
   938.7500      0.0000    795.7795     12.8934     78.6037
   939.0000      0.0000    795.9732     12.9234     78.3144
   939.2500      0.0000    797.4269     13.0309     77.5602
   939.5000      0.0000    801.8832     13.1940     76.0040
   939.7500      0.0000    809.4215     13.3555     73.2796
   940.0000      0.0000    815.8680     13.4885     69.5243
   940.2500      0.0000    816.8051     13.5988     65.7422
   940.5000      0.0000    814.3928     13.6799     63.4831
   940.7500      0.0000    813.3801     13.7108     63.8423
   941.0000      0.0000    813.6433     13.7120     66.6741
   941.2500      0.0000    813.5470     13.7525     70.8518
   941.5000      0.0000    814.6424     13.8548     75.1783
   941.7500      0.0000    817.1415     13.9473     78.7854
   942.0000      0.0000    816.5941     13.9510     80.8096
   942.2500      0.0000    811.3952     13.8499     80.3085
   942.5000      0.0000    806.4215     13.6774     76.9903
   942.7500      0.0000    804.5449     13.4950     71.8199
   943.0000      0.0000    802.4615     13.3630     66.5517
   943.2500      0.0000    797.9649     13.2975     62.6683
   943.5000      0.0000    794.2642     13.2633     60.6942
   943.7500      0.0000    795.3251     13.2133     60.1356
   944.0000      0.0000    801.6296     13.1360     59.9524
   944.2500      0.0000    807.7114     13.0437     59.3940
   944.5000      0.0000    805.0949     12.9167     58.5879
   944.7500      0.0000    793.1816     12.7232     58.4471
   945.0000      0.0000    780.4931     12.4883     60.1118
   945.2500      0.0000    773.2144     12.2822     64.1440
   945.5000      0.0000    770.5885     12.1508     69.7201
   945.7500      0.0000    769.8558     12.0685     74.6996
   946.0000      0.0000    769.6846     11.9609     77.0416
   946.2500      0.0000    769.9241     11.7879     76.3528
   946.5000      0.0000    771.0085     11.5784     74.0117
   946.7500      0.0000    773.9380     11.3869     71.9089
   947.0000      0.0000    779.4030     11.2512     71.1682
   947.2500      0.0000    786.1065     11.1810     71.7641
   947.5000      0.0000    791.3779     11.1664     72.9217
   947.7500      0.0000    793.9544     11.1762     73.7883
   948.0000      0.0000    794.6270     11.1610     73.9961
   948.2500      0.0000    794.5846     11.0988     73.8407
   948.5000      0.0000    794.4523     11.0113     73.8858
   948.7500      0.0000    794.4099     10.9195     74.2710
   949.0000      0.0000    794.4294     10.8407     74.4702
   949.2500      0.0000    794.4387     10.8030     73.8765
   949.5000      0.0000    794.4404     10.8142     72.5839
   949.7500      0.0000    794.4770     10.8497     71.4222
   950.0000      0.0000    794.5300     10.8679     71.2099
   950.2500      0.0000    794.5573     10.8342     72.0076
   950.5000      0.0000    794.5797     10.7553     73.0573
   950.7500      0.0000    794.5370     10.6766     73.4487
   951.0000      0.0000    793.8854     10.6488     72.9290
   951.2500      0.0000    791.4203     10.6920     72.1453
   951.5000      0.0000    786.2510     10.7732     72.1830
   951.7500      0.0000    779.3519     10.8501     73.7513
   952.0000      0.0000    772.6515     10.9235     76.4944
   952.2500      0.0000    766.5284     11.0041     78.8718
   952.5000      0.0000    761.5291     11.0781     78.9495
   952.7500      0.0000    761.5675     11.1335     75.8271
   953.0000      0.0000    769.1503     11.1740     70.5670
   953.2500      0.0000    778.4885     11.2138     65.6375
   953.5000      0.0000    779.7654     11.2908     63.3054
   953.7500      0.0000    769.8382     11.4584     64.3147
   954.0000      0.0000    756.2786     11.7186     67.7609
   954.2500      0.0000    748.1471     11.9904     72.0825
   954.5000      0.0000    743.9615     12.1908     76.2664
   954.7500      0.0000    737.2066     12.3196     80.3190
   955.0000      0.0000    728.6456     12.4392     84.8833
   955.2500      0.0000    722.8983     12.5995     90.4205
   955.5000      0.0000    720.6304     12.8023     96.4929
   955.7500      0.0000    719.9075     13.0275    101.8937
   956.0000      0.0000    719.5874     13.2675    105.6951
   956.2500      0.0000    719.2955     13.5146    108.0511
   956.5000      0.0000    717.1269     13.7419    109.8603
   956.7500      0.0000    705.4351     13.9261    111.9440
   957.0000      0.0000    668.6898     14.0622    114.7113
   957.2500      0.0000    596.7239     14.1416    118.2567
   957.5000      0.0000    508.6425     14.1466    122.2821
   957.7500      0.0000    447.6417     14.0845    125.7422
   958.0000      0.0000    444.6569     14.0018    126.8540
   958.2500      0.0000    495.9620     13.9477    124.1937
   958.5000      0.0000    564.8160     13.9321    118.3285
   958.7500      0.0000    607.2852     13.9133    112.0244
   959.0000      0.0000    614.4734     13.8351    108.2975
   959.2500      0.0000    619.4666     13.6910    108.2160
   959.5000      0.0000    648.8757     13.5305    110.5319
   959.7500      0.0000    683.1734     13.4024    113.0424
   960.0000      0.0000    681.1327     13.3170    114.0605
   960.2500      0.0000    630.6309     13.2639    112.9823
   960.5000      0.0000    572.6131     13.2339    110.2995
   960.7500      0.0000    564.8970     13.2167    107.5995
   961.0000      0.0000    612.6429     13.2097    107.0912
   961.2500      0.0000    668.5305     13.2190    110.2689
   961.5000      0.0000    699.1566     13.2442    116.7619
   961.7500      0.0000    709.6985     13.2851    124.6021
   962.0000      0.0000    715.2163     13.3588    131.6280
   962.2500      0.0000    720.4203     13.4912    136.7755
   962.5000      0.0000    723.5005     13.6953    140.3394
   962.7500      0.0000    721.6452     13.9511    143.1414
   963.0000      0.0000    710.8286     14.2123    145.5715
   963.2500      0.0000    693.4218     14.4500    147.4511
   963.5000      0.0000    686.4839     14.6715    148.3666
   963.7500      0.0000    700.5806     14.8768    147.7997
   964.0000      0.0000    716.0875     15.0235    145.4441
   964.2500      0.0000    702.7805     15.0530    141.8832
   964.5000      0.0000    649.0856     14.9455    138.5711
   964.7500      0.0000    568.8370     14.7678    136.6190
   965.0000      0.0000    489.8961     14.6476    135.6435
   965.2500      0.0000    432.6007     14.6504    134.1290
   965.5000      0.0000    400.6818     14.7201    131.1828
   965.7500      0.0000    387.5968     14.7653    127.8586
   966.0000      0.0000    385.5598     14.7536    126.5454
   966.2500      0.0000    393.5179     14.7080    129.0998
   966.5000      0.0000    418.1225     14.6511    135.5737
   966.7500      0.0000    462.0522     14.5847    144.2331
   967.0000      0.0000    516.3452     14.5189    152.4822
   967.2500      0.0000    575.0724     14.4921    158.1905
   967.5000      0.0000    637.2213     14.5452    160.5942
   967.7500      0.0000    683.8065     14.6791    160.0822
   968.0000      0.0000    684.2139     14.8410    157.5326
   968.2500      0.0000    633.6651     14.9668    154.1649
   968.5000      0.0000    574.9387     15.0033    151.4526
   968.7500      0.0000    558.7307     14.8624    150.3590
   969.0000      0.0000    573.3645     14.4779    150.6070
   969.2500      0.0000    567.9312     13.9747    151.0618
   969.5000      0.0000    547.8285     13.4772    150.8305
   969.7500      0.0000    568.9650     12.6706    149.8619
   970.0000      0.0000    641.8070     11.2188    148.6549
   970.2500      0.0000    717.7448      9.6085    147.5811
   970.5000      0.0000    759.1791      8.6585    146.5732
   970.7500      0.0000    768.4604      8.4389    145.5303
   971.0000     -2.0000    764.1708      8.4263    144.7969
   971.2500     -2.0000    759.7810      8.2939    144.9177
