~Version Information
VERS.                      2.0: CWLS Log ASCII Standard - VERSION 2.0
WRAP.                       NO: One line per depth step
~Well Information Block
STRT.FT                -1.5000: 
STOP.FT              2898.5000: 
STEP.FT                 0.2500: 
NULL.                -999.2500: 
COMP.          Pioneer Natural Resources: COMPANY
WELL.          Hanginstone 21-27: WELL
FLD.           Purgatoire River: FIELD
LOC.           1186' FNL & 1606' FWL--: LOCATION
PROV.                 Colorado: PROVINCE
CNTY.               Las Animas: COUNTRY
SRVC.                Patterson: SERVICE COMPANY
DATE.          Mon Jan 23 11:03:53 2006: LOG DATE
UWI.           05 071 08632 00: UNIQUE WELL ID
~Curve Information Block
DEPT.FT            0 000 00 00: Depth
CCL.                          : Casing Collar Locator
TT3.usec                      : CBL 3' Travel Time
AMP3.mV                       : CBL 3' Amplitude
GR.GAPI                       : Gamma Ray
~Parameter Information Block
~A  Depth       CCL         TT3         AMP3         GR     
# ...
   199.5000      0.0000    266.3498     64.4949    118.6455
   199.7500      0.0000    267.3358     62.2196    118.9777
   200.0000      0.0000    267.8689     60.6463    118.5138
   200.2500     -2.0000    268.0723     59.7564    116.9664
   200.5000      2.0000    268.1090     59.3263    115.2626
   200.7500     -2.0000    268.0806     59.1715    114.5568
   201.0000      0.0000    267.9931     59.3445    114.9259
   201.2500      0.0000    267.7481     60.1720    115.6174
   201.5000      0.0000    267.1633     62.0877    116.1952
   201.7500      0.0000    266.0832     65.2576    116.9836
   202.0000      0.0000    264.5575     69.3173    118.6876
   202.2500      0.0000    262.9029     73.5726    121.5873
   202.5000      0.0000    261.5208     77.4050    124.7621
   202.7500      0.0000    260.6299     80.4293    126.5336
   203.0000      0.0000    260.1860     82.4520    126.2863
   203.2500      0.0000    260.0139     83.4894    125.2764
   203.5000      0.0000    259.9617     83.7767    125.0863
   203.7500      0.0000    259.9492     83.6539    125.7574
   204.0000      0.0000    259.9471     83.4122    126.0222
   204.2500      0.0000    259.9475     83.2088    125.0461
   204.5000      0.0000    259.9497     83.0774    123.1666
   204.7500      0.0000    259.9545     82.9946    120.7855
   205.0000      0.0000    259.9615     82.9516    117.3086
   205.2500      0.0000    259.9675     82.9677    111.8861
   205.5000      0.0000    259.9666     83.0518    104.9340
   205.7500      0.0000    259.9555     83.1768     98.1664
   206.0000      0.0000    259.9393     83.3040     92.9368
   206.2500      0.0000    259.9303     83.4075     89.0722
   206.5000      0.0000    259.9375     83.4634     85.5705
   206.7500      0.0000    259.9567     83.4492     81.7886
   207.0000      0.0000    259.9726     83.3684     77.5548
   207.2500      0.0000    259.9715     83.2552     72.7378
   207.5000      0.0000    259.9513     83.1569     67.4619
   207.7500      0.0000    259.9221     83.1152     62.5611
   208.0000      0.0000    259.9006     83.1470     59.2491
   208.2500      0.0000    259.8987     83.2322     58.1223
   208.5000      0.0000    259.9165     83.3280     58.6444
   208.7500      0.0000    259.9451     83.3971     59.6696
   209.0000      0.0000    259.9744     83.4305     60.3516
   209.2500      0.0000    259.9972     83.4471     60.5685
   209.5000      0.0000    260.0079     83.4697     60.6899
   209.7500      0.0000    260.0020     83.5016     61.0687
   210.0000      0.0000    259.9810     83.5204     61.6338
   210.2500      0.0000    259.9529     83.5002     61.7659
   210.5000      0.0000    259.9249     83.4381     60.5863
   210.7500      0.0000    259.9009     83.3491     57.7273
   211.0000      0.0000    259.8835     83.2487     53.9942
   211.2500      0.0000    259.8751     83.1539     51.0640
   211.5000      0.0000    259.8745     83.0839     50.4820
   211.7500      0.0000    259.8775     83.0471     52.9132
   212.0000      0.0000    259.8826     83.0443     57.8747
   212.2500      0.0000    259.8916     83.0821     63.6617
   212.5000      0.0000    259.9017     83.1705     67.8362
   212.7500      0.0000    259.9051     83.3046     68.7032
   213.0000      0.0000    259.8975     83.4535     66.7735
   213.2500      0.0000    259.8828     83.5703     64.3437
   213.5000      0.0000    259.8671     83.6159     63.2511
   213.7500      0.0000    259.8521     83.5756     63.4821
   214.0000      0.0000    259.8363     83.4684     64.2322
   214.2500      0.0000    259.8189     83.3449     65.4175
   214.5000      0.0000    259.8020     83.2542     67.3576
   214.7500      0.0000    259.7888     83.2088     69.7062
   215.0000      0.0000    259.7848     83.1873     71.6792
   215.2500      0.0000    259.7994     83.1667     73.0515
   215.5000      0.0000    259.8391     83.1503     74.1857
   215.7500      0.0000    259.8953     83.1621     75.1993
   216.0000      0.0000    259.9464     83.2188     75.7889
   216.2500      0.0000    259.9751     83.3144     76.1307
   216.5000      0.0000    259.9814     83.4283     77.3882
   216.7500      0.0000    259.9747     83.5339     80.5484
   217.0000      0.0000    259.9586     83.5966     84.7309
   217.2500      0.0000    259.9308     83.5822     87.5323
   217.5000      0.0000    259.8937     83.4895     87.6012
   217.7500      0.0000    259.8568     83.3749     86.2504
   218.0000      0.0000    259.8288     83.3202     85.8233
   218.2500      0.0000    259.8138     83.3649     86.8623
   218.5000      0.0000    259.8152     83.4699     87.6626
   218.7500      0.0000    259.8347     83.5515     86.4195
   219.0000      0.0000    259.8636     83.5522     83.0607
   219.2500      0.0000    259.8824     83.4772     79.0437
   219.5000      0.0000    259.8756     83.3813     76.0399
   219.7500      0.0000    259.8446     83.3267     74.8813
   220.0000      0.0000    259.8041     83.3390     75.1462
   220.2500      0.0000    259.7694     83.3924     75.4793
   220.5000      0.0000    259.7505     83.4418     74.6846
   220.7500      0.0000    259.7519     83.4729     72.7676
   221.0000      0.0000    259.7718     83.5106     70.7399
   221.2500      0.0000    259.8036     83.5772     69.3984
   221.5000      0.0000    259.8388     83.6582     68.6435
   221.7500      0.0000    259.8687     83.7194     68.0313
   222.0000      0.0000    259.8860     83.7400     67.5135
   222.2500      0.0000    259.8885     83.7237     67.3075
   222.5000      0.0000    259.8798     83.6937     67.2554
   222.7500      0.0000    259.8636     83.6786     66.6665
   223.0000      0.0000    259.8414     83.6920     64.9129
   223.2500      0.0000    259.8169     83.7207     62.1156
   223.5000      0.0000    259.7973     83.7374     59.1012
   223.7500      0.0000    259.7868     83.7308     56.6981
   224.0000      0.0000    259.7817     83.7154     55.2942
   224.2500      0.0000    259.7762     83.7076     54.9347
   224.5000      0.0000    259.7699     83.7043     55.2047
   224.7500      0.0000    259.7678     83.6856     54.9411
   225.0000      0.0000    259.7750     83.6333     52.9446
   225.2500      0.0000    259.7924     83.5536     49.4661
   225.5000      0.0000    259.8152     83.4843     46.4141
   225.7500      0.0000    259.8351     83.4756     45.6171
   226.0000      0.0000    259.8452     83.5542     47.1623
   226.2500      0.0000    259.8433     83.7004     49.4749
   226.5000      0.0000    259.8328     83.8567     50.5508
   226.7500      0.0000    259.8203     83.9641     49.0738
   227.0000      0.0000    259.8121     83.9937     45.0057
   227.2500      0.0000    259.8109     83.9587     39.6133
   227.5000      0.0000    259.8132     83.9047     34.8230
   227.7500      0.0000    259.8142     83.8866     32.2048
   228.0000      0.0000    259.8141     83.9397     32.2933
   228.2500      0.0000    259.8184     84.0480     34.6598
   228.5000      0.0000    259.8325     84.1404     38.5419
   228.7500      0.0000    259.8540     84.1385     43.3500
   229.0000      0.0000    259.8732     84.0186     48.5981
   229.2500      0.0000    259.8792     83.8268     53.6270
   229.5000      0.0000    259.8668     83.6422     57.8213
   229.7500      0.0000    259.8399     83.5217     61.3246
   230.0000      0.0000    259.8077     83.4745     65.5620
   230.2500      0.0000    259.7796     83.4764     72.7218
   230.5000      0.0000    259.7621     83.4976     84.0188
   230.7500      0.0000    259.7574     83.5218     98.0461
   231.0000      0.0000    259.7626     83.5493    111.2163
   231.2500      0.0000    259.7728     83.5950    120.3969
   231.5000      0.0000    259.7864     83.6782    125.1391
   231.7500      0.0000    259.8085     83.7844    127.1191
   232.0000      0.0000    259.8461     83.8369    127.8008
   232.2500      0.0000    259.8975     83.7385    127.2242
   232.5000      0.0000    259.9461     83.4651    124.7449
   232.7500      0.0000    259.9709     83.1097    120.1718
