~Version Information
VERS.                      2.0: CWLS Log ASCII Standard - VERSION 2.0
WRAP.                       NO: One line per depth step
~Well Information Block
STRT.FT               460.0000: 
STOP.FT              2311.7000: 
STEP.FT                 0.1000: 
NULL.                -999.2500: 
COMP.          Pioneer Natural Resources: COMPANY
WELL.          McDonald 33-31 R: WELL
FLD.           Purgatoire River: FIELD
LOC.           1386' FSL & 1926' FEL: LOCATION
STAT.                 Colorado: State
CNTY.               Las Animas: COUNTY
CTRY.                      USA: Country
SECT.                       31: Section
TOWN.                      32S: Township
RANG.                      66W: Range
SRVC.                Patterson: SERVICE COMPANY
DATE.          Sat Sep 24 09:00:13 2005: LOG DATE
API.           05 071 08533 00: API
~Curve Information Block
DEPT.FT            0 000 00 00: Depth
DCAL.in                       : CDL Caliper
RHOB.g/cc                     : CDL Bulk Density
RHOC.g/cc                     : CDL Density Correction
DPOR.pu                       : CDL Density Porosity
NPOR.pu                       : Neutron Porosity
GR.GAPI                       : Gamma Ray
~Parameter Information Block
~A  Depth       DCAL        RHOB        RHOC        DPOR        NPOR         GR     
# ...
  1919.2000      7.9105      2.5771      0.0179      4.4200     20.0323    112.6604
  1919.3000      7.9129      2.5782     -0.0138      4.3489     19.7984    113.2782
  1919.4000      7.9129      2.5798      0.0650      4.2519     19.2848    115.0804
  1919.5000      7.9145      2.5676      0.0304      4.9938     18.8094    116.5720
  1919.6000      7.9145      2.5452      0.0240      6.3525     18.8010    113.9598
  1919.7000      7.9145      2.5303     -0.0112      7.2543     19.2486    110.7023
  1919.8000      7.9154      2.5321      0.0017      7.1481     19.7339    109.9193
  1919.9000      7.9154      2.5418      0.0034      6.5556     19.8065    107.1963
  1920.0000      7.9153      2.5514      0.0137      5.9776     19.5779    101.1993
  1920.1000      7.9153      2.5638     -0.0095      5.2219     19.3433    100.6170
  1920.2000      7.9153      2.5810      0.0568      4.1806     19.0993    111.0024
  1920.3000      7.9143      2.5988      0.0281      3.1050     18.9040    123.7429
  1920.4000      7.9143      2.6120      0.0381      2.3036     18.8894    128.5526
  1920.5000      7.9131      2.6101      0.0448      2.4200     18.9750    127.3116
  1920.6000      7.9131      2.5883      0.0533      3.7398     18.8206    126.0063
  1920.7000      7.9131      2.5618     -0.0301      5.3450     18.5306    122.4495
  1920.8000      7.9128      2.5466      0.0162      6.2668     18.4517    116.1064
  1920.9000      7.9128      2.5473     -0.0369      6.2241     18.6060    115.2093
  1921.0000      7.9117      2.5668      0.0225      5.0429     18.8731    120.4615
  1921.1000      7.9117      2.5905      0.0660      3.6065     19.0873    124.9161
  1921.2000      7.9117      2.5970      0.0553      3.2113     19.3306    128.5398
  1921.3000      7.9117      2.5887      0.0069      3.7167     19.9008    130.3485
  1921.4000      7.9117      2.5778      0.0502      4.3759     20.4934    127.7020
  1921.5000      7.9143      2.5687     -0.0070      4.9260     20.4139    124.2640
  1921.6000      7.9143      2.5698     -0.0270      4.8594     19.5404    124.4351
  1921.7000      7.9143      2.5859      0.0131      3.8848     18.5351    127.4857
  1921.8000      7.9151      2.6050      0.0813      2.7252     18.1137    128.6603
  1921.9000      7.9151      2.6126      0.0559      2.2647     18.3990    129.2571
  1922.0000      7.9135      2.6102      0.0314      2.4135     18.8633    132.4994
  1922.1000      7.9135      2.6089      0.0505      2.4909     19.1805    135.0343
  1922.2000      7.9135      2.6103      0.0731      2.4085     19.6370    134.4183
  1922.3000      7.9129      2.6092      0.0621      2.4726     20.1041    134.3736
  1922.4000      7.9129      2.6060      0.0526      2.6681     19.9431    136.5138
  1922.5000      7.9156      2.6038      0.0633      2.7994     19.2538    134.1633
  1922.6000      7.9156      2.5983      0.0750      3.1349     18.9993    124.0952
  1922.7000      7.9156      2.5838      0.0283      4.0107     19.7255    114.9382
  1922.8000      7.9207      2.5695      0.0278      4.8815     20.6454    111.1527
  1922.9000      7.9207      2.5634      0.0245      5.2502     20.6772    108.0717
  1923.0000      7.9263      2.5613      0.0233      5.3783     20.1580    104.7397
  1923.1000      7.9263      2.5568      0.0409      5.6459     20.0243    105.1698
  1923.2000      7.9263      2.5481      0.0398      6.1728     20.3733    112.2924
  1923.3000      7.9287      2.5443     -0.0137      6.4087     20.6052    120.8257
  1923.4000      7.9287      2.5517      0.0485      5.9587     20.3071    122.1619
  1923.5000      7.9279      2.5576      0.0506      5.5992     19.5276    119.5602
  1923.6000      7.9279      2.5562      0.0389      5.6860     18.8131    123.3526
  1923.7000      7.9279      2.5531      0.0429      5.8751     18.6841    134.8671
  1923.8000      7.9270      2.5526      0.0396      5.9026     19.0022    146.4056
  1923.9000      7.9270      2.5606      0.0273      5.4192     19.1493    152.6136
  1924.0000      7.9282      2.5694      0.0750      4.8829     18.6438    150.7146
  1924.1000      7.9282      2.5612      0.0603      5.3835     17.7076    142.3720
  1924.2000      7.9282      2.5395      0.0202      6.6989     16.8261    133.9070
  1924.3000      7.9289      2.5207      0.0436      7.8355     16.1564    127.6833
  1924.4000      7.9289      2.5093      0.0242      8.5290     15.8613    121.5081
  1924.5000      7.9242      2.5072      0.0308      8.6539     15.9773    114.6810
  1924.6000      7.9242      2.5173      0.0231      8.0432     16.1203    113.1531
  1924.7000      7.9242      2.5371      0.0361      6.8396     15.9294    119.6296
  1924.8000      7.9132      2.5624      0.0281      5.3068     15.6227    125.6434
  1924.9000      7.9132      2.5875      0.0657      3.7888     15.6027    124.0529
  1925.0000      7.9034      2.6027      0.0946      2.8671     15.9037    118.9245
  1925.1000      7.9034      2.6030      0.0789      2.8466     16.1186    117.5358
  1925.2000      7.9034      2.5978      0.0660      3.1625     16.1522    116.9835
  1925.3000      7.8994      2.6008      0.0589      2.9844     16.4361    111.3341
  1925.4000      7.8994      2.6050      0.1033      2.7290     17.0338    103.2233
  1925.5000      7.9005      2.5975      0.0703      3.1791     17.4331     99.4529
  1925.6000      7.9005      2.5940      0.0302      3.3949     17.4411    102.8264
  1925.7000      7.9005      2.6059      0.0732      2.6730     17.3657    109.3414
  1925.8000      7.9026      2.6150      0.0649      2.1193     17.1602    112.4061
  1925.9000      7.9026      2.6055      0.0753      2.6979     16.5897    112.0092
  1926.0000      7.9024      2.5842      0.0112      3.9901     16.0253    115.1242
  1926.1000      7.9024      2.5660      0.0389      5.0892     15.6183    122.7147
  1926.2000      7.9024      2.5560      0.0128      5.6961     15.1650    127.0562
  1926.3000      7.9021      2.5534      0.0300      5.8523     14.7278    124.7318
  1926.4000      7.9021      2.5550      0.0199      5.7582     14.3369    119.1689
  1926.5000      7.9039      2.5620      0.0223      5.3304     14.1012    111.9041
  1926.6000      7.9039      2.5749      0.0445      4.5509     14.2740    102.3240
  1926.7000      7.9039      2.5869      0.0395      3.8261     14.8055     95.2830
  1926.8000      7.9061      2.5950      0.0682      3.3309     15.3053     97.2553
  1926.9000      7.9061      2.5985      0.0758      3.1240     15.5262    101.8894
  1927.0000      7.9063      2.5970      0.0807      3.2117     15.5212     99.7980
  1927.1000      7.9063      2.5892      0.0659      3.6867     15.5213     95.7042
  1927.2000      7.9063      2.5742      0.0671      4.5910     15.5458     96.5234
  1927.3000      7.9054      2.5634      0.0085      5.2464     15.4043    101.8207
  1927.4000      7.9054      2.5648      0.0776      5.1637     15.1515    110.4508
  1927.5000      7.9043      2.5734      0.0359      4.6444     15.2888    117.5245
  1927.6000      7.9043      2.5847      0.0501      3.9588     15.8506    117.4696
  1927.7000      7.9043      2.5891      0.0677      3.6901     15.9794    112.0397
  1927.8000      7.9024      2.5838      0.0281      4.0108     15.4671    106.6481
  1927.9000      7.9024      2.5758      0.0665      4.4946     14.9338    105.2259
  1928.0000      7.9010      2.5636      0.0486      5.2389     14.7376    106.1407
  1928.1000      7.9010      2.5522      0.0175      5.9291     14.8620    104.1298
  1928.2000      7.9010      2.5546      0.0443      5.7839     15.2310     97.3081
  1928.3000      7.9004      2.5676      0.0583      4.9917     15.7656     89.5119
  1928.4000      7.9004      2.5806      0.0493      4.2052     16.1554     86.8344
  1928.5000      7.9017      2.5905      0.0569      3.6049     16.1062     88.8329
  1928.6000      7.9017      2.5970      0.0568      3.2101     15.7597     88.2545
  1928.7000      7.9017      2.6014      0.0256      2.9484     15.4158     84.3841
