~Version Information
VERS.                      2.0: CWLS Log ASCII Standard - VERSION 2.0
WRAP.                       NO: One line per depth step
~Well Information Block
STRT.FT               340.0000: 
STOP.FT              2342.7000: 
STEP.FT                 0.1000: 
NULL.                -999.2500: 
COMP.          Pioneer Natural Resources: COMPANY
WELL.          Pinkerton 41-12: WELL
FLD.           Purgatoire River: FIELD
LOC.           1222' FNL & 670' FEL--: LOCATION
CNTY.               Las Animas: COUNTY
SRVC.                Patterson: SERVICE COMPANY
DATE.          Thu Mar 16 06:39:17 2006: LOG DATE
UWI.           05 071 08500 00: UNIQUE WELL ID
STAT.                 Colorado: STATE
~Curve Information Block
DEPT.FT            0 000 00 00: Depth
DCAL.in                       : CDL Caliper
RHOB.g/cc                     : CDL Bulk Density
RHOC.g/cc                     : CDL Density Correction
DPOR.pu                       : CDL Density Porosity
NPOR.pu                       : Neutron Porosity
GR.GAPI                       : Gamma Ray
~Parameter Information Block
~A  Depth       DCAL        RHOB        RHOC        DPOR        NPOR         GR     
# ...
  1780.0000      8.0489      2.5557      0.1209      5.7121     28.3364    136.0438
  1780.1000      8.0489      2.5639      0.1112      5.2187     27.8531    136.6443
  1780.2000      8.0489      2.5806      0.1314      4.2087     27.4574    136.9637
  1780.3000      8.0311      2.6014      0.1454      2.9443     27.5037    133.8968
  1780.4000      8.0311      2.6085      0.1657      2.5182     27.8749    133.7965
  1780.5000      8.0252      2.5936      0.1149      3.4194     28.1187    136.4096
  1780.6000      8.0252      2.5656      0.1012      5.1166     27.9327    137.2160
  1780.7000      8.0252      2.5368      0.0524      6.8613     27.4813    136.9390
  1780.8000      8.0277      2.5233      0.0241      7.6798     27.2197    132.1133
  1780.9000      8.0277      2.5330      0.0313      7.0880     27.0577    123.8278
  1781.0000      8.0317      2.5614      0.0472      5.3721     26.8044    119.8741
  1781.1000      8.0317      2.6027      0.0550      2.8641     26.8749    120.0102
  1781.2000      8.0317      2.6405      0.1120      0.5736     27.3660    119.4015
  1781.3000      8.0361      2.6427      0.1403      0.4412     27.8533    119.5687
  1781.4000      8.0361      2.6036      0.0838      2.8109     28.0413    122.2933
  1781.5000      8.0385      2.5633      0.0602      5.2533     27.9185    122.3187
  1781.6000      8.0385      2.5596      0.0700      5.4761     27.8290    116.4523
  1781.7000      8.0385      2.5870      0.1238      3.8153     28.1426    109.1248
  1781.8000      8.0390      2.6082      0.1725      2.5322     28.5252    107.9490
  1781.9000      8.0390      2.6058      0.0849      2.6786     28.4283    113.6971
  1782.0000      8.0402      2.6004      0.0743      3.0083     27.9696    118.4256
  1782.1000      8.0402      2.6057      0.0848      2.6839     27.5160    121.8108
  1782.2000      8.0402      2.6095      0.0763      2.4573     27.1280    125.5348
  1782.3000      8.0396      2.5993      0.0512      3.0700     26.9725    123.2794
  1782.4000      8.0396      2.5782      0.0527      4.3492     27.2360    118.6881
  1782.5000      8.0349      2.5571     -0.0099      5.6283     27.8017    122.2630
  1782.6000      8.0349      2.5440      0.0388      6.4217     28.4369    130.7245
  1782.7000      8.0349      2.5365      0.0397      6.8810     28.9324    135.0605
  1782.8000      8.0340      2.5265      0.0229      7.4869     29.2108    135.1527
  1782.9000      8.0340      2.5073      0.0245      8.6490     29.1512    135.2106
  1783.0000      8.0465      2.4824     -0.0069     10.1554     28.6992    132.3848
  1783.1000      8.0465      2.4675      0.0102     11.0584     28.3789    124.0544
  1783.2000      8.0465      2.4684      0.0490     11.0043     28.6758    117.1729
  1783.3000      8.0722      2.4790      0.0230     10.3618     29.3074    117.6117
  1783.4000      8.0722      2.4909      0.0624      9.6445     29.7799    120.9543
  1783.5000      8.1042      2.4890      0.0476      9.7601     30.1405    119.8268
  1783.6000      8.1042      2.4668      0.0587     11.1031     30.6471    116.0099
  1783.7000      8.1042      2.4421     -0.0382     12.6026     31.0572    116.2232
  1783.8000      8.1405      2.4350      0.0369     13.0307     31.1069    120.1151
  1783.9000      8.1405      2.4406      0.0292     12.6917     30.8268    123.1451
  1784.0000      8.1644      2.4388      0.0670     12.7989     30.4895    124.8220
  1784.1000      8.1644      2.4100      0.0925     14.5455     30.4417    130.1534
  1784.2000      8.1644      2.3571      0.0248     17.7525     30.5228    137.1589
  1784.3000      8.1650      2.3062      0.0093     20.8338     30.5441    135.9277
  1784.4000      8.1650      2.2730      0.0052     22.8479     30.7313    126.5345
  1784.5000      8.1497      2.2620      0.0187     23.5161     31.0893    119.7495
  1784.6000      8.1497      2.2789      0.0270     22.4889     31.3903    120.6751
  1784.7000      8.1497      2.3189      0.1012     20.0664     31.5882    123.9835
  1784.8000      8.1261      2.3651      0.0852     17.2647     31.6262    125.7522
  1784.9000      8.1261      2.4079      0.1450     14.6717     31.3124    126.8198
  1785.0000      8.1068      2.4496      0.1906     12.1441     30.7020    127.5470
  1785.1000      8.1068      2.4971      0.2555      9.2678     29.9934    128.3628
  1785.2000      8.1068      2.5423      0.3395      6.5302     29.4102    130.3076
  1785.3000      8.0989      2.5659      0.3216      5.0999     28.9810    132.8900
  1785.4000      8.0989      2.5674      0.2517      5.0038     28.5986    133.2608
  1785.5000      8.0951      2.5597      0.2002      5.4750     28.3536    131.0585
  1785.6000      8.0951      2.5400      0.1863      6.6642     28.5002    129.1436
  1785.7000      8.0951      2.5023      0.0825      8.9492     29.0614    126.7128
  1785.8000      8.0675      2.4629     -0.0037     11.3405     29.5511    123.1521
  1785.9000      8.0675      2.4421      0.0573     12.5995     29.6123    122.3997
  1786.0000      8.0540      2.4356      0.0382     12.9967     29.5692    126.4589
  1786.1000      8.0540      2.4289      0.0246     13.3974     29.7270    134.5370
  1786.2000      8.0540      2.4151      0.0613     14.2343     29.7749    143.6929
  1786.3000      8.0995      2.3996      0.0341     15.1741     29.6426    147.7364
  1786.4000      8.0995      2.3967      0.0599     15.3526     29.7687    141.1091
  1786.5000      8.1639      2.4050      0.0803     14.8469     30.1169    128.8615
  1786.6000      8.1639      2.4069      0.1206     14.7317     30.5008    122.5733
  1786.7000      8.1639      2.3962      0.0791     15.3819     31.0851    123.3190
  1786.8000      8.1867      2.3901      0.0506     15.7543     31.6353    127.5889
  1786.9000      8.1867      2.3967      0.0997     15.3520     31.6571    136.1001
  1787.0000      8.1864      2.3900      0.1635     15.7562     31.3121    148.9441
  1787.1000      8.1864      2.3535      0.0899     17.9717     31.1106    161.3212
  1787.2000      8.1864      2.3252      0.0143     19.6871     31.3239    164.4505
  1787.3000      8.1845      2.3362      0.1605     19.0193     31.8641    154.3252
  1787.4000      8.1845      2.3608      0.1606     17.5285     32.2392    141.2048
  1787.5000      8.1817      2.3834      0.1101     16.1556     32.0914    137.4031
  1787.6000      8.1817      2.4132      0.1771     14.3538     31.6635    140.7245
  1787.7000      8.1817      2.4402      0.1993     12.7146     31.3126    144.8850
  1787.8000      8.2000      2.4484      0.2018     12.2174     31.2329    148.7643
  1787.9000      8.2000      2.4312      0.1916     13.2613     31.4592    150.6774
  1788.0000      8.2225      2.3959      0.1456     15.3988     31.8031    149.7532
  1788.1000      8.2225      2.3612      0.1558     17.5043     32.0772    146.5533
  1788.2000      8.2225      2.3377      0.0818     18.9249     32.1218    141.9796
  1788.3000      8.2117      2.3270      0.0890     19.5746     31.6560    140.7904
  1788.4000      8.2117      2.3256      0.1013     19.6623     30.7979    142.9312
  1788.5000      8.1902      2.3241      0.1078     19.7488     30.1303    145.6971
  1788.6000      8.1902      2.3118      0.0988     20.4991     29.9372    150.9588
  1788.7000      8.1902      2.2863      0.1057     22.0427     30.0941    154.8692
  1788.8000      8.1897      2.2669      0.0900     23.2199     30.1556    152.6345
  1788.9000      8.1897      2.2917      0.1080     21.7142     29.6367    150.2130
  1789.0000      8.2132      2.3751      0.2895     16.6624     28.7523    152.5682
  1789.1000      8.2132      2.4896      0.3097      9.7216     28.1268    155.2904
  1789.2000      8.2132      2.5979      0.3717      3.1599     27.9318    153.3377
  1789.3000      8.1945      2.6638      0.3851     -0.8340     27.7460    148.4431
  1789.4000      8.1945      2.6714      0.3373     -1.2961     27.1976    146.8915
  1789.5000      8.1122      2.6453      0.2304      0.2858     26.5169    145.2956
