~Version Information
VERS.                      2.0: CWLS Log ASCII Standard - VERSION 2.0
WRAP.                       NO: One line per depth step
~Well Information Block
STRT.FT               875.0000: 
STOP.FT              2947.2500: 
STEP.FT                 0.2500: 
NULL.                -999.2500: 
COMP.          Pioneer Natural Resources: COMPANY
WELL.          Hanginstone 21-27: WELL
FLD.           Purgatoire River: FIELD
LOC.           1186' FNL & 1606' FWL--: LOCATION
PROV.                 Colorado: PROVINCE
CNTY.               Las Animas: COUNTRY
SRVC.                Patterson: SERVICE COMPANY
DATE.          Sat Jan 07 09:06:14 2006: LOG DATE
UWI.           05 071 08632 00: UNIQUE WELL ID
~Curve Information Block
DEPT.FT            0 000 00 00: Depth
SN.Ohm-m                      : IEL Short Normal
SP.mV                         : IEL Spontaneous Potential
DIR.Ohm-m                     : IEL Induction Resistivity
GR.GAPI                       : Gamma Ray
~Parameter Information Block
~A  Depth        SN          SP         DIR          GR     
   875.0000   2000.0000   2020.0000 100000.0000     79.7947
   875.2500   2000.0000   2020.0000 100000.0000     82.0709
   875.5000   2000.0000   2020.0000 100000.0000     85.7671
   875.7500   2000.0000   2020.0000 100000.0000     88.6424
   876.0000   2000.0000   2020.0000 100000.0000     93.4238
   876.2500   2000.0000   2020.0000 100000.0000     64.2747
   876.5000   2000.0000   2020.0000 100000.0000     66.5028
   876.7500   2000.0000   2020.0000 100000.0000     67.4078
   877.0000   2000.0000   2020.0000 100000.0000     67.9524
   877.2500   2000.0000   2020.0000 100000.0000     67.6791
   877.5000   2000.0000   2020.0000 100000.0000     66.2324
   877.7500   2000.0000   2020.0000 100000.0000     64.9755
   878.0000   2000.0000   2020.0000 100000.0000     64.0100
   878.2500   2000.0000   2020.0000 100000.0000     64.5333
   878.5000   2000.0000   2020.0000 100000.0000     66.7466
   878.7500   2000.0000   2020.0000 100000.0000     68.4906
   879.0000   2000.0000   2020.0000 100000.0000     70.6142
   879.2500   2000.0000   2020.0000 100000.0000     71.5809
   879.5000   2000.0000   2020.0000 100000.0000     72.3473
   879.7500   2000.0000   2020.0000 100000.0000     72.2453
   880.0000   2000.0000   2020.0000 100000.0000     70.9334
   880.2500   2000.0000   2020.0000 100000.0000     69.4942
   880.5000   2000.0000   2020.0000 100000.0000     67.2896
   880.7500   2000.0000   2020.0000 100000.0000     66.0226
   881.0000   2000.0000   2020.0000 100000.0000     63.9574
   881.2500   2000.0000   2020.0000 100000.0000     62.0389
   881.5000   2000.0000   2020.0000 100000.0000     58.3502
   881.7500   2000.0000   2020.0000 100000.0000     55.9711
   882.0000   2000.0000   2020.0000 100000.0000     54.1226
   882.2500   2000.0000   2020.0000 100000.0000     54.8057
   882.5000   2000.0000   2020.0000 100000.0000     58.9798
   882.7500   2000.0000   2020.0000 100000.0000     63.2368
   883.0000   2000.0000   2020.0000 100000.0000     69.8063
   883.2500   2000.0000   2020.0000 100000.0000     73.1767
   883.5000   2000.0000   2020.0000 100000.0000     76.0154
   883.7500   2000.0000   2020.0000     27.8410     76.9091
   884.0000   2000.0000   2020.0000      5.1717     78.2562
   884.2500   2000.0000   2020.0000      3.2934     79.7015
   884.5000   2000.0000   2020.0000      3.0796     82.3229
   884.7500   2000.0000   2020.0000      3.8611     83.6205
   885.0000   2000.0000   2020.0000      6.8789     83.7006
   885.2500   2000.0000   2020.0000     32.5020     82.3632
   885.5000   2000.0000   2020.0000 100000.0000     79.3017
   885.7500   2000.0000   2020.0000 100000.0000     77.6581
   886.0000   2000.0000   2020.0000 100000.0000     77.3297
   886.2500   2000.0000   2020.0000 100000.0000     78.5757
   886.5000   2000.0000   2020.0000 100000.0000     81.1096
   886.7500   2000.0000   2020.0000 100000.0000     82.0732
   887.0000   2000.0000   2020.0000     29.4986     81.4986
   887.2500   2000.0000   2020.0000     16.5983     80.1092
   887.5000   2000.0000   2020.0000     13.7690     77.6889
   887.7500   2000.0000   2020.0000     13.5395     76.2120
   888.0000   2000.0000   2020.0000     14.6248     74.0466
   888.2500   2000.0000   2020.0000     16.6088     72.4879
   888.5000   2000.0000   2020.0000     19.1590     70.1711
   888.7500   2000.0000   2020.0000     21.7567     68.9236
   889.0000   2000.0000   2020.0000     23.7730     67.8271
   889.2500   2000.0000   2020.0000     25.0047     67.6406
   889.5000   2000.0000   2020.0000     26.0708     68.0418
   889.7500   2000.0000   2020.0000     28.1608     68.5353
   890.0000   2000.0000   2020.0000     32.7671     68.8270
   890.2500   2000.0000   2020.0000     41.8324     68.2252
   890.5000   2000.0000   2020.0000     57.0626     66.0214
   890.7500   2000.0000   2020.0000     73.8978     64.2076
   891.0000   2000.0000   2020.0000     75.7686     62.1005
   891.2500   2000.0000   2020.0000     61.0096     61.3547
   891.5000   2000.0000   2020.0000     45.7214     60.8661
   891.7500   2000.0000   2020.0000     35.7243     60.7792
   892.0000   2000.0000   2020.0000     30.0008     61.4531
   892.2500   2000.0000   2020.0000     26.9899     62.9424
   892.5000   2000.0000   2020.0000     25.6524     67.1490
   892.7500   2000.0000   2020.0000     25.2812     71.1265
   893.0000   2000.0000   2020.0000     25.2957     78.5274
   893.2500   2000.0000   2020.0000     25.2060     84.3941
   893.5000   2000.0000   2020.0000     24.7143     94.5728
   893.7500   2000.0000   2020.0000     23.7867    102.0358
   894.0000   2000.0000   2020.0000     22.5782    113.3342
   894.2500   2000.0000   2020.0000     21.2822    120.1883
   894.5000   2000.0000   2020.0000     20.0338    128.1251
   894.7500   2000.0000   2020.0000     18.8985    131.3941
   895.0000   2000.0000   2020.0000     17.9005    133.4048
   895.2500   2000.0000   2020.0000     17.0486    133.2172
   895.5000   2000.0000   2020.0000     16.3490    131.2123
   895.7500   2000.0000   2020.0000     15.8049    128.9796
   896.0000   2000.0000   2020.0000     15.4155    125.0122
   896.2500   2000.0000   2020.0000     15.1763    122.5707
   896.5000   2000.0000   2020.0000     15.0808    120.1403
   896.7500   2000.0000   2020.0000     15.1202    119.5317
   897.0000   2000.0000   2020.0000     15.2814    119.5207
   897.2500   2000.0000   2020.0000     15.5443    119.2994
   897.5000   2000.0000   2020.0000     15.8799    117.4265
   897.7500   2000.0000   2020.0000     16.2515    115.1903
   898.0000   2000.0000   2020.0000     16.6211    111.8751
   898.2500   2000.0000   2020.0000     16.9591    110.7899
   898.5000   2000.0000   2020.0000     17.2550    111.6645
   898.7500   2000.0000   2020.0000     17.5240    113.5126
   899.0000   2000.0000   2020.0000     17.8014    116.6524
   899.2500   2000.0000   2020.0000     18.1257    118.1884
   899.5000   2000.0000   2020.0000     18.5175    119.1174
   899.7500   2000.0000   2020.0000     18.9681    119.0125
   900.0000   2000.0000   2020.0000     19.4457    118.4179
   900.2500   2000.0000   2020.0000     19.9158    117.9134
   900.5000   2000.0000   2020.0000     20.3639    116.8665
   900.7500   2000.0000   2020.0000     20.8017    115.9767
   901.0000   2000.0000   2020.0000     21.2576    114.8258
   901.2500   2000.0000   2020.0000     21.7578    114.4451
   901.5000   2000.0000   2020.0000     22.3133    114.1349
   901.7500   2000.0000   2020.0000     22.9157    113.4805
   902.0000   2000.0000   2020.0000     23.5389    110.8947
   902.2500   2000.0000   2020.0000     24.1457    108.1231
   902.5000   2000.0000   2020.0000     24.6951    103.4795
   902.7500   2000.0000   2020.0000     25.1562    100.9162
   903.0000   2000.0000   2020.0000     25.5228     98.9391
   903.2500   2000.0000   2020.0000     25.8178     99.0164
   903.5000   2000.0000   2020.0000     26.0798    100.5738
   903.7500   2000.0000   2020.0000     26.3409    101.8376
   904.0000   2000.0000   2020.0000     26.6107    103.0370
   904.2500   2000.0000   2020.0000     26.8789    103.3189
   904.5000   2000.0000   2020.0000     27.1300    103.6227
   904.7500   2000.0000   2020.0000     27.3595    103.9751
   905.0000   2000.0000   2020.0000     27.5784    104.2051
   905.2500   2000.0000   2020.0000     27.8088    103.6141
   905.5000   2000.0000   2020.0000     28.0773    101.2599
   905.7500   2000.0000   2020.0000     28.4112     99.0271
   906.0000   2000.0000   2020.0000     28.8353     95.6580
   906.2500   2000.0000   2020.0000     29.3620     93.8040
   906.5000   2000.0000   2020.0000     29.9790     91.4933
   906.7500   2000.0000   2020.0000     30.6435     89.7719
   907.0000   2000.0000   2020.0000     31.2915     86.1811
   907.2500   2000.0000   2020.0000     31.8598     83.2993
   907.5000   2000.0000   2020.0000     32.3083     79.7373
   907.7500   2000.0000   2020.0000     32.6297     78.7798
   908.0000   2000.0000   2020.0000     32.8457     79.6854
   908.2500   2000.0000   2020.0000     32.9938     81.1181
