~Version Information
VERS.                      2.0: CWLS Log ASCII Standard - VERSION 2.0
WRAP.                       NO: One line per depth step
~Well Information Block
STRT.FT               410.0000: 
STOP.FT              1253.0000: 
STEP.FT                 0.1000: 
NULL.                -999.2500: 
COMP.          Petrogulf Corporation: COMPANY
WELL.           Parsons 15-23R: WELL
FLD.           Purgatorie River: FIELD
LOC.           2244' FSL & 1932' FWL: LOCATION
PROV.                 Colorado: PROVINCE
CNTY.               Las Animas: COUNTRY
SRVC.                Patterson: SERVICE COMPANY
DATE.          Mon Sep 12 10:28:25 2005: LOG DATE
UWI.                          : UNIQUE WELL ID
~Curve Information Block
DEPT.FT            0 000 00 00: Depth
DCAL.in                       : CDL Caliper
RHOB.g/cc                     : CDL Bulk Density
RHOC.g/cc                     : CDL Density Correction
DPOR.pu                       : CDL Density Porosity
GR.GAPI                       : Gamma Ray
NPOR.pu                       : Neutron Porosity
~Parameter Information Block
~A  Depth       DCAL        RHOB        RHOC        DPOR         GR         NPOR    
# ...
   467.6000      8.0167      2.4660      0.0484     11.1542    147.2267     26.8365
   467.7000      8.0167      2.5027      0.0800      8.9281    146.3426     27.1840
   467.8000      7.9980      2.5243      0.1697      7.6178    149.2765     27.7772
   467.9000      7.9980      2.5177      0.1118      8.0202    153.5145     28.4028
   468.0000      7.9843      2.4973      0.0723      9.2572    154.2769     28.7231
   468.1000      7.9843      2.4810      0.0942     10.2406    151.9952     28.7203
   468.2000      7.9843      2.4646      0.0602     11.2356    150.0544     28.7582
   468.3000      7.9938      2.4439      0.0003     12.4918    148.0037     28.9600
   468.4000      7.9938      2.4237      0.0142     13.7122    146.3992     29.0453
   468.5000      8.0100      2.4047      0.0377     14.8647    147.8053     28.7140
   468.6000      8.0100      2.3916      0.0173     15.6616    150.5236     28.2682
   468.7000      8.0100      2.3900      0.0090     15.7561    153.4188     28.3512
   468.8000      8.0772      2.3917      0.0595     15.6525    157.2507     28.9719
   468.9000      8.0772      2.3873      0.0479     15.9203    159.6213     29.5495
   469.0000      8.1238      2.3858      0.0564     16.0122    159.2556     29.8668
   469.1000      8.1238      2.3983      0.0889     15.2556    157.7981     30.1819
   469.2000      8.1238      2.4240      0.1175     13.6946    156.9490     30.5835
   469.3000      8.2112      2.4605      0.0972     11.4838    156.9044     30.8368
   469.4000      8.2112      2.4967      0.1020      9.2880    156.2718     30.8902
   469.5000      8.0652      2.5181      0.0852      7.9950    155.2643     30.7015
   469.6000      8.0652      2.5273      0.1033      7.4372    156.7931     30.1516
   469.7000      8.0652      2.5327      0.1366      7.1117    160.1974     29.4523
   469.8000      8.0223      2.5368      0.1041      6.8628    160.7403     28.8996
   469.9000      8.0223      2.5509      0.1007      6.0039    156.4776     28.6670
   470.0000      8.0283      2.5839      0.1086      4.0087    149.2311     28.7786
   470.1000      8.0283      2.6181      0.1362      1.9359    142.0473     28.9894
   470.2000      8.0283      2.6289      0.1416      1.2795    139.0230     29.0285
   470.3000      8.0336      2.6203      0.0742      1.8022    139.4987     28.7395
   470.4000      8.0336      2.6202      0.0648      1.8032    138.0114     28.3145
   470.5000      8.0176      2.6434      0.0629      0.3997    134.4543     27.9728
   470.6000      8.0176      2.6700      0.0956     -1.2114    130.5073     27.4914
   470.7000      8.0176      2.6742      0.0817     -1.4695    125.3983     26.7834
   470.8000      7.9956      2.6621      0.0749     -0.7308    121.4433     25.9443
   470.9000      7.9956      2.6475      0.1086      0.1529    121.9732     25.1479
   471.0000      7.9736      2.6330      0.0320      1.0291    126.2825     24.7526
   471.1000      7.9736      2.6228      0.0641      1.6515    131.4809     24.8854
   471.2000      7.9736      2.6125      0.0747      2.2708    135.3563     25.0132
   471.3000      7.9624      2.5982      0.0384      3.1397    137.9874     24.5869
   471.4000      7.9624      2.5846      0.0665      3.9617    142.4540     24.1742
   471.5000      7.9521      2.5722      0.0717      4.7142    149.1837     24.4898
   471.6000      7.9521      2.5587      0.0271      5.5318    152.6390     25.0213
   471.7000      7.9521      2.5448      0.0761      6.3779    149.6522     25.1040
   471.8000      7.9592      2.5333      0.0178      7.0729    145.6390     24.9273
   471.9000      7.9592      2.5303      0.0348      7.2535    145.5523     24.9457
   472.0000      7.9692      2.5418      0.0246      6.5589    146.1002     25.3745
   472.1000      7.9692      2.5733      0.0331      4.6465    144.5658     26.1842
   472.2000      7.9692      2.6164      0.0844      2.0384    143.1318     27.0816
   472.3000      7.9703      2.6496      0.1009      0.0236    142.8249     27.6552
   472.4000      7.9703      2.6630      0.1000     -0.7894    142.4331     27.8336
   472.5000      7.9875      2.6619      0.0875     -0.7193    140.2861     27.8299
   472.6000      7.9875      2.6503      0.0916     -0.0159    134.9010     27.6907
   472.7000      7.9875      2.6286      0.0196      1.2999    126.4462     27.4028
   472.8000      8.0082      2.6115     -0.0387      2.3317    119.7621     26.9615
   472.9000      8.0082      2.6066      0.0533      2.6323    120.4081     26.3771
   473.0000      7.9866      2.6030      0.0090      2.8459    126.3820     25.8814
   473.1000      7.9866      2.5994      0.0541      3.0685    133.2571     25.6718
   473.2000      7.9866      2.5920      0.0654      3.5127    141.2635     25.4881
   473.3000      7.9637      2.5803      0.0582      4.2259    150.7206     25.2215
   473.4000      7.9637      2.5766      0.0609      4.4487    158.0774     25.4093
   473.5000      7.9658      2.5856      0.0567      3.9061    160.5647     26.0321
   473.6000      7.9658      2.5914      0.0989      3.5495    158.4445     26.4515
   473.7000      7.9658      2.5826      0.0729      4.0873    153.5477     26.5766
   473.8000      7.9643      2.5753      0.0572      4.5300    149.0267     26.7539
   473.9000      7.9643      2.5847      0.1071      3.9603    147.3487     27.2639
   474.0000      7.9667      2.5963      0.1355      3.2541    147.9569     28.0148
   474.1000      7.9667      2.5917      0.0719      3.5356    148.0007     28.5296
   474.2000      7.9667      2.5715      0.0757      4.7580    146.9374     28.4731
   474.3000      7.9927      2.5484     -0.0056      6.1580    146.6176     27.9523
   474.4000      7.9927      2.5377      0.0224      6.8091    147.6729     27.3307
   474.5000      7.9844      2.5411      0.0402      6.5983    150.8904     26.9136
   474.6000      7.9844      2.5494     -0.0225      6.0966    156.8881     26.9016
   474.7000      7.9844      2.5547      0.0341      5.7746    160.5640     27.1889
   474.8000      7.9931      2.5494     -0.0008      6.0951    158.9002     27.3577
   474.9000      7.9931      2.5347      0.0176      6.9894    158.3371     27.2419
   475.0000      7.9957      2.5166      0.0046      8.0860    159.9780     27.0917
   475.1000      7.9957      2.4894      0.0259      9.7309    160.4682     27.1099
   475.2000      7.9957      2.4467     -0.0281     12.3227    158.9443     27.0874
   475.3000      8.0000      2.3989     -0.0420     15.2175    155.2870     26.7937
   475.4000      8.0000      2.3618     -0.0302     17.4678    154.6449     26.6723
   475.5000      8.0265      2.3413     -0.0247     18.7082    163.0697     27.2027
   475.6000      8.0265      2.3296     -0.0094     19.4187    176.0882     27.9499
   475.7000      8.0265      2.3163     -0.0083     20.2216    183.9786     28.4930
   475.8000      8.0625      2.3109     -0.0880     20.5544    183.0764     28.9968
   475.9000      8.0625      2.3215     -0.0129     19.9098    176.6343     29.4412
   476.0000      8.1143      2.3320      0.0073     19.2744    170.3687     29.7768
   476.1000      8.1143      2.3325      0.0164     19.2442    166.6802     30.1661
   476.2000      8.1143      2.3318      0.0390     19.2848    164.9847     30.3069
   476.3000      8.1368      2.3338      0.0867     19.1630    164.2490     29.8985
   476.4000      8.1368      2.3427      0.0312     18.6266    162.8102     29.3723
   476.5000      8.0608      2.3699     -0.0024     16.9777    160.2374     29.1871
   476.6000      8.0608      2.4081      0.0551     14.6589    156.1129     29.2635
   476.7000      8.0608      2.4373      0.0464     12.8939    151.0262     29.4272
   476.8000      8.0249      2.4556      0.0958     11.7848    148.0916     29.6381
   476.9000      8.0249      2.4682      0.1024     11.0155    149.5373     29.6107
   477.0000      7.9951      2.4711      0.1115     10.8444    151.1049     29.0473
   477.1000      7.9951      2.4606      0.1123     11.4802    148.1130     28.2280
