~Version Information
VERS.                      2.0: CWLS Log ASCII Standard - VERSION 2.0
WRAP.                       NO: One line per depth step
~Well Information Block
STRT.FT               322.3000: 
STOP.FT              1375.0000: 
STEP.FT                 0.1000: 
NULL.                -999.2500: 
COMP.          Pioneer Natural Resources: COMPANY
WELL.          Buffet 41-36 Tr: WELL
FLD.           Purgatoire River: FIELD
LOC.           119' FNL & 271' FEL: LOCATION
PROV.                 Colorado: PROVINCE
CNTY.               Las Animas: COUNTRY
SRVC.                Patterson: SERVICE COMPANY
DATE.          Thu Dec 29 07:13:13 2005: LOG DATE
UWI.           05 071 08627 00: UNIQUE WELL ID
~Curve Information Block
DEPT.FT            0 000 00 00: Depth
DCAL.in                       : CDL Caliper
RHOB.g/cc                     : CDL Bulk Density
RHOC.g/cc                     : CDL Density Correction
DPOR.pu                       : CDL Density Porosity
GR.GAPI                       : Gamma Ray
~Parameter Information Block
~A  Depth       DCAL        RHOB        RHOC        DPOR         GR     
# ...
   613.5000      8.0446      2.6032     -0.0132      2.8373     52.3881
   613.6000      8.0446      2.6101      0.0364      2.4208     54.5426
   613.7000      8.0446      2.5950      0.0085      3.3314     58.0226
   613.8000      8.0465      2.5608      0.0134      5.4049     59.4118
   613.9000      8.0465      2.5318     -0.0194      7.1660     57.0659
   614.0000      8.0473      2.5314     -0.0612      7.1880     55.3509
   614.1000      8.0473      2.5496     -0.0011      6.0844     56.7091
   614.2000      8.0473      2.5533      0.0148      5.8583     58.5839
   614.3000      8.0482      2.5418     -0.0143      6.5596     59.4218
   614.4000      8.0482      2.5383     -0.0278      6.7695     61.5245
   614.5000      8.0494      2.5486      0.0152      6.1462     65.0324
   614.6000      8.0494      2.5624     -0.0169      5.3077     66.6788
   614.7000      8.0494      2.5714      0.0363      4.7662     65.6827
   614.8000      8.0502      2.5750      0.0046      4.5474     65.2848
   614.9000      8.0502      2.5786      0.0551      4.3263     68.6302
   615.0000      8.0508      2.5799      0.0568      4.2481     73.9402
   615.1000      8.0508      2.5774      0.0377      4.4021     76.5769
   615.2000      8.0508      2.5745      0.0501      4.5786     76.9184
   615.3000      8.0511      2.5725      0.0580      4.6988     78.9593
   615.4000      8.0511      2.5733      0.0314      4.6494     82.1090
   615.5000      8.0513      2.5746      0.0463      4.5718     81.9139
   615.6000      8.0513      2.5716      0.0149      4.7512     78.6510
   615.7000      8.0513      2.5709      0.0133      4.7963     76.2212
   615.8000      8.0521      2.5819      0.0386      4.1291     73.3223
   615.9000      8.0521      2.5957      0.0665      3.2912     68.3813
   616.0000      8.0533      2.5985      0.0356      3.1198     67.1791
   616.1000      8.0533      2.5933      0.0437      3.4384     72.9544
   616.2000      8.0533      2.5893      0.0358      3.6774     79.5943
   616.3000      8.0539      2.5906      0.0434      3.6018     80.8538
   616.4000      8.0539      2.5949      0.0310      3.3398     76.0580
   616.5000      8.0549      2.5992      0.0020      3.0788     68.8984
   616.6000      8.0549      2.6036     -0.0046      2.8106     65.6244
   616.7000      8.0549      2.6044      0.0440      2.7648     70.5580
   616.8000      8.0563      2.5944      0.0116      3.3725     78.8153
   616.9000      8.0563      2.5768     -0.0247      4.4373     82.9731
   617.0000      8.0571      2.5638     -0.0590      5.2213     82.9711
   617.1000      8.0571      2.5624     -0.0179      5.3102     83.3632
   617.2000      8.0571      2.5655      0.0223      5.1230     86.2259
   617.3000      8.0585      2.5644     -0.0218      5.1894     89.8676
   617.4000      8.0585      2.5615     -0.0032      5.3625     92.2533
   617.5000      8.0602      2.5621     -0.0201      5.3282     93.1770
   617.6000      8.0602      2.5689     -0.0156      4.9170     94.6680
   617.7000      8.0602      2.5817      0.0146      4.1411    100.9717
   617.8000      8.0599      2.5923      0.0425      3.4948    108.9963
   617.9000      8.0599      2.5914      0.0398      3.5528    110.0486
   618.0000      8.0585      2.5829      0.0454      4.0683    105.4885
   618.1000      8.0585      2.5766      0.0254      4.4472    101.7863
   618.2000      8.0585      2.5703      0.0622      4.8273     98.4449
   618.3000      8.0576      2.5561      0.0101      5.6915     93.5345
   618.4000      8.0576      2.5376      0.0080      6.8116     90.0304
   618.5000      8.0572      2.5292     -0.0058      7.3200     88.5753
   618.6000      8.0572      2.5426     -0.0274      6.5090     87.8001
   618.7000      8.0572      2.5707      0.0304      4.8075     90.0155
   618.8000      8.0577      2.5904      0.0169      3.6091     95.9658
   618.9000      8.0577      2.5905      0.0322      3.6042    100.0127
   619.0000      8.0580      2.5804     -0.0124      4.2156     99.2375
   619.1000      8.0580      2.5716      0.0296      4.7522     96.6396
   619.2000      8.0580      2.5659     -0.0336      5.0944     91.8020
   619.3000      8.0573      2.5706     -0.0126      4.8113     84.5612
   619.4000      8.0573      2.5813      0.0154      4.1614     77.8699
   619.5000      8.0565      2.5799      0.0358      4.2482     71.1015
   619.6000      8.0565      2.5645      0.0172      5.1816     65.7849
   619.7000      8.0565      2.5463      0.0235      6.2831     68.0622
   619.8000      8.0562      2.5401     -0.0476      6.6636     75.2228
   619.9000      8.0562      2.5522      0.0221      5.9286     79.3721
   620.0000      8.0569      2.5639      0.0532      5.2204     82.1089
   620.1000      8.0569      2.5633      0.0052      5.2565     89.3669
   620.2000      8.0569      2.5569      0.0073      5.6399    100.9001
   620.3000      8.0580      2.5440      0.0156      6.4241    111.5963
   620.4000      8.0580      2.5305     -0.0035      7.2427    115.7022
   620.5000      8.0590      2.5349     -0.0249      6.9770    113.0494
   620.6000      8.0590      2.5608      0.0058      5.4059    111.4875
   620.7000      8.0590      2.5915      0.0439      3.5470    115.6423
   620.8000      8.0596      2.6066      0.0568      2.6275    120.5817
   620.9000      8.0596      2.6025      0.0080      2.8764    121.0677
   621.0000      8.0597      2.6019      0.0100      2.9129    118.6289
   621.1000      8.0597      2.6253      0.0578      1.4978    117.3844
   621.2000      8.0597      2.6590      0.0711     -0.5483    119.2755
   621.3000      8.0593      2.6719      0.1237     -1.3253    124.6532
   621.4000      8.0593      2.6585      0.0565     -0.5145    130.1275
   621.5000      8.0580      2.6404      0.0737      0.5790    130.4509
   621.6000      8.0580      2.6190      0.0995      1.8815    126.5211
   621.7000      8.0580      2.5816      0.0089      4.1449    123.4528
   621.8000      8.0571      2.5458     -0.0280      6.3170    125.0351
   621.9000      8.0571      2.5380     -0.0001      6.7857    130.8055
   622.0000      8.0569      2.5569     -0.0001      5.6410    135.4916
   622.1000      8.0569      2.5809      0.0429      4.1907    135.7749
   622.2000      8.0569      2.5935      0.0082      3.4249    131.7208
   622.3000      8.0568      2.5941      0.0400      3.3893    124.4396
   622.4000      8.0568      2.5859      0.0169      3.8870    115.7557
   622.5000      8.0567      2.5741      0.0110      4.6010    106.7084
   622.6000      8.0567      2.5707     -0.0074      4.8037    102.2397
   622.7000      8.0567      2.5815      0.0372      4.1523    103.3653
   622.8000      8.0566      2.5914      0.0246      3.5530    103.9709
   622.9000      8.0566      2.5858      0.0038      3.8926    103.5951
   623.0000      8.0566      2.5708      0.0049      4.8003    105.1998
   623.1000      8.0566      2.5614     -0.0005      5.3708    107.2330
   623.2000      8.0566      2.5631      0.0266      5.2674    109.6231
   623.3000      8.0569      2.5687     -0.0120      4.9289    111.9021
   623.4000      8.0569      2.5710      0.0130      4.7884    110.6056
   623.5000      8.0575      2.5670      0.0001      5.0273    106.7904
   623.6000      8.0575      2.5669     -0.0152      5.0343    104.8368
   623.7000      8.0575      2.5817      0.0206      4.1392    106.4136
   623.8000      8.0601      2.5969      0.0379      3.2207    111.5389
   623.9000      8.0601      2.5942     -0.0056      3.3820    120.7873
   624.0000      8.0621      2.5790     -0.0008      4.3060    128.1090
   624.1000      8.0621      2.5657      0.0030      5.1107    128.5129
   624.2000      8.0621      2.5602      0.0098      5.4454    125.2380
   624.3000      8.0590      2.5565     -0.0141      5.6653    121.3630
   624.4000      8.0590      2.5480     -0.0112      6.1828    119.7074
   624.5000      8.0573      2.5386     -0.0143      6.7506    122.2407
   624.6000      8.0573      2.5375     -0.0251      6.8154    129.3826
