~Version Information
VERS.                      2.0: CWLS Log ASCII Standard - VERSION 2.0
WRAP.                       NO: One line per depth step
~Well Information Block
STRT.FT              1585.0000: 
STOP.FT              2353.0000: 
STEP.FT                 0.2500: 
NULL.                -999.2500: 
COMP.          XTO Energy Inc.: COMPANY
WELL.          Hill Ranch 15-11: WELL
FLD.           Purgatrorie River: FIELD
LOC.           1862' FSL & 1801' FWL: LOCATION
STAT.                       CO: State
CNTY.               Las Animas: COUNTY
CTRY. USA : Country
SECT. 15 : Section
TOWN. 35S : Township
RANG. 67W : Range
SRVC.          Patterson Wireline: SERVICE COMPANY
DATE.          Thu Dec 08 10:20:02 2005: LOG DATE
API.              05 071 08472: UNIQUE WELL ID
~Curve Information Block
DEPT.FT            0 000 00 00: Depth
CCL.                          : Casing Collar Locator
TT3.usec                      : CBL 3' Travel Time
AMP3.mV                       : CBL 3' Amplitude
BONDIX.                       : CBL Bond Index
GR.GAPI                       : Gamma Ray
~Parameter Information Block
~A  Depth       CCL         TT3         AMP3       BONDIX        GR     
# ...
  1669.0000      0.0000    655.8248      2.3769      0.8098    115.7767
  1669.2500      0.0000    668.6639      2.3968      0.8080    122.0933
  1669.5000      0.0000    683.4199      2.3983      0.8078    127.3622
  1669.7500      0.0000    696.0264      2.3786      0.8096    129.3717
  1670.0000      0.0000    703.6353      2.3452      0.8127    128.1917
  1670.2500      0.0000    706.3948      2.3130      0.8158    125.9641
  1670.5000      0.0000    706.9902      2.2947      0.8175    125.0763
  1670.7500      0.0000    708.7100      2.2936      0.8176    126.4373
  1671.0000      0.0000    713.1592      2.3060      0.8164    129.0404
  1671.2500      0.0000    719.1716      2.3268      0.8145    130.6108
  1671.5000      0.0000    724.1719      2.3518      0.8121    129.0077
  1671.7500      0.0000    726.3999      2.3766      0.8098    123.9405
  1672.0000      0.0000    725.6146      2.3953      0.8081    117.6603
  1672.2500      0.0000    722.7286      2.4012      0.8076    113.5979
  1672.5000      0.0000    719.4633      2.3898      0.8086    113.8498
  1672.7500      0.0000    717.3954      2.3612      0.8113    117.7909
  1673.0000      0.0000    716.4604      2.3208      0.8150    123.1673
  1673.2500      0.0000    715.1020      2.2777      0.8192    128.5786
  1673.5000      0.0000    712.5271      2.2406      0.8228    134.7964
  1673.7500      0.0000    709.8927      2.2150      0.8253    143.4600
  1674.0000      0.0000    708.7315      2.2000      0.8268    154.3333
  1674.2500      0.0000    709.4669      2.1896      0.8278    164.1252
  1674.5000      0.0000    712.0170      2.1792      0.8289    168.6197
  1674.7500      0.0000    716.5189      2.1698      0.8298    166.1233
  1675.0000      0.0000    722.6090      2.1666      0.8301    158.5952
  1675.2500      0.0000    728.7497      2.1731      0.8295    149.7100
  1675.5000      0.0000    733.3052      2.1866      0.8281    142.4339
  1675.7500      0.0000    735.9843      2.2020      0.8266    138.1402
  1676.0000      0.0000    737.2236      2.2179      0.8250    136.8549
  1676.2500      0.0000    736.4861      2.2380      0.8230    137.5770
  1676.5000      0.0000    732.7625      2.2646      0.8204    138.5315
  1676.7500      0.0000    726.9424      2.2940      0.8176    137.8884
  1677.0000      0.0000    722.1331      2.3192      0.8152    134.8801
  1677.2500      0.0000    720.8371      2.3356      0.8136    130.0943
  1677.5000      0.0000    722.1265      2.3458      0.8127    124.5435
  1677.7500      0.0000    721.8380      2.3590      0.8115    119.0064
  1678.0000      0.0000    715.7440      2.3824      0.8093    114.4139
  1678.2500      0.0000    703.2204      2.4133      0.8065    111.9976
  1678.5000      0.0000    688.2945      2.4384      0.8042    112.5644
  1678.7500      0.0000    676.8976      2.4448      0.8036    115.9411
  1679.0000      0.0000    672.9978      2.4301      0.8049    121.2358
  1679.2500      0.0000    677.2680      2.4046      0.8072    127.0269
  1679.5000      0.0000    688.2685      2.3840      0.8091    131.0151
  1679.7500      0.0000    703.1743      2.3852      0.8090    130.4343
  1680.0000      0.0000    717.3790      2.4286      0.8051    123.9809
  1680.2500      0.0000    724.9578      2.5373      0.7955    113.3711
  1680.5000      0.0000    720.7260      2.7221      0.7800    102.5453
  1680.7500      0.0000    702.4343      2.9624      0.7614     95.2556
  1681.0000      0.0000    672.2731      3.2064      0.7440     93.0206
  1681.2500      0.0000    637.2744      3.4012      0.7311     94.5029
  1681.5000      0.0000    607.0461      3.5266      0.7231     96.5064
  1681.7500      0.0000    588.9776      3.5994      0.7186     96.2133
  1682.0000      0.0000    585.1389      3.6478      0.7157     93.2446
  1682.2500      0.0000    593.7305      3.6845      0.7135     89.8793
  1682.5000      0.0000    611.3641      3.6989      0.7126     89.1655
  1682.7500      0.0000    632.5480      3.6696      0.7144     92.7509
  1683.0000      0.0000    649.8093      3.5835      0.7196    100.5104
  1683.2500      0.0000    657.7305      3.4500      0.7279    111.7725
  1683.5000      0.0000    656.9892      3.2939      0.7381    126.0230
  1683.7500      0.0000    653.3214      3.1356      0.7489    142.2361
  1684.0000      0.0000    652.3202      2.9835      0.7599    158.3289
  1684.2500      0.0000    655.1852      2.8433      0.7704    171.8716
  1684.5000      0.0000    659.2367      2.7234      0.7799    181.2033
  1684.7500      0.0000    662.3683      2.6260      0.7879    185.7146
  1685.0000     -2.0000    666.5013      2.5432      0.7949    185.5067
  1685.2500      2.0000    675.7400      2.4690      0.8014    181.4085
  1685.5000      0.0000    691.2603      2.4111      0.8067    175.3134
  1685.7500      0.0000    709.4552      2.3839      0.8091    169.7770
  1686.0000      0.0000    725.5101      2.3909      0.8085    166.5423
  1686.2500      0.0000    736.8351      2.4157      0.8062    165.3139
  1686.5000      0.0000    742.0223      2.4349      0.8045    163.9431
  1686.7500      0.0000    739.4003      2.4410      0.8039    159.8964
  1687.0000      0.0000    729.3201      2.4517      0.8030    152.0385
  1687.2500      0.0000    715.7764      2.5012      0.7986    141.5892
  1687.5000      0.0000    702.9678      2.6171      0.7886    131.4101
  1687.7500      0.0000    691.1364      2.8008      0.7737    124.1543
  1688.0000      0.0000    677.8470      3.0218      0.7571    120.8429
  1688.2500      0.0000    662.9254      3.2375      0.7419    120.6181
  1688.5000      0.0000    650.5085      3.4277      0.7294    121.3635
  1688.7500      0.0000    645.9122      3.6109      0.7179    120.8788
  1689.0000      0.0000    651.2263      3.8176      0.7057    118.3206
  1689.2500      0.0000    664.3211      4.0337      0.6936    114.9220
  1689.5000      0.0000    681.3480      4.1783      0.6859    113.3038
  1689.7500      0.0000    698.8271      4.1554      0.6871    115.7782
  1690.0000      0.0000    713.5196      3.9373      0.6989    122.9580
  1690.2500      0.0000    722.4745      3.5887      0.7193    133.8197
  1690.5000      0.0000    724.7013      3.2158      0.7434    146.8480
  1690.7500      0.0000    722.4627      2.9030      0.7659    160.6800
  1691.0000      0.0000    720.4136      2.6913      0.7825    173.6307
  1691.2500      0.0000    723.9116      2.5898      0.7909    183.2491
  1691.5000      0.0000    737.7778      2.5889      0.7910    187.2159
  1691.7500      0.0000    764.1115      2.6664      0.7845    185.3929
  1692.0000      0.0000    798.9936      2.7910      0.7745    180.8285
  1692.2500      0.0000    832.3969      2.9307      0.7638    177.7816
  1692.5000      0.0000    853.8939      3.0627      0.7541    178.2922
  1692.7500      0.0000    858.5761      3.1754      0.7462    180.8686
  1693.0000      0.0000    847.2540      3.2609      0.7403    182.3208
  1693.2500      0.0000    823.9796      3.3104      0.7370    180.6402
  1693.5000      0.0000    795.5847      3.3150      0.7367    176.7234
  1693.7500      0.0000    770.7953      3.2725      0.7395    173.6419
  1694.0000      0.0000    755.9180      3.1905      0.7451    173.6752
  1694.2500      0.0000    750.7443      3.0865      0.7524    175.8122
  1694.5000      0.0000    749.5802      2.9812      0.7600    176.7400
  1694.7500      0.0000    746.5371      2.8916      0.7667    174.3024
  1695.0000      0.0000    739.9265      2.8280      0.7716    169.3964
  1695.2500      0.0000    732.1378      2.7987      0.7739    164.7412
  1695.5000      0.0000    726.0006      2.8106      0.7730    162.6308
  1695.7500      0.0000    721.9298      2.8632      0.7689    163.6618
  1696.0000      0.0000    718.5818      2.9400      0.7631    166.6670
  1696.2500      0.0000    715.4753      3.0117      0.7578    169.6141
  1696.5000      0.0000    714.2062      3.0547      0.7547    170.7553
  1696.7500      0.0000    717.2156      3.0636      0.7540    169.1589
