~Version Information
VERS.                      2.0: CWLS Log ASCII Standard - VERSION 2.0
WRAP.                       NO: One line per depth step
~Well Information Block
STRT.FT               800.0000: 
STOP.FT              3500.0000: 
STEP.FT                 0.2500: 
NULL.                -999.2500: 
COMP.          Pioneer Natural Resources: COMPANY
WELL.          Cordillera 34-7: WELL
FLD.           Purgatoire River: FIELD
LOC.           598' FSL & 1770' FEL--: LOCATION
PROV.                 Colorado: PROVINCE
CNTY.               Las Animas: COUNTRY
SRVC.                Patterson: SERVICE COMPANY
DATE.          Thu Oct 27 20:08:30 2005: LOG DATE
UWI.           05 071 08552 00: UNIQUE WELL ID
~Curve Information Block
DEPT.FT            0 000 00 00: Depth
SN.Ohm-m                      : IEL Short Normal
SP.mV                         : IEL Spontaneous Potential
DIR.Ohm-m                     : IEL Induction Resistivity
GR.GAPI                       : Gamma Ray
~Parameter Information Block
~A  Depth        SN          SP         DIR          GR     
# ...
  2944.0000     12.2733    174.8282     12.5761    142.4539
  2944.2500     12.3483    175.0310     12.5549    139.4814
  2944.5000     12.5545    175.2254     12.5937    133.2596
  2944.7500     12.8802    175.3615     12.6891    128.7361
  2945.0000     13.3044    175.4222     12.8353    121.9377
  2945.2500     13.7906    175.4055     13.0260    117.2068
  2945.5000     14.3113    175.2988     13.2563    109.3271
  2945.7500     14.8658    175.0866     13.5239    103.6006
  2946.0000     15.4696    174.7865     13.8265     95.1073
  2946.2500     16.1197    174.4700     14.1596     90.0806
  2946.5000     16.7603    174.2270     14.5151     83.9889
  2946.7500     17.2971    174.0954     14.8832     80.9412
  2947.0000     17.6630    174.0209     15.2570     78.0887
  2947.2500     17.8656    173.8941     15.6353     77.5463
  2947.5000     17.9644    173.6329     16.0218     78.8446
  2947.7500     18.0171    173.2377     16.4187     80.7489
  2948.0000     18.0621    172.7789     16.8209     83.6133
  2948.2500     18.1302    172.3462     17.2146     84.2060
  2948.5000     18.2486    172.0049     17.5840     81.2003
  2948.7500     18.4350    171.7737     17.9198     76.4706
  2949.0000     18.6979    171.6098     18.2232     67.1399
  2949.2500     19.0458    171.4198     18.5014     60.9832
  2949.5000     19.5028    171.1192     18.7613     53.3863
  2949.7500     20.1247    170.7110     19.0059     49.2535
  2950.0000     20.9578    170.3035     19.2360     43.3189
  2950.2500     21.9461    170.0345     19.4514     39.1967
  2950.5000     22.9103    169.9687     19.6508     33.2827
  2950.7500     23.6581    170.0733     19.8283     30.1210
  2951.0000     24.1041    170.2908     19.9712     27.2089
  2951.2500     24.2727    170.6102     20.0631     26.5074
  2951.5000     24.2180    171.0410     20.0899     27.0669
  2951.7500     23.9691    171.5353     20.0450     28.4730
  2952.0000     23.5307    171.9802     19.9320     32.4346
  2952.2500     22.9134    172.2884     19.7629     36.5163
  2952.5000     22.1627    172.4775     19.5546     44.5655
  2952.7500     21.3600    172.6417     19.3265     50.6183
  2953.0000     20.5964    172.8631     19.0987     59.6635
  2953.2500     19.9484    173.1604     18.8903     65.5837
  2953.5000     19.4593    173.4982     18.7182     75.0648
  2953.7500     19.1230    173.8178     18.5936     82.0563
  2954.0000     18.8931    174.0674     18.5210     92.3272
  2954.2500     18.7326    174.2261     18.4983     97.3505
  2954.5000     18.6524    174.3111     18.5198     99.3203
  2954.7500     18.6934    174.3589     18.5789     96.3797
  2955.0000     18.8844    174.3913     18.6713     87.0599
  2955.2500     19.2258    174.3949     18.7959     79.1998
  2955.5000     19.6953    174.3379     18.9565     67.5111
  2955.7500     20.2508    174.2072     19.1603     60.7309
  2956.0000     20.8386    174.0262     19.4112     52.6981
  2956.2500     21.4116    173.8364     19.7019     48.7098
  2956.5000     21.9345    173.6658     20.0083     44.3019
  2956.7500     22.3660    173.5201     20.2903     42.0689
  2957.0000     22.6584    173.4008     20.4972     39.3188
  2957.2500     22.7766    173.3204     20.5753     37.8470
  2957.5000     22.7036    173.2876     20.4762     36.6208
  2957.7500     22.4290    173.2823     20.1684     36.7744
  2958.0000     21.9312    173.2574     19.6490     38.3574
  2958.2500     21.1702    173.1726     18.9483     39.7693
  2958.5000     20.1223    173.0281     18.1247     41.4958
  2958.7500     18.8381    172.8696     17.2488     42.4408
  2959.0000     17.4564    172.7656     16.3845     44.9042
  2959.2500     16.1455    172.7798     15.5764     48.4206
  2959.5000     15.0123    172.9477     14.8454     58.2258
  2959.7500     14.0701    173.2641     14.1934     68.1175
  2960.0000     13.2790    173.6806     13.6121     86.8114
  2960.2500     12.5993    174.1191     13.0919    100.2638
  2960.5000     12.0201    174.4936     12.6283    118.7982
  2960.7500     11.5499    174.7398     12.2252    128.7143
  2961.0000     11.1919    174.8403     11.8920    139.1213
  2961.2500     10.9475    174.8319     11.6399    143.3048
  2961.5000     10.8203    174.7846     11.4766    146.3490
  2961.7500     10.8038    174.7627     11.4035    146.9901
  2962.0000     10.8765    174.7872     11.4155    147.6540
  2962.2500     11.0151    174.8170     11.5027    148.7737
  2962.5000     11.2066    174.7722     11.6532    151.2795
  2962.7500     11.4562    174.5967     11.8563    152.1399
  2963.0000     11.7880    174.3135     12.1042    148.9362
  2963.2500     12.2288    174.0159     12.3912    142.4653
  2963.5000     12.7956    173.8061     12.7118    126.3817
  2963.7500     13.4930    173.7419     13.0596    112.7866
  2964.0000     14.2885    173.8105     13.4292     91.2761
  2964.2500     15.0947    173.9189     13.8184     77.8260
  2964.5000     15.8089    173.9281     14.2286     61.0036
  2964.7500     16.3670    173.7484     14.6615     52.7531
  2965.0000     16.7469    173.4207     15.1143     45.1368
  2965.2500     16.9422    173.0905     15.5740     42.7766
  2965.5000     16.9606    172.8999     16.0168     41.8005
  2965.7500     16.8437    172.9096     16.4123     41.9308
  2966.0000     16.6666    173.0968     16.7339     42.1780
  2966.2500     16.5092    173.3906     16.9691     42.1440
  2966.5000     16.4221    173.7053     17.1244     42.1505
  2966.7500     16.4113    173.9720     17.2229     42.6708
  2967.0000     16.4637    174.1618     17.2957     52.3949
  2967.2500     16.5747    174.2828     17.3729     55.3488
  2967.5000     16.7434    174.3530     17.4774     61.0174
  2967.7500     16.9616    174.3785     17.6232     65.0133
  2968.0000     17.2148    174.3519     17.8178     81.2293
  2968.2500     17.4827    174.2589     18.0662     84.1286
  2968.5000     17.7605    174.0841     18.3708     87.0580
  2968.7500     18.0846    173.8135     18.7268     88.6327
  2969.0000     18.5054    173.4366     19.1169     90.9556
  2969.2500     19.0254    172.9558     19.5118     92.0870
  2969.5000     19.5903    172.4048     19.8801     91.6074
  2969.7500     20.1441    171.8530     20.2037     88.9676
  2970.0000     20.6657    171.3672     20.4854     81.1079
  2970.2500     21.1585    170.9564     20.7426     74.0206
  2970.5000     21.6341    170.5718     20.9885     63.4632
  2970.7500     22.1012    170.1692     21.2165     58.2840
  2971.0000     22.5500    169.7527     21.3985     54.7841
  2971.2500     22.9486    169.3586     21.5014     54.7575
  2971.5000     23.2581    169.0244     21.5083     55.7899
  2971.7500     23.4481    168.7836     21.4299     56.0016
  2972.0000     23.5003    168.6637     21.2990     55.1882
  2972.2500     23.4060    168.6764     21.1559     54.4095
  2972.5000     23.1693    168.8181     21.0363     53.8113
  2972.7500     22.8197    169.0808     20.9625     54.0009
  2973.0000     22.4188    169.4523     20.9414     55.2609
  2973.2500     22.0369    169.8983     20.9634     56.8096
  2973.5000     21.7141    170.3530     21.0072     60.1106
  2973.7500     21.4496    170.7265     21.0448     62.7335
  2974.0000     21.2258    170.9251     21.0491     66.8008
  2974.2500     21.0383    170.8773     21.0011     69.2842
  2974.5000     20.9089    170.5552     20.8958     71.8563
  2974.7500     20.8715    169.9817     20.7439     72.2342
  2975.0000     20.9511    169.2278     20.5667     70.4001
  2975.2500     21.1523    168.4068     20.3903     67.9945
  2975.5000     21.4486    167.6553     20.2394     63.9883
  2975.7500     21.7829    167.0891     20.1325     61.6725
  2976.0000     22.0854    166.7463     20.0785     59.0202
  2976.2500     22.2915    166.5640     20.0757     57.7195
  2976.5000     22.3559    166.4218     20.1138     56.4080
  2976.7500     22.2668    166.2298     20.1774     56.0223
  2977.0000     22.0575    165.9919     20.2489     56.4732
  2977.2500     21.7979    165.7889     20.3104     57.8226
