~Version Information
VERS.                      2.0: CWLS Log ASCII Standard - VERSION 2.0
WRAP.                       NO: One line per depth step
~Well Information Block
STRT.FT                -7.7500: 
STOP.FT              1420.5000: 
STEP.FT                 0.2500: 
NULL.                -999.2500: 
COMP.          Pioneer Natural Resources: COMPANY
WELL.          Parklane 43-34 Tr: WELL
FLD.           Purgatorie River: FIELD
LOC.           1643' FSL & 966' FEL--: LOCATION
PROV.                       CO: PROVINCE
CNTY.               Las Animas: COUNTRY
SRVC.          Patterson Wireline: SERVICE COMPANY
DATE.          Tue Aug 02 11:35:27 2005: LOG DATE
UWI.           05 071 08452 00: UNIQUE WELL ID
~Curve Information Block
DEPT.FT            0 000 00 00: Depth
CCL.                          : Casing Collar Locator
TT3.usec                      : CBL 3' Travel Time
AMP3.mV                       : CBL 3' Amplitude
GR.GAPI                       : Gamma Ray
~Parameter Information Block
~A  Depth       CCL         TT3         AMP3         GR     
# ...
   729.2500      0.0000    853.7950     11.6016    128.7844
   729.5000      0.0000    850.8113     11.7167    126.9647
   729.7500      0.0000    849.4056     11.8678    125.1392
   730.0000      0.0000    848.5031     12.0376    123.8328
   730.2500      0.0000    847.7435     12.2115    122.8254
   730.5000      0.0000    847.0856     12.3732    121.6789
   730.7500      0.0000    846.5739     12.5061    120.0027
   731.0000      0.0000    846.2853     12.5994    117.6277
   731.2500      0.0000    846.2883     12.6467    114.9236
   731.5000      0.0000    846.5996     12.6446    112.5107
   731.7500      0.0000    847.2867     12.5932    110.4889
   732.0000      0.0000    848.8757     12.4981    108.5026
   732.2500      0.0000    853.0187     12.3683    106.7275
   732.5000      0.0000    862.6832     12.2142    106.2237
   732.7500      0.0000    880.5824     12.0460    107.9209
   733.0000      0.0000    905.8678     11.8724    111.6124
   733.2500      0.0000    931.9295     11.6965    116.2793
   733.5000      0.0000    948.6678     11.5154    121.0102
   733.7500      0.0000    948.5109     11.3278    125.1950
   734.0000      0.0000    931.3509     11.1412    128.2452
   734.2500      0.0000    904.2859     10.9710    129.7086
   734.5000      0.0000    876.4847     10.8339    129.4362
   734.7500      0.0000    853.6638     10.7428    127.2862
   735.0000      0.0000    836.7364     10.7026    123.0300
   735.2500      0.0000    824.4191     10.7099    116.8286
   735.5000      0.0000    815.7970     10.7541    109.7415
   735.7500      0.0000    810.6642     10.8195    103.7710
   736.0000      0.0000    808.9211     10.8878    101.0149
   736.2500      0.0000    810.4766     10.9434    102.0181
   736.5000      0.0000    815.2552     10.9817    104.9599
   736.7500      0.0000    822.6654     11.0091    107.1166
   737.0000      0.0000    831.1331     11.0352    107.0841
   737.2500      0.0000    838.6166     11.0660    105.1390
   737.5000      0.0000    843.7916     11.1032    101.9716
   737.7500      0.0000    846.6246     11.1483     98.0289
   738.0000      0.0000    847.8885     11.2060     93.9083
   738.2500      0.0000    848.3774     11.2836     90.4033
   738.5000      0.0000    848.5548     11.3839     87.8463
   738.7500      0.0000    848.6111     11.4980     85.8676
   739.0000      0.0000    848.6068     11.6086     84.1637
   739.2500      0.0000    848.5192     11.6997     83.3250
   739.5000      0.0000    848.1771     11.7630     84.4285
   739.7500      0.0000    847.1136     11.7955     87.5547
   740.0000      0.0000    844.5193     11.7952     91.0900
   740.2500      0.0000    839.5909     11.7611     92.9852
   740.5000      0.0000    832.2477     11.6985     92.4531
   740.7500      0.0000    823.4943     11.6207     90.0196
   741.0000      0.0000    814.6887     11.5430     86.4145
   741.2500      0.0000    806.3121     11.4758     82.1866
   741.5000      0.0000    797.8076     11.4252     78.1629
   741.7500      0.0000    788.9368     11.3967     75.4210
   742.0000      0.0000    780.9923     11.3927     74.5279
   742.2500      0.0000    776.1179     11.4039     75.1265
   742.5000      0.0000    775.3472     11.4098     76.2768
   742.7500      0.0000    777.5547     11.3906     76.9371
   743.0000      0.0000    780.1837     11.3406     76.3239
   743.2500      0.0000    780.6996     11.2692     74.2761
   743.5000      0.0000    777.8333     11.1888     71.3560
   743.7500      0.0000    772.2426     11.1016     68.4998
   744.0000      0.0000    766.0001     11.0043     66.5704
   744.2500      0.0000    761.0872     10.9077     66.1126
   744.5000      0.0000    758.4054     10.8462     67.2297
   744.7500      0.0000    758.1984     10.8576     69.5394
   745.0000      0.0000    761.0848     10.9532     72.3774
   745.2500      0.0000    768.6199     11.1100     75.2173
   745.5000      0.0000    783.3754     11.2898     77.8584
   745.7500      0.0000    808.9397     11.4668     80.0738
   746.0000      0.0000    849.0359     11.6391     81.2597
   746.2500      0.0000    904.4182     11.8127     80.8582
   746.5000      0.0000    969.2411     11.9759     79.3499
   746.7500      0.0000   1031.6979     12.0946     78.5524
   747.0000      0.0000   1080.2983     12.1403     80.4642
   747.2500      0.0000   1110.3895     12.1172     85.5084
   747.5000      0.0000   1125.1564     12.0597     91.8771
   747.7500      0.0000   1131.3790     12.0054     96.6574
   748.0000      0.0000   1134.3457     11.9755     97.7365
   748.2500      0.0000   1135.3833     11.9736     95.1104
   748.5000      0.0000   1132.1718     11.9929     90.8963
   748.7500      0.0000   1120.4084     12.0216     87.9511
   749.0000      0.0000   1096.4448     12.0461     87.9373
   749.2500      0.0000   1060.8522     12.0546     90.3464
   749.5000      0.0000   1020.2774     12.0413     93.1377
   749.7500      0.0000    984.3161     12.0085     94.1746
   750.0000      0.0000    959.4228     11.9672     92.4411
   750.2500      0.0000    945.9002     11.9317     88.4897
   750.5000      0.0000    940.0859     11.9119     83.8241
   750.7500      0.0000    938.0845     11.9081     79.5619
   751.0000      0.0000    937.5421     11.9135     75.7959
   751.2500      0.0000    937.4428     11.9206     72.4365
   751.5000      0.0000    937.4337     11.9266     70.3727
   751.7500      0.0000    937.4671     11.9341     71.3148
   752.0000      0.0000    937.8459     11.9476     76.3269
   752.2500      0.0000    939.6155     11.9682     84.4866
   752.5000      0.0000    945.1839     11.9911     92.9671
   752.7500      0.0000    958.2118     12.0082     98.4812
   753.0000      0.0000    981.0140     12.0093     98.8604
   753.2500      0.0000   1009.4855     11.9826     93.7447
   753.5000      0.0000   1030.4205     11.9201     84.4208
   753.7500      0.0000   1027.4618     11.8279     73.3434
   754.0000      0.0000    993.8699     11.7291     63.5189
   754.2500      0.0000    940.2385     11.6522     57.5448
   754.5000      0.0000    887.8087     11.6128     56.4675
   754.7500      0.0000    853.0198     11.6009     59.3369
   755.0000      0.0000    838.0780     11.5822     64.0432
   755.2500      0.0000    834.5565     11.5192     68.9239
   755.5000      0.0000    833.4783     11.3982     73.8158
   755.7500      0.0000    831.6959     11.2374     79.5903
   756.0000      0.0000    830.8535     11.0682     86.6895
   756.2500      0.0000    832.4425     10.9103     94.3048
   756.5000      0.0000    834.8229     10.7663    100.9628
   756.7500      0.0000    834.6906     10.6356    105.6995
   757.0000      0.0000    830.4054     10.5318    108.6969
   757.2500      0.0000    823.2868     10.4849    111.1067
   757.5000      0.0000    816.1136     10.5214    114.3153
   757.7500      0.0000    810.8984     10.6396    118.9738
   758.0000      0.0000    807.9930     10.8047    124.4384
   758.2500      0.0000    806.6865     10.9711    129.3240
   758.5000      0.0000    806.1228     11.1055    132.6889
   758.7500      0.0000    805.7115     11.1944    134.3852
   759.0000      0.0000    805.1075     11.2377    134.3561
   759.2500      0.0000    804.3150     11.2390    132.3367
   759.5000      0.0000    804.0401     11.1985    128.4143
   759.7500      0.0000    805.6124     11.1150    123.2974
   760.0000      0.0000    809.8106     10.9996    117.9337
   760.2500      0.0000    815.6633     10.8843    113.4562
   760.5000      0.0000    821.2542     10.8094    111.3954
   760.7500      0.0000    825.9108     10.7959    113.0199
   761.0000      0.0000    830.6329     10.8310    118.0310
   761.2500      0.0000    836.1675     10.8808    124.3335
   761.5000      0.0000    841.7341     10.9201    129.4431
   761.7500      0.0000    845.9865     10.9508    132.0917
   762.0000      0.0000    848.4117     10.9906    132.5342
   762.2500      0.0000    849.4550     11.0513    131.5959
   762.5000      0.0000    849.8057     11.1317    129.7603
