~Version Information
VERS.                      2.0: CWLS Log ASCII Standard - VERSION 2.0
WRAP.                       NO: One line per depth step
~Well Information Block
STRT.FT                -5.5000: 
STOP.FT              2262.7500: 
STEP.FT                 0.2500: 
NULL.                -999.2500: 
COMP.          Pioneer Natural Resources: COMPANY
WELL.             Baa Baa 34-1: WELL
FLD.           Purgatorie River: FIELD
LOC.           617' FSL & 2289' FEL------: LOCATION
STAT.                       CO: State
CNTY.               Las Animas: COUNTY
CTRY. USA : Country
SECT. 1 : Section
TOWN. 33S : Township
RANG. 67W : Range
SRVC.          Patterson Wireline: SERVICE COMPANY
DATE.          Mon Sep 12 14:08:52 2005: LOG DATE
API.           05 071 08502 00: UNIQUE WELL ID
~Curve Information Block
DEPT.FT            0 000 00 00: Depth
LTEN.lb                       : Surface Line Tension
CCL.                          : Casing Collar Locator
TT3.usec                      : CBL 3' Travel Time
AMP3.mV                       : CBL 3' Amplitude
GR.GAPI                       : Gamma Ray
~Parameter Information Block
~A  Depth       LTEN        CCL         TT3         AMP3         GR     
    -5.5000   -999.2500   -999.2500   -999.2500   -999.2500     46.1277
    -5.2500   -999.2500   -999.2500   -999.2500   -999.2500     46.6553
    -5.0000   -999.2500   -999.2500   -999.2500   -999.2500     48.4793
    -4.7500   -999.2500   -999.2500   -999.2500   -999.2500     51.0210
    -4.5000   -999.2500   -999.2500   -999.2500   -999.2500     54.1692
    -4.2500   -999.2500   -999.2500   -999.2500   -999.2500     57.9614
    -4.0000   -999.2500   -999.2500   -999.2500   -999.2500     62.1605
    -3.7500   -999.2500   -999.2500   -999.2500   -999.2500     66.1841
    -3.5000   -999.2500   -999.2500   -999.2500   -999.2500     69.2636
    -3.2500   -999.2500   -999.2500   -999.2500   -999.2500     70.7108
    -3.0000   -999.2500   -999.2500   -999.2500   -999.2500     70.3564
    -2.7500   -999.2500   -999.2500   -999.2500   -999.2500     69.0334
    -2.5000   -999.2500   -999.2500   -999.2500   -999.2500     68.5313
    -2.2500   -999.2500   -999.2500   -999.2500   -999.2500     70.4112
    -2.0000   -999.2500   -999.2500   -999.2500   -999.2500     74.2790
    -1.7500   -999.2500   -999.2500   -999.2500   -999.2500     77.4995
    -1.5000   -999.2500   -999.2500   -999.2500   -999.2500     77.2847
    -1.2500   -999.2500   -999.2500   -999.2500   -999.2500     73.2543
    -1.0000   -999.2500   -999.2500   -999.2500   -999.2500     67.8271
    -0.7500   -999.2500   -999.2500   -999.2500   -999.2500     64.1508
    -0.5000   -999.2500   -999.2500   1149.0000      0.5516     63.5335
    -0.2500   -999.2500   -999.2500   1149.0000      0.5566     64.5380
     0.0000   -999.2500   -999.2500   1149.0000      0.5564     64.5579
     0.2500   -999.2500   -999.2500   1149.0000      0.5436     59.4864
     0.5000   -999.2500   -999.2500   1149.0000      0.5374     57.9460
     0.7500   -999.2500   -999.2500   1149.0000      0.5330     59.1873
     1.0000   -999.2500   -999.2500   1149.0000      0.5322     62.9719
     1.2500   -999.2500   -999.2500   1149.0000      0.5393     67.7689
     1.5000   -999.2500   -999.2500   1149.0000      0.5563     71.5419
     1.7500   -999.2500   -999.2500   1149.0000      0.5782     72.7515
     2.0000   -999.2500   -999.2500   1149.0000      0.5955     71.0735
     2.2500   -999.2500   -999.2500   1149.0000      0.6009     67.4030
     2.5000   -999.2500   -999.2500   1149.0000      0.5936     63.3140
     2.7500   -999.2500   -999.2500   1149.0000      0.5792     60.3198
     3.0000   -999.2500   -999.2500   1149.0000      0.5649     59.1797
     3.2500   -999.2500   -999.2500   1149.0000      0.5562     59.4931
     3.5000   -999.2500   -999.2500   1149.0000      0.5555     59.9175
     3.7500   -999.2500   -999.2500   1149.0000      0.5602     59.0802
     4.0000   -999.2500   -999.2500   1149.0000      0.5640     56.5797
     4.2500   -999.2500   -999.2500   1149.0000      0.5617     53.1081
     4.5000   -999.2500   -999.2500   1149.0000      0.5531     49.5998
     4.7500   -999.2500      2.0000   1149.0000      0.5433     46.3556
     5.0000   -999.2500     -2.0000   1149.0000      0.5375     43.0214
     5.2500   -999.2500      0.0000   1149.0000      0.5355     39.3338
     5.5000   -999.2500      2.0000   1149.0000      0.5340     35.7845
     5.7500  -4533.1958     -2.0000   1149.0000      0.5308     33.3917
     6.0000  -4530.5317      0.0000   1149.0000      0.5274     32.8710
     6.2500  -4534.5283      2.0000   1149.0000      0.5266     34.2372
     6.5000  -4535.8604      0.0000   1149.0000      0.5290     37.0806
     6.7500  -4533.1958      0.0000   1149.0000      0.5318     40.8283
     7.0000  -4534.5283      0.0000   1149.0000      0.5304     44.7922
     7.2500  -4529.1997      0.0000   1149.0000      0.5219     48.3571
     7.5000  -4534.5283      0.0000   1149.0000      0.5079     51.2461
     7.7500  -4537.1924      0.0000   1149.0000      0.4952     53.4270
     8.0000  -4539.8569     -2.0000   1149.0000      0.4918     54.8519
     8.2500  -4541.1890      0.0000   1149.0000      0.5009     55.4691
     8.5000  -4535.8604      0.0000   1149.0000      0.5185     55.5335
     8.7500  -4538.5244      0.0000   1149.0000      0.5366     55.7606
     9.0000  -4531.8638      0.0000   1149.0000      0.5492     56.8457
     9.2500  -4538.5244      0.0000   1149.0000      0.5547     58.7023
     9.5000  -4534.5283      0.0000   1149.0000      0.5542     60.5146
     9.7500  -4533.1958      0.0000   1149.0000      0.5497     61.7116
    10.0000  -4534.5283      0.0000   1149.0000      0.5442     62.6783
    10.2500  -4534.5283      0.0000   1149.0000      0.5405     64.3702
    10.5000  -4534.5283      0.0000   1149.0000      0.5409     67.3073
    10.7500  -4535.8604      0.0000   1149.0000      0.5458     71.1129
    11.0000  -4534.5283      0.0000   1149.0000      0.5533     75.0468
    11.2500  -4539.8569      0.0000   1149.0000      0.5600     78.7334
    11.5000  -4533.1958      0.0000   1149.0000      0.5627     82.1224
    11.7500  -4535.8604      0.0000   1149.0000      0.5600     84.8641
    12.0000  -4538.5244      0.0000   1149.0000      0.5529     86.0927
    12.2500  -4538.5244      0.0000   1149.0000      0.5442     84.9819
    12.5000  -4537.1924      0.0000   1149.0000      0.5362     81.5063
    12.7500  -4527.8677      2.0000   1149.0000      0.5292     76.6954
    13.0000  -4533.1958      0.0000   1149.0000      0.5232     72.1638
    13.2500  -4531.8638      0.0000   1149.0000      0.5194     69.1943
    13.5000  -4533.1958      0.0000   1149.0000      0.5208     67.9981
    13.7500  -4535.8604      0.0000   1148.9615      0.5292     67.7756
    14.0000  -4533.1958      0.0000   1148.6902      0.5487     67.5440
    14.2500  -4530.5317      0.0000   1147.2820      0.6021     66.8912
    14.5000  -4530.5317      0.0000   1141.5587      0.7931     66.0654
    14.7500  -4538.5244      0.0000   1123.3235      1.4422     65.6631
    15.0000  -4531.8638      0.0000   1077.7113      3.2696     66.3760
    15.2500  -4533.1958      0.0000    988.0153      7.3909     68.7868
    15.5000  -4535.8604      0.0000    849.1359     14.7558     72.9493
    15.7500  -4538.5244      0.0000    679.5828     25.1245     77.9994
    16.0000  -4534.5283      0.0000    516.1490     36.5801     82.3748
    16.2500  -4534.5283      0.0000    391.6429     46.4800     84.6346
    16.5000  -4535.8604      0.0000    316.6326     53.1475     84.1979
    16.7500  -4531.8638      0.0000    280.8909     56.6275     81.5271
    17.0000  -4537.1924      0.0000    267.4293     58.0202     77.8919
    17.2500  -4531.8638      0.0000    263.4290     58.4385     74.9608
    17.5000  -4537.1924      0.0000    262.4958     58.5313     74.0973
    17.7500  -4539.8569      0.0000    262.3275     58.5547     75.4155
    18.0000  -4533.1958      0.0000    262.3120     58.5765     77.5106
    18.2500  -4533.1958      0.0000    262.3294     58.5949     78.6810
    18.5000  -4533.1958      0.0000    262.4138     58.5739     78.5593
    18.7500  -4537.1924      0.0000    262.7437     58.4311     78.0357
    19.0000  -4534.5283      0.0000    263.7897     58.0025     77.6567
    19.2500  -4533.1958      0.0000    266.4527     57.0141     76.8652
    19.5000  -4530.5317      0.0000    272.2671     55.1355     74.9663
    19.7500  -4530.5317      0.0000    284.0764     52.1409     72.1324
    20.0000  -4537.1924      0.0000    307.7587     48.0671     69.1498
    20.2500  -4534.5283      0.0000    353.3904     43.2216     66.6711
    20.5000  -4535.8604      0.0000    431.2746     38.0433     65.0197
    20.7500  -4537.1924      0.0000    541.9136     32.9529     64.2387
    21.0000  -4534.5283      0.0000    669.4607     28.2673     63.9859
    21.2500  -4539.8569      0.0000    789.1663     24.1601     63.8268
    21.5000  -4531.8638      0.0000    882.9510     20.6615     63.8748
    21.7500  -4535.8604      0.0000    946.7109     17.7102     64.6786
    22.0000  -4531.8638      0.0000    985.2854     15.2269     66.2719
    22.2500  -4533.1958      0.0000   1005.4587     13.1564     67.8566
