~Version Information
VERS.                      2.0: CWLS Log ASCII Standard - VERSION 2.0
WRAP.                       NO: One line per depth step
~Well Information Block
STRT.FT                 0.0000: 
STOP.FT              1923.5000: 
STEP.FT                 0.2500: 
NULL.                -999.2500: 
COMP.          Petrogulf Corporation: COMPANY
WELL.            Montoya 7-14R: WELL
FLD.           Purgatorie River: FIELD
LOC.           628' FSL & 454' FWL: LOCATION
STAT.                 Colorado: State
CNTY.               Las Animas: COUNTY
CTRY. USA : Country
SECT. 7 : Section
TOWN. 33S : Township
RANG. 67W : Range
SRVC.                Patterson: SERVICE COMPANY
DATE.          Wed Nov 09 12:02:27 2005: LOG DATE
API. 05-071-08554                         : UNIQUE WELL ID
~Curve Information Block
DEPT.FT            0 000 00 00: Depth
CCL.                          : Casing Collar Locator
TT3.usec                      : CBL 3' Travel Time
AMP3.mV                       : CBL 3' Amplitude
GR.GAPI                       : Gamma Ray
~Parameter Information Block
~A  Depth       CCL         TT3         AMP3         GR     
# ...
  1373.5000      0.0000    336.5218     12.6396     80.9507
  1373.7500      0.0000    344.9453     11.9213     75.3235
  1374.0000      0.0000    353.1809     11.6384     69.3857
  1374.2500      0.0000    357.7395     11.5287     64.1710
  1374.5000      0.0000    360.3208     11.3464     60.8914
  1374.7500      0.0000    366.1873     11.0291     59.4730
  1375.0000      0.0000    380.8931     10.7026     58.8044
  1375.2500      0.0000    413.4330     10.4757     57.9938
  1375.5000      0.0000    469.5708     10.2727     56.9046
  1375.7500      0.0000    535.4186      9.8902     55.7145
  1376.0000      0.0000    586.3706      9.2189     54.4605
  1376.2500      0.0000    615.6743      8.3836     53.1107
  1376.5000      0.0000    636.6084      7.6260     51.9159
  1376.7500      0.0000    658.9339      7.0793     51.6801
  1377.0000      0.0000    676.9211      6.7092     53.7421
  1377.2500      0.0000    685.0471      6.4407     59.5630
  1377.5000      0.0000    691.5117      6.2765     69.9016
  1377.7500      0.0000    704.8274      6.2607     83.9578
  1378.0000      0.0000    721.2452      6.3643     99.3353
  1378.2500      0.0000    732.4949      6.4652    113.1680
  1378.5000      0.0000    733.4693      6.4677    123.5213
  1378.7500      0.0000    721.6257      6.4144    130.0270
  1379.0000      0.0000    701.0992      6.4406    133.6605
  1379.2500      0.0000    685.0309      6.6577    136.0294
  1379.5000      0.0000    684.7797      7.0861    138.4766
  1379.7500      0.0000    698.6346      7.6293    141.5070
  1380.0000      0.0000    711.4862      8.1591    145.0206
  1380.2500      0.0000    708.6490      8.6398    148.8927
  1380.5000      0.0000    692.2245      9.0558    152.9521
  1380.7500      0.0000    675.8248      9.3020    156.3404
  1381.0000      0.0000    667.0681      9.2851    157.4224
  1381.2500      0.0000    664.2776      9.0625    154.9228
  1381.5000      0.0000    663.7706      8.8479    149.2458
  1381.7500      0.0000    663.6103      8.8629    142.4422
  1382.0000      0.0000    663.2552      9.1338    136.8711
  1382.2500      0.0000    662.8094      9.4730    133.7731
  1382.5000      0.0000    662.5319      9.6466    132.6328
  1382.7500      0.0000    662.4528      9.5228    131.8681
  1383.0000      0.0000    662.3868      9.1039    130.5030
  1383.2500      0.0000    662.2443      8.4810    129.0986
  1383.5000      0.0000    662.1290      7.7876    128.9116
  1383.7500      0.0000    662.1373      7.1617    130.5114
  1384.0000      0.0000    662.2354      6.6950    133.2460
  1384.2500      0.0000    662.3527      6.4154    135.5350
  1384.5000      0.0000    662.4531      6.2896    135.7934
  1384.7500      0.0000    662.4999      6.2176    133.6455
  1385.0000      0.0000    662.5496      6.0694    130.2480
  1385.2500      0.0000    663.2413      5.7796    127.2438
  1385.5000      0.0000    666.6290      5.4072    125.7067
  1385.7500      0.0000    675.5120      5.0662    126.0990
  1386.0000      0.0000    688.0475      4.8144    128.4169
  1386.2500      0.0000    694.4252      4.6592    131.7331
  1386.5000      0.0000    688.0142      4.6206    134.0998
  1386.7500      0.0000    675.5849      4.7076    133.9973
  1387.0000      0.0000    666.8839      4.8724    132.0071
  1387.2500      0.0000    663.5414      5.0452    130.2937
  1387.5000      0.0000    662.6078      5.2124    130.3004
  1387.7500      0.0000    661.8284      5.4456    131.4422
  1388.0000      0.0000    660.2235      5.8245    131.9391
  1388.2500      0.0000    658.5216      6.3434    130.4716
  1388.5000      0.0000    659.9670      6.9366    127.0738
  1388.7500      0.0000    667.4975      7.5688    122.7835
  1389.0000      0.0000    678.1378      8.2898    118.8145
  1389.2500      0.0000    682.1761      9.2061    116.1421
  1389.5000      0.0000    670.1975     10.3420    115.3448
  1389.7500      0.0000    638.8958     11.5688    116.1988
  1390.0000      0.0000    592.5046     12.8077    117.5672
  1390.2500      0.0000    540.7984     14.2407    118.1672
  1390.5000      0.0000    485.6310     16.2124    117.3647
  1390.7500      0.0000    422.1331     18.9400    115.1400
  1391.0000      0.0000    361.0621     22.2684    111.7658
  1391.2500      0.0000    320.5865     25.7915    107.9174
  1391.5000      0.0000    301.8044     29.3618    104.7632
  1391.7500      0.0000    292.6182     33.2244    103.4150
  1392.0000      0.0000    283.5419     37.5033    104.0615
  1392.2500      0.0000    273.2031     41.9001    105.6286
  1392.5000      0.0000    264.7954     45.9549    106.4069
  1392.7500      0.0000    260.2226     49.3839    105.3330
  1393.0000      0.0000    258.4967     52.1464    102.8833
  1393.2500      0.0000    257.9746     54.2422    100.6911
  1393.5000      0.0000    257.8048     55.5954    100.2150
  1393.7500      0.0000    257.7405     56.2197    101.7423
  1394.0000      0.0000    257.7270     56.3042    104.5438
  1394.2500      0.0000    257.7492     56.0226    107.6710
  1394.5000      0.0000    257.8038     55.4430    110.4764
  1394.7500      0.0000    257.8860     54.6856    112.6136
  1395.0000      0.0000    257.9875     53.9960    113.9037
  1395.2500      0.0000    258.0916     53.5995    114.3713
  1395.5000      0.0000    258.1700     53.5446    114.2293
  1395.7500      0.0000    258.1987     53.7229    113.5893
  1396.0000      0.0000    258.1715     54.0378    112.1687
  1396.2500      0.0000    258.0907     54.4931    109.5095
  1396.5000      0.0000    257.9723     55.0604    105.6607
  1396.7500      0.0000    257.8617     55.5278    101.5020
  1397.0000      0.0000    257.8035     55.5949     98.0520
  1397.2500      0.0000    257.8013     55.1508     95.4981
  1397.5000      0.0000    257.8366     54.3692     93.2236
  1397.7500      0.0000    257.9120     53.4472     90.8447
  1398.0000      0.0000    258.0700     52.3121     88.8571
  1398.2500      0.0000    258.4099     50.6729     88.0886
  1398.5000      0.0000    259.1774     48.3739     88.9413
  1398.7500      0.0000    261.0837     45.6452     91.4399
  1399.0000      0.0000    265.5481     42.8809     95.5018
  1399.2500      0.0000    273.5100     40.2066    100.4853
  1399.5000      0.0000    283.2272     37.4793    104.7041
  1399.7500      0.0000    291.1817     34.6093    106.2550
  1400.0000      0.0000    296.1035     31.6078    104.6687
  1400.2500      0.0000    300.4372     28.5279    101.3567
  1400.5000      0.0000    308.0908     25.5844     98.2246
  1400.7500      0.0000    320.7065     23.0738     96.1887
  1401.0000      0.0000    336.6292     20.9831     95.1130
  1401.2500      0.0000    356.5409     18.9498     94.6656
  1401.5000      0.0000    382.1159     16.9857     94.9085
  1401.7500      0.0000    407.3141     15.6787     96.2881
  1402.0000      0.0000    432.1640     15.0840     99.1520
  1402.2500      0.0000    468.5384     14.6706    103.0503
  1402.5000      0.0000    505.0608     14.5270    106.5346
  1402.7500      0.0000    506.6307     15.0293    107.9810
  1403.0000      0.0000    464.3349     15.9991    106.9165
  1403.2500     -2.0000    407.1848     17.1203    104.5557
  1403.5000      0.0000    365.2664     18.3505    102.9336
  1403.7500      0.0000    345.0359     19.6425    103.4378
  1404.0000      0.0000    336.6505     20.9053    106.2412
  1404.2500      0.0000    329.4893     22.4636    110.9280
  1404.5000      0.0000    319.7784     24.6477    117.0077
  1404.7500      0.0000    310.8352     26.6312    123.4985
  1405.0000      0.0000    306.0333     27.3452    128.7740
  1405.2500      0.0000    303.6007     27.1422    131.7170
  1405.5000      0.0000    301.2728     26.7400    132.8022
  1405.7500      0.0000    299.4945     26.1283    133.3623
  1406.0000      0.0000    298.7931     25.2936    133.8927
  1406.2500      0.0000    298.6975     24.5231    133.7699
  1406.5000      0.0000    298.6932     24.0281    132.8110
  1406.7500      0.0000    298.7407     23.8350    132.4734
