~Version Information
VERS.                      2.0: CWLS Log ASCII Standard - VERSION 2.0
WRAP.                       NO: One line per depth step
~Well Information Block
STRT.FT               525.0000: 
STOP.FT              2377.2000: 
STEP.FT                 0.1000: 
NULL.                -999.2500: 
COMP.          Pioneer Natural Resources: COMPANY
WELL.          Sparrowhawk 22-12: WELL
FLD.           Purgatoire River: FIELD
LOC.           2049' FNL & 2060' FWL--: LOCATION
CNTY.               Las Animas: COUNTY
SRVC.                Patterson: SERVICE COMPANY
DATE.          Thu Mar 23 13:24:48 2006: LOG DATE
UWI.           05 071 08484 00: UNIQUE WELL ID
STAT.                 Colorado: STATE
~Curve Information Block
DEPT.FT            0 000 00 00: Depth
DCAL.in                       : CDL Caliper
RHOB.g/cc                     : CDL Bulk Density
RHOC.g/cc                     : CDL Density Correction
DPOR.pu                       : CDL Density Porosity
NPOR.pu                       : Neutron Porosity
GR.GAPI                       : Gamma Ray
~Parameter Information Block
~A  Depth       DCAL        RHOB        RHOC        DPOR        NPOR         GR     
# ...
   765.0000      8.0238      2.5337      0.0678      7.0509     22.9707     95.2931
   765.1000      8.0238      2.5077      0.0284      8.6232     23.2651     90.0136
   765.2000      8.0238      2.4875      0.0120      9.8464     23.6080     89.9001
   765.3000      8.0227      2.4808      0.0063     10.2565     23.5843     93.1641
   765.4000      8.0227      2.4869      0.0343      9.8860     23.2291     95.0491
   765.5000      8.0179      2.4990      0.0402      9.1520     22.7667     93.6494
   765.6000      8.0179      2.5055      0.0893      8.7578     22.2668     90.1570
   765.7000      8.0179      2.5056      0.0070      8.7495     21.9318     85.8926
   765.8000      8.0090      2.5131      0.0408      8.2947     21.9446     82.2268
   765.9000      8.0090      2.5339      0.0534      7.0347     21.9773     80.9616
   766.0000      8.0002      2.5561      0.1046      5.6914     21.5534     81.1552
   766.1000      8.0002      2.5684      0.0695      4.9459     21.0101     78.4377
   766.2000      8.0002      2.5753      0.0968      4.5278     20.8968     73.2174
   766.3000      7.9974      2.5780      0.1016      4.3628     20.9204     69.5226
   766.4000      7.9974      2.5738      0.0733      4.6183     20.6772     67.6765
   766.5000      8.0030      2.5667      0.0534      5.0509     20.4704     67.2879
   766.6000      8.0030      2.5553      0.0486      5.7417     20.6989     67.3252
   766.7000      8.0030      2.5405      0.0304      6.6353     21.0264     64.9155
   766.8000      8.0184      2.5339      0.0271      7.0375     20.9426     60.1652
   766.9000      8.0184      2.5371      0.0169      6.8398     20.6387     57.4977
   767.0000      8.0379      2.5369      0.0524      6.8545     20.2689     59.3644
   767.1000      8.0379      2.5222      0.0415      7.7479     19.6029     62.7274
   767.2000      8.0379      2.5029     -0.0283      8.9135     18.6662     63.4109
   767.3000      8.0480      2.4949      0.0306      9.3989     17.8930     60.5807
   767.4000      8.0480      2.4918      0.0362      9.5897     17.5211     56.8799
   767.5000      8.0486      2.4865      0.0279      9.9074     17.2445     55.4374
   767.6000      8.0486      2.4876      0.0229      9.8404     16.8421     56.9299
   767.7000      8.0486      2.4935      0.0533      9.4863     16.3868     61.3028
   767.8000      8.0420      2.4917      0.0482      9.5926     16.0890     66.1105
   767.9000      8.0420      2.4845      0.0207     10.0308     16.2639     66.7555
   768.0000      8.0318      2.4798      0.0526     10.3122     16.7800     64.6506
   768.1000      8.0318      2.4749      0.0428     10.6132     17.1047     62.0544
   768.2000      8.0318      2.4688      0.0218     10.9794     16.9655     58.5049
   768.3000      8.0262      2.4633      0.0875     11.3129     16.4595     55.4959
   768.4000      8.0262      2.4544      0.0431     11.8516     15.8279     54.4774
   768.5000      8.0255      2.4432      0.0361     12.5347     15.3857     57.2165
   768.6000      8.0255      2.4382      0.0202     12.8384     15.4105     62.3107
   768.7000      8.0255      2.4445      0.0352     12.4546     15.7782     64.5351
   768.8000      8.0256      2.4489      0.0462     12.1870     16.0405     63.8746
   768.9000      8.0256      2.4380     -0.0186     12.8493     15.9004     63.8162
   769.0000      8.0245      2.4214      0.0048     13.8540     15.6449     64.1427
   769.1000      8.0245      2.4161      0.0011     14.1761     15.6166     62.4390
   769.2000      8.0245      2.4287      0.0254     13.4098     15.7657     57.6267
   769.3000      8.0216      2.4483      0.0463     12.2263     15.9209     53.9052
   769.4000      8.0216      2.4545      0.0877     11.8484     15.9005     53.8494
   769.5000      8.0194      2.4434      0.0234     12.5187     15.6142     52.4309
   769.6000      8.0194      2.4282      0.0342     13.4449     15.1942     48.6386
   769.7000      8.0194      2.4170      0.0245     14.1228     14.8607     47.1600
   769.8000      8.0198      2.4165      0.0164     14.1499     14.7193     49.0433
   769.9000      8.0198      2.4303      0.0239     13.3125     14.8691     51.9393
   770.0000      8.0203      2.4475      0.0900     12.2753     15.3808     53.4818
   770.1000      8.0203      2.4528      0.0722     11.9529     15.8847     53.7631
   770.2000      8.0203      2.4469      0.0440     12.3093     15.8355     56.0317
   770.3000      8.0187      2.4415      0.0584     12.6357     15.4964     60.1238
   770.4000      8.0187      2.4424      0.0283     12.5825     15.4555     62.9072
   770.5000      8.0156      2.4468      0.0711     12.3171     15.4451     64.2698
   770.6000      8.0156      2.4502      0.0614     12.1081     15.0074     66.3837
   770.7000      8.0156      2.4606      0.0455     11.4770     14.4901     67.6393
   770.8000      8.0100      2.4799      0.0449     10.3113     14.4174     65.0572
   770.9000      8.0100      2.4819      0.0851     10.1874     14.7331     60.9040
   771.0000      8.0047      2.4582      0.0388     11.6251     14.9733     59.5859
   771.1000      8.0047      2.4450      0.0068     12.4262     14.9975     60.6087
   771.2000      8.0047      2.4623      0.0531     11.3738     15.1603     61.5920
   771.3000      8.0019      2.4844      0.0972     10.0341     15.5071     62.9603
   771.4000      8.0019      2.4876      0.0463      9.8449     15.8634     64.9125
   771.5000      8.0010      2.4795      0.0369     10.3337     16.1526     68.7883
   771.6000      8.0010      2.4804      0.0240     10.2771     16.1608     73.3919
   771.7000      8.0010      2.4971      0.0425      9.2652     15.8584     73.5399
   771.8000      8.0016      2.5202      0.0517      7.8673     15.6652     68.4609
   771.9000      8.0016      2.5371      0.0619      6.8435     16.0002     62.3388
   772.0000      8.0015      2.5376      0.0933      6.8096     16.5151     58.7554
   772.1000      8.0015      2.5242      0.0849      7.6233     16.7555     58.9127
   772.2000      8.0015      2.5176      0.0263      8.0236     16.9969     62.0030
   772.3000      8.0008      2.5307      0.0318      7.2282     17.3761     65.5244
   772.4000      8.0008      2.5458      0.0943      6.3177     17.8295     66.2908
   772.5000      7.9997      2.5466      0.0349      6.2677     18.4713     63.4708
   772.6000      7.9997      2.5422      0.0387      6.5336     19.1347     59.9117
   772.7000      7.9997      2.5369      0.0503      6.8574     19.5304     59.5807
   772.8000      7.9987      2.5284      0.0579      7.3705     19.6449     61.7213
   772.9000      7.9987      2.5235      0.0213      7.6645     19.8361     62.8679
   773.0000      8.0002      2.5263      0.0659      7.4954     20.4727     62.9905
   773.1000      8.0002      2.5336      0.0695      7.0534     21.5547     63.8699
   773.2000      8.0002      2.5460      0.0286      6.3046     22.7958     67.0677
   773.3000      8.0067      2.5623      0.0673      5.3122     23.8619     72.5729
   773.4000      8.0067      2.5772      0.0401      4.4151     24.6257     78.3780
   773.5000      8.0181      2.5921      0.0705      3.5113     25.3325     83.4030
   773.6000      8.0181      2.6112      0.0501      2.3531     26.1135     87.4310
   773.7000      8.0181      2.6249      0.0607      1.5237     26.8310     89.4800
   773.8000      8.0292      2.6167      0.0873      2.0208     27.2606     88.8112
   773.9000      8.0292      2.5939      0.0282      3.4014     27.1830     85.1556
   774.0000      8.0357      2.5798      0.0904      4.2516     26.7485     81.7291
   774.1000      8.0357      2.5786      0.0651      4.3262     26.2832     82.8292
   774.2000      8.0357      2.5759      0.0724      4.4906     25.7675     86.5731
   774.3000      8.0368      2.5567      0.0639      5.6566     25.1352     89.2411
   774.4000      8.0368      2.5240      0.0353      7.6368     24.6244     91.6760
   774.5000      8.0354      2.5058     -0.0261      8.7380     24.4925     94.7195
