~Version Information
VERS.                      2.0: CWLS Log ASCII Standard - VERSION 2.0
WRAP.                       NO: One line per depth step
~Well Information Block
STRT.FT               -16.0000: 
STOP.FT              2827.7500: 
STEP.FT                 0.2500: 
NULL.                -999.2500: 
COMP.          Pioneer Natural Resources: COMPANY
WELL.          Touchstone 11-32: WELL
FLD.           Purgatorie River: FIELD
LOC.           853' FNL & 407' FWL--: LOCATION
CNTY.               Las Animas: COUNTY
SRVC.          Patterson Wireline: SERVICE COMPANY
DATE.          Wed Mar 15 10:09:19 2006: LOG DATE
UWI.           05 071 08564 00: UNIQUE WELL ID
STAT.                       CO: STATE
~Curve Information Block
DEPT.FT            0 000 00 00: Depth
CCL.                          : Casing Collar Locator
TT3.usec                      : CBL 3' Travel Time
AMP3.mV                       : CBL 3' Amplitude
GR.GAPI                       : Gamma Ray
~Parameter Information Block
~A  Depth       CCL         TT3         AMP3         GR     
# ...
  1123.0000      0.0000    599.2971     12.4046     63.6809
  1123.2500      0.0000    647.6203     12.1951     64.4813
  1123.5000      0.0000    683.4595     12.0040     70.1272
  1123.7500      0.0000    703.9041     11.8620     77.6500
  1124.0000      0.0000    714.3128     11.7706     83.7652
  1124.2500      0.0000    720.1246     11.7040     87.2919
  1124.5000      0.0000    723.3702     11.6332     89.8500
  1124.7500      0.0000    724.0161     11.5452     94.3018
  1125.0000      0.0000    722.5211     11.4439    102.2178
  1125.2500      0.0000    720.6027     11.3389    112.3002
  1125.5000      0.0000    720.1205     11.2396    121.1383
  1125.7500      0.0000    722.1310     11.1528    125.7543
  1126.0000      0.0000    727.3011     11.0805    125.3752
  1126.2500      0.0000    735.8481     11.0228    120.6958
  1126.5000      0.0000    746.2106     10.9865    112.2090
  1126.7500      0.0000    755.2188     10.9903    100.1567
  1127.0000      0.0000    761.1054     11.0534     85.7656
  1127.2500      0.0000    765.6594     11.1743     71.6564
  1127.5000      0.0000    772.1176     11.3244     60.8972
  1127.7500      0.0000    781.2014     11.4680     55.7305
  1128.0000      0.0000    789.8920     11.5892     56.8500
  1128.2500      0.0000    793.5894     11.6993     63.5553
  1128.5000      0.0000    789.1614     11.8175     74.4771
  1128.7500      0.0000    777.1289     11.9485     87.9100
  1129.0000      0.0000    761.8223     12.0797    101.6178
  1129.2500      0.0000    748.3716     12.1969    113.1852
  1129.5000      0.0000    737.7166     12.2945    121.0293
  1129.7500      0.0000    724.8643     12.3697    124.6965
  1130.0000      0.0000    704.4869     12.4135    124.3545
  1130.2500      0.0000    679.2925     12.4161    120.8541
  1130.5000      0.0000    660.1366     12.3803    116.1437
  1130.7500      0.0000    654.8922     12.3289    112.5877
  1131.0000      0.0000    658.1708     12.2952    111.5789
  1131.2500      0.0000    653.9075     12.3025    113.1159
  1131.5000      0.0000    628.0155     12.3534    116.5403
  1131.7500      0.0000    580.0295     12.4371    121.1436
  1132.0000      0.0000    525.9011     12.5450    126.0229
  1132.2500      0.0000    489.5786     12.6751    129.9952
  1132.5000      0.0000    487.9748     12.8276    132.2758
  1132.7500      0.0000    519.4961     12.9984    133.1217
  1133.0000      0.0000    565.2654     13.1747    133.2404
  1133.2500      0.0000    603.4943     13.3369    132.6073
  1133.5000      0.0000    625.0777     13.4680    130.6332
  1133.7500      0.0000    634.6284     13.5643    127.5310
  1134.0000      0.0000    637.3288     13.6369    124.5439
  1134.2500      0.0000    631.7570     13.6974    122.6192
  1134.5000      0.0000    619.5740     13.7379    121.7260
  1134.7500      0.0000    614.9438     13.7287    121.5184
  1135.0000      0.0000    634.5355     13.6415    121.8609
  1135.2500      0.0000    678.7771     13.4760    122.7544
  1135.5000      0.0000    729.5000     13.2625    124.3050
  1135.7500      0.0000    766.3954     13.0409    126.4491
  1136.0000      0.0000    781.9540     12.8380    128.4865
  1136.2500      0.0000    782.1431     12.6629    129.5709
  1136.5000      0.0000    778.1532     12.5151    129.8878
  1136.7500      0.0000    778.2470     12.3941    130.7102
  1137.0000      0.0000    784.0471     12.2956    133.0606
  1137.2500      0.0000    791.8997     12.2034    136.6965
  1137.5000      0.0000    797.3713     12.0919    140.4051
  1137.7500      0.0000    799.0585     11.9460    142.9849
  1138.0000      0.0000    798.9850     11.7801    143.7457
  1138.2500      0.0000    799.9695     11.6340    142.2896
  1138.5000      0.0000    802.7752     11.5500    138.5211
  1138.7500      0.0000    805.7950     11.5506    133.1322
  1139.0000      0.0000    807.0917     11.6317    127.4254
  1139.2500      0.0000    806.1861     11.7726    122.2956
  1139.5000      0.0000    803.7952     11.9475    117.7780
  1139.7500      0.0000    800.4764     12.1330    113.4838
  1140.0000      0.0000    796.2708     12.3129    108.9991
  1140.2500      0.0000    791.2715     12.4861    104.2037
  1140.5000      0.0000    785.1371     12.6690     99.9196
  1140.7500      0.0000    774.9582     12.8874     98.0875
  1141.0000      0.0000    754.6548     13.1585    100.5759
  1141.2500      0.0000    718.8119     13.4711    107.2730
  1141.5000      0.0000    668.6127     13.7722    115.2600
  1141.7500      0.0000    614.1923     13.9751    120.3081
  1142.0000      0.0000    571.7072     13.9950    119.9641
  1142.2500      0.0000    557.7531     13.7920    115.6694
  1142.5000      0.0000    582.2341     13.3843    111.6504
  1142.7500      0.0000    640.9816     12.8243    111.4876
  1143.0000      0.0000    714.5241     12.1891    115.5099
  1143.2500      0.0000    777.2476     11.5965    120.7350
  1143.5000      0.0000    811.7305     11.1768    122.8622
  1143.7500      0.0000    817.9410     10.9886    119.1401
  1144.0000      2.0000    809.6528     10.9821    110.4070
  1144.2500      0.0000    800.8864     11.0544    100.4032
  1144.5000      0.0000    796.0753     11.1262     92.7273
  1144.7500      0.0000    792.3474     11.1722     88.5487
  1145.0000      0.0000    786.9982     11.2203     87.1449
  1145.2500      0.0000    778.7160     11.3448     87.7050
  1145.5000      0.0000    763.5491     11.6509     89.9205
  1145.7500      0.0000    734.9664     12.2225     93.2457
  1146.0000      0.0000    689.8217     13.0309     96.4360
  1146.2500      0.0000    632.1979     13.8990     98.0089
  1146.5000      0.0000    571.6205     14.6067     97.0984
  1146.7500      0.0000    521.2947     15.0476     94.0938
  1147.0000      0.0000    497.6356     15.2699     90.5288
  1147.2500      0.0000    514.2410     15.3917     88.1315
  1147.5000      0.0000    570.7548     15.5099     87.9382
  1147.7500      0.0000    648.8013     15.6691     90.0979
  1148.0000      0.0000    722.4546     15.8698     93.7858
  1148.2500      0.0000    774.3204     16.0920     97.0462
  1148.5000      0.0000    802.3223     16.3250     97.5060
  1148.7500      0.0000    814.0396     16.5793     93.9799
  1149.0000      0.0000    817.8659     16.8674     87.3706
  1149.2500      0.0000    818.6701     17.1741     79.8398
  1149.5000      0.0000    818.0944     17.4521     73.3370
  1149.7500      0.0000    816.2433     17.6480     69.0161
  1150.0000      0.0000    813.1019     17.7361     67.5065
  1150.2500      0.0000    809.1918     17.7329     69.0478
  1150.5000      0.0000    805.1564     17.6770     73.3759
  1150.7500      0.0000    800.7294     17.5994     79.8391
  1151.0000      0.0000    794.2546     17.5115     87.6876
  1151.2500      0.0000    783.1256     17.4185     96.0264
  1151.5000      0.0000    765.0033     17.3304    103.6195
  1151.7500      0.0000    740.5417     17.2565    109.1043
  1152.0000      0.0000    716.3335     17.1938    111.7007
  1152.2500      0.0000    702.8721     17.1264    111.8801
  1152.5000      0.0000    706.6014     17.0372    111.2189
  1152.7500      0.0000    724.7046     16.9154    111.1854
  1153.0000      0.0000    748.8859     16.7544    111.9497
  1153.2500      0.0000    772.2014     16.5499    112.7493
  1153.5000      0.0000    791.2405     16.3077    113.3998
  1153.7500      0.0000    804.7556     16.0523    114.7634
  1154.0000      0.0000    812.8081     15.8172    117.3092
  1154.2500      0.0000    816.6403     15.6205    119.8979
  1154.5000      0.0000    818.0153     15.4533    120.8164
  1154.7500      0.0000    818.3281     15.2967    119.8498
  1155.0000      0.0000    818.2951     15.1438    118.7506
  1155.2500      0.0000    818.1511     15.0022    119.5071
  1155.5000      0.0000    817.9550     14.8789    122.3066
  1155.7500      0.0000    817.7370     14.7672    125.3786
  1156.0000      0.0000    817.5288     14.6476    126.9236
  1156.2500      0.0000    817.3661     14.5040    126.9414
