~Version Information
VERS.                      2.0: CWLS Log ASCII Standard - VERSION 2.0
WRAP.                       NO: One line per depth step
~Well Information Block
STRT.FT                -6.5000: 
STOP.FT              1636.7500: 
STEP.FT                 0.2500: 
NULL.                -999.2500: 
COMP.          Pioneer Natural Resources: COMPANY
WELL.          Stock Canyon 34-33: WELL
FLD.           Purgatorie River: FIELD
LOC.           980' FSL & 2191' FEL--: LOCATION
PROV.                       CO: PROVINCE
CNTY.               Las Animas: COUNTRY
SRVC.          Patterson Wireline: SERVICE COMPANY
DATE.          Mon Dec 12 09:29:49 2005: LOG DATE
UWI.           05 071 08601 00: UNIQUE WELL ID
~Curve Information Block
DEPT.FT            0 000 00 00: Depth
CCL.                          : Casing Collar Locator
TT3.usec                      : CBL 3' Travel Time
AMP3.mV                       : CBL 3' Amplitude
GR.GAPI                       : Gamma Ray
~Parameter Information Block
~A  Depth       CCL         TT3         AMP3         GR     
# ...
  1501.0000      0.0000    278.1677     71.6460    102.1754
  1501.2500      0.0000    278.1669     71.5955     96.4791
  1501.5000      0.0000    278.1667     71.5600     89.7943
  1501.7500      0.0000    278.1670     71.5482     85.7921
  1502.0000      0.0000    278.1692     71.5635     85.3864
  1502.2500      0.0000    278.1741     71.5986     86.4312
  1502.5000      0.0000    278.1803     71.6365     86.1356
  1502.7500      0.0000    278.1841     71.6566     83.3488
  1503.0000      0.0000    278.1825     71.6449     78.7240
  1503.2500      0.0000    278.1765     71.6029     73.5350
  1503.5000      0.0000    278.1705     71.5497     68.8013
  1503.7500      0.0000    278.1697     71.5114     65.1249
  1504.0000      0.0000    278.1748     71.5082     62.7111
  1504.2500      0.0000    278.1826     71.5456     61.3462
  1504.5000      0.0000    278.1895     71.6155     60.4952
  1504.7500      0.0000    278.1944     71.7024     59.6198
  1505.0000      0.0000    278.1979     71.7902     58.5343
  1505.2500      0.0000    278.2001     71.8673     57.4695
  1505.5000      0.0000    278.1997     71.9263     56.7740
  1505.7500      0.0000    278.1953     71.9639     56.6197
  1506.0000      0.0000    278.1873     71.9826     56.9507
  1506.2500      0.0000    278.1779     71.9913     57.4329
  1506.5000      0.0000    278.1694     71.9984     57.3115
  1506.7500      0.0000    278.1631     72.0054     55.5543
  1507.0000      0.0000    278.1592     72.0087     51.6035
  1507.2500      0.0000    278.1577     72.0045     46.2019
  1507.5000      0.0000    278.1588     71.9930     41.1710
  1507.7500      0.0000    278.1625     71.9781     38.0501
  1508.0000      0.0000    278.1687     71.9645     36.9592
  1508.2500      0.0000    278.1760     71.9523     36.7763
  1508.5000      0.0000    278.1820     71.9349     36.1812
  1508.7500      0.0000    278.1846     71.9042     34.5231
  1509.0000      0.0000    278.1835     71.8611     32.1382
  1509.2500      0.0000    278.1797     71.8167     30.2159
  1509.5000      0.0000    278.1738     71.7843     30.1459
  1509.7500      0.0000    278.1667     71.7682     32.5301
  1510.0000      0.0000    278.1589     71.7637     36.6883
  1510.2500      0.0000    278.1521     71.7643     41.2260
  1510.5000      0.0000    278.1478     71.7669     45.0619
  1510.7500      0.0000    278.1474     71.7712     47.8519
  1511.0000      0.0000    278.1507     71.7752     49.7159
  1511.2500      0.0000    278.1560     71.7727     50.9352
  1511.5000      0.0000    278.1609     71.7576     51.8652
  1511.7500      0.0000    278.1633     71.7327     52.7765
  1512.0000      0.0000    278.1623     71.7105     53.7212
  1512.2500      0.0000    278.1579     71.7037     54.7811
  1512.5000      0.0000    278.1507     71.7145     56.4782
  1512.7500      0.0000    278.1421     71.7348     59.6139
  1513.0000      0.0000    278.1336     71.7540     64.5208
  1513.2500      0.0000    278.1259     71.7635     70.5955
  1513.5000      0.0000    278.1187     71.7591     76.6447
  1513.7500      0.0000    278.1117     71.7438     81.6613
  1514.0000      0.0000    278.1060     71.7288     85.3831
  1514.2500      0.0000    278.1030     71.7281     88.3154
  1514.5000      0.0000    278.1033     71.7507     91.2943
  1514.7500      0.0000    278.1061     71.7950     94.9629
  1515.0000      0.0000    278.1093     71.8476     99.3834
  1515.2500      0.0000    278.1112     71.8856    103.6839
  1515.5000      0.0000    278.1113     71.8826    105.9327
  1515.7500      0.0000    278.1105     71.8195    103.8987
  1516.0000      0.0000    278.1100     71.6975     96.7998
  1516.2500      0.0000    278.1112     71.5420     86.7121
  1516.5000      0.0000    278.1143     71.3890     77.9019
  1516.7500      0.0000    278.1191     71.2647     74.0307
  1517.0000      0.0000    278.1250     71.1744     75.6055
  1517.2500      0.0000    278.1335     71.1097     80.1807
  1517.5000      0.0000    278.1524     71.0551     84.9161
  1517.7500      0.0000    278.2042     70.9717     88.5172
  1518.0000      0.0000    278.3428     70.7466     90.8243
  1518.2500      0.0000    278.6672     70.1421     91.6331
  1518.5000      0.0000    279.3022     68.8548     90.7870
  1518.7500      0.0000    280.3301     66.7133     88.7278
  1519.0000      0.0000    281.7155     63.8161     85.8769
  1519.2500      0.0000    283.2831     60.4333     81.8352
  1519.5000      0.0000    284.7669     56.8800     76.0827
  1519.7500      0.0000    285.9127     53.5738     69.2402
  1520.0000      0.0000    286.5963     51.0067     63.0524
  1520.2500      0.0000    286.8740     49.4431     59.2850
  1520.5000     -2.0000    286.9066     48.7134     58.7093
  1520.7500      0.0000    286.8072     48.3970     60.5454
  1521.0000      0.0000    286.5294     48.1519     62.7589
  1521.2500      0.0000    285.8368     47.9451     63.5468
  1521.5000      0.0000    284.4067     48.1796     62.8554
  1521.7500      0.0000    282.1435     49.5884     62.2038
  1522.0000      0.0000    279.5234     52.6813     63.0842
  1522.2500      0.0000    277.4695     57.1096     65.8856
  1522.5000      0.0000    276.6432     61.7524     70.2468
  1522.7500      0.0000    276.9037     65.5448     75.7268
  1523.0000      0.0000    277.5812     68.1063     81.7458
  1523.2500      0.0000    278.1340     69.6301     87.2500
  1523.5000      0.0000    278.4189     70.4673     90.9388
  1523.7500      0.0000    278.5226     70.8994     91.8369
  1524.0000      0.0000    278.5496     71.1089     89.6200
  1524.2500      0.0000    278.5529     71.2013     84.8635
  1524.5000      0.0000    278.5501     71.2284     79.2739
  1524.7500      0.0000    278.5439     71.2174     75.1056
  1525.0000      0.0000    278.5355     71.1856     73.5842
  1525.2500      0.0000    278.5258     71.1464     73.9472
  1525.5000      0.0000    278.5166     71.1100     74.5025
  1525.7500      0.0000    278.5096     71.0851     74.4654
  1526.0000      0.0000    278.5055     71.0785     74.3277
  1526.2500      0.0000    278.5033     71.0914     74.7125
  1526.5000      0.0000    278.5016     71.1168     75.5267
  1526.7500      0.0000    278.4997     71.1451     76.3042
  1527.0000      0.0000    278.4984     71.1719     76.8523
  1527.2500      0.0000    278.4997     71.2002     77.1671
  1527.5000      0.0000    278.5050     71.2351     76.9119
  1527.7500      0.0000    278.5135     71.2769     75.5313
  1528.0000      0.0000    278.5221     71.3188     73.0685
  1528.2500      0.0000    278.5276     71.3523     70.4823
  1528.5000      0.0000    278.5288     71.3744     68.8120
  1528.7500      0.0000    278.5267     71.3901     68.1425
  1529.0000      0.0000    278.5232     71.4072     67.5613
  1529.2500      0.0000    278.5202     71.4278     66.1200
  1529.5000      0.0000    278.5197     71.4442     63.8408
  1529.7500      0.0000    278.5233     71.4440     61.9575
  1530.0000      0.0000    278.5319     71.4222     62.1023
  1530.2500      0.0000    278.5441     71.3883     64.8158
  1530.5000      0.0000    278.5564     71.3574     68.6735
  1530.7500      0.0000    278.5658     71.3322     71.3174
  1531.0000      0.0000    278.5710     71.2961     71.6059
  1531.2500      0.0000    278.5726     71.2309     70.3763
  1531.5000      0.0000    278.5720     71.1403     69.0213
  1531.7500      0.0000    278.5699     71.0518     68.0370
  1532.0000      0.0000    278.5676     70.9928     67.2100
  1532.2500      0.0000    278.5671     70.9629     66.4762
  1532.5000      0.0000    278.5708     70.9334     66.0733
  1532.7500      0.0000    278.5800     70.8745     66.1400
  1533.0000      0.0000    278.5943     70.7849     66.5171
  1533.2500      0.0000    278.6113     70.6908     66.9400
  1533.5000      0.0000    278.6285     70.6177     67.4064
  1533.7500      0.0000    278.6444     70.5664     68.3425
  1534.0000      0.0000    278.6586     70.5206     70.2394
  1534.2500      0.0000    278.6702     70.4718     73.0056
