~Version Information
VERS.                      2.0: CWLS Log ASCII Standard - VERSION 2.0
WRAP.                       NO: One line per depth step
~Well Information Block
STRT.FT              1585.0000: 
STOP.FT              2353.0000: 
STEP.FT                 0.2500: 
NULL.                -999.2500: 
COMP.          XTO Energy Inc.: COMPANY
WELL.          Hill Ranch 15-11: WELL
FLD.           Purgatrorie River: FIELD
LOC.           1862' FSL & 1801' FWL: LOCATION
STAT.                       CO: State
CNTY.               Las Animas: COUNTY
CTRY. USA : Country
SECT. 15 : Section
TOWN. 35S : Township
RANG. 67W : Range
SRVC.          Patterson Wireline: SERVICE COMPANY
DATE.          Thu Dec 08 10:20:02 2005: LOG DATE
API.              05 071 08472: UNIQUE WELL ID
~Curve Information Block
DEPT.FT            0 000 00 00: Depth
CCL.                          : Casing Collar Locator
TT3.usec                      : CBL 3' Travel Time
AMP3.mV                       : CBL 3' Amplitude
BONDIX.                       : CBL Bond Index
GR.GAPI                       : Gamma Ray
~Parameter Information Block
~A  Depth       CCL         TT3         AMP3       BONDIX        GR     
# ...
  1725.0000      0.0000    652.9657      2.7472      0.7780     83.3899
  1725.2500      0.0000    655.9508      2.7741      0.7758     85.7561
  1725.5000      0.0000    659.2795      2.8053      0.7734     88.7443
  1725.7500      0.0000    661.3869      2.8361      0.7710     92.1486
  1726.0000      0.0000    661.2506      2.8646      0.7688     94.6749
  1726.2500      0.0000    659.7581      2.8835      0.7673     95.3268
  1726.5000      0.0000    660.8347      2.8759      0.7679     94.1539
  1726.7500      0.0000    670.7838      2.8265      0.7717     92.0128
  1727.0000      0.0000    694.0226      2.7394      0.7786     90.5054
  1727.2500      0.0000    727.2872      2.6390      0.7868     92.1564
  1727.5000      0.0000    758.8531      2.5512      0.7942     99.6626
  1727.7500      0.0000    776.0729      2.4875      0.7998    113.9795
  1728.0000      0.0000    775.0313      2.4464      0.8035    132.8298
  1728.2500      0.0000    762.7822      2.4284      0.8051    151.3862
  1728.5000      0.0000    750.6143      2.4437      0.8037    164.7255
  1728.7500      0.0000    745.7264      2.5049      0.7983    170.0071
  1729.0000      0.0000    748.2280      2.6137      0.7889    167.1404
  1729.2500      0.0000    753.6160      2.7579      0.7771    158.1792
  1729.5000      0.0000    757.0915      2.9233      0.7643    146.0275
  1729.7500      0.0000    756.9550      3.1100      0.7507    133.1071
  1730.0000      0.0000    755.6281      3.3341      0.7354    120.8415
  1730.2500      2.0000    757.2261      3.6008      0.7185    110.2350
  1730.5000      0.0000    762.9336      3.8702      0.7027    102.5398
  1730.7500      0.0000    768.3467      4.0659      0.6919     99.0278
  1731.0000      0.0000    766.3462      4.1364      0.6881    100.2327
  1731.2500      0.0000    753.7548      4.0997      0.6900    105.4349
  1731.5000      0.0000    734.5529      4.0138      0.6947    112.6171
  1731.7500      0.0000    715.5842      3.9122      0.7003    119.2613
  1732.0000      0.0000    700.5078      3.7802      0.7079    123.8197
  1732.2500      0.0000    689.1054      3.5894      0.7192    126.3432
  1732.5000      0.0000    680.3610      3.3436      0.7348    127.5364
  1732.7500      0.0000    674.0199      3.0913      0.7521    127.7480
  1733.0000      0.0000    669.9651      2.8958      0.7664    127.3419
  1733.2500      0.0000    667.6979      2.7991      0.7739    127.4203
  1733.5000      0.0000    666.6250      2.8116      0.7729    129.0051
  1733.7500      0.0000    666.3680      2.9268      0.7641    131.2943
  1734.0000      0.0000    666.7462      3.1335      0.7491    131.8246
  1734.2500      0.0000    667.6154      3.4123      0.7304    129.1762
  1734.5000      0.0000    668.9018      3.7225      0.7112    124.9723
  1734.7500      0.0000    670.8661      3.9967      0.6956    122.6129
  1735.0000      0.0000    674.1437      4.1532      0.6872    124.2893
  1735.2500      0.0000    679.0286      4.1306      0.6884    129.3406
  1735.5000      0.0000    684.3530      3.9248      0.6996    135.0049
  1735.7500      0.0000    687.5251      3.5950      0.7189    138.5498
  1736.0000      0.0000    686.8330      3.2295      0.7425    138.9942
  1736.2500      0.0000    684.1237      2.9013      0.7660    137.2522
  1736.5000      0.0000    684.0670      2.6500      0.7859    135.2486
  1736.7500      0.0000    689.6178      2.4882      0.7997    135.2229
  1737.0000      0.0000    698.6562      2.4101      0.8067    139.1017
  1737.2500      0.0000    706.0547      2.3925      0.8084    147.2032
  1737.5000      0.0000    708.6306      2.4019      0.8075    157.3494
  1737.7500      0.0000    707.1299      2.4081      0.8069    166.0392
  1738.0000      0.0000    704.0664      2.3976      0.8079    170.9406
  1738.2500      0.0000    701.2396      2.3750      0.8100    172.0912
  1738.5000      0.0000    699.4511      2.3535      0.8120    170.9336
  1738.7500      0.0000    699.1660      2.3433      0.8129    168.9806
  1739.0000      0.0000    700.4467      2.3451      0.8127    167.3078
  1739.2500      0.0000    702.5953      2.3553      0.8118    166.1774
  1739.5000      0.0000    704.6022      2.3727      0.8102    164.8154
  1739.7500      0.0000    706.0806      2.4012      0.8076    162.3534
  1740.0000      0.0000    707.6899      2.4445      0.8036    159.1964
  1740.2500      0.0000    710.6384      2.5018      0.7985    156.9285
  1740.5000      0.0000    715.5625      2.5689      0.7927    156.8694
  1740.7500      0.0000    721.5488      2.6450      0.7863    158.9750
  1741.0000      0.0000    726.3969      2.7377      0.7787    161.7322
  1741.2500      0.0000    728.2826      2.8571      0.7694    162.7484
  1741.5000      0.0000    727.2525      3.0042      0.7583    160.1525
  1741.7500      0.0000    725.0995      3.1696      0.7466    154.3051
  1742.0000      0.0000    724.1365      3.3442      0.7348    147.9898
  1742.2500      0.0000    726.1295      3.5293      0.7229    144.2652
  1742.5000      0.0000    731.7356      3.7326      0.7106    143.8585
  1742.7500      0.0000    740.2166      3.9564      0.6979    144.6788
  1743.0000      0.0000    749.6147      4.1900      0.6852    143.8578
  1743.2500      0.0000    757.7250      4.4135      0.6738    140.1649
  1743.5000      0.0000    763.3173      4.6098      0.6643    134.6738
  1743.7500      0.0000    766.5000      4.7747      0.6566    129.7856
  1744.0000      0.0000    768.0787      4.9146      0.6502    127.7344
  1744.2500      0.0000    768.7725      5.0401      0.6447    129.2184
  1744.5000      0.0000    768.9236      5.1650      0.6393    132.9469
  1744.7500      0.0000    768.5494      5.3102      0.6332    136.6615
  1745.0000      0.0000    767.4243      5.4970      0.6256    138.6908
  1745.2500      0.0000    765.2250      5.7322      0.6164    138.6285
  1745.5000      0.0000    761.8820      6.0012      0.6063    137.1330
  1745.7500      0.0000    757.8326      6.2812      0.5963    135.5007
  1746.0000      0.0000    753.5985      6.5605      0.5868    135.0009
  1746.2500      0.0000    748.9757      6.8442      0.5774    136.0799
  1746.5000      0.0000    743.0829      7.1456      0.5680    138.2903
  1746.7500      0.0000    735.5419      7.4767      0.5580    140.9671
  1747.0000      0.0000    727.3294      7.8458      0.5474    143.6964
  1747.2500      0.0000    720.2579      8.2465      0.5365    146.3617
  1747.5000      0.0000    715.7296      8.6333      0.5264    148.9490
  1747.7500      0.0000    713.8887      8.9180      0.5193    150.9858
  1748.0000      0.0000    713.7488      9.0127      0.5170    151.2944
  1748.2500      0.0000    714.1124      8.8955      0.5199    148.9447
  1748.5000      0.0000    714.4102      8.6299      0.5265    144.2988
  1748.7500      0.0000    714.8162      8.3148      0.5347    138.5527
  1749.0000      0.0000    715.8918      8.0170      0.5427    132.6496
  1749.2500      0.0000    718.2256      7.7400      0.5504    127.2142
  1749.5000      0.0000    722.0049      7.4419      0.5591    123.1575
  1749.7500      0.0000    726.6218      7.0761      0.5701    121.4768
  1750.0000      0.0000    731.0880      6.6268      0.5845    122.1770
  1750.2500      0.0000    735.5273      6.1177      0.6021    123.9539
  1750.5000      0.0000    741.9882      5.5984      0.6216    125.7017
  1750.7500      0.0000    752.5082      5.1224      0.6411    128.2440
  1751.0000      0.0000    765.9650      4.7234      0.6589    133.7049
  1751.2500      0.0000    777.8738      4.3969      0.6747    142.8987
  1751.5000      0.0000    783.7902      4.1060      0.6897    153.9727
  1751.7500      0.0000    782.2235      3.8127      0.7060    163.8225
  1752.0000      0.0000    774.8123      3.5071      0.7243    170.3607
  1752.2500      0.0000    765.4160      3.2107      0.7437    173.2301
  1752.5000      0.0000    758.7056      2.9577      0.7618    172.8345
  1752.7500      0.0000    757.7106      2.7746      0.7758    169.4312
