~Version Information
VERS.                      2.0: CWLS Log ASCII Standard - VERSION 2.0
WRAP.                       NO: One line per depth step
~Well Information Block
STRT.FT               440.0000: 
STOP.FT              1702.7000: 
STEP.FT                 0.1000: 
NULL.                -999.2500: 
COMP.          Pioneer Natural Resources: COMPANY
WELL.          Culver 14-12 Tr: WELL
FLD.           Purgatoire River: FIELD
LOC.           915' FSL & 1048' FWL--: LOCATION
STAT.                 Colorado: State
CNTY.               Las Animas: COUNTY
CTRY. USA : Country
SECT. 12 : Section
TOWN. 32S : Township
RANG. 66W : Range
SRVC.                Patterson: SERVICE COMPANY
DATE.          Wed Sep 28 10:00:59 2005: LOG DATE
API.           05 071 08520 00: UNIQUE WELL ID
~Curve Information Block
DEPT.FT            0 000 00 00: Depth
DCAL.in                       : CDL Caliper
RHOB.g/cc                     : CDL Bulk Density
RHOC.g/cc                     : CDL Density Correction
DPOR.pu                       : CDL Density Porosity
NPOR.pu                       : Neutron Porosity
GR.GAPI                       : Gamma Ray
~Parameter Information Block
~A  Depth       DCAL        RHOB        RHOC        DPOR        NPOR         GR     
# ...
   689.6000      8.0659      2.5894      0.1000      3.6751     26.9972     92.6329
   689.7000      8.0659      2.5961      0.1264      3.2679     26.8347     92.6042
   689.8000      8.0446      2.5786      0.1004      4.3257     26.3475     92.0040
   689.9000      8.0446      2.5432      0.0816      6.4708     25.5187     90.3839
   690.0000      8.0397      2.5125     -0.0098      8.3341     24.5819     90.0723
   690.1000      8.0397      2.4999      0.0118      9.0950     23.5716     93.0779
   690.2000      8.0397      2.5033     -0.0185      8.8901     22.5234     97.0490
   690.3000      8.0362      2.5211      0.0087      7.8134     21.6693     97.8511
   690.4000      8.0362      2.5412      0.0676      6.5961     21.1211     95.6444
   690.5000      8.0292      2.5424      0.0575      6.5184     20.8068     94.9947
   690.6000      8.0292      2.5271      0.0486      7.4475     20.5725     98.3613
   690.7000      8.0292      2.5156      0.0128      8.1441     20.3395    100.6956
   690.8000      8.0252      2.5184      0.0352      7.9735     20.2604     99.5078
   690.9000      8.0252      2.5338      0.0198      7.0404     20.2716     98.0449
   691.0000      8.0275      2.5566      0.0728      5.6586     19.9057     97.4152
   691.1000      8.0275      2.5753      0.0988      4.5253     19.1976     98.0741
   691.2000      8.0275      2.5784      0.0907      4.3415     18.7832    100.9073
   691.3000      8.0297      2.5634      0.0567      5.2464     19.0218    102.5567
   691.4000      8.0297      2.5350      0.0238      6.9711     19.4928     99.9394
   691.5000      8.0300      2.5054     -0.0326      8.7667     19.6057     95.1982
   691.6000      8.0300      2.4953     -0.0248      9.3740     19.7195     92.4737
   691.7000      8.0300      2.5118      0.0001      8.3767     20.5328     92.1192
   691.8000      8.0304      2.5394      0.0050      6.7031     21.7389     92.1372
   691.9000      8.0304      2.5610      0.0182      5.3945     22.5042     91.3312
   692.0000      8.0303      2.5741      0.0231      4.6026     22.7505     89.3288
   692.1000      8.0303      2.5922     -0.0065      3.5029     23.3541     86.9580
   692.2000      8.0303      2.6208     -0.0009      1.7673     24.4529     83.7209
   692.3000      8.0274      2.6378      0.0702      0.7386     25.2138     81.6135
   692.4000      8.0274      2.6238      0.0332      1.5898     25.5053     83.8266
   692.5000      8.0263      2.5903      0.0039      3.6153     25.9843     87.2815
   692.6000      8.0263      2.5605     -0.0271      5.4241     26.7050     88.6489
   692.7000      8.0263      2.5450     -0.0614      6.3647     27.4210     88.6519
   692.8000      8.0316      2.5402      0.0020      6.6537     28.0568     88.9578
   692.9000      8.0316      2.5432     -0.0374      6.4733     28.1963     91.1096
   693.0000      8.0396      2.5532     -0.0032      5.8641     27.8361     97.4865
   693.1000      8.0396      2.5625      0.0006      5.3010     27.6448    107.9415
   693.2000      8.0396      2.5712     -0.0126      4.7734     27.8475    115.0493
   693.3000      8.0427      2.5845      0.0342      3.9725     27.9427    113.6530
   693.4000      8.0427      2.5927      0.0655      3.4754     27.4925    110.8704
   693.5000      8.0419      2.5811      0.0207      4.1763     26.5936    113.0023
   693.6000      8.0419      2.5565     -0.0087      5.6693     25.7030    118.1745
   693.7000      8.0419      2.5384     -0.0068      6.7620     25.3418    122.2706
   693.8000      8.0417      2.5328      0.0256      7.1014     25.4867    122.0054
   693.9000      8.0417      2.5340      0.0144      7.0306     25.4991    117.6797
   694.0000      8.0421      2.5359     -0.0067      6.9173     25.3148    111.7739
   694.1000      8.0421      2.5393      0.0006      6.7082     25.4876    106.3977
   694.2000      8.0421      2.5524     -0.0160      5.9166     25.8170    105.6660
   694.3000      8.0429      2.5690      0.0383      4.9098     25.9225    110.2266
   694.4000      8.0429      2.5677      0.0625      4.9871     25.9530    112.9879
   694.5000      8.0427      2.5464      0.0351      6.2799     25.7767    110.4991
   694.6000      8.0427      2.5307      0.0180      7.2308     25.3594    108.9528
   694.7000      8.0427      2.5438      0.0208      6.4367     24.8815    114.8563
   694.8000      8.0426      2.5760      0.1178      4.4864     24.4125    122.2779
   694.9000      8.0426      2.5962      0.0842      3.2601     23.9345    121.5320
   695.0000      8.0439      2.5899      0.0918      3.6397     23.5072    115.2537
   695.1000      8.0439      2.5606      0.0586      5.4161     23.1765    110.2791
   695.2000      8.0439      2.5216      0.0348      7.7804     22.8147    107.6295
   695.3000      8.0445      2.4929      0.0096      9.5217     22.5133    105.4994
   695.4000      8.0445      2.4866      0.0191      9.9038     22.5312    103.4487
   695.5000      8.0429      2.5020      0.0249      8.9723     22.8542    100.5447
   695.6000      8.0429      2.5324      0.0532      7.1265     23.0683     96.4281
   695.7000      8.0429      2.5658      0.0780      5.1007     22.6986     92.5315
   695.8000      8.0378      2.5896      0.0621      3.6585     21.8502     88.7329
   695.9000      8.0378      2.6016      0.0752      2.9314     21.1505     84.1618
   696.0000      8.0323      2.6075      0.0664      2.5777     20.7143     79.6323
   696.1000      8.0323      2.6160      0.0808      2.0603     20.1940     78.5824
   696.2000      8.0323      2.6300      0.1056      1.2110     19.5120     80.3614
   696.3000      8.0334      2.6430      0.1168      0.4214     18.8129     79.4828
   696.4000      8.0334      2.6490      0.1031      0.0580     18.2562     75.2926
   696.5000      8.0374      2.6460      0.1003      0.2396     17.9382     71.8077
   696.6000      8.0374      2.6351      0.0626      0.9044     18.0558     71.2220
   696.7000      8.0374      2.6205      0.0423      1.7896     18.6483     73.4431
   696.8000      8.0396      2.6032      0.0206      2.8339     19.2001     74.7786
   696.9000      8.0396      2.5824     -0.0003      4.0940     19.3551     73.9023
   697.0000      8.0414      2.5658      0.0172      5.1038     19.5277     73.7695
   697.1000      8.0414      2.5612      0.0069      5.3794     20.1743     74.1249
   697.2000      8.0414      2.5636      0.0450      5.2359     20.9331     73.9192
   697.3000      8.0425      2.5665     -0.0201      5.0610     21.0369     74.0246
   697.4000      8.0425      2.5738      0.0054      4.6204     20.5160     75.6774
   697.5000      8.0417      2.5774      0.0480      4.4027     20.1055     77.6180
   697.6000      8.0417      2.5673      0.0091      5.0125     19.8551     76.8110
   697.7000      8.0417      2.5602      0.0045      5.4421     19.4311     73.6963
   697.8000      8.0412      2.5724      0.0190      4.7002     18.9615     70.5443
   697.9000      8.0412      2.5956      0.0683      3.2960     18.7050     67.0353
   698.0000      8.0414      2.6095      0.0790      2.4572     18.6156     62.8175
   698.1000      8.0414      2.6060      0.0595      2.6688     18.5841     59.0274
   698.2000      8.0414      2.5976      0.0335      3.1740     18.7907     56.7629
   698.3000      8.0406      2.5931      0.0762      3.4491     19.2147     56.3500
   698.4000      8.0406      2.5852      0.0533      3.9285     19.4127     57.0506
   698.5000      8.0408      2.5710      0.0150      4.7885     19.2366     58.9309
   698.6000      8.0408      2.5569      0.0136      5.6413     19.2689     62.1460
   698.7000      8.0408      2.5484      0.0203      6.1549     19.6952     64.7275
   698.8000      8.0431      2.5446      0.0079      6.3907     19.8521     64.8546
   698.9000      8.0431      2.5456     -0.0047      6.3286     19.6155     63.4919
   699.0000      8.0449      2.5499      0.0262      6.0657     19.5168     64.8767
   699.1000      8.0449      2.5527      0.0177      5.8960     19.7681     70.2824
