~Version Information
VERS.                      2.0: CWLS Log ASCII Standard - VERSION 2.0
WRAP.                       NO: One line per depth step
~Well Information Block
STRT.FT               550.0000: 
STOP.FT              1979.0000: 
STEP.FT                 0.1000: 
NULL.                -999.2500: 
COMP.          Pioneer Natural Resources: COMPANY
WELL.          Flying Horse 12-11 Tr: WELL
FLD.           Purgatoire River: FIELD
LOC.           2459' FNL & 410' FWL: LOCATION
STAT.                 Colorado: PROVINCE
CNTY.               Las Animas: COUNTY
CTRY. USA : Country
SECT. 11 : Section
TOWN. 32S : Township
RANG. 66W : Range
SRVC.                Patterson: SERVICE COMPANY
DATE.          Tue Sep 06 07:09:24 2005: LOG DATE
API.           05 071 08485 00: UNIQUE WELL ID
~Curve Information Block
DEPT.FT            0 000 00 00: Depth
DCAL.in                       : CDL Caliper
RHOB.g/cc                     : CDL Bulk Density
RHOC.g/cc                     : CDL Density Correction
DPOR.pu                       : CDL Density Porosity
GR.GAPI                       : Gamma Ray
NPOR.pu                       : Neutron Porosity
~Parameter Information Block
~A  Depth       DCAL        RHOB        RHOC        DPOR         GR         NPOR    
# ...
  1865.2000      7.9592      2.4955      0.0066      9.3624    107.4964     21.3646
  1865.3000      7.9678      2.4991      0.0090      9.1447    111.8959     21.5519
  1865.4000      7.9678      2.5229      0.0802      7.7027    118.9574     22.2712
  1865.5000      7.9664      2.5426      0.1109      6.5103    128.5943     22.7728
  1865.6000      7.9664      2.5446      0.0603      6.3859    139.8009     23.0270
  1865.7000      7.9664      2.5368      0.0707      6.8621    146.5298     24.0622
  1865.8000      8.0156      2.5282      0.0983      7.3815    146.7198     25.6049
  1865.9000      8.0156      2.5192      0.1116      7.9301    145.1792     26.3359
  1866.0000      8.0371      2.5034      0.1066      8.8849    144.8229     26.3297
  1866.1000      8.0371      2.4824      0.0340     10.1564    145.3554     26.3344
  1866.2000      8.0371      2.4639      0.0529     11.2767    148.5616     26.6340
  1866.3000      8.0361      2.4557      0.0129     11.7751    153.6549     27.6342
  1866.4000      8.0361      2.4702      0.0325     10.8983    156.4876     29.0430
  1866.5000      8.0403      2.4979      0.1125      9.2176    160.5846     29.9637
  1866.6000      8.0403      2.5099      0.0665      8.4914    168.3271     30.1020
  1866.7000      8.0403      2.4980      0.0785      9.2098    170.6004     29.5390
  1866.8000      8.0397      2.4750      0.0267     10.6036    164.4220     28.4829
  1866.9000      8.0397      2.4595      0.0331     11.5436    156.7280     27.6926
  1867.0000      8.0319      2.4580      0.0049     11.6344    151.6995     27.7674
  1867.1000      8.0319      2.4585      0.0258     11.6050    149.3276     28.0172
  1867.2000      8.0319      2.4555      0.0070     11.7883    147.9427     27.3970
  1867.3000      8.0451      2.4514      0.0556     12.0373    146.4687     25.8707
  1867.4000      8.0451      2.4386      0.0335     12.8147    146.2491     24.1928
  1867.5000      8.0897      2.4133      0.0459     14.3466    148.0778     23.4087
  1867.6000      8.0897      2.3852     -0.0387     16.0467    149.1317     24.1931
  1867.7000      8.0897      2.3641      0.0082     17.3275    146.5101     25.9798
  1867.8000      8.0860      2.3424      0.0013     18.6430    142.3433     27.2745
  1867.9000      8.0860      2.3180     -0.0069     20.1205    139.1006     27.6910
  1868.0000      8.0510      2.3128     -0.0195     20.4342    137.5361     27.8458
  1868.1000      8.0510      2.3391      0.0743     18.8449    139.6819     27.5856
  1868.2000      8.0510      2.3843      0.0908     16.1060    145.9769     26.6230
  1868.3000      8.0344      2.4386      0.0837     12.8101    153.2312     25.8179
  1868.4000      8.0344      2.5016      0.1416      8.9968    156.1814     26.1139
  1868.5000      7.9915      2.5680      0.1816      4.9720    153.7700     27.6216
  1868.6000      7.9915      2.6202      0.2460      1.8078    149.6036     29.5337
  1868.7000      7.9915      2.6336      0.1982      0.9966    143.6986     30.6138
  1868.8000      7.9456      2.6079      0.1411      2.5544    134.5590     30.6598
  1868.9000      7.9456      2.5721      0.1003      4.7182    124.6617     29.8736
  1869.0000      7.8825      2.5505      0.0798      6.0318    117.8527     28.3557
  1869.1000      7.8825      2.5482      0.0519      6.1698    115.9871     27.3930
  1869.2000      7.8825      2.5601      0.0340      5.4491    118.0420     27.9293
  1869.3000      7.9403      2.5725      0.0555      4.6964    118.6389     29.1729
  1869.4000      7.9403      2.5693      0.0873      4.8917    116.0323     29.9606
  1869.5000      8.0123      2.5495      0.0573      6.0933    117.7667     29.7360
  1869.6000      8.0123      2.5323      0.0688      7.1341    128.6876     28.5400
  1869.7000      8.0123      2.5277      0.0920      7.4134    143.3582     26.9945
  1869.8000      8.0167      2.5313      0.0504      7.1947    153.8620     26.2291
  1869.9000      8.0167      2.5433      0.0845      6.4655    157.7261     26.6997
  1870.0000      7.9982      2.5612      0.0899      5.3810    157.3860     27.7531
  1870.1000      7.9982      2.5724      0.0849      4.7005    155.7337     28.5543
  1870.2000      7.9982      2.5678      0.0442      4.9825    151.9629     28.7831
  1870.3000      8.0142      2.5541      0.0743      5.8125    147.2952     28.7578
  1870.4000      8.0142      2.5475      0.0297      6.2129    146.3636     28.7587
  1870.5000      8.0022      2.5546      0.0729      5.7845    146.0737     28.7212
  1870.6000      8.0022      2.5606      0.1031      5.4186    141.1926     28.4193
  1870.7000      8.0022      2.5548      0.0485      5.7672    137.9100     27.5679
  1870.8000      7.9957      2.5538      0.0407      5.8326    138.3596     26.3130
  1870.9000      7.9957      2.5757      0.0384      4.5013    135.0240     25.3262
  1871.0000      8.0248      2.6095      0.1074      2.4559    127.4924     24.8610
  1871.1000      8.0248      2.6279      0.0798      1.3379    123.1229     24.6734
  1871.2000      8.0248      2.6206      0.0944      1.7840    123.3085     24.7777
  1871.3000      8.0179      2.5974      0.0592      3.1853    125.1055     25.1696
  1871.4000      8.0179      2.5740      0.0538      4.6085    125.5710     25.5276
  1871.5000      7.9973      2.5554      0.0153      5.7326    118.8003     25.4787
  1871.6000      7.9973      2.5424     -0.0133      6.5182    105.5568     24.6444
  1871.7000      7.9973      2.5351      0.0346      6.9615     94.0397     23.4446
  1871.8000      7.9965      2.5323     -0.0150      7.1338     88.8096     23.3227
  1871.9000      7.9965      2.5353      0.0209      6.9520     90.7208     24.8131
  1872.0000      7.9994      2.5386     -0.0036      6.7524     99.8119     26.6599
  1872.1000      7.9994      2.5346      0.0067      6.9917    110.5876     27.2521
  1872.2000      7.9994      2.5214      0.0667      7.7956    115.7144     26.4268
  1872.3000      8.0189      2.5080      0.0164      8.6053    116.5647     25.5611
  1872.4000      8.0189      2.5129      0.0830      8.3098    119.6694     25.7883
  1872.5000      8.0193      2.5351      0.0201      6.9662    125.0636     26.6511
  1872.6000      8.0193      2.5549      0.0778      5.7633    127.1620     27.1840
  1872.7000      8.0193      2.5608      0.0671      5.4042    127.0050     27.1531
  1872.8000      8.0184      2.5570      0.1152      5.6338    132.0662     26.9268
  1872.9000      8.0184      2.5470      0.1136      6.2422    142.7257     26.8961
  1873.0000      8.0368      2.5368      0.0718      6.8606    154.6044     26.9141
  1873.1000      8.0368      2.5350      0.1129      6.9708    163.7142     26.6517
  1873.2000      8.0368      2.5363      0.0704      6.8926    167.1034     26.2254
  1873.3000      8.0620      2.5307      0.0807      7.2285    166.9542     26.1187
  1873.4000      8.0620      2.5170      0.0457      8.0590    166.0168     26.6714
  1873.5000      8.0784      2.5102     -0.0268      8.4719    162.0098     27.5611
  1873.6000      8.0784      2.5252      0.0143      7.5660    153.2661     27.8406
  1873.7000      8.0784      2.5450      0.1529      6.3662    146.0332     27.1907
  1873.8000      8.0440      2.5463      0.0690      6.2843    144.9961     26.2735
  1873.9000      8.0440      2.5471      0.0583      6.2363    144.3624     25.5026
  1874.0000      8.0269      2.5715      0.0640      4.7603    141.1807     24.8321
  1874.1000      8.0269      2.6022      0.1195      2.8968    139.4230     24.6183
  1874.2000      8.0269      2.6117      0.1057      2.3218    139.2149     25.5447
  1874.3000      8.0239      2.6061      0.0195      2.6617    136.3310     26.6834
  1874.4000      8.0239      2.6015      0.0176      2.9424    129.3647     26.1512
  1874.5000      8.0197      2.5945      0.0531      3.3641    122.3218     24.4226
  1874.6000      8.0197      2.5858      0.0158      3.8930    119.6537     23.4356
  1874.7000      8.0197      2.5907      0.0203      3.5928    119.9317     23.6344
