~Version Information
VERS.                      2.0: CWLS Log ASCII Standard - VERSION 2.0
WRAP.                       NO: One line per depth step
~Well Information Block
STRT.FT               360.0000: 
STOP.FT              1349.5000: 
STEP.FT                 0.1000: 
NULL.                -999.2500: 
COMP.          Pioneer Natural Resources: COMPANY
WELL.          Challenger 31-29: WELL
FLD.           Purgatoire River: FIELD
LOC.           51' FNL & 1923' FEL: LOCATION
STAT.                 Colorado: State
CNTY.               Las Animas: COUNTY
CTRY. USA : Country
SECT. 29 : Section
TOWN. 33S : Township
RANG. 65W : Range
SRVC.                Patterson: SERVICE COMPANY
DATE.          Thu Sep 15 13:35:50 2005: LOG DATE
API.           05 071 08514 00: UNIQUE WELL ID
~Curve Information Block
DEPT.FT            0 000 00 00: Depth
DCAL.in                       : CDL Caliper
RHOB.g/cc                     : CDL Bulk Density
RHOC.g/cc                     : CDL Density Correction
DPOR.pu                       : CDL Density Porosity
GR.GAPI                       : Gamma Ray
NPOR.pu                       : Neutron Porosity
~Parameter Information Block
~A  Depth       DCAL        RHOB        RHOC        DPOR         GR         NPOR    
# ...
  1339.2000      7.9078      2.5759      0.1502      4.4922   -999.2500   -999.2500
  1339.3000      7.9119      2.5595      0.1194      5.4863   -999.2500   -999.2500
  1339.4000      7.9119      2.5603      0.1235      5.4357   -999.2500   -999.2500
  1339.5000      7.8613      2.5909      0.1661      3.5823   -999.2500   -999.2500
  1339.6000      7.8613      2.6202      0.1559      1.8035   -999.2500   -999.2500
  1339.7000      7.8613      2.6295      0.1034      1.2416   -999.2500   -999.2500
  1339.8000      7.9200      2.6216      0.1097      1.7189   -999.2500   -999.2500
  1339.9000      7.9200      2.6030      0.1062      2.8512   -999.2500   -999.2500
  1340.0000      7.9250      2.5875      0.1507      3.7897   -999.2500   -999.2500
  1340.1000      7.9250      2.5865      0.0924      3.8485   -999.2500   -999.2500
  1340.2000      7.9250      2.5927      0.0882      3.4733   -999.2500   -999.2500
  1340.3000      7.9860      2.5928      0.1248      3.4669   -999.2500   -999.2500
  1340.4000      7.9860      2.5911      0.0872      3.5673   -999.2500   -999.2500
  1340.5000      7.9747      2.5927      0.1110      3.4699   -999.2500   -999.2500
  1340.6000      7.9747      2.5924      0.0765      3.4911   -999.2500   -999.2500
  1340.7000      7.9747      2.5920      0.0997      3.5153   -999.2500   -999.2500
  1340.8000      7.9623      2.5913      0.0675      3.5603   -999.2500   -999.2500
  1340.9000      7.9623      2.5789      0.0686      4.3062   -999.2500   -999.2500
  1341.0000      7.9632      2.5494      0.1001      6.0948   -999.2500   -999.2500
  1341.1000      7.9632      2.5240      0.0027      7.6369   -999.2500   -999.2500
  1341.2000      7.9632      2.5262      0.0678      7.5039   -999.2500   -999.2500
  1341.3000      7.9800      2.5427      0.0900      6.5040   -999.2500   -999.2500
  1341.4000      7.9800      2.5475      0.0572      6.2101   -999.2500   -999.2500
  1341.5000      7.9845      2.5434      0.0502      6.4577   -999.2500   -999.2500
  1341.6000      7.9845      2.5546      0.0608      5.7825   -999.2500   -999.2500
  1341.7000      7.9845      2.5842      0.1419      3.9900   -999.2500   -999.2500
  1341.8000      7.9777      2.6116      0.1304      2.3292   -999.2500   -999.2500
  1341.9000      7.9777      2.6297      0.1571      1.2286   -999.2500   -999.2500
  1342.0000      7.9530      2.6444      0.1394      0.3375   -999.2500   -999.2500
  1342.1000      7.9530      2.6515      0.1337     -0.0900   -999.2500   -999.2500
  1342.2000      7.9530      2.6402      0.1129      0.5924   -999.2500   -999.2500
  1342.3000      7.9279      2.6209      0.0743      1.7657   -999.2500   -999.2500
  1342.4000      7.9279      2.6175      0.0799      1.9667   -999.2500   -999.2500
  1342.5000      7.9007      2.6321      0.1387      1.0840   -999.2500   -999.2500
  1342.6000      7.9007      2.6420      0.1408      0.4825   -999.2500   -999.2500
  1342.7000      7.9007      2.6364      0.0870      0.8266   -999.2500   -999.2500
  1342.8000      7.9003      2.6237      0.0907      1.5951   -999.2500   -999.2500
  1342.9000      7.9003      2.6138      0.1140      2.1933   -999.2500   -999.2500
  1343.0000      7.9117      2.6084      0.1370      2.5239   -999.2500   -999.2500
  1343.1000      7.9117      2.5933      0.1714      3.4373   -999.2500   -999.2500
  1343.2000      7.9117      2.5674      0.0902      5.0073   -999.2500   -999.2500
  1343.3000      7.9154      2.5542      0.0967      5.8043   -999.2500   -999.2500
  1343.4000      7.9154      2.5654      0.0599      5.1265   -999.2500   -999.2500
  1343.5000      7.9335      2.5915      0.1003      3.5425   -999.2500   -999.2500
  1343.6000      7.9335      2.6098      0.1617      2.4344   -999.2500   -999.2500
  1343.7000      7.9335      2.6047      0.1338      2.7469   -999.2500   -999.2500
  1343.8000      7.9280      2.5895      0.0952      3.6656   -999.2500   -999.2500
  1343.9000      7.9280      2.5804      0.1343      4.2174   -999.2500   -999.2500
  1344.0000      7.9464      2.5800      0.0713      4.2402   -999.2500   -999.2500
  1344.1000      7.9464      2.5903      0.1008      3.6156   -999.2500   -999.2500
  1344.2000      7.9464      2.6032      0.1573      2.8358   -999.2500   -999.2500
  1344.3000      7.9296      2.6041      0.1257      2.7824   -999.2500   -999.2500
  1344.4000      7.9296      2.6005      0.0901      3.0004   -999.2500   -999.2500
  1344.5000      7.9176      2.6091      0.0562      2.4789   -999.2500   -999.2500
  1344.6000      7.9176      2.6141      0.1450      2.1787   -999.2500   -999.2500
  1344.7000      7.9176      2.5914      0.1302      3.5518   -999.2500   -999.2500
  1344.8000      7.9118      2.5597      0.0730      5.4757   -999.2500   -999.2500
  1344.9000      7.9118      2.5463      0.0737      6.2834   -999.2500   -999.2500
  1345.0000      7.9294      2.5479      0.0948      6.1878   -999.2500   -999.2500
  1345.1000      7.9294      2.5527      0.1175      5.8941   -999.2500   -999.2500
  1345.2000      7.9294      2.5544      0.1404      5.7946   -999.2500   -999.2500
  1345.3000      7.9124      2.5472      0.1335      6.2319   -999.2500   -999.2500
  1345.4000      7.9124      2.5379      0.0890      6.7922   -999.2500   -999.2500
  1345.5000      7.8912      2.5470      0.0793      6.2448   -999.2500   -999.2500
  1345.6000      7.8912      2.5820      0.1667      4.1240   -999.2500   -999.2500
  1345.7000      7.8912      2.6231      0.1976      1.6333   -999.2500   -999.2500
  1345.8000      7.8682      2.6620      0.1587     -0.7287   -999.2500   -999.2500
  1345.9000      7.8682      2.7357      0.1108     -5.1929   -999.2500   -999.2500
  1346.0000      7.8829      2.7453      0.1493     -5.7761   -999.2500   -999.2500
  1346.1000      7.8829      2.2830      0.5384     22.2430   -999.2500   -999.2500
  1346.2000      7.8829      1.2915      0.0300     82.3325   -999.2500   -999.2500
  1346.3000      7.8383      0.4370      0.0300    134.1217   -999.2500   -999.2500
  1346.4000      7.8383      0.0829   -999.2500    155.5831   -999.2500   -999.2500
  1346.5000      7.4326      0.0085   -999.2500    160.0887   -999.2500   -999.2500
  1346.6000      7.4326      0.0005   -999.2500    160.5780   -999.2500   -999.2500
  1346.7000      7.4326      0.0000   -999.2500    160.6061   -999.2500   -999.2500
  1346.8000      5.3705      0.0000   -999.2500    160.6061   -999.2500   -999.2500
  1346.9000      5.3705   -999.2500   -999.2500   -999.2500   -999.2500   -999.2500
  1347.0000      5.0937   -999.2500   -999.2500   -999.2500   -999.2500   -999.2500
  1347.1000      5.0937   -999.2500   -999.2500   -999.2500   -999.2500   -999.2500
  1347.2000      5.0937   -999.2500   -999.2500   -999.2500   -999.2500   -999.2500
  1347.3000   -999.2500   -999.2500   -999.2500   -999.2500   -999.2500   -999.2500
  1347.4000   -999.2500   -999.2500   -999.2500   -999.2500   -999.2500   -999.2500
  1347.5000   -999.2500   -999.2500   -999.2500   -999.2500   -999.2500   -999.2500
  1347.6000   -999.2500   -999.2500   -999.2500   -999.2500   -999.2500   -999.2500
  1347.7000   -999.2500   -999.2500   -999.2500   -999.2500   -999.2500   -999.2500
  1347.8000   -999.2500   -999.2500   -999.2500   -999.2500   -999.2500   -999.2500
  1347.9000   -999.2500   -999.2500   -999.2500   -999.2500   -999.2500   -999.2500
  1348.0000   -999.2500   -999.2500   -999.2500   -999.2500   -999.2500   -999.2500
  1348.1000   -999.2500   -999.2500   -999.2500   -999.2500   -999.2500   -999.2500
  1348.2000   -999.2500   -999.2500   -999.2500   -999.2500   -999.2500   -999.2500
  1348.3000   -999.2500   -999.2500   -999.2500   -999.2500   -999.2500   -999.2500
  1348.4000   -999.2500   -999.2500   -999.2500   -999.2500   -999.2500   -999.2500
  1348.5000   -999.2500   -999.2500   -999.2500   -999.2500   -999.2500   -999.2500
  1348.6000   -999.2500   -999.2500   -999.2500   -999.2500   -999.2500   -999.2500
  1348.7000   -999.2500   -999.2500   -999.2500   -999.2500   -999.2500   -999.2500
