~Version Information
VERS.                      2.0: CWLS Log ASCII Standard - VERSION 2.0
WRAP.                       NO: One line per depth step
~Well Information Block
STRT.FT                 0.0000: 
STOP.FT              1981.7500: 
STEP.FT                 0.2500: 
NULL.                -999.2500: 
COMP.          Petrogulf Corporation: COMPANY
WELL.          Collister 17-31R: WELL
FLD.           Purgatorie River: FIELD
LOC.           962' FNL & 1520' FEL: LOCATION
STAT.                 Colorado: State
CNTY.               Las Animas: COUNTY
CTRY. USA : Country
SECT. 17 : Section
TOWN. 33S : Township
RANG. 67W : Range
SRVC.                Patterson: SERVICE COMPANY
DATE.          Fri Jan 06 10:32:29 2006: LOG DATE
API. 05-071-08436                         : UNIQUE WELL ID
~Curve Information Block
DEPT.FT            0 000 00 00: Depth
CCL.                          : Casing Collar Locator
TT3.usec                      : CBL 3' Travel Time
AMP3.mV                       : CBL 3' Amplitude
GR.GAPI                       : Gamma Ray
~Parameter Information Block
~A  Depth       CCL         TT3         AMP3         GR     
# ...
  1943.0000      0.0000    728.3107      4.5140    126.3991
  1943.2500      0.0000    717.1798      4.5375    130.4987
  1943.5000      0.0000    701.5571      4.5693    129.5332
  1943.7500      0.0000    691.3708      4.6354    124.7883
  1944.0000      0.0000    690.6686      4.7191    118.1125
  1944.2500      0.0000    698.2403      4.7791    111.2578
  1944.5000      0.0000    705.5865      4.8073    105.1860
  1944.7500      0.0000    703.1485      4.8113     99.8332
  1945.0000      0.0000    691.3467      4.7568     94.4484
  1945.2500      0.0000    678.7377      4.5758     88.4904
  1945.5000      0.0000    671.4327      4.2548     82.5163
  1945.7500      0.0000    669.0288      3.8824     78.1887
  1946.0000      0.0000    667.8649      3.5750     77.1934
  1946.2500      0.0000    666.4417      3.3841     79.7047
  1946.5000      0.0000    667.3904      3.2800     83.5275
  1946.7500      0.0000    673.1733      3.1929     85.0337
  1947.0000      0.0000    681.0234      3.0725     81.6689
  1947.2500      0.0000    685.0974      2.9227     73.9282
  1947.5000      0.0000    684.1182      2.7864     64.8730
  1947.7500      0.0000    683.1593      2.7063     57.7119
  1948.0000      0.0000    686.5578      2.7218     53.6950
  1948.2500      0.0000    692.9794      2.8692     51.8399
  1948.5000      0.0000    699.0054      3.1200     50.2943
  1948.7500      0.0000    703.1883      3.3622     48.0375
  1949.0000      0.0000    705.6520      3.4884     45.6081
  1949.2500      0.0000    707.8199      3.4854     44.2802
  1949.5000      0.0000    713.2039      3.4574     44.5618
  1949.7500      0.0000    724.3364      3.5578     45.7250
  1950.0000      0.0000    737.8842      3.8552     46.7776
  1950.2500      0.0000    746.9941      4.2766     47.4908
  1950.5000      0.0000    746.9351      4.6829     48.2724
  1950.7500      0.0000    737.0080      4.9699     49.3323
  1951.0000      0.0000    721.8517      5.1042     50.2931
  1951.2500      0.0000    709.6231      5.1220     50.6614
  1951.5000      0.0000    708.4556      5.0941     50.5643
  1951.7500      0.0000    721.6967      5.0407     50.7816
  1952.0000      0.0000    739.0839      4.9198     51.8251
  1952.2500      0.0000    741.8158      4.7404     53.1451
  1952.5000      0.0000    724.2981      4.6042     53.6011
  1952.7500      0.0000    699.7748      4.5929     52.7687
  1953.0000      0.0000    683.0809      4.6902     51.6104
  1953.2500      0.0000    678.9457      4.8201     51.7456
  1953.5000      0.0000    685.5854      4.9115     53.9094
  1953.7500      0.0000    700.3693      4.9461     56.9308
  1954.0000      0.0000    721.2433      4.9646     58.3627
  1954.2500      0.0000    744.6669      5.0119     56.4597
  1954.5000      0.0000    763.1025      5.1097     51.6106
  1954.7500      0.0000    769.6570      5.2809     45.8811
  1955.0000      0.0000    765.8374      5.5307     41.3863
  1955.2500      0.0000    759.3071      5.8032     39.1776
  1955.5000      0.0000    755.1669      6.0119     39.2762
  1955.7500      0.0000    753.5917      6.1195     41.1215
  1956.0000      0.0000    753.3356      6.1774     43.7178
  1956.2500      0.0000    754.1262      6.2794     45.8459
  1956.5000      0.0000    756.5426      6.4537     46.7549
  1956.7500      0.0000    760.1974      6.6088     46.6487
  1957.0000      0.0000    762.7413      6.6779     46.2674
  1957.2500      0.0000    763.8849      6.8443     46.1836
  1957.5000      0.0000    769.5103      7.3334     46.5429
  1957.7500      0.0000    786.1695      7.9491     47.0196
  1958.0000      0.0000    808.3041      8.4001     46.9446
  1958.2500      0.0000    815.1175      8.8654     45.9972
  1958.5000      0.0000    790.9456      9.5951     44.7605
  1958.7500     -2.0000    745.9446     10.5225     44.0391
  1959.0000      2.0000    705.6557     11.6175     43.7355
  1959.2500      0.0000    682.6687     13.0702     43.0645
  1959.5000      0.0000    659.8265     14.9372     41.8060
  1959.7500      0.0000    606.7897     16.9391     40.7282
  1960.0000      0.0000    521.0486     19.0054     40.7195
  1960.2500      0.0000    433.6254     21.6506     41.8986
  1960.5000      0.0000    370.9484     25.1510     43.5788
  1960.7500      0.0000    336.1858     29.2129     44.8190
  1961.0000      0.0000    320.2824     33.4282     45.0073
  1961.2500      0.0000    316.1572     36.8459     44.1633
  1961.5000      0.0000    320.7822     38.4851     42.7779
  1961.7500      0.0000    328.6761     38.6593     41.4382
  1962.0000      0.0000    333.9465     38.3695     40.6541
  1962.2500      0.0000    334.9951     38.0682     40.7480
  1962.5000      0.0000    332.1293     37.7404     41.5433
  1962.7500      0.0000    325.5614     37.3990     42.3079
  1963.0000      0.0000    317.1541     37.0966     42.3921
  1963.2500      0.0000    310.1541     36.7930     41.9212
  1963.5000      0.0000    306.0535     36.4205     41.7211
  1963.7500      0.0000    303.9827     35.9565     42.7369
  1964.0000      0.0000    302.7988     35.4310     45.6860
  1964.2500      0.0000    302.0603     34.9940     50.9718
  1964.5000      0.0000    301.6089     34.9122     58.4380
  1964.7500      0.0000    301.3123     35.2573     66.9996
  1965.0000      0.0000    301.1533     35.6292     74.7167
  1965.2500      0.0000    301.1959     35.3992     79.3786
  1965.5000      0.0000    301.4659     34.2705     78.9694
  1965.7500      0.0000    301.8794     32.6222     71.9635
  1966.0000      0.0000    302.2464     31.2078     58.3024
  1966.2500      0.0000    302.4063     30.3938     40.6415
  1966.5000      0.0000    302.3066     30.0038     23.6804
  1966.7500      0.0000    301.9554     29.8888     11.2814
  1967.0000      0.0000    301.4824     30.0264      4.3268
  1967.2500      0.0000    301.1732     30.1495      1.3219
  1967.5000      0.0000    301.2049     29.9754      0.3191
  1967.7500      0.0000    301.4472     29.6547      0.0602
  1968.0000      0.0000    301.6988     29.4695      0.0084
  1968.2500      0.0000    301.8939     29.4531      0.0000
  1968.5000      0.0000    301.9922     29.6102   -999.2500
  1968.7500      0.0000    301.9476     30.0098   -999.2500
  1969.0000      0.0000    301.7918     30.4959   -999.2500
  1969.2500      0.0000    301.5810     30.8123   -999.2500
  1969.5000      0.0000    301.3490     31.0204   -999.2500
  1969.7500      0.0000    301.1988     31.3157   -999.2500
  1970.0000      0.0000    301.2475     31.6836   -999.2500
  1970.2500      0.0000    301.2100     32.1366   -999.2500
  1970.5000      0.0000    299.1517     32.7128   -999.2500
  1970.7500      0.0000    288.3046     32.6046   -999.2500
  1971.0000      0.0000    255.1686     29.8062   -999.2500
  1971.2500      0.0000    190.7999     22.9532   -999.2500
  1971.5000      0.0000    110.5675     13.8620   -999.2500
  1971.7500      0.0000     46.3902      6.4319   -999.2500
  1972.0000      0.0000     13.4599      2.5827   -999.2500
  1972.2500      0.0000      2.6232      1.3094   -999.2500
  1972.5000      0.0000      0.3363      1.0397   -999.2500
  1972.7500      0.0000      0.0268      1.0032   -999.2500
  1973.0000      0.0000   -999.2500   -999.2500   -999.2500
  1973.2500      0.0000   -999.2500   -999.2500   -999.2500
  1973.5000      0.0000   -999.2500   -999.2500   -999.2500
  1973.7500      0.0000   -999.2500   -999.2500   -999.2500
  1974.0000      0.0000   -999.2500   -999.2500   -999.2500
  1974.2500      0.0000   -999.2500   -999.2500   -999.2500
  1974.5000      0.0000   -999.2500   -999.2500   -999.2500
  1974.7500      0.0000   -999.2500   -999.2500   -999.2500
  1975.0000      0.0000   -999.2500   -999.2500   -999.2500
  1975.2500      0.0000   -999.2500   -999.2500   -999.2500
  1975.5000      0.0000   -999.2500   -999.2500   -999.2500
  1975.7500      0.0000   -999.2500   -999.2500   -999.2500
  1976.0000      0.0000   -999.2500   -999.2500   -999.2500
  1976.2500      0.0000   -999.2500   -999.2500   -999.2500
