~Version Information
VERS.                      2.0: CWLS Log ASCII Standard - VERSION 2.0
WRAP.                       NO: One line per depth step
~Well Information Block
STRT.FT               875.0000: 
STOP.FT              2054.5000: 
STEP.FT                 0.2500: 
NULL.                -999.2500: 
COMP.          Pioneer Natural Resources: COMPANY
WELL.          Woodstock 43-19: WELL
FLD.           Purgatoire River: FIELD
LOC.           2195' FSL & 250' FEL: LOCATION
CNTY.               Las Animas: COUNTY
SRVC.                Patterson: SERVICE COMPANY
DATE.          Thu Feb 02 03:08:19 2006: LOG DATE
UWI.           05 071 08677 00: UNIQUE WELL ID
STAT.                 Colorado: STATE
~Curve Information Block
DEPT.FT            0 000 00 00: Depth
SN.Ohm-m                      : IEL Short Normal
SP.mV                         : IEL Spontaneous Potential
DIR.Ohm-m                     : IEL Induction Resistivity
GR.GAPI                       : Gamma Ray
~Parameter Information Block
~A  Depth        SN          SP         DIR          GR     
# ...
  1478.0000     15.6953     43.3535     12.8960    101.4240
  1478.2500     15.5551     43.3733     13.1266     99.8858
  1478.5000     15.5401     43.3946     13.3356    100.7601
  1478.7500     15.8921     43.4237     13.5169    103.1572
  1479.0000     16.5465     43.4643     13.6525    108.8514
  1479.2500     17.1373     43.5164     13.7160    113.4771
  1479.5000     17.3523     43.5775     13.6821    120.0057
  1479.7500     17.1401     43.6443     13.5387    122.9394
  1480.0000     16.5656     43.7135     13.2926    124.0582
  1480.2500     15.6905     43.7798     12.9639    123.0367
  1480.5000     14.6757     43.8362     12.5752    121.3315
  1480.7500     13.7954     43.8786     12.1451    121.6310
  1481.0000     13.2360     43.9132     11.6897    125.3622
  1481.2500     12.9612     43.9581     11.2250    129.7236
  1481.5000     12.7766     44.0340     10.7669    137.7479
  1481.7500     12.4987     44.1504     10.3280    143.1342
  1482.0000     12.1302     44.2999      9.9156    149.4640
  1482.2500     11.7836     44.4623      9.5319    151.6670
  1482.5000     11.4186     44.6175      9.1756    151.7906
  1482.7500     10.9501     44.7568      8.8437    150.6666
  1483.0000     10.4881     44.8848      8.5324    149.6604
  1483.2500     10.1414     45.0102      8.2385    150.4917
  1483.5000      9.8480     45.1301      7.9598    153.6861
  1483.7500      9.5526     45.2269      7.6960    155.8295
  1484.0000      9.2835     45.2819      7.4495    156.8813
  1484.2500      9.0636     45.2920      7.2244    155.8957
  1484.5000      8.9250     45.2737      7.0254    153.2049
  1484.7500      8.9118     45.2520      6.8556    151.4703
  1485.0000      8.9193     45.2483      6.7142    149.3803
  1485.2500      8.7358     45.2752      6.5966    148.0884
  1485.5000      8.3387     45.3347      6.4949    145.8914
  1485.7500      7.9423     45.4157      6.4003    144.2010
  1486.0000      7.7512     45.4984      6.3053    141.4866
  1486.2500      7.8056     45.5657      6.2061    139.7075
  1486.5000      8.0267     45.6150      6.1028    137.0026
  1486.7500      8.2718     45.6621      5.9995    134.7322
  1487.0000      8.3660     45.7338      5.9023    129.7391
  1487.2500      8.2227     45.8566      5.8174    125.5352
  1487.5000      7.9549     46.0459      5.7490    119.9133
  1487.7500      7.7474     46.3002      5.6986    117.9218
  1488.0000      7.6423     46.6015      5.6657    118.0601
  1488.2500      7.6046     46.9210      5.6487    119.3985
  1488.5000      7.6506     47.2265      5.6458    121.4181
  1488.7500      7.7483     47.4933      5.6548    122.2924
  1489.0000      7.8267     47.7118      5.6734    123.4765
  1489.2500      7.9346     47.8887      5.6993    124.8717
  1489.5000      8.1747     48.0373      5.7307    128.5093
  1489.7500      8.5218     48.1672      5.7663    131.8375
  1490.0000      8.7858     48.2807      5.8047    137.5182
  1490.2500      8.7671     48.3781      5.8450    141.2741
  1490.5000      8.5311     48.4633      5.8868    145.9230
  1490.7500      8.3504     48.5442      5.9309    147.9403
  1491.0000      8.3108     48.6273      5.9784    149.3583
  1491.2500      8.2720     48.7140      6.0291    149.7293
  1491.5000      8.1361     48.8003      6.0811    150.5624
  1491.7500      7.9655     48.8803      6.1315    151.6826
  1492.0000      7.8859     48.9462      6.1781    153.8897
  1492.2500      7.9102     48.9882      6.2210    155.0616
  1492.5000      7.9661     48.9973      6.2613    155.0877
  1492.7500      8.0438     48.9724      6.2994    153.4745
  1493.0000      8.1526     48.9260      6.3328    148.9167
  1493.2500      8.2163     48.8817      6.3568    145.4819
  1493.5000      8.1349     48.8654      6.3663    142.3455
  1493.7500      7.9130     48.8990      6.3590    142.7232
  1494.0000      7.7089     48.9953      6.3361    146.7485
  1494.2500      7.7054     49.1479      6.3025    150.3633
  1494.5000      7.8623     49.3297      6.2642    154.3715
  1494.7500      7.9395     49.5089      6.2267    155.1581
  1495.0000      7.8100     49.6697      6.1939    153.6058
  1495.2500      7.6169     49.8166      6.1675    151.4949
  1495.5000      7.6013     49.9623      6.1482    148.3254
  1495.7500      7.8035     50.1164      6.1355    146.8667
  1496.0000      8.0326     50.2829      6.1289    145.7100
  1496.2500      8.1375     50.4631      6.1277    145.1437
  1496.5000      8.1200     50.6547      6.1315    143.8231
  1496.7500      8.0462     50.8499      6.1394    142.5528
  1497.0000      7.9909     51.0355      6.1500    140.3828
  1497.2500      7.9723     51.1981      6.1614    138.9646
  1497.5000      7.9562     51.3288      6.1716    137.3346
  1497.7500      7.9734     51.4271      6.1796    137.0140
  1498.0000      8.1094     51.5019      6.1859    138.2880
  1498.2500      8.3549     51.5688      6.1925    140.1956
  1498.5000      8.5499     51.6432      6.2024    143.8123
  1498.7500      8.5287     51.7343      6.2181    146.3808
  1499.0000      8.3182     51.8440      6.2406    150.3988
  1499.2500      8.0869     51.9690      6.2693    153.0363
  1499.5000      7.9273     52.1031      6.3023    156.0142
  1499.7500      7.8352     52.2385      6.3369    156.7419
  1500.0000      7.8453     52.3708      6.3711    155.4541
  1500.2500      8.0171     52.5013      6.4040    153.0570
  1500.5000      8.2846     52.6325      6.4365    147.6728
  1500.7500      8.5171     52.7576      6.4704    143.5105
  1501.0000      8.7024     52.8539      6.5085    137.9501
  1501.2500      8.8821     52.8939      6.5549    135.6054
  1501.5000      9.0451     52.8700      6.6156    134.9672
  1501.7500      9.1548     52.8073      6.6986    136.3620
  1502.0000      9.1490     52.7480      6.8120    140.3576
  1502.2500      8.9964     52.7241      6.9613    143.7454
  1502.5000      8.7847     52.7450      7.1489    149.0774
  1502.7500      8.6363     52.8047      7.3739    152.2033
  1503.0000      8.5981     52.8928      7.6349    154.8769
  1503.2500      8.7170     52.9984      7.9315    154.5840
  1503.5000      9.1188     53.1135      8.2672    150.5457
  1503.7500      9.8815     53.2375      8.6495    145.5081
  1504.0000     10.9101     53.3834      9.0905    134.3224
  1504.2500     12.0275     53.5753      9.6058    124.3673
  1504.5000     13.1584     53.8373     10.2146    106.9355
  1504.7500     14.4131     54.1798     10.9412     95.4602
  1505.0000     16.0231     54.5939     11.8141     81.6652
  1505.2500     18.2288     55.0566     12.8615     75.4151
  1505.5000     21.2101     55.5407     14.1025     69.2812
  1505.7500     24.8437     56.0245     15.5428     66.1619
  1506.0000     28.5219     56.4977     17.1775     61.4802
  1506.2500     31.8938     56.9636     18.9953     58.0024
  1506.5000     35.4426     57.4349     20.9682     52.1488
  1506.7500     39.5002     57.9261     23.0282     47.9486
  1507.0000     43.6735     58.4455     25.0514     41.6886
  1507.2500     47.7107     58.9889     26.8835     37.8485
  1507.5000     51.8215     59.5412     28.4050     32.8021
  1507.7500     56.1310     60.0875     29.5952     29.8645
  1508.0000     60.4407     60.6240     30.5390     26.0673
  1508.2500     64.4410     61.1591     31.3729     24.1040
  1508.5000     67.9664     61.7051     32.2114     22.5091
  1508.7500     70.8262     62.2751     33.0905     22.5319
  1509.0000     72.6321     62.8837     33.9516     23.8716
  1509.2500     73.2590     63.5420     34.6738     25.0593
  1509.5000     72.8027     64.2449     35.1517     26.2097
  1509.7500     71.1170     64.9657     35.3590     26.2509
  1510.0000     68.6108     65.6673     35.3313     25.3795
  1510.2500     66.5586     66.3205     35.0820     24.4695
  1510.5000     65.4220     66.9096     34.5429     23.1767
  1510.7500     64.3121     67.4196     33.5926     22.6641
  1511.0000     62.5505     67.8193     32.1487     22.6586
  1511.2500     60.3738     68.0587     30.2398     23.0901
