~Version Information
VERS.                      2.0: CWLS Log ASCII Standard - VERSION 2.0
WRAP.                       NO: One line per depth step
~Well Information Block
STRT.FT                -7.5000: 
STOP.FT              1310.7500: 
STEP.FT                 0.2500: 
NULL.                -999.2500: 
COMP.          Pioneer Natural Resources: COMPANY
WELL.          Challenger 31-29: WELL
FLD.           Purgatorie River: FIELD
LOC.           51' FNL & 1923' FEL------: LOCATION
STAT.                       CO: State
CNTY.               Las Animas: COUNTY
CTRY. USA : Country
SECT. 29 : Section
TOWN. 33S : Township
RANG. 65W : Range
SRVC.          Patterson Wireline: SERVICE COMPANY
DATE.          Wed Sep 21 12:11:38 2005: LOG DATE
API.           05 071 08514 00: UNIQUE WELL ID
~Curve Information Block
DEPT.FT            0 000 00 00: Depth
CCL.                          : Casing Collar Locator
TT3.usec                      : CBL 3' Travel Time
AMP3.mV                       : CBL 3' Amplitude
GR.GAPI                       : Gamma Ray
~Parameter Information Block
~A  Depth       CCL         TT3         AMP3         GR     
# ...
  1165.0000      0.0000    767.3254     13.0359     66.2247
  1165.2500      0.0000    757.4892     13.1281     70.7543
  1165.5000      0.0000    755.9421     13.2406     73.1004
  1165.7500      0.0000    762.1482     13.3622     72.1842
  1166.0000      0.0000    770.4665     13.4730     68.7632
  1166.2500      0.0000    773.6135     13.5465     64.8877
  1166.5000      0.0000    766.2645     13.5623     62.4324
  1166.7500      0.0000    747.0442     13.5142     62.4376
  1167.0000      0.0000    720.1167     13.4088     65.4551
  1167.2500      0.0000    696.0819     13.2591     71.6304
  1167.5000      0.0000    687.8496     13.0822     80.0683
  1167.7500      0.0000    701.0854     12.9005     88.5506
  1168.0000      0.0000    728.8080     12.7388     94.5288
  1168.2500      0.0000    757.5181     12.6153     96.6984
  1168.5000      0.0000    777.8293     12.5348     95.6090
  1168.7500      0.0000    788.4250     12.4933     92.8041
  1169.0000      0.0000    792.6426     12.4853     89.5678
  1169.2500      0.0000    794.1776     12.5055     86.6267
  1169.5000      0.0000    795.5638     12.5465     84.8103
  1169.7500      0.0000    798.4672     12.5974     85.4391
  1170.0000      0.0000    803.8293     12.6442     89.5918
  1170.2500      0.0000    811.3687     12.6753     96.9150
  1170.5000      0.0000    819.1755     12.6924    105.3862
  1170.7500      0.0000    824.4857     12.7143    112.2753
  1171.0000      0.0000    825.4006     12.7646    115.1783
  1171.2500      0.0000    822.3340     12.8509    112.5353
  1171.5000      0.0000    817.9866     12.9597    104.2213
  1171.7500      0.0000    815.5757     13.0663     92.2487
  1172.0000      0.0000    816.3695     13.1508     80.4745
  1172.2500      0.0000    818.5468     13.2126     72.7089
  1172.5000      0.0000    818.5717     13.2705     70.4816
  1172.7500      0.0000    813.8422     13.3393     72.4209
  1173.0000      0.0000    804.1298     13.4087     75.7316
  1173.2500      0.0000    790.9268     13.4562     78.3059
  1173.5000      0.0000    776.2957     13.4777     79.7076
  1173.7500      0.0000    762.6341     13.4890     80.7800
  1174.0000      0.0000    752.9373     13.4910     82.6609
  1174.2500      0.0000    750.3061     13.4363     85.8473
  1174.5000      0.0000    756.9283     13.2302     89.7090
  1174.7500      0.0000    772.9798     12.7857     92.6588
  1175.0000      0.0000    794.9128     12.1394     92.7261
  1175.2500      0.0000    814.3380     11.5431     88.3595
  1175.5000      0.0000    821.7527     11.3630     79.4047
  1175.7500      0.0000    814.6829     11.7863     67.5213
  1176.0000      0.0000    800.5198     12.6412     55.3692
  1176.2500      0.0000    788.6127     13.5565     45.2595
  1176.5000      0.0000    781.3231     14.2585     38.5157
  1176.7500      0.0000    774.5807     14.6878     35.6699
  1177.0000      0.0000    764.6160     14.9212     36.7867
  1177.2500      0.0000    751.5389     15.0679     41.4982
  1177.5000      0.0000    737.3759     15.2193     48.9726
  1177.7500      0.0000    722.5022     15.4276     58.0723
  1178.0000      0.0000    705.0634     15.6934     67.4981
  1178.2500      0.0000    684.7570     15.9783     75.8976
  1178.5000      0.0000    667.2914     16.2363     82.4008
  1178.7500      0.0000    662.2452     16.4284     87.1550
  1179.0000      0.0000    673.6877     16.5069     90.7064
  1179.2500      0.0000    694.1935     16.4099     93.0085
  1179.5000      0.0000    709.9730     16.1047     93.9082
  1179.7500      0.0000    711.1365     15.6401     94.2305
  1180.0000      0.0000    698.1195     15.1335     95.0986
  1180.2500      0.0000    681.9827     14.6939     96.1700
  1180.5000      0.0000    677.9807     14.3629     95.5821
  1180.7500      0.0000    694.0568     14.1250     92.0568
  1181.0000      0.0000    724.2611     13.9572     86.7176
  1181.2500      0.0000    755.0077     13.8597     82.3578
  1181.5000      0.0000    776.8410     13.8451     80.7529
  1181.7500      0.0000    789.1150     13.9095     80.9522
  1182.0000      0.0000    796.3308     14.0211     80.4436
  1182.2500      0.0000    802.9308     14.1373     77.6049
  1182.5000      0.0000    810.7242     14.2296     72.6238
  1182.7500      0.0000    818.8023     14.2951     66.5331
  1183.0000      0.0000    825.0019     14.3494     60.3325
  1183.2500      0.0000    828.0080     14.4085     55.1560
  1183.5000      0.0000    828.4714     14.4701     52.4313
  1183.7500      0.0000    828.2105     14.5137     53.0799
  1184.0000      0.0000    828.2447     14.5223     56.5325
  1184.2500      0.0000    827.7435     14.5032     60.9012
  1184.5000      0.0000    825.0581     14.4836     64.2394
  1184.7500      0.0000    819.7075     14.4851     65.6230
  1185.0000      0.0000    813.0606     14.5040     65.2207
  1185.2500      0.0000    806.8112     14.5213     63.8247
  1185.5000      0.0000    800.8792     14.5289     62.5797
  1185.7500      0.0000    793.4207     14.5396     62.5330
  1186.0000      0.0000    783.0744     14.5720     63.6254
  1186.2500      0.0000    770.5440     14.6313     64.4711
  1186.5000      0.0000    757.7258     14.7084     63.9810
  1186.7500      0.0000    746.2269     14.7916     62.8534
  1187.0000      0.0000    737.1201     14.8704     62.7848
  1187.2500      0.0000    730.9421     14.9292     64.5220
  1187.5000      0.0000    727.2294     14.9476     67.2721
  1187.7500      0.0000    724.8454     14.9189     69.8276
  1188.0000      0.0000    723.3378     14.8685     71.7249
  1188.2500      0.0000    723.4162     14.8407     73.1607
  1188.5000      0.0000    725.5109     14.8647     74.2633
  1188.7500      0.0000    727.8794     14.9346     74.9124
  1189.0000      0.0000    726.3873     15.0218     75.0567
  1189.2500      0.0000    716.0047     15.0976     74.8557
  1189.5000      0.0000    692.6437     15.1383     74.6995
  1189.7500      0.0000    655.7659     15.1147     75.1671
  1190.0000      0.0000    612.1078     14.9811     76.6230
  1190.2500      0.0000    575.1820     14.6996     78.8412
  1190.5000      0.0000    556.1679     14.2962     81.3634
  1190.7500      0.0000    555.3486     13.8663     84.1048
  1191.0000      0.0000    566.2503     13.4819     87.1137
  1191.2500      0.0000    585.4850     13.1213     89.6624
  1191.5000      0.0000    612.4358     12.7463     90.1714
  1191.7500      0.0000    642.1435     12.4043     87.5424
  1192.0000      0.0000    665.9226     12.1869     82.5669
  1192.2500      0.0000    678.6118     12.1236     77.7388
  1192.5000      2.0000    679.9242     12.1791     75.4345
  1192.7500      0.0000    668.2728     12.3276     76.1658
  1193.0000      0.0000    638.0704     12.5993     78.4527
  1193.2500      0.0000    587.0011     13.0597     80.0554
  1193.5000      0.0000    525.3519     13.7283     79.3165
  1193.7500      0.0000    473.9443     14.4902     75.9420
  1194.0000      0.0000    449.6991     15.1339     71.2097
  1194.2500      0.0000    453.9274     15.5423     67.4249
  1194.5000      0.0000    476.5240     15.7919     66.6355
  1194.7500      0.0000    509.4967     16.0031     69.4249
  1195.0000      0.0000    551.6541     16.1748     74.8018
  1195.2500      0.0000    600.5680     16.2400     81.1142
  1195.5000      0.0000    647.1068     16.2034     86.8234
  1195.7500      0.0000    681.4460     16.1397     90.6370
  1196.0000      0.0000    700.7390     16.0935     91.7605
  1196.2500      0.0000    708.5520     16.0377     90.6897
  1196.5000      0.0000    709.1506     15.9229     89.3851
  1196.7500      0.0000    703.7490     15.7334     89.7268
  1197.0000      0.0000    691.3369     15.4902     91.3574
  1197.2500      0.0000    673.0237     15.2181     91.5793
  1197.5000      0.0000    656.0451     14.9243     87.9155
  1197.7500      0.0000    651.2787     14.6127     80.4957
  1198.0000      0.0000    664.0862     14.3115     71.5843
  1198.2500      0.0000    688.7485     14.0806     63.2249
