~Version Information
VERS.                      2.0: CWLS Log ASCII Standard - VERSION 2.0
WRAP.                       NO: One line per depth step
~Well Information Block
STRT.FT               673.2000: 
STOP.FT              1510.5000: 
STEP.FT                 0.1000: 
NULL.                -999.2500: 
COMP.          Pioneer Natural Resources: COMPANY
WELL.          Hammerhead 24-24 Tr: WELL
FLD.           Purgatoire River: FIELD
LOC.           953' FSL & 1922' FWL: LOCATION
PROV.                 Colorado: PROVINCE
CNTY.               Las Animas: COUNTRY
SRVC.                Patterson: SERVICE COMPANY
DATE.          Mon Jan 30 07:27:57 2006: LOG DATE
UWI.           05 071 08669 00: UNIQUE WELL ID
~Curve Information Block
DEPT.FT            0 000 00 00: Depth
DCAL.in                       : CDL Caliper
RHOB.g/cc                     : CDL Bulk Density
RHOC.g/cc                     : CDL Density Correction
DPOR.pu                       : CDL Density Porosity
GR.GAPI                       : Gamma Ray
~Parameter Information Block
~A  Depth       DCAL        RHOB        RHOC        DPOR         GR     
# ...
  1121.2000      7.9103      2.5394      0.0495      6.7039     78.9146
  1121.3000      7.8964      2.5554      0.0677      5.7313     72.6380
  1121.4000      7.8964      2.5627      0.0824      5.2923     63.2157
  1121.5000      7.8799      2.5599      0.1086      5.4597     56.4883
  1121.6000      7.8799      2.5463      0.1046      6.2851     54.0169
  1121.7000      7.8799      2.5290      0.0784      7.3314     54.3545
  1121.8000      7.8680      2.5252      0.1093      7.5650     57.1442
  1121.9000      7.8680      2.5418      0.1215      6.5592     60.7405
  1122.0000      7.8738      2.5708      0.1581      4.8007     61.8932
  1122.1000      7.8738      2.5999      0.1538      3.0334     59.8039
  1122.2000      7.8738      2.6158      0.1613      2.0744     55.7387
  1122.3000      7.8975      2.6127      0.1093      2.2601     52.1672
  1122.4000      7.8975      2.6025      0.0887      2.8782     54.1793
  1122.5000      7.9198      2.5977      0.1039      3.1696     61.5832
  1122.6000      7.9198      2.5966      0.1156      3.2370     66.0625
  1122.7000      7.9198      2.5905      0.1038      3.6054     62.7702
  1122.8000      7.9288      2.5763      0.0577      4.4674     55.6082
  1122.9000      7.9288      2.5626      0.0529      5.2975     50.7737
  1123.0000      7.9292      2.5659      0.0260      5.0963     50.7203
  1123.1000      7.9292      2.5892      0.0418      3.6862     53.1506
  1123.2000      7.9292      2.6049      0.0859      2.7321     55.4146
  1123.3000      7.9275      2.5900      0.0508      3.6386     56.7483
  1123.4000      7.9275      2.5544      0.0654      5.7940     57.0245
  1123.5000      7.9282      2.5156      0.0395      8.1453     58.0535
  1123.6000      7.9282      2.4906      0.0066      9.6592     61.6847
  1123.7000      7.9282      2.4911      0.0314      9.6296     65.8752
  1123.8000      7.9312      2.5035      0.0388      8.8765     69.1188
  1123.9000      7.9312      2.5094      0.0529      8.5210     70.6390
  1124.0000      7.9312      2.5121      0.0184      8.3599     67.8526
  1124.1000      7.9312      2.5199      0.0323      7.8831     62.7670
  1124.2000      7.9312      2.5284      0.0732      7.3701     61.2977
  1124.3000      7.9299      2.5347      0.0001      6.9874     64.5947
  1124.4000      7.9299      2.5459      0.0485      6.3101     70.0042
  1124.5000      7.9290      2.5615      0.0504      5.3639     75.0339
  1124.6000      7.9290      2.5761      0.0541      4.4807     77.4449
  1124.7000      7.9290      2.5867      0.0539      3.8338     76.6405
  1124.8000      7.9287      2.5884      0.0551      3.7362     76.2711
  1124.9000      7.9287      2.5753      0.0795      4.5300     79.6714
  1125.0000      7.9291      2.5490      0.0456      6.1238     84.6697
  1125.1000      7.9291      2.5228      0.0027      7.7111     87.1487
  1125.2000      7.9291      2.5101      0.0014      8.4764     86.0941
  1125.3000      7.9291      2.5082      0.0001      8.5945     82.7937
  1125.4000      7.9291      2.5062     -0.0096      8.7179     78.7633
  1125.5000      7.9285      2.4988     -0.0389      9.1606     75.5288
  1125.6000      7.9285      2.4891     -0.0613      9.7537     72.1420
  1125.7000      7.9285      2.4858     -0.0348      9.9489     64.2088
  1125.8000      7.9284      2.4845      0.0170     10.0275     52.7005
  1125.9000      7.9284      2.4700     -0.0019     10.9076     45.7278
  1126.0000      7.9287      2.4454      0.0206     12.3997     47.0062
  1126.1000      7.9287      2.4298      0.0064     13.3438     50.5523
  1126.2000      7.9287      2.4389      0.0005     12.7927     50.3488
  1126.3000      7.9295      2.4634      0.0354     11.3118     47.8252
  1126.4000      7.9295      2.4764      0.0482     10.5237     46.0791
  1126.5000      7.9300      2.4753      0.0104     10.5894     45.7281
  1126.6000      7.9300      2.4845      0.0140     10.0301     46.6459
  1126.7000      7.9300      2.5127      0.0558      8.3215     48.3902
  1126.8000      7.9277      2.5409      0.0903      6.6109     49.8129
  1126.9000      7.9277      2.5629      0.0540      5.2788     50.0876
  1127.0000      7.9247      2.5924      0.0657      3.4927     50.7462
  1127.1000      7.9247      2.6116      0.1438      2.3268     54.4723
  1127.2000      7.9247      2.5895      0.0933      3.6656     60.5129
  1127.3000      7.9244      2.5405      0.0775      6.6354     65.6518
  1127.4000      7.9244      2.4997      0.0433      9.1107     68.4348
  1127.5000      7.9248      2.4878      0.0035      9.8331     69.3328
  1127.6000      7.9248      2.5061      0.0647      8.7230     73.1190
  1127.7000      7.9248      2.5380      0.0754      6.7887     83.6689
  1127.8000      7.9199      2.5696      0.0491      4.8697     97.7041
  1127.9000      7.9199      2.5960      0.0737      3.2752    112.5913
  1128.0000      7.9117      2.6125      0.0816      2.2746    124.3521
  1128.1000      7.9117      2.6206      0.0708      1.7804    128.4932
  1128.2000      7.9117      2.6257      0.0776      1.4735    126.6787
  1128.3000      7.9114      2.6268      0.0883      1.4070    124.2574
  1128.4000      7.9114      2.6194      0.0623      1.8558    125.7447
  1128.5000      7.9185      2.6035      0.0489      2.8202    128.4188
  1128.6000      7.9185      2.5811      0.0498      4.1779    129.9930
  1128.7000      7.9185      2.5529      0.0444      5.8874    132.9169
  1128.8000      7.9225      2.5243      0.0251      7.6185    137.5781
  1128.9000      7.9225      2.5028      0.0082      8.9226    141.9585
  1129.0000      7.9210      2.4900      0.0186      9.6954    144.8686
  1129.1000      7.9210      2.4873      0.0430      9.8587    146.7386
  1129.2000      7.9210      2.4951      0.0293      9.3850    146.0482
  1129.3000      7.9186      2.5066      0.0612      8.6888    141.9731
  1129.4000      7.9186      2.5214      0.0498      7.7953    137.7887
  1129.5000      7.9172      2.5433      0.0937      6.4660    135.9255
  1129.6000      7.9172      2.5580      0.1238      5.5756    135.1193
  1129.7000      7.9172      2.5526      0.0875      5.9012    132.6731
  1129.8000      7.9167      2.5419      0.0213      6.5500    125.7566
  1129.9000      7.9167      2.5384      0.0743      6.7608    115.7862
  1130.0000      7.9154      2.5264      0.0383      7.4906    108.4725
  1130.1000      7.9154      2.4941      0.0484      9.4458    104.9126
  1130.2000      7.9154      2.4530      0.0062     11.9423     99.5783
  1130.3000      7.9125      2.4232     -0.0253     13.7460     88.8239
  1130.4000      7.9125      2.4165     -0.0078     14.1536     76.1354
  1130.5000      7.9067      2.4284     -0.0028     13.4330     67.0819
  1130.6000      7.9067      2.4494      0.0084     12.1587     64.6206
  1130.7000      7.9067      2.4656      0.0248     11.1741     67.3255
  1130.8000      7.8951      2.4615      0.0394     11.4226     69.3865
  1130.9000      7.8951      2.4470      0.0283     12.3013     67.0825
  1131.0000      7.8790      2.4543      0.0619     11.8624     63.8010
  1131.1000      7.8790      2.4866      0.1787      9.9016     63.1028
  1131.2000      7.8790      2.5146      0.1726      8.2048     63.2226
  1131.3000      7.8743      2.5216      0.1570      7.7811     62.6522
  1131.4000      7.8743      2.5149      0.1303      8.1850     63.0394
  1131.5000      7.8957      2.5129      0.1057      8.3076     64.4028
  1131.6000      7.8957      2.5231      0.1408      7.6885     66.3885
  1131.7000      7.8957      2.5252      0.1429      7.5644     70.6577
  1131.8000      7.9267      2.5030      0.1334      8.9087     76.8737
  1131.9000      7.9267      2.4753      0.0709     10.5857     81.7427
  1132.0000      7.9464      2.4683      0.0677     11.0142     81.9280
  1132.1000      7.9464      2.4819      0.0898     10.1876     80.6759
  1132.2000      7.9464      2.5027      0.0700      8.9273     82.0517
  1132.3000      7.9516      2.5230      0.0954      7.6949     84.4045
