~Version Information
VERS.                      2.0: CWLS Log ASCII Standard - VERSION 2.0
WRAP.                       NO: One line per depth step
~Well Information Block
STRT.FT               262.2500: 
STOP.FT              1942.0000: 
STEP.FT                 0.2500: 
NULL.                -999.2500: 
COMP.          XTO Energy Inc.: COMPANY
WELL.          Golden Eagle 19-11: WELL
FLD.           Purgatoire River: FIELD
LOC.           2351' FSL & 1926' FWL--: LOCATION
CNTY.               Las Animas: COUNTY
SRVC.                Patterson: SERVICE COMPANY
DATE.          Wed Mar 08 23:33:01 2006: LOG DATE
UWI.           05 071 08696 00: UNIQUE WELL ID
STAT.                 Colorado: STATE
~Curve Information Block
DEPT.FT            0 000 00 00: Depth
SP.mV                         : DIL Spontaneous Potential
RILD.Ohm-m                    : DIL Deep Resistivity
RILM.Ohm-m                    : DIL Medium Resistivity
RLL3.Ohm-m                    : DIL Shallow Resistivity
GR.GAPI                       : Gamma Ray
~Parameter Information Block
~A  Depth        SP         RILD        RILM        RLL3         GR     
# ...
   402.2500   -999.2500     10.2817      9.5376   2000.0000    128.2470
   402.5000   -999.2500     10.4979      9.7308   2000.0000    127.2219
   402.7500   -999.2500     10.7500     10.0119   2000.0000    126.8077
   403.0000   -999.2500     11.0337     10.3802   2000.0000    126.1247
   403.2500   -999.2500     11.3442     10.8248   2000.0000    125.5656
   403.5000   -999.2500     11.6793     11.3267   2000.0000    124.8636
   403.7500   -999.2500     12.0442     11.8635   2000.0000    124.7548
   404.0000   -999.2500     12.4536     12.4154   2000.0000    125.4194
   404.2500   -999.2500     12.9285     12.9724   2000.0000    126.3013
   404.5000   -999.2500     13.4877     13.5412   2000.0000    127.4599
   404.7500   -999.2500     14.1386     14.1489   2000.0000    127.4687
   405.0000   -999.2500     14.8692     14.8388   2000.0000    125.6168
   405.2500   -999.2500     15.6463     15.6575   2000.0000    123.1559
   405.5000   -999.2500     16.4219     16.6367   2000.0000    118.0160
   405.7500   -999.2500     17.1438     17.7740   2000.0000    113.7544
   406.0000   -999.2500     17.7654     19.0208   2000.0000    106.2469
   406.2500   -999.2500     18.2512     20.2810   2000.0000    100.8883
   406.5000   -999.2500     18.5838     21.4200   2000.0000     93.8844
   406.7500   -999.2500     18.7724     22.2864   2000.0000     91.0257
   407.0000   -999.2500     18.8565     22.7517   2000.0000     90.6593
   407.2500   -999.2500     18.8937     22.7633   2000.0000     93.0523
   407.5000   -999.2500     18.9383     22.3746   2000.0000     99.8251
   407.7500   -999.2500     19.0230     21.7198   2000.0000    105.7511
   408.0000   -999.2500     19.1536     20.9533   2000.0000    115.2015
   408.2500   -999.2500     19.3155     20.1982   2000.0000    120.9868
   408.5000   -999.2500     19.4870     19.5294   2000.0000    127.9422
   408.7500   -999.2500     19.6519     18.9827   2000.0000    131.1959
   409.0000   -999.2500     19.8058     18.5744   2000.0000    133.7001
   409.2500   -999.2500     19.9552     18.3196   2000.0000    133.6161
   409.5000   -999.2500     20.1124     18.2408   2000.0000    130.8263
   409.7500   -999.2500     20.2910     18.3662   2000.0000    127.3411
   410.0000   -999.2500     20.5058     18.7207   2000.0000    119.9558
   410.2500   -999.2500     20.7759     19.3157   2000.0000    113.6841
   410.5000   -999.2500     21.1255     20.1441   2000.0000    102.5317
   410.7500   -999.2500     21.5806     21.1791   2000.0000     94.4344
   411.0000   -999.2500     22.1640     22.3797   2000.0000     82.8897
   411.2500   -999.2500     22.8906     23.7003   2000.0000     76.6190
   411.5000   -999.2500     23.7670     25.1054   2000.0000     70.2160
   411.7500   -999.2500     24.7956     26.5809   2000.0000     67.6099
   412.0000   -999.2500     25.9788     28.1378   2000.0000     64.6768
   412.2500   -999.2500     27.3176     29.7988   2000.0000     62.5967
   412.5000   -999.2500     28.8004     31.5700   2000.0000     59.0269
   412.7500   -999.2500     30.3859     33.4107   2000.0000     56.7657
   413.0000   -999.2500     31.9900     35.2211   2000.0000     54.5078
   413.2500   -999.2500     33.4924     36.8677   2000.0000     54.0758
   413.5000   -999.2500     34.7696     38.2407   2000.0000     54.9166
   413.7500   -999.2500     35.7443     39.3031   2000.0000     56.0891
   414.0000   -999.2500     36.4197     40.0965   2000.0000     57.8935
   414.2500   -999.2500     36.8710     40.7035   2000.0000     58.6214
   414.5000   -999.2500     37.2050     41.2021   2000.0000     58.3732
   414.7500   -999.2500     37.5197     41.6367   2000.0000     57.2628
   415.0000   -999.2500     37.8825     42.0077   2000.0000     54.7936
   415.2500   -999.2500     38.3178     42.2794   2000.0000     53.2134
   415.5000   -999.2500     38.7977     42.4096   2000.0000     51.8053
   415.7500   -999.2500     39.2538     42.3929   2000.0000     51.7009
   416.0000   -999.2500     39.6181     42.2888   2000.0000     52.6147
   416.2500   -999.2500     39.8676     42.2078   2000.0000     53.6800
   416.5000   -999.2500     40.0290     42.2559   2000.0000     55.4818
   416.7500   -999.2500     40.1389     42.4750   2000.0000     56.5436
   417.0000   -999.2500     40.2124     42.8139   2000.0000     57.5460
   417.2500   -999.2500     40.2552     43.1492   2000.0000     57.7524
   417.5000   -999.2500     40.2984     43.3522   2000.0000     57.5829
   417.7500   -999.2500     40.4073     43.3601   2000.0000     57.3564
   418.0000   -999.2500     40.6456     43.2041   2000.0000     57.0466
   418.2500   -999.2500     41.0277     42.9792   2000.0000     56.8106
   418.5000   -999.2500     41.4979     42.7841   2000.0000     56.1811
   418.7500   -999.2500     41.9487     42.6762   2000.0000     55.4916
   419.0000   -999.2500     42.2663     42.6549   2000.0000     54.0400
   419.2500   -999.2500     42.3792     42.6738   2000.0000     52.8069
   419.5000   -999.2500     42.2933     42.6749   2000.0000     50.6846
   419.7500   -999.2500     42.0880     42.6303   2000.0000     49.3200
   420.0000   -999.2500     41.8648     42.5623   2000.0000     47.9270
   420.2500   -999.2500     41.6787     42.5192   2000.0000     47.7119
   420.5000   -999.2500     41.5063     42.5210   2000.0000     48.7355
   420.7500   -999.2500     41.2855     42.5281   2000.0000     50.3781
   421.0000   -999.2500     40.9977     42.4684   2000.0000     53.9851
   421.2500   -999.2500     40.7178     42.3056   2000.0000     56.5748
   421.5000   -999.2500     40.5808     42.0820   2000.0000     59.3529
   421.7500   -999.2500     40.6914     41.8887   2000.0000     59.9132
   422.0000   -999.2500     41.0510     41.7917   2000.0000     58.8533
   422.2500   -999.2500     41.5455     41.7826   2000.0000     57.3164
   422.5000   -999.2500     42.0039     41.7916   2000.0000     54.6295
   422.7500   -999.2500     42.2968     41.7505   2000.0000     53.0101
   423.0000   -999.2500     42.4090     41.6526   2000.0000     51.3684
   423.2500   -999.2500     42.4297     41.5657   2000.0000     50.8965
   423.5000   -999.2500     42.4740     41.5860   2000.0000     50.8053
   423.7500   -999.2500     42.6047     41.7707   2000.0000     50.7902
   424.0000   -999.2500     42.8073     42.0909   2000.0000     50.3597
   424.2500   -999.2500     43.0242     42.4379   2000.0000     49.8216
   424.5000   -999.2500     43.2121     42.6877   2000.0000     49.1840
   424.7500   -999.2500     43.3761     42.7826   2000.0000     49.2290
   425.0000   -999.2500     43.5577     42.7593   2000.0000     50.1656
   425.2500   -999.2500     43.7910     42.6956   2000.0000     51.1946
   425.5000   -999.2500     44.0631     42.6278   2000.0000     53.0730
   425.7500   -999.2500     44.3080     42.5191   2000.0000     54.6223
   426.0000   -999.2500     44.4372     42.2991   2000.0000     57.8015
   426.2500   -999.2500     44.3856     41.9346   2000.0000     60.6527
   426.5000   -999.2500     44.1345     41.4676   2000.0000     65.8847
   426.7500   -999.2500     43.6961     40.9929   2000.0000     69.7608
   427.0000   -999.2500     43.0870     40.6028   2000.0000     75.7748
   427.2500   -999.2500     42.3176     40.3455   2000.0000     79.7300
   427.5000   -999.2500     41.3976     40.2208   2000.0000     85.1575
   427.7500   -999.2500     40.3315     40.1964   2000.0000     88.2064
   428.0000   -999.2500     39.0995     40.2187   2000.0000     91.7974
   428.2500   -999.2500     37.6474     40.1997   2000.0000     93.4583
   428.5000   -999.2500     35.9110     39.9918   2000.0000     94.3137
   428.7500   -999.2500     33.8705     39.3867   2000.0000     93.4992
   429.0000   -999.2500     31.5938     38.1688   2000.0000     90.6795
   429.2500   -999.2500     29.2290     36.2168   2000.0000     88.7002
   429.5000   -999.2500     26.9461     33.5886   2000.0000     87.6019
   429.7500   -999.2500     24.8762     30.5204   2000.0000     88.9345
   430.0000   -999.2500     23.0856     27.3321   2000.0000     94.0643
