~Version Information
VERS.                      2.0: CWLS Log ASCII Standard - VERSION 2.0
WRAP.                       NO: One line per depth step
~Well Information Block
STRT.FT                 0.0000: 
STOP.FT               712.5000: 
STEP.FT                 0.2500: 
NULL.                -999.2500: 
COMP.          Pioneer Natural Resources: COMPANY
WELL.                Mia 21-18: WELL
FLD.           Purgatorie River: FIELD
LOC.           1067' FNL & 1824' FWL: LOCATION
PROV.                 Colorado: PROVINCE
CNTY.               Las Animas: COUNTRY
SRVC.                Patterson: SERVICE COMPANY
DATE.          Mon Nov 28 13:12:22 2005: LOG DATE
UWI.           05-071-08559               : UNIQUE WELL ID
~Curve Information Block
DEPT.FT            0 000 00 00: Depth
CCL.                          : Casing Collar Locator
TT3.usec                      : CBL 3' Travel Time
AMP3.mV                       : CBL 3' Amplitude
GR.GAPI                       : Gamma Ray
~Parameter Information Block
~A  Depth       CCL         TT3         AMP3         GR     
     0.0000   -999.2500   1197.0000      0.0008     86.6003
     0.2500   -999.2500   1197.0000     -0.0450     70.6565
     0.5000   -999.2500   1197.0000     -0.0289     66.1092
     0.7500   -999.2500   1197.0000     -0.0262     64.6784
     1.0000   -999.2500   1197.0000     -0.0223     65.0465
     1.2500   -999.2500   1197.0000      0.0093     65.6911
     1.5000   -999.2500   1197.0000      0.0385     65.3015
     1.7500   -999.2500   1197.0000      0.0334     62.7338
     2.0000   -999.2500   1197.0000      0.0129     57.4523
     2.2500   -999.2500   1197.0000     -0.0090     50.2452
     2.5000   -999.2500   1197.0000     -0.0487     43.0155
     2.7500   -999.2500   1197.0000     -0.1030     37.5648
     3.0000   -999.2500   1197.0000     -0.1363     34.7031
     3.2500   -999.2500   1197.0000     -0.1198     34.4144
     3.5000   -999.2500   1197.0000     -0.0639     36.4011
     3.7500   -999.2500   1197.0000     -0.0178     40.1627
     4.0000      0.0000   1197.0000     -0.0152     44.8178
     4.2500      0.0000   1197.0000     -0.0340     49.3608
     4.5000      0.0000   1197.0000     -0.0445     53.2593
     4.7500      0.0000   1197.0000     -0.0503     56.6281
     5.0000      0.0000   1197.0000     -0.0612     59.7338
     5.2500      0.0000   1197.0000     -0.0730     62.3887
     5.5000      0.0000   1197.0000     -0.0763     63.9564
     5.7500      0.0000   1196.9558     -0.0670     64.0942
     6.0000      0.0000   1196.4066     -0.0377     63.3618
     6.2500      0.0000   1192.1863      0.0965     62.7829
     6.5000      0.0000   1170.9894      0.8594     62.8975
     6.7500      0.0000   1100.9028      4.1209     63.5797
     7.0000      0.0000    947.0955     13.5661     64.5497
     7.2500      0.0000    721.3347     31.5306     65.5180
     7.5000      0.0000    498.5248     53.6413     65.9919
     7.7500      0.0000    350.5026     71.1134     65.6143
     8.0000      0.0000    284.5394     79.9250     64.8252
     8.2500      0.0000    264.9648     82.7453     64.7606
     8.5000      0.0000    261.1302     83.3311     66.3060
     8.7500      0.0000    260.6296     83.4377     69.4344
     9.0000      0.0000    260.5820     83.4941     73.4855
     9.2500      0.0000    260.5849     83.6005     77.8095
     9.5000      0.0000    260.5956     83.7839     81.9433
     9.7500      0.0000    260.6039     83.9853     85.3596
    10.0000      0.0000    260.6066     84.1331     87.3974
    10.2500      0.0000    260.6017     84.2090     87.6673
    10.5000      2.0000    260.5841     84.1669     86.4016
    10.7500      0.0000    260.5586     83.7422     84.0482
    11.0000      0.0000    260.5493     82.3708     80.6986
    11.2500      0.0000    260.5939     79.4442     76.6511
    11.5000      0.0000    260.7344     74.7897     73.4797
    11.7500      0.0000    261.0412     68.8189     73.5259
    12.0000      2.0000    261.7954     62.1276     77.7234
    12.2500      2.0000    263.9067     55.1799     84.3010
    12.5000     -2.0000    269.0499     48.3604     90.0984
    12.7500      0.0000    278.2470     41.9489     93.1418
    13.0000      0.0000    290.1490     36.0285     93.7588
    13.2500      0.0000    303.7392     30.6401     93.3166
    13.5000      0.0000    323.9216     25.9015     92.3625
    13.7500      0.0000    359.9132     21.8607     90.4308
    14.0000      0.0000    414.4683     18.4164     87.4195
    14.2500      0.0000    472.6566     15.4747     84.4248
    14.5000      0.0000    507.6556     13.0351     82.8205
    14.7500      0.0000    518.4321     11.0994     82.6951
    15.0000      0.0000    545.0639      9.7137     82.6395
    15.2500      0.0000    613.3306      8.9313     81.2753
    15.5000      0.0000    700.6870      8.5369     78.6283
    15.7500      0.0000    778.1527      8.2618     75.7338
    16.0000      0.0000    840.8734      8.1533     73.3956
    16.2500      0.0000    890.9663      8.2751     71.8940
    16.5000     -2.0000    920.3648      8.4968     71.5081
    16.7500      2.0000    907.5311      8.7002     72.5783
    17.0000      0.0000    836.3380      8.8551     74.9321
    17.2500      0.0000    731.0942      8.9853     77.5688
    17.5000      0.0000    642.6876      9.2132     78.9660
    17.7500      0.0000    588.7559      9.8890     77.5593
    18.0000      0.0000    544.5997     11.3139     72.2701
    18.2500      0.0000    503.1941     13.0205     63.3468
    18.5000      0.0000    490.8039     14.1434     52.8602
    18.7500      0.0000    514.7162     14.5379     43.7746
    19.0000      0.0000    546.7063     14.5942     38.2578
    19.2500      0.0000    557.5727     14.5688     37.0452
    19.5000      0.0000    536.3018     14.5689     39.9804
    19.7500      0.0000    488.1128     14.6285     46.2701
    20.0000      0.0000    435.6247     14.7200     54.1619
    20.2500      0.0000    407.2805     14.8240     61.2255
    20.5000      0.0000    423.8620     14.9288     65.6174
    20.7500      0.0000    491.1447     14.9855     67.2221
    21.0000      0.0000    584.2704     14.9630     67.5029
    21.2500      0.0000    660.7020     14.9182     68.1869
    21.5000      0.0000    703.4581     14.9591     70.0394
    21.7500      0.0000    724.9557     15.1478     72.7175
    22.0000      0.0000    736.5063     15.4492     75.4316
    22.2500      0.0000    741.0331     15.7742     77.5807
    22.5000      0.0000    739.9421     16.0311     79.0436
    22.7500      0.0000    726.6854     16.1412     80.1560
    23.0000      0.0000    685.5666     16.0659     81.3887
    23.2500      0.0000    616.3067     15.8252     82.9441
    23.5000      0.0000    558.5105     15.4690     84.5549
    23.7500      0.0000    560.3505     15.0375     85.5257
    24.0000      0.0000    615.6875     14.5687     84.9455
    24.2500      0.0000    674.6932     14.1023     81.9771
    24.5000      0.0000    708.5909     13.6512     76.3806
    24.7500      0.0000    722.4125     13.2235     69.1322
    25.0000      0.0000    727.3315     12.8445     62.2329
    25.2500      0.0000    728.8389     12.5278     57.5123
    25.5000      0.0000    729.0001     12.2632     55.6903
    25.7500      0.0000    728.7154     12.0409     56.3863
    26.0000      0.0000    728.4281     11.8725     58.4358
    26.2500      0.0000    728.2495     11.7582     60.1940
    26.5000      0.0000    728.1350     11.6554     60.3301
    26.7500      0.0000    728.0801     11.5172     58.8354
    27.0000      0.0000    728.0863     11.3356     57.0419
    27.2500      0.0000    728.1072     11.1357     56.3110
    27.5000      0.0000    728.1315     10.9468     56.7227
    27.7500      0.0000    728.1856     10.7972     57.2174
    28.0000      0.0000    728.2686     10.7119     56.9079
    28.2500      0.0000    728.3710     10.6746     55.9847
    28.5000      0.0000    728.5071     10.6423     55.4092
    28.7500      0.0000    728.6466     10.6002     56.0104
    29.0000      0.0000    728.6206     10.5590     57.9635
    29.2500      0.0000    728.0742     10.5179     60.8149
    29.5000      0.0000    726.1667     10.4637     63.6579
    29.7500      0.0000    721.3452     10.4003     65.4324
    30.0000      0.0000    713.3148     10.3450     65.5337
    30.2500      0.0000    706.3024     10.3018     64.2427
    30.5000      0.0000    706.3494     10.2565     62.4021
    30.7500      0.0000    713.4174     10.1992     60.6913
    31.0000      0.0000    721.3522     10.1386     59.3273
    31.2500      0.0000    725.8558     10.0804     58.2912
    31.5000      0.0000    727.3705     10.0096     57.6010
    31.7500      0.0000    727.7244      9.9174     57.3147
    32.0000      0.0000    727.8858      9.8344     57.3227
    32.2500      0.0000    728.1619      9.8146     57.2787
    32.5000      0.0000    728.6544      9.8866     56.9611
    32.7500      0.0000    729.2585     10.0177     56.7273
    33.0000      0.0000    729.6376     10.1129     57.3053
    33.2500      0.0000    729.5374     10.0981     58.8562
