~Version Information
VERS.                      2.0: CWLS Log ASCII Standard - VERSION 2.0
WRAP.                       NO: One line per depth step
~Well Information Block
STRT.FT               545.0000: 
STOP.FT              2200.7000: 
STEP.FT                 0.1000: 
NULL.                -999.2500: 
COMP.          Pioneer Natural Resources: COMPANY
WELL.               Erin 21-15: WELL
FLD.           Purgatoire River: FIELD
LOC.           1217' FNL & 2284' FWL--: LOCATION
CNTY.               Las Animas: COUNTY
SRVC.                Patterson: SERVICE COMPANY
DATE.          Thu Mar 02 09:55:43 2006: LOG DATE
UWI.           05 071 08713 00: UNIQUE WELL ID
STAT.                 Colorado: STATE
~Curve Information Block
DEPT.FT            0 000 00 00: Depth
DCAL.in                       : CDL Caliper
RHOB.g/cc                     : CDL Bulk Density
RHOC.g/cc                     : CDL Density Correction
DPOR.pu                       : CDL Density Porosity
NPOR.pu                       : Neutron Porosity
GR.GAPI                       : Gamma Ray
~Parameter Information Block
~A  Depth       DCAL        RHOB        RHOC        DPOR        NPOR         GR     
# ...
  1946.6000      7.9733      2.5423      0.0166      6.5256     19.4886     79.7814
  1946.7000      7.9733      2.5154      0.0239      8.1558     19.3018     74.8229
  1946.8000      7.9726      2.4961      0.0210      9.3249     18.5962     72.0419
  1946.9000      7.9726      2.4960      0.0144      9.3336     17.9087     69.3982
  1947.0000      7.9723      2.5122      0.0405      8.3540     17.4741     67.2386
  1947.1000      7.9723      2.5318      0.0593      7.1638     17.1025     66.6755
  1947.2000      7.9723      2.5477      0.0780      6.2021     16.6186     68.6382
  1947.3000      7.9716      2.5610      0.0681      5.3929     16.0879     72.7760
  1947.4000      7.9716      2.5706      0.0825      4.8139     15.8350     74.6487
  1947.5000      7.9701      2.5734      0.0536      4.6406     15.9997     72.1236
  1947.6000      7.9701      2.5721      0.0867      4.7221     16.1971     65.4891
  1947.7000      7.9701      2.5688      0.0759      4.9213     16.1660     55.9924
  1947.8000      7.9695      2.5707      0.0363      4.8046     15.8689     49.0637
  1947.9000      7.9695      2.5808      0.0676      4.1934     15.3642     48.6168
  1948.0000      7.9703      2.5788      0.0940      4.3176     15.3256     51.4457
  1948.1000      7.9703      2.5534      0.0455      5.8568     15.9891     53.3086
  1948.2000      7.9703      2.5258      0.0155      7.5286     16.6090     52.6562
  1948.3000      7.9721      2.5159      0.0293      8.1272     16.8002     50.3811
  1948.4000      7.9721      2.5232      0.0347      7.6864     16.7331     51.4471
  1948.5000      7.9734      2.5341      0.0552      7.0247     16.5429     57.6563
  1948.6000      7.9734      2.5323      0.0308      7.1333     16.2639     64.1445
  1948.7000      7.9734      2.5197     -0.0091      7.8963     16.1634     66.3077
  1948.8000      7.9740      2.5148     -0.0075      8.1920     16.5313     64.2334
  1948.9000      7.9740      2.5235      0.0355      7.6646     16.9948     63.2157
  1949.0000      7.9737      2.5408      0.0314      6.6210     16.8789     65.0438
  1949.1000      7.9737      2.5654      0.0558      5.1302     16.3742     65.8125
  1949.2000      7.9737      2.5890      0.0574      3.6975     16.0417     63.6407
  1949.3000      7.9728      2.5956      0.0784      3.2970     15.8925     58.5759
  1949.4000      7.9728      2.5808      0.0505      4.1956     15.8978     52.9674
  1949.5000      7.9724      2.5632      0.0358      5.2601     15.9815     50.0627
  1949.6000      7.9724      2.5610      0.0160      5.3921     15.8362     48.3332
  1949.7000      7.9724      2.5690      0.0392      4.9085     15.5061     49.6536
  1949.8000      7.9721      2.5696      0.0279      4.8716     15.2808     56.8761
  1949.9000      7.9721      2.5615      0.0130      5.3654     15.0399     63.3060
  1950.0000      7.9717      2.5556      0.0245      5.7205     14.4904     63.5938
  1950.1000      7.9717      2.5536      0.0216      5.8417     13.9594     60.2307
  1950.2000      7.9717      2.5516      0.0232      5.9649     14.0145     58.4985
  1950.3000      7.9725      2.5424      0.0393      6.5186     14.5229     61.3189
  1950.4000      7.9725      2.5225      0.0152      7.7249     14.9173     65.6559
  1950.5000      7.9732      2.5054     -0.0426      8.7665     14.8377     66.4563
  1950.6000      7.9732      2.5025     -0.0034      8.9422     14.3452     62.6003
  1950.7000      7.9732      2.5103     -0.0003      8.4661     14.1068     56.7878
  1950.8000      7.9740      2.5226      0.0075      7.7219     14.5792     52.5529
  1950.9000      7.9740      2.5319      0.0084      7.1588     15.2356     51.2396
  1951.0000      7.9730      2.5296      0.0334      7.2940     15.3778     50.8162
  1951.1000      7.9730      2.5162     -0.0124      8.1089     15.2826     50.2401
  1951.2000      7.9730      2.5040     -0.0467      8.8494     15.6068     50.2225
  1951.3000      7.9704      2.4978      0.0081      9.2243     16.2455     51.8610
  1951.4000      7.9704      2.4880      0.0408      9.8184     16.6483     56.0955
  1951.5000      7.9704      2.4765     -0.0430     10.5133     16.7067     60.0858
  1951.6000      7.9704      2.4784      0.0042     10.4029     16.5963     61.5715
  1951.7000      7.9704      2.4939      0.0017      9.4620     16.3013     62.5236
  1951.8000      7.9722      2.5142      0.0461      8.2276     15.9042     62.3137
  1951.9000      7.9722      2.5337      0.0503      7.0513     15.8738     59.1957
  1952.0000      7.9734      2.5456      0.0644      6.3253     16.3970     55.6234
  1952.1000      7.9734      2.5413      0.0467      6.5903     17.0598     54.6000
  1952.2000      7.9734      2.5254      0.0129      7.5525     17.3151     56.6152
  1952.3000      7.9735      2.5174      0.0400      8.0346     17.2042     59.9131
  1952.4000      7.9735      2.5226      0.0540      7.7241     17.1867     61.3765
  1952.5000      7.9731      2.5276      0.0406      7.4182     17.2434     60.6372
  1952.6000      7.9731      2.5216      0.0425      7.7801     17.1682     59.3997
  1952.7000      7.9731      2.5120      0.0122      8.3615     17.2000     57.7929
  1952.8000      7.9725      2.5137      0.0322      8.2606     17.5167     57.6223
  1952.9000      7.9725      2.5193      0.0576      7.9228     17.8623     59.9997
  1953.0000      7.9721      2.5157      0.0359      8.1407     18.1714     60.4398
  1953.1000      7.9721      2.5091      0.0391      8.5406     18.6440     56.9094
  1953.2000      7.9721      2.5006      0.0396      9.0557     19.4576     54.0644
  1953.3000      7.9727      2.4712      0.0137     10.8375     20.7248     56.2058
  1953.4000      7.9727      2.3974      0.0085     15.3080     22.3470     62.6667
  1953.5000      7.9731      2.2777     -0.0325     22.5666     24.1722     68.2895
  1953.6000      7.9731      2.1373     -0.0902     31.0749     25.8592     69.3105
  1953.7000      7.9731      2.0008     -0.1385     39.3483     27.1613     68.1950
  1953.8000      7.9708      1.8810     -0.1944     46.6064     28.2317     68.7016
  1953.9000      7.9708      1.7912     -0.2264     52.0457     29.0767     70.9830
  1954.0000      7.9680      1.7355     -0.1601     55.4259     29.5252     72.1435
  1954.1000      7.9680      1.7016     -0.1482     57.4810     29.7272     69.4670
  1954.2000      7.9680      1.6904     -0.1366     58.1568     29.9194     66.3657
  1954.3000      7.9657      1.7179     -0.0902     56.4890     29.9323     69.4335
  1954.4000      7.9657      1.7840      0.0506     52.4869     29.6275     81.2318
  1954.5000      7.9659      1.8751      0.0701     46.9641     29.3483     95.8019
  1954.6000      7.9659      1.9812      0.1429     40.5306     29.1230    107.4862
  1954.7000      7.9659      2.0860      0.1712     34.1838     28.4414    119.3387
  1954.8000      7.9691      2.1758      0.1941     28.7403     27.3743    128.0730
  1954.9000      7.9691      2.2602      0.1761     23.6228     26.5404    125.1854
  1955.0000      7.9722      2.3536      0.1676     17.9609     26.0676    118.6480
  1955.1000      7.9722      2.4341      0.2085     13.0839     25.8226    119.8258
  1955.2000      7.9722      2.4626      0.1677     11.3600     25.8881    125.3117
  1955.3000      7.9734      2.4485      0.0478     12.2142     26.2207    130.2010
  1955.4000      7.9734      2.4372      0.0227     12.8977     26.5725    136.4420
  1955.5000      7.9745      2.4463      0.0415     12.3433     26.6480    144.7527
  1955.6000      7.9745      2.4608      0.0481     11.4685     26.4972    150.3602
  1955.7000      7.9745      2.4717      0.0299     10.8074     26.5607    149.7629
  1955.8000      7.9751      2.4831      0.0580     10.1182     27.0114    147.5308
  1955.9000      7.9751      2.4881      0.0759      9.8117     27.4183    150.6266
  1956.0000      7.9749      2.4808      0.0372     10.2527     27.3929    158.3866
  1956.1000      7.9749      2.4730      0.0547     10.7283     27.2356    160.8037
