~Version Information
VERS.                      2.0: CWLS Log ASCII Standard - VERSION 2.0
WRAP.                       NO: One line per depth step
~Well Information Block
STRT.FT               619.7000: 
STOP.FT               951.7000: 
STEP.FT                 0.1000: 
NULL.                -999.2500: 
COMP.          Pioneer Natural Resources: COMPANY
WELL.          Screamin 12-29 Tr: WELL
FLD.           Purgatoire River: FIELD
LOC.           1979' FNL & 532' FWL--: LOCATION
CNTY.               Las Animas: COUNTY
SRVC.                Patterson: SERVICE COMPANY
DATE.          Fri Mar 31 15:43:57 2006: LOG DATE
UWI.           05 071 08660 00: UNIQUE WELL ID
STAT.                 Colorado: STATE
~Curve Information Block
DEPT.FT            0 000 00 00: Depth
DCAL.in                       : CDL Caliper
RHOB.g/cc                     : CDL Bulk Density
RHOC.g/cc                     : CDL Density Correction
DPOR.pu                       : CDL Density Porosity
GR.GAPI                       : Gamma Ray
~Parameter Information Block
~A  Depth       DCAL        RHOB        RHOC        DPOR         GR     
# ...
   922.1000      7.8903      2.6274      0.0489      1.3708     79.1891
   922.2000      7.8903      2.5999      0.0176      3.0353     80.2518
   922.3000      7.8937      2.5830     -0.0021      4.0610     83.5679
   922.4000      7.8937      2.5771      0.0107      4.4210     89.3872
   922.5000      7.8964      2.5718     -0.0067      4.7373     95.2425
   922.6000      7.8964      2.5743     -0.0072      4.5854     96.7540
   922.7000      7.8964      2.5935      0.0896      3.4256     93.3139
   922.8000      7.8987      2.6118      0.0784      2.3137     90.0648
   922.9000      7.8987      2.6126      0.0812      2.2668     89.5278
   923.0000      7.9037      2.6013      0.0825      2.9509     87.4630
   923.1000      7.9037      2.5925      0.0659      3.4830     83.7799
   923.2000      7.9037      2.5950      0.1005      3.3304     83.7192
   923.3000      7.9104      2.6033      0.0692      2.8317     86.9605
   923.4000      7.9104      2.6030      0.0682      2.8513     89.2056
   923.5000      7.9119      2.5919      0.0642      3.5192     90.3065
   923.6000      7.9119      2.5795      0.0466      4.2723     92.2579
   923.7000      7.9119      2.5644      0.0660      5.1860     93.9468
   923.8000      7.9069      2.5431      0.0388      6.4766     94.6181
   923.9000      7.9069      2.5281      0.0010      7.3892     95.1721
   924.0000      7.8986      2.5302      0.0185      7.2609     94.2088
   924.1000      7.8986      2.5382      0.0510      6.7734     85.6728
   924.2000      7.8986      2.5348      0.0473      6.9816     62.7775
   924.3000      7.8948      2.5170      0.0620      8.0604     31.9679
   924.4000      7.8948      2.4902      0.0251      9.6864     10.0892
   924.5000      7.8977      2.4627      0.0320     11.3496      1.8363
   924.6000      7.8977      2.4427      0.0152     12.5664      0.1847
   924.7000      7.8977      2.4338      0.0266     13.1017      0.0098
   924.8000      7.9020      2.4372      0.0296     12.8966      0.0000
   924.9000      7.9020      2.4506      0.0414     12.0827   -999.2500
   925.0000      7.9008      2.4673      0.0840     11.0714   -999.2500
   925.1000      7.9008      2.4825      0.0744     10.1534   -999.2500
   925.2000      7.9008      2.4977      0.0860      9.2332   -999.2500
   925.3000      7.9020      2.5131      0.0995      8.2941   -999.2500
   925.4000      7.9020      2.5316      0.1152      7.1734   -999.2500
   925.5000      7.9061      2.5551      0.1106      5.7499   -999.2500
   925.6000      7.9061      2.5730      0.1376      4.6671   -999.2500
   925.7000      7.9061      2.5799      0.0763      4.2471   -999.2500
   925.8000      7.9029      2.5903      0.0713      3.6180   -999.2500
   925.9000      7.9029      2.6078      0.1039      2.5604   -999.2500
   926.0000      7.8917      2.6193      0.0759      1.8626   -999.2500
   926.1000      7.8917      2.6213      0.0697      1.7424   -999.2500
   926.2000      7.8917      2.6121      0.1199      2.2976   -999.2500
   926.3000      7.8796      2.5925      0.0344      3.4860   -999.2500
   926.4000      7.8796      2.5721      0.0458      4.7195   -999.2500
   926.5000      7.8694      2.5495      0.0610      6.0887   -999.2500
   926.6000      7.8694      2.5201      0.0037      7.8756   -999.2500
   926.7000      7.8694      2.4903      0.0290      9.6788   -999.2500
   926.8000      7.8592      2.4713     -0.0016     10.8313   -999.2500
   926.9000      7.8592      2.4717      0.0316     10.8053   -999.2500
   927.0000      7.8474      2.4927      0.0164      9.5348   -999.2500
   927.1000      7.8474      2.5259      0.0406      7.5192   -999.2500
   927.2000      7.8474      2.5461      0.0765      6.2972   -999.2500
   927.3000      7.8362      2.5271      0.0924      7.4460   -999.2500
   927.4000      7.8362      2.4751      0.0371     10.6027   -999.2500
   927.5000      7.8269      2.4257     -0.0130     13.5954   -999.2500
   927.6000      7.8269      2.4043      0.0001     14.8936   -999.2500
   927.7000      7.8269      2.4012      0.0148     15.0776   -999.2500
   927.8000      7.8306      2.3918      0.0302     15.6474   -999.2500
   927.9000      7.8306      2.3669     -0.0039     17.1590   -999.2500
   928.0000      7.8471      2.3415     -0.0244     18.6961   -999.2500
   928.1000      7.8471      2.3304      0.0086     19.3707   -999.2500
   928.2000      7.8471      2.3327      0.0072     19.2315   -999.2500
   928.3000      7.8593      2.3391      0.0421     18.8400   -999.2500
   928.4000      7.8593      2.3375      0.0368     18.9372   -999.2500
   928.5000      7.8538      2.3257      0.0426     19.6524   -999.2500
   928.6000      7.8538      2.3069      0.0757     20.7935   -999.2500
   928.7000      7.8538      2.2744      0.0562     22.7655   -999.2500
   928.8000      7.8391      2.2186      0.0467     26.1438   -999.2500
   928.9000      7.8391      2.1370      0.0164     31.0900   -999.2500
   929.0000      7.8358      2.0374     -0.0418     37.1288   -999.2500
   929.1000      7.8358      1.9347     -0.0842     43.3493   -999.2500
   929.2000      7.8358      1.8371     -0.1073     49.2678   -999.2500
   929.3000      7.8539      1.7387     -0.1198     55.2329   -999.2500
   929.4000      7.8539      1.6380     -0.1836     61.3360   -999.2500
   929.5000      7.8931      1.5598     -0.1883     66.0724   -999.2500
   929.6000      7.8931      1.5331     -0.0924     67.6921   -999.2500
   929.7000      7.8931      1.5541      0.0080     66.4202   -999.2500
   929.8000      7.9337      1.5935      0.1067     64.0326   -999.2500
   929.9000      7.9337      1.6278      0.1042     61.9513   -999.2500
   930.0000      7.9599      1.6563      0.1077     60.2228   -999.2500
   930.1000      7.9599      1.6909      0.1253     58.1291   -999.2500
   930.2000      7.9599      1.7422      0.1447     55.0167   -999.2500
   930.3000      7.9612      1.8164      0.1587     50.5232   -999.2500
   930.4000      7.9612      1.9157      0.1304     44.5017   -999.2500
   930.5000      7.9300      2.0300      0.1733     37.5757   -999.2500
   930.6000      7.9300      2.1285      0.2012     31.6063   -999.2500
   930.7000      7.9300      2.1970      0.1601     27.4562   -999.2500
   930.8000      7.8839      2.2570      0.1708     23.8203   -999.2500
   930.9000      7.8839      2.3271      0.2061     19.5691   -999.2500
   931.0000      7.8548      2.3982      0.2494     15.2578   -999.2500
   931.1000      7.8548      2.4555      0.2152     11.7904   -999.2500
   931.2000      7.8548      2.4988      0.1539      9.1625   -999.2500
   931.3000      7.8502      2.5223      0.1734      7.7417   -999.2500
   931.4000      7.8502      2.5180      0.0528      8.0027   -999.2500
   931.5000      7.8570      2.5059      0.0250      8.7360   -999.2500
   931.6000      7.8570      2.5052      0.0730      8.7757   -999.2500
   931.7000      7.8570      2.5058      0.0853      8.7372   -999.2500
   931.8000      7.8603      2.4921      0.1130      9.5719   -999.2500
   931.9000      7.8603      2.4721      0.0468     10.7842   -999.2500
   932.0000      7.8581      2.4639      0.0729     11.2781   -999.2500
   932.1000      7.8581      2.4646      0.0785     11.2381   -999.2500
   932.2000      7.8581      2.4648      0.0510     11.2265   -999.2500
   932.3000      7.8486      2.4708      0.0533     10.8597   -999.2500
   932.4000      7.8486      2.5050      0.0821      8.7867   -999.2500
   932.5000      7.7955      2.5951      0.0890      3.3254   -999.2500
   932.6000      7.7955      2.6198      0.1392      1.8326   -999.2500
   932.7000      7.7955      2.1802      0.5455     28.4740   -999.2500
   932.8000      7.3899      1.2317      0.0800     85.9547   -999.2500
   932.9000      7.3899      0.4162      0.0800    135.3800   -999.2500
   933.0000      5.8062      0.0789   -999.2500    155.8258   -999.2500
   933.1000      5.8062      0.0081   -999.2500    160.1139   -999.2500
   933.2000      5.8062      0.0004   -999.2500    160.5794   -999.2500
