~Version Information
VERS.                      2.0: CWLS Log ASCII Standard - VERSION 2.0
WRAP.                       NO: One line per depth step
~Well Information Block
STRT.FT                 0.0000: 
STOP.FT              1923.5000: 
STEP.FT                 0.2500: 
NULL.                -999.2500: 
COMP.          Petrogulf Corporation: COMPANY
WELL.            Montoya 7-14R: WELL
FLD.           Purgatorie River: FIELD
LOC.           628' FSL & 454' FWL: LOCATION
STAT.                 Colorado: State
CNTY.               Las Animas: COUNTY
CTRY. USA : Country
SECT. 7 : Section
TOWN. 33S : Township
RANG. 67W : Range
SRVC.                Patterson: SERVICE COMPANY
DATE.          Wed Nov 09 12:02:27 2005: LOG DATE
API. 05-071-08554                         : UNIQUE WELL ID
~Curve Information Block
DEPT.FT            0 000 00 00: Depth
CCL.                          : Casing Collar Locator
TT3.usec                      : CBL 3' Travel Time
AMP3.mV                       : CBL 3' Amplitude
GR.GAPI                       : Gamma Ray
~Parameter Information Block
~A  Depth       CCL         TT3         AMP3         GR     
# ...
  1876.0000      0.0000    300.3351     27.4645    130.1474
  1876.2500      0.0000    298.4463     29.0024    124.7837
  1876.5000      0.0000    299.2933     28.7269    119.6708
  1876.7500      0.0000    303.0753     26.8205    114.7879
  1877.0000      0.0000    310.3521     23.9983    110.2430
  1877.2500      0.0000    320.5057     21.0350    106.5758
  1877.5000      0.0000    333.9468     18.3207    104.1953
  1877.7500      0.0000    356.7675     15.8614    102.7600
  1878.0000      0.0000    400.4342     13.5657    101.3477
  1878.2500      0.0000    470.1244     11.4134     99.3297
  1878.5000      0.0000    549.6039      9.4344     97.0084
  1878.7500      0.0000    610.1237      7.6606     95.1392
  1879.0000      0.0000    639.6113      6.1365     93.7701
  1879.2500      0.0000    648.1024      4.9132     91.8217
  1879.5000      0.0000    648.5991      3.9990     87.9652
  1879.7500      0.0000    646.9806      3.3609     81.8197
  1880.0000      0.0000    646.1700      2.9489     74.2508
  1880.2500      0.0000    650.8832      2.6815     66.6540
  1880.5000      0.0000    664.6302      2.4757     60.1645
  1880.7500      0.0000    683.9586      2.2824     55.4910
  1881.0000      0.0000    700.6727      2.0779     53.1416
  1881.2500      0.0000    707.9971      1.8780     53.3606
  1881.5000      0.0000    703.9660      1.7238     55.7054
  1881.7500      0.0000    696.3961      1.6219     58.8856
  1882.0000      0.0000    698.6914      1.5463     61.2016
  1882.2500      0.0000    712.2745      1.4867     61.3302
  1882.5000      0.0000    726.4182      1.4509     59.1047
  1882.7500      0.0000    735.3019      1.4339     55.8982
  1883.0000      0.0000    740.0183      1.4180     53.9702
  1883.2500      0.0000    740.8946      1.4024     54.8151
  1883.5000      0.0000    736.8901      1.4019     57.8118
  1883.7500      0.0000    728.5026      1.4025     60.6030
  1884.0000      0.0000    719.2322      1.3705     61.0172
  1884.2500      0.0000    712.6730      1.3320     58.8414
  1884.5000      0.0000    708.8367      1.3496     55.8957
  1884.7500      0.0000    705.3724      1.4016     54.3696
  1885.0000      0.0000    700.0517      1.3890     55.0355
  1885.2500      0.0000    690.9315      1.2753     57.1053
  1885.5000      0.0000    678.7701      1.1362     59.5619
  1885.7500      0.0000    670.4884      1.0604     62.0854
  1886.0000      0.0000    672.8212      1.0699     64.6068
  1886.2500      0.0000    681.9919      1.1487     66.5838
  1886.5000      0.0000    686.8546      1.2753     67.1664
  1886.7500      0.0000    679.8242      1.4027     65.9529
  1887.0000      0.0000    662.2078      1.4743     63.3474
  1887.2500      0.0000    643.1293      1.4972     60.1994
  1887.5000      0.0000    631.5453      1.5407     57.2122
  1887.7500      0.0000    627.9650      1.6310     54.7740
  1888.0000      0.0000    628.5529      1.7292     53.2327
  1888.2500      0.0000    631.8788      1.8204     52.9960
  1888.5000      0.0000    636.3726      1.9259     54.1562
  1888.7500      0.0000    640.4841      2.0396     56.2284
  1889.0000      0.0000    645.3084      2.1395     58.5418
  1889.2500      0.0000    651.4574      2.2410     60.7877
  1889.5000      0.0000    657.0098      2.3604     62.9756
  1889.7500      0.0000    660.1420      2.4794     65.1600
  1890.0000      0.0000    662.8011      2.6099     67.8283
  1890.2500      0.0000    667.6145      2.8155     72.5919
  1890.5000      0.0000    671.5986      3.1208     81.7713
  1890.7500      0.0000    669.1124      3.4459     96.5021
  1891.0000      0.0000    660.5558      3.6868    114.9511
  1891.2500      0.0000    655.7349      3.8498    132.6477
  1891.5000      0.0000    665.6577      4.0216    144.8544
  1891.7500      0.0000    688.4949      4.3283    148.9727
  1892.0000      0.0000    708.8276      4.9619    145.4565
  1892.2500      0.0000    715.6362      5.9902    137.2238
  1892.5000      0.0000    712.7592      7.2104    128.1106
  1892.7500     -2.0000    707.4579      8.2962    121.0687
  1893.0000      0.0000    700.0760      9.0105    117.2478
  1893.2500      0.0000    685.1003      9.3726    116.4289
  1893.5000      0.0000    656.7111      9.6592    117.7201
  1893.7500      0.0000    612.2907     10.2219    119.6014
  1894.0000      0.0000    558.0132     11.1765    120.1063
  1894.2500      0.0000    518.8500     12.1429    117.9201
  1894.5000      0.0000    516.2788     12.7525    113.5920
  1894.7500      0.0000    527.9479     13.2790    109.4033
  1895.0000      0.0000    513.5400     14.0717    107.7210
  1895.2500      0.0000    474.8194     14.9373    109.2449
  1895.5000      0.0000    452.6693     15.3797    112.6151
  1895.7500      0.0000    479.7769     15.0041    115.4798
  1896.0000      0.0000    544.6626     13.9151    116.0177
  1896.2500      0.0000    599.3683     12.7816    113.9396
  1896.5000      0.0000    604.4368     12.2017    110.3239
  1896.7500      0.0000    557.5580     12.1873    106.3769
  1897.0000      0.0000    493.5959     12.3307    102.3797
  1897.2500      0.0000    463.5806     12.1874     97.9026
  1897.5000      0.0000    492.8409     11.5324     92.6559
  1897.7500      0.0000    558.1199     10.4467     86.7900
  1898.0000      0.0000    614.9277      9.1875     80.6368
  1898.2500      0.0000    640.0323      7.9717     74.5474
  1898.5000      0.0000    637.8004      6.8823     68.9652
  1898.7500      0.0000    620.0645      5.9333     64.3518
  1899.0000      0.0000    595.1125      5.1696     60.9019
  1899.2500      0.0000    570.5076      4.6510     58.4506
  1899.5000      0.0000    557.0994      4.3603     56.7019
  1899.7500      0.0000    563.4479      4.2208     55.3850
  1900.0000      0.0000    586.4812      4.1770     54.1217
  1900.2500      0.0000    614.2221      4.1850     52.3805
  1900.5000      0.0000    636.6023      4.1871     49.9279
  1900.7500      0.0000    649.9472      4.1574     47.3550
  1901.0000      0.0000    655.3732      4.1370     45.8238
  1901.2500      0.0000    655.5818      4.1847     46.0963
  1901.5000      0.0000    652.2167      4.2982     47.8398
  1901.7500      0.0000    647.0230      4.4052     49.8741
  1902.0000      0.0000    643.8618      4.4412     51.1080
  1902.2500      0.0000    645.1572      4.3968     51.2741
  1902.5000      0.0000    647.9219      4.2926     50.7725
  1902.7500      0.0000    647.6306      4.1695     50.0170
  1903.0000      0.0000    644.1678      4.0924     49.3107
  1903.2500      0.0000    641.7343      4.1181     49.2717
  1903.5000      0.0000    642.7417      4.2561     50.7477
  1903.7500      0.0000    644.1071      4.4499     54.0511
  1904.0000      0.0000    643.0432      4.6075     58.5736
  1904.2500      0.0000    642.4636      4.6590     63.3261
  1904.5000      0.0000    645.7422      4.5776     67.6157
  1904.7500      0.0000    651.1987      4.3963     71.0327
  1905.0000      0.0000    656.5428      4.2203     73.1010
  1905.2500      0.0000    663.1019      4.1608     73.3405
  1905.5000      0.0000    670.9770      4.2400     71.6347
  1905.7500      0.0000    674.7109      4.3803     68.3463
  1906.0000      0.0000    670.4014      4.5001     64.1547
  1906.2500      0.0000    663.0828      4.5740     59.7707
  1906.5000      0.0000    660.4006      4.5802     55.5517
  1906.7500      0.0000    664.0891      4.4644     51.2272
  1907.0000      0.0000    671.3265      4.2032     46.0142
  1907.2500      0.0000    681.0352      3.8674     39.0758
  1907.5000      0.0000    694.2141      3.5782     30.2063
  1907.7500      0.0000    708.2261      3.3860     20.4281
  1908.0000      0.0000    717.7978      3.2263     11.6744
  1908.2500      0.0000    721.3250      3.0157      5.4917
  1908.5000      0.0000    721.4321      2.7441      2.0882
  1908.7500      0.0000    721.4858      2.4672      0.6340
  1909.0000      0.0000    723.3752      2.2534      0.1522
  1909.2500      0.0000    725.6693      2.1451      0.0286
