~Version Information
VERS.                      2.0: CWLS Log ASCII Standard - VERSION 2.0
WRAP.                       NO: One line per depth step
~Well Information Block
STRT.FT               240.0000: 
STOP.FT              1043.5000: 
STEP.FT                 0.2500: 
NULL.                -999.2500: 
COMP.          Pioneer Natural Resources: COMPANY
WELL.          Stags Leap 13-30: WELL
FLD.           Purgatorie River: FIELD
LOC.           1813' FSL & 117' FWL: LOCATION
PROV.                 Colorado: PROVINCE
CNTY.               Las Animas: COUNTRY
SRVC.                Patterson: SERVICE COMPANY
DATE.          Thu Dec 08 19:20:57 2005: LOG DATE
UWI.                          : UNIQUE WELL ID
~Curve Information Block
DEPT.FT            0 000 00 00: Depth
DIR.Ohm-m                     : IEL Induction Resistivity
GR.GAPI                       : Gamma Ray
~Parameter Information Block
~A  Depth       DIR          GR     
# ...
   741.7500     25.3237     66.1075
   742.0000     23.6534     68.1117
   742.2500     22.2874     69.2420
   742.5000     21.1982     70.9868
   742.7500     20.3532     72.6311
   743.0000     19.7096     76.7362
   743.2500     19.2164     80.8233
   743.5000     18.8241     88.3912
   743.7500     18.4973     93.5626
   744.0000     18.2207    100.1888
   744.2500     17.9963    103.5599
   744.5000     17.8367    107.1605
   744.7500     17.7573    108.6245
   745.0000     17.7724    109.3091
   745.2500     17.8944    108.8428
   745.5000     18.1340    107.2546
   745.7500     18.5022    105.8819
   746.0000     19.0099    103.5752
   746.2500     19.6656    101.9298
   746.5000     20.4682     99.4581
   746.7500     21.4016     97.9973
   747.0000     22.4289     96.6291
   747.2500     23.4942     96.6107
   747.5000     24.5304     98.0631
   747.7500     25.4772     99.6151
   748.0000     26.2984    101.5032
   748.2500     26.9887    101.7758
   748.5000     27.5684    100.3964
   748.7500     28.0764     98.6391
   749.0000     28.5695     95.5934
   749.2500     29.1195     93.5471
   749.5000     29.7946     90.4087
   749.7500     30.6308     88.2103
   750.0000     31.6120     84.9730
   750.2500     32.6741     83.0939
   750.5000     33.7329     80.8001
   750.7500     34.7165     79.4295
   751.0000     35.5833     77.3334
   751.2500     36.3169     76.0297
   751.5000     36.9086     74.7187
   751.7500     37.3456     74.4559
   752.0000     37.6157     74.8909
   752.2500     37.7248     75.5434
   752.5000     37.7056     76.7402
   752.7500     37.6092     77.5781
   753.0000     37.4840     78.8702
   753.2500     37.3645     79.7332
   753.5000     37.2755     80.7242
   753.7500     37.2441     80.8369
   754.0000     37.3028     79.7265
   754.2500     37.4767     78.2302
   754.5000     37.7615     75.6434
   754.7500     38.1082     74.1993
   755.0000     38.4345     72.9301
   755.2500     38.6667     72.7690
   755.5000     38.7905     73.5953
   755.7500     38.8643     74.7803
   756.0000     38.9722     77.0258
   756.2500     39.1554     78.4187
   756.5000     39.3829     79.8053
   756.7500     39.5802     80.1363
   757.0000     39.6794     79.6630
   757.2500     39.6349     78.6397
   757.5000     39.3981     76.0941
   757.7500     38.8905     73.9738
   758.0000     38.0114     70.8538
   758.2500     36.6804     69.1901
   758.5000     34.8828     67.6766
   758.7500     32.6939     67.3351
   759.0000     30.2653     67.5730
   759.2500     27.7817     68.0364
   759.5000     25.4081     69.0571
   759.7500     23.2557     70.0686
   760.0000     21.3772     72.4491
   760.2500     19.7807     74.7332
   760.5000     18.4492     78.9574
   760.7500     17.3550     81.9400
   761.0000     16.4671     86.1268
   761.2500     15.7540     88.6865
   761.5000     15.1840     92.5135
   761.7500     14.7273     95.2760
   762.0000     14.3581     99.8525
   762.2500     14.0576    103.0500
   762.5000     13.8149    107.4696
   762.7500     13.6266    109.7337
   763.0000     13.4946    111.6812
   763.2500     13.4236    112.1097
   763.5000     13.4201    111.9605
   763.7500     13.4926    111.5531
   764.0000     13.6514    110.4835
   764.2500     13.9062    109.3879
   764.5000     14.2612    107.2644
   764.7500     14.7113    105.7232
   765.0000     15.2425    103.5826
   765.2500     15.8345    102.4658
   765.5000     16.4641    101.6538
   765.7500     17.1060    101.8859
   766.0000     17.7314    103.3474
   766.2500     18.3088    104.7336
   766.5000     18.8116    106.5179
   766.7500     19.2297    106.9552
   767.0000     19.5783    105.8477
   767.2500     19.8953    103.9249
   767.5000     20.2271     99.9578
   767.7500     20.6107     97.2144
   768.0000     21.0601     93.7570
   768.2500     21.5608     92.0214
   768.5000     22.0751     90.1894
   768.7500     22.5537     89.5139
   769.0000     22.9460     89.5593
   769.2500     23.2056     90.3559
   769.5000     23.2913     92.4247
   769.7500     23.1709     94.0316
   770.0000     22.8302     96.0917
   770.2500     22.2819     96.9494
   770.5000     21.5663     97.3817
   770.7500     20.7425     97.2832
   771.0000     19.8766     97.1817
   771.2500     19.0305     97.6162
   771.5000     18.2545     99.5995
   771.7500     17.5808    101.7561
   772.0000     17.0220    105.4646
   772.2500     16.5726    107.6576
   772.5000     16.2164    109.7797
   772.7500     15.9339    110.2917
   773.0000     15.7092    110.0999
   773.2500     15.5328    109.7767
   773.5000     15.4022    109.5685
   773.7500     15.3200    109.6404
   774.0000     15.2915    109.7821
   774.2500     15.3226    109.7633
   774.5000     15.4173    109.4522
   774.7500     15.5749    108.9803
   775.0000     15.7866    107.8474
   775.2500     16.0331    107.0283
   775.5000     16.2846    106.4889
   775.7500     16.5062    106.9840
   776.0000     16.6663    108.9018
   776.2500     16.7477    110.3979
   776.5000     16.7553    111.9175
   776.7500     16.7144    112.3146
   777.0000     16.6581    112.6039
   777.2500     16.6108    112.9223
   777.5000     16.5782    113.3974
   777.7500     16.5468    113.3344
   778.0000     16.4908    112.3121
   778.2500     16.3826    111.1388
   778.5000     16.2026    109.2093
   778.7500     15.9468    108.1349
   779.0000     15.6278    107.1117
   779.2500     15.2703    106.7438
   779.5000     14.9047    106.1541
   779.7500     14.5626    105.4026
   780.0000     14.2719    103.6862
   780.2500     14.0506    102.5850
   780.5000     13.9031    102.0990
   780.7500     13.8209    102.9420
   781.0000     13.7903    105.7035
   781.2500     13.8014    107.9443
   781.5000     13.8537    110.7307
   781.7500     13.9547    111.7966
   782.0000     14.1134    112.2575
   782.2500     14.3341    112.1021
   782.5000     14.6124    111.6578
   782.7500     14.9371    111.4108
   783.0000     15.2942    111.3377
   783.2500     15.6722    111.4787
   783.5000     16.0623    111.5312
   783.7500     16.4554    111.0350
   784.0000     16.8363    108.9070
   784.2500     17.1833    106.5149
   784.5000     17.4715    102.0450
   784.7500     17.6797     99.1097
   785.0000     17.7948     95.9117
   785.2500     17.8128     95.0415
   785.5000     17.7400     95.7693
   785.7500     17.5936     97.2582
   786.0000     17.3991     99.8938
   786.2500     17.1837    101.3244
   786.5000     16.9690    102.5741
   786.7500     16.7666    102.9048
   787.0000     16.5795    102.9489
   787.2500     16.4060    102.8296
   787.5000     16.2433    102.8782
   787.7500     16.0897    103.4552
   788.0000     15.9456    105.3441
   788.2500     15.8139    106.7333
   788.5000     15.6993    107.2909
   788.7500     15.6084    105.9674
   789.0000     15.5493    101.8568
   789.2500     15.5310     98.6373
   789.5000     15.5628     94.6714
   789.7500     15.6522     93.1185
   790.0000     15.8029     92.7049
   790.2500     16.0128     93.6596
   790.5000     16.2721     96.6254
   790.7500     16.5636     99.3680
   791.0000     16.8643    104.1676
   791.2500     17.1506    107.5109
   791.5000     17.4051    112.0035
   791.7500     17.6226    114.1379
   792.0000     17.8125    115.3557
   792.2500     17.9960    114.7391
   792.5000     18.2007    112.1258
   792.7500     18.4549    109.7628
   793.0000     18.7836    106.0176
   793.2500     19.2029    103.4925
   793.5000     19.7150     99.4871
   793.7500     20.3028     96.7317
   794.0000     20.9294     93.1613
   794.2500     21.5446     91.6370
   794.5000     22.0964     90.8893
   794.7500     22.5406     91.1855
   795.0000     22.8432     92.2723
   795.2500     22.9760     93.2345
   795.5000     22.9185     94.9027
   795.7500     22.6714     96.1055
   796.0000     22.2705     97.8944
   796.2500     21.7844     98.9303
   796.5000     21.2909     99.8467
   796.7500     20.8497     99.7769
   797.0000     20.4869     98.5365
   797.2500     20.1974     97.2254
