~Version Information
VERS.                      2.0: CWLS Log ASCII Standard - VERSION 2.0
WRAP.                       NO: One line per depth step
~Well Information Block
STRT.FT                 0.0000: 
STOP.FT              1923.5000: 
STEP.FT                 0.2500: 
NULL.                -999.2500: 
COMP.          Petrogulf Corporation: COMPANY
WELL.            Montoya 7-14R: WELL
FLD.           Purgatorie River: FIELD
LOC.           628' FSL & 454' FWL: LOCATION
STAT.                 Colorado: State
CNTY.               Las Animas: COUNTY
CTRY. USA : Country
SECT. 7 : Section
TOWN. 33S : Township
RANG. 67W : Range
SRVC.                Patterson: SERVICE COMPANY
DATE.          Wed Nov 09 12:02:27 2005: LOG DATE
API. 05-071-08554                         : UNIQUE WELL ID
~Curve Information Block
DEPT.FT            0 000 00 00: Depth
CCL.                          : Casing Collar Locator
TT3.usec                      : CBL 3' Travel Time
AMP3.mV                       : CBL 3' Amplitude
GR.GAPI                       : Gamma Ray
~Parameter Information Block
~A  Depth       CCL         TT3         AMP3         GR     
# ...
  1641.5000      0.0000    642.2565      7.7079    147.1395
  1641.7500      0.0000    650.2059      6.9613    152.5241
  1642.0000      0.0000    648.3170      6.4916    153.5323
  1642.2500      0.0000    645.1380      6.2237    151.2892
  1642.5000      0.0000    645.4576      6.1193    148.1657
  1642.7500      0.0000    649.5093      6.1731    146.5522
  1643.0000      0.0000    654.0992      6.4151    147.5544
  1643.2500      0.0000    657.0146      6.8870    150.3079
  1643.5000      0.0000    658.4412      7.5321    152.8060
  1643.7500      0.0000    659.1993      8.1625    153.5446
  1644.0000      0.0000    659.6663      8.5788    152.0612
  1644.2500      0.0000    659.8786      8.7139    148.3204
  1644.5000      0.0000    659.8839      8.6715    142.7473
  1644.7500      0.0000    659.8281      8.6062    136.8923
  1645.0000      0.0000    659.6913      8.5809    132.8777
  1645.2500      0.0000    659.3267      8.5739    131.7132
  1645.5000      0.0000    658.8622      8.5790    132.5740
  1645.7500      0.0000    658.4193      8.6476    133.7940
  1646.0000      0.0000    656.3778      8.8524    134.2575
  1646.2500      0.0000    646.0914      9.2568    133.8985
  1646.5000      0.0000    614.5553      9.8897    133.1092
  1646.7500      0.0000    553.1934     10.7179    131.8452
  1647.0000      0.0000    475.6409     11.7009    129.5527
  1647.2500      0.0000    409.9928     12.8484    126.0101
  1647.5000      0.0000    369.1924     14.1595    121.8284
  1647.7500      0.0000    346.2887     15.5721    117.9477
  1648.0000      0.0000    331.6973     17.0541    114.9529
  1648.2500      0.0000    320.2573     18.6867    112.8469
  1648.5000      0.0000    310.3352     20.5236    111.0447
  1648.7500      0.0000    302.9090     22.4203    108.6368
  1649.0000      0.0000    298.8546     24.0835    105.2102
  1649.2500      0.0000    297.8271     25.1629    101.3934
  1649.5000      0.0000    300.3948     25.2936     98.0546
  1649.7500      0.0000    310.1463     24.2419     95.1003
  1650.0000      0.0000    333.8576     22.1057     91.8544
  1650.2500      0.0000    380.0200     19.3948     88.6131
  1650.5000      0.0000    451.3268     16.8723     86.9575
  1650.7500      0.0000    530.8568     15.1520     88.2886
  1651.0000      0.0000    589.9462     14.3515     92.5136
  1651.2500      0.0000    618.6282     14.1412     98.1525
  1651.5000      0.0000    624.2271     14.0995    103.3338
  1651.7500      0.0000    603.9429     13.9938    106.7560
  1652.0000      0.0000    550.0293     13.8522    108.0389
  1652.2500      0.0000    477.1288     13.8942    107.3645
  1652.5000      0.0000    416.3427     14.3362    105.0721
  1652.7500      0.0000    382.1672     15.1936    101.7061
  1653.0000      0.0000    366.7486     16.2639     98.1214
  1653.2500      0.0000    361.5465     17.2842     95.0534
  1653.5000      0.0000    369.6326     18.0165     92.5211
  1653.7500      0.0000    403.3560     18.1615     90.0470
  1654.0000      0.0000    469.7943     17.4340     87.8370
  1654.2500      0.0000    551.0333     15.9028     87.5437
  1654.5000      0.0000    614.4269     14.0406     91.3377
  1654.7500      0.0000    646.7615     12.3361     99.9924
  1655.0000      0.0000    659.3433     11.0196    111.9440
  1655.2500      0.0000    665.2785     10.0451    124.1184
  1655.5000      0.0000    667.9945      9.1783    133.5159
  1655.7500      0.0000    667.6764      8.2387    138.4134
  1656.0000      0.0000    667.9052      7.2844    138.6905
  1656.2500      0.0000    672.1613      6.5114    135.2840
  1656.5000      0.0000    677.5012      6.0344    129.4213
  1656.7500      0.0000    674.5513      5.8254    122.2365
  1657.0000      0.0000    652.5031      5.8004    114.6036
  1657.2500      0.0000    605.0280      5.8669    107.0125
  1657.5000      0.0000    538.4026      5.9389     99.9529
  1657.7500      0.0000    478.7606      5.9917     94.6232
  1658.0000      0.0000    460.8354      6.0856     92.6754
  1658.2500      0.0000    495.9915      6.3143     94.8325
  1658.5000      0.0000    557.4235      6.7596    100.2424
  1658.7500      0.0000    607.1907      7.4707    107.5820
  1659.0000      0.0000    630.0649      8.4464    116.1657
  1659.2500      0.0000    632.8331      9.6418    125.4146
  1659.5000      0.0000    625.2389     10.9565    133.7354
  1659.7500      0.0000    614.2601     12.2455    138.9382
  1660.0000      0.0000    601.3837     13.3867    140.0813
  1660.2500      0.0000    574.1973     14.3171    138.5860
  1660.5000      0.0000    518.7939     15.0338    137.2901
  1660.7500      0.0000    446.6894     15.5726    138.4372
  1661.0000      0.0000    389.2870     15.9431    142.2958
  1661.2500      0.0000    365.6068     16.0880    147.2098
  1661.5000      0.0000    374.0193     15.9105    150.8966
  1661.7500      0.0000    411.2306     15.3246    152.0574
  1662.0000      0.0000    476.9041     14.3326    150.9641
  1662.2500      0.0000    555.4504     13.1254    148.6301
  1662.5000      0.0000    618.4556     12.0093    145.7627
  1662.7500      0.0000    653.5286     11.1751    142.7062
  1663.0000      0.0000    668.5571     10.6173    139.9592
  1663.2500      0.0000    669.7037     10.2376    138.1491
  1663.5000      0.0000    657.0535      9.9267    137.2081
  1663.7500      0.0000    639.6143      9.5993    135.9618
  1664.0000      0.0000    633.4178      9.2755    133.3286
  1664.2500      0.0000    640.6459      9.0974    130.0434
  1664.5000      0.0000    648.9636      9.1792    128.3186
  1664.7500      0.0000    652.1839      9.4864    129.4757
  1665.0000      0.0000    652.9095      9.8938    132.6007
  1665.2500      0.0000    650.4560     10.3029    135.7940
  1665.5000      0.0000    641.8464     10.6517    138.0388
  1665.7500      0.0000    629.4887     10.8584    139.5727
  1666.0000      0.0000    623.2584     10.8415    141.0299
  1666.2500      0.0000    632.2036     10.5965    142.7032
  1666.5000      0.0000    651.7515     10.2201    144.5945
  1666.7500      0.0000    665.7975      9.8424    146.8030
  1667.0000      0.0000    659.6841      9.5147    149.3066
  1667.2500      0.0000    630.6013      9.1667    151.2762
  1667.5000      0.0000    595.6930      8.7157    151.2886
  1667.7500      0.0000    578.8797      8.2159    148.7004
  1668.0000      0.0000    581.9881      7.7993    144.5061
  1668.2500      0.0000    590.9249      7.4218    140.5647
  1668.5000      0.0000    604.4528      6.8952    138.0907
  1668.7500      0.0000    630.9695      6.3348    136.7155
  1669.0000      0.0000    667.8139      6.1923    134.7661
  1669.2500      0.0000    698.8953      6.6146    130.6706
  1669.5000      0.0000    710.6768      7.2473    124.3190
  1669.7500      2.0000    710.9958      7.7487    117.1370
  1670.0000      0.0000    719.6815      8.0421    111.0377
  1670.2500      0.0000    736.7964      8.1061    107.3072
  1670.5000      0.0000    744.3345      7.8818    106.2187
  1670.7500      0.0000    734.9461      7.4514    107.4752
  1671.0000      0.0000    715.7384      7.0755    110.7833
  1671.2500      0.0000    694.2159      6.9142    115.7103
  1671.5000      0.0000    674.6550      6.9909    121.1871
  1671.7500      0.0000    660.7239      7.3222    125.7036
  1672.0000      0.0000    654.0738      7.6947    128.0974
  1672.2500      0.0000    653.2325      7.7156    127.8094
  1672.5000      0.0000    655.2604      7.3089    124.6711
  1672.7500      0.0000    656.8160      6.7607    119.2715
  1673.0000      0.0000    656.1788      6.3250    113.5742
  1673.2500      0.0000    654.1082      6.0765    110.2259
  1673.5000      0.0000    649.4925      5.9939    110.6689
  1673.7500      0.0000    636.6196      6.0019    113.9413
  1674.0000      0.0000    611.4089      6.0189    117.3691
  1674.2500      0.0000    580.9692      6.0189    118.5995
  1674.5000      0.0000    560.6580      6.0273    117.3278
  1674.7500      0.0000    551.2712      6.0952    115.2867
