~Version Information
 VERS.                                  2.0 : CWLS LAS VERSION
 WRAP.                                   NO : WRAPING MODE
 SWARE .                 MController 2.5.3A : SOFTWARE VERSION
~Well Information
 WELL.                          Darren 11-7 : WELL
 COMP.  Pioneer Natural Resources USA, Inc. : COMPANY
 FLD.                      Purgatoire River : FIELD
 LOC.              NW/NW Sec. 7, T33S, R65W : LOCATION
 DATE.                           03/19/2006 : DATE(S) LOGGED
 SRVC.                  Entrada GeoSciences : SERVICE COMPANY
 STAT.                             Colorado : STATE
 CNTY.                           Las Animas : COUNTY
 CTRY.                        United States : COUNTRY
 API.                       05-071-08720-00 : API NUMBER
 STRT.FT                             250.00 : START DEPTH
 STOP.FT                            1450.00 : STOP DEPTH
 STEP.FT                               1.00 : DEPTH INCREMENT
 NULL.                                -9999 : NULL VALUE
~Curve information
 DEPTH.FT                                   :
 ROP.MIN/FT                                 :
 GAS.UNITS                                  :
~ASCII Log data
      250.00         0.07          6.8 
      251.00         0.17          5.5 
      252.00         0.13          6.8 
      253.00         0.10          6.8 
      254.00         0.20          7.5 
      255.00         0.25          6.9 
      256.00         0.27          6.3 
      257.00         0.17          7.4 
      258.00         0.20          8.0 
      259.00         0.07          8.0 
      260.00         0.17          7.8 
      261.00         0.23          7.7 
      262.00         0.20          7.1 
      263.00         0.23          5.0 
      264.00         0.20          5.4 
      265.00         0.20          5.7 
      266.00         0.20          5.3 
      267.00         0.17          5.3 
      268.00         0.25          5.8 
      269.00         0.20          5.8 
      270.00         0.27          4.6 
      271.00         0.03          4.6 
      272.00         0.27          5.9 
      273.00         0.03          5.9 
      274.00         0.30          5.0 
      275.00         0.27          5.7 
      276.00         0.27          7.1 
      277.00         0.27          8.4 
      278.00         0.27          9.8 
      279.00         0.20          9.8 
      280.00         0.27         14.2 
      281.00         0.27         13.7 
      282.00         0.07          9.9 
      283.00         0.13          8.4 
      284.00         0.28          6.3 
      285.00         0.07          5.1 
      286.00         0.03          5.1 
      287.00         0.27          5.3 
      288.00         0.07          5.3 
      289.00         0.23          5.5 
      290.00         0.07          5.5 
      291.00         0.23          4.9 
      292.00         0.03          4.9 
      293.00         0.27          4.7 
      294.00         0.27          5.3 
      295.00         0.03          5.3 
      296.00         0.23          4.1 
      297.00         0.25          4.1 
      298.00         0.27          5.5 
      299.00         0.20          5.3 
      300.00         0.27          5.0 
      301.00         0.27          5.7 
      302.00         0.07          5.7 
      303.00         0.27          4.9 
      304.00         0.20          5.2 
      305.00         0.27          5.4 
      306.00         0.27          5.7 
      307.00         0.27          4.7 
      308.00         0.23          5.4 
      309.00         0.23          5.1 
      310.00         0.23          5.3 
      311.00         0.28          5.5 
      312.00         0.07          5.5 
      313.00         0.27          4.8 
      314.00         0.27          5.5 
      315.00         0.27          5.5 
      316.00         0.20          5.8 
      317.00         0.27          6.0 
      318.00         0.27          6.5 
      319.00         0.27          5.6 
      320.00         0.27          6.5 
      321.00         0.27          6.9 
      322.00         0.27          7.5 
      323.00         0.27          7.4 
      324.00         0.27          6.8 
      325.00         0.35          5.6 
      326.00         0.27          6.1 
      327.00         0.13          4.9 
      328.00         0.17          4.9 
      329.00         0.03          4.9 
      330.00         0.23          5.4 
      331.00         0.27          5.0 
      332.00         0.10          5.1 
      333.00         0.17          5.1 
      334.00         0.27          5.8 
      335.00         0.23          6.0 
      336.00         0.28          6.8 
      337.00         0.27          6.2 
      338.00         0.27          6.2 
      339.00         0.27          5.3 
      340.00         0.13          5.0 
      341.00         0.07          5.0 
      342.00         0.23          5.0 
      343.00         0.13          6.0 
      344.00         0.20          6.0 
      345.00         0.13          6.0 
      346.00         0.10          5.7 
      347.00         0.23          5.4 
      348.00         0.23          5.0 
      349.00         0.23          5.4 
      350.00         0.27          5.4 
      351.00         0.23          5.5 
      352.00         0.23          6.4 
      353.00         0.25          6.3 
      354.00         0.23          6.3 
      355.00         0.23          6.4 
      356.00         0.20          6.3 
      357.00         0.10          6.3 
      358.00         0.10          6.6 
      359.00         0.27          5.2 
      360.00         0.27          6.2 
      361.00         0.17          6.2 
      362.00         0.23          5.9 
      363.00         0.28          6.4 
      364.00         0.27          6.8 
      365.00         0.27          6.9 
      366.00         0.13          6.6 
      367.00         0.27          6.7 
      368.00         0.27          7.9 
      369.00         0.27          6.6 
      370.00         0.17          5.4 
      371.00         0.27          5.5 
      372.00         0.03          5.3 
      373.00         0.23          5.7 
      374.00         0.20          5.7 
      375.00         0.20          6.1 
      376.00         0.30          5.8 
      377.00         0.27          5.4 
      378.00         0.28          5.6 
      379.00         0.10          5.6 
      380.00         0.27          6.2 
      381.00         0.17          5.7 
      382.00         0.27          6.5 
      383.00         0.07          5.0 
      384.00         0.30          5.3 
      385.00         0.20          5.2 
      386.00         0.17          6.0 
      387.00         0.20          5.8 
      388.00         0.17          5.3 
      389.00         0.17          5.7 
      390.00         0.18          5.1 
      391.00         0.20          4.9 
      392.00         0.20          5.6 
      393.00         0.17          4.6 
      394.00         0.20          4.5 
      395.00         0.20          5.3 
      396.00         0.17          5.7 
      397.00         0.17          5.7 
      398.00         0.13          5.3 
      399.00         0.27          5.2 
      400.00         0.10          5.2 
      401.00         0.27          5.7 
      402.00         0.27          5.6 
      403.00         0.27          6.1 
      404.00         0.27          6.4 
      405.00         0.27          7.2 
      406.00         0.28          8.2 
      407.00         0.27          6.2 
      408.00         0.27          6.9 
      409.00         0.23          5.9 
      410.00         0.10          5.9 
      411.00         0.10          5.5 
      412.00         0.27          6.8 
      413.00         0.23          5.5 
      414.00         0.20          4.1 
      415.00         0.20          5.8 
      416.00         0.23          5.7 
      417.00         0.27          5.2 
      418.00         0.30          5.7 
      419.00         0.27          6.7 
      420.00         0.10          6.7 
      421.00         0.23          9.2 
      422.00         0.17          9.3 
      423.00         0.23          9.1 
      424.00         0.20          7.9 
      425.00         0.27          6.0 
      426.00         0.07          6.0 
      427.00         0.13          6.4 
      428.00         0.27          5.9 
      429.00         0.25          6.6 
      430.00         0.27          5.8 
      431.00         0.13          5.4 
      432.00         0.17          5.4 
      433.00         0.27          6.3 
      434.00         0.27          5.4 
      435.00         0.27          6.2 
      436.00         0.33          5.8 
      437.00         0.27          5.1 
      438.00         0.27          5.7 
      439.00         0.10          5.7 
      440.00         0.27          6.2 
      441.00         0.27          6.7 
      442.00         0.20         13.1 
      443.00         0.38          8.2 
      444.00         0.13          6.7 
      445.00         0.17          5.6 
      446.00         0.13          5.6 
      447.00         0.20          6.4 
      448.00         0.13          6.3 
      449.00         0.27          5.7 
