~Version Information
VERS.                      2.0: CWLS Log ASCII Standard - VERSION 2.0
WRAP.                       NO: One line per depth step
~Well Information Block
STRT.FT                -4.2500: 
STOP.FT               745.0000: 
STEP.FT                 0.2500: 
NULL.                -999.2500: 
COMP.          Pioneer Natural Resources: COMPANY
WELL.                Zed 11-23: WELL
FLD.           Purgatoire River: FIELD
LOC.           641' FNL & 952' FWL: LOCATION
CNTY.               Las Animas: COUNTY
SRVC.                         : SERVICE COMPANY
DATE.          Fri Mar 03 16:43:06 2006: LOG DATE
UWI.           05 071 08702 00: UNIQUE WELL ID
STAT.                       CO: STATE
~Curve Information Block
DEPT.FT            0 000 00 00: Depth
GR.GAPI                       : Gamma Ray
CCL.                          : Casing Collar Locator
TT3.usec                      : CBL 3' Travel Time
AMP3.mV                       : CBL 3' Amplitude
~Parameter Information Block
~A  Depth        GR         CCL         TT3         AMP3    
# ...
   699.2500     95.8051      0.0000    345.1850     13.3829
   699.5000     97.3359      0.0000    348.9592     13.3471
   699.7500     96.7070      0.0000    353.3196     13.3444
   700.0000     93.4576      0.0000    356.3886     13.3452
   700.2500     88.3329      0.0000    356.7181     13.3344
   700.5000     83.1102      0.0000    355.2169     13.2951
   700.7500     79.7086      0.0000    355.5972     13.1979
   701.0000     79.3590      0.0000    362.7287     13.0326
   701.2500     81.8418      0.0000    380.0375     12.8416
   701.5000     85.3549      0.0000    407.7924     12.6986
   701.7500     87.7947      0.0000    443.7661     12.6458
   702.0000     88.4793      0.0000    485.0127     12.6610
   702.2500     88.2514      0.0000    527.4274     12.6871
   702.5000     88.0265      0.0000    563.4341     12.6814
   702.7500     87.9224      0.0000    582.9893     12.6321
   703.0000     87.7595      0.0000    579.5020     12.5479
   703.2500     87.6103      0.0000    555.2800     12.4438
   703.5000     87.5814      0.0000    521.2017     12.3342
   703.7500     87.5593      0.0000    491.2296     12.2299
   704.0000     87.4292      0.0000    476.1545     12.1384
   704.2500     87.2597      0.0000    479.4841     12.0644
   704.5000     87.1403      0.0000    496.4497     12.0068
   704.7500     86.9714      0.0000    517.4048     11.9566
   705.0000     86.5137      0.0000    534.1522     11.9051
   705.2500     85.6906      0.0000    543.9442     11.8536
   705.5000     84.9161      0.0000    548.3678     11.8144
   705.7500     84.9660      0.0000    550.0265     11.8016
   706.0000     86.1750      0.0000    550.6248     11.8268
   706.2500     87.7199      0.0000    550.9281     11.8996
   706.5000     88.1852      0.0000    551.3342     12.0210
   706.7500     87.1289      0.0000    552.4444     12.1731
   707.0000     85.7980      0.0000    555.5989     12.3201
   707.2500     85.9382      0.0000    563.1387     12.4174
   707.5000     87.9581      0.0000    577.6328     12.4072
   707.7500     90.4627      0.0000    599.7523     12.2074
   708.0000     91.4514      0.0000    626.2456     11.7408
   708.2500     89.8804      0.0000    650.3713     11.0169
   708.5000     86.3526      0.0000    664.5199     10.1898
   708.7500     82.5020      0.0000    662.2705      9.4976
   709.0000     79.6999      0.0000    639.6630      9.1083
   709.2500     78.2637      0.0000    598.2388      9.0135
   709.5000     77.6542      2.0000    547.8914      9.0655
   709.7500     77.1492      2.0000    503.2516      9.0927
   710.0000     76.4190      0.0000    474.9667      8.9841
   710.2500     75.8142      0.0000    464.7338      8.7312
   710.5000     76.2009      0.0000    467.0361      8.4546
   710.7500     78.2548      0.0000    473.3988      8.3645
   711.0000     81.6282      0.0000    477.9532      8.6256
   711.2500     84.8638      0.0000    483.1057      9.2350
   711.5000     86.3161      0.0000    497.8405     10.0402
   711.7500     85.2618      0.0000    526.1616     10.8604
   712.0000     82.1746      0.0000    557.9795     11.5678
   712.2500     78.0931      0.0000    574.5092     12.0819
   712.5000     73.8336      0.0000    562.6653     12.3504
   712.7500     69.7985      0.0000    524.0464     12.3770
   713.0000     66.3851      0.0000    472.5385     12.2516
   713.2500     64.3474      0.0000    425.2830     12.1144
   713.5000     64.4740      0.0000    394.5757     12.0760
   713.7500     66.7436      0.0000    385.4252     12.1603
   714.0000     70.0550      0.0000    397.8452     12.3081
   714.2500     73.1125      0.0000    428.7178     12.4253
   714.5000     75.4171      0.0000    470.0838     12.4522
   714.7500     77.2524      0.0000    507.6265     12.4120
   715.0000     79.1094      0.0000    526.0959     12.3838
   715.2500     81.4008      0.0000    520.7952     12.4158
   715.5000     84.3067      0.0000    503.9696     12.4707
   715.7500     87.5586      0.0000    496.8044     12.4720
   716.0000     90.4802      0.0000    512.5910     12.3894
   716.2500     92.3366      0.0000    547.2734     12.2532
   716.5000     92.6447      0.0000    585.7341     12.0991
   716.7500     91.3687      0.0000    615.1976     11.9344
   717.0000     89.0136      0.0000    632.1508     11.7591
   717.2500     86.5110      0.0000    639.7493     11.5857
   717.5000     84.8707      0.0000    642.3752     11.4323
   717.7500     84.8565      0.0000    642.9435     11.3124
   718.0000     86.8359      0.0000    642.8918     11.2343
   718.2500     90.5465      0.0000    642.8474     11.1952
   718.5000     94.8044      0.0000    642.9653     11.1767
   718.7500     97.7393      0.0000    643.1052     11.1560
   719.0000     97.8315      0.0000    643.0554     11.1292
   719.2500     94.9921      0.0000    642.8573     11.1227
   719.5000     90.6597      0.0000    643.0781     11.1762
   719.7500     86.8478      0.0000    644.7910     11.3077
   720.0000     85.0184      0.0000    649.0071     11.4994
   720.2500     85.5700      0.0000    655.7476     11.7146
   720.5000     87.9730      0.0000    663.6006     11.9189
   720.7500     91.1411      0.0000    670.4597     12.0867
   721.0000     93.8314      0.0000    674.7333     12.2046
   721.2500     95.2135      0.0000    675.6962     12.2772
   721.5000     95.3624      0.0000    672.7355     12.3216
   721.7500     95.0029      0.0000    665.0370     12.3539
   722.0000     94.5496      0.0000    653.0868     12.3823
   722.2500     93.5965      0.0000    640.5776     12.4113
   722.5000     91.5315      0.0000    633.0967     12.4458
   722.7500     88.4542      0.0000    633.2545     12.4879
   723.0000     85.3063      0.0000    637.8741     12.5266
   723.2500     83.1713      0.0000    641.4008     12.5406
   723.5000     82.5169      0.0000    641.4919     12.5238
   723.7500     82.9789      0.0000    640.2614     12.4945
   724.0000     83.6769      0.0000    640.8065     12.4637
   724.2500     83.7875      0.0000    643.5948     12.4113
   724.5000     83.0441      0.0000    645.8167     12.3179
   724.7500     81.7793      0.0000    643.4418     12.2070
   725.0000     80.5991      0.0000    634.3621     12.1267
   725.2500     80.2119      0.0000    620.3575     12.0992
   725.5000     81.3358      0.0000    605.8262     12.1090
   725.7500     84.1340      0.0000    594.6104     12.1334
   726.0000     87.5824      0.0000    588.9005     12.1594
   726.2500     89.9551      0.0000    590.9843     12.1730
   726.5000     90.3645      0.0000    603.6978     12.1594
   726.7500     89.4833      0.0000    627.2747     12.1230
   727.0000     88.3936      0.0000    656.4462     12.0874
   727.2500     87.1892      0.0000    682.3029     12.0635
   727.5000     85.3299      0.0000    697.1144     12.0311
   727.7500     82.9931      0.0000    696.9224     11.9742
   728.0000     81.2355      0.0000    681.0734     11.9257
   728.2500     80.9144      0.0000    651.9427     11.9509
   728.5000     82.1901      0.0000    615.4570     12.0828
   728.7500     84.9380      0.0000    579.6575     12.2810
   729.0000     88.7202      0.0000    550.9899     12.4528
   729.2500     92.3141      0.0000    531.6301     12.5246
   729.5000     94.1733      0.0000    520.1796     12.5023
   729.7500     93.6941      0.0000    514.6061     12.4538
   730.0000     91.6711      0.0000    515.0073     12.4273
   730.2500     89.4836      0.0000    523.6108     12.3990
   730.5000     88.2018      0.0000    540.5506     12.2804
   730.7500     88.4722      0.0000    556.9858     11.9133
   731.0000     90.8474      0.0000    552.3311     11.0597
   731.2500     95.7122      0.0000    503.6278      9.5061
   731.5000    102.5289      0.0000    404.6776      7.2928
   731.7500    109.2446      0.0000    277.0517      4.8293
   732.0000    113.1347      0.0000    157.6598      2.6865
   732.2500    112.6754      0.0000     73.2669      1.2300
   732.5000    108.5717      0.0000     27.4557      0.4565
