~Version Information
VERS.                      2.0: CWLS Log ASCII Standard - VERSION 2.0
WRAP.                       NO: One line per depth step
~Well Information Block
STRT.FT                 0.0000: 
STOP.FT              2062.2500: 
STEP.FT                 0.2500: 
NULL.                -999.2500: 
COMP.          Petrogulf Corporation: COMPANY
WELL.           Montoya 12-44R: WELL
FLD.           Purgatorie River: FIELD
LOC.           713' FSL & 798' FEL: LOCATION
PROV.                 Colorado: PROVINCE
CNTY.               Las Animas: COUNTRY
SRVC.                Patterson: SERVICE COMPANY
DATE.          Wed Nov 09 13:30:24 2005: LOG DATE
UWI.           05-071-08538               : UNIQUE WELL ID
~Curve Information Block
DEPT.FT            0 000 00 00: Depth
CCL.                          : Casing Collar Locator
TT3.usec                      : CBL 3' Travel Time
AMP3.mV                       : CBL 3' Amplitude
GR.GAPI                       : Gamma Ray
~Parameter Information Block
~A  Depth       CCL         TT3         AMP3         GR     
# ...
  1775.5000      0.0000    697.5617      7.6578    124.5716
  1775.7500      0.0000    691.8257      7.3766    123.7730
  1776.0000      0.0000    689.1667      7.4501    120.8623
  1776.2500      0.0000    699.9409      7.6533    116.4615
  1776.5000      0.0000    718.3393      7.7839    111.3633
  1776.7500      0.0000    730.7829      7.7120    106.3641
  1777.0000      0.0000    731.0832      7.3639    102.3832
  1777.2500      0.0000    720.0933      6.7705    100.4537
  1777.5000      0.0000    704.9061      6.0678    100.9626
  1777.7500      0.0000    697.1816      5.4050    102.8097
  1778.0000      0.0000    698.7721      4.8719    103.8348
  1778.2500      0.0000    699.2291      4.4938    102.4797
  1778.5000      0.0000    693.0175      4.2340     99.2239
  1778.7500      0.0000    686.0083      4.0116     96.6082
  1779.0000      0.0000    683.8419      3.7698     97.7132
  1779.2500      0.0000    683.3112      3.5258    104.0713
  1779.5000      0.0000    678.8673      3.3376    114.6952
  1779.7500      0.0000    672.5590      3.2359    126.7940
  1780.0000      0.0000    670.7418      3.2138    137.1432
  1780.2500      0.0000    676.2308      3.2586    143.1985
  1780.5000      0.0000    688.7963      3.3603    144.0146
  1780.7500      0.0000    704.1858      3.4929    140.7638
  1781.0000      0.0000    711.0573      3.5987    136.1538
  1781.2500      0.0000    701.4545      3.6173    132.8880
  1781.5000      0.0000    682.4298      3.5520    132.3777
  1781.7500      0.0000    666.7255      3.4759    134.4994
  1782.0000      0.0000    656.7430      3.4626    138.0399
  1782.2500      0.0000    643.3809      3.5297    141.2995
  1782.5000      0.0000    622.0098      3.6252    142.7730
  1782.7500      0.0000    607.6667      3.6528    141.7957
  1783.0000      0.0000    616.3655      3.5368    138.5700
  1783.2500      0.0000    636.1993      3.2767    133.4689
  1783.5000      0.0000    643.8735      2.9500    126.6053
  1783.7500      0.0000    635.4005      2.6699    118.4449
  1784.0000      0.0000    622.2726      2.5016    110.5030
  1784.2500      0.0000    612.5303      2.4096    104.5591
  1784.5000      0.0000    606.6437      2.3234    101.1264
  1784.7500      0.0000    604.4266      2.2258     99.4007
  1785.0000      0.0000    606.9434      2.1276     98.7141
  1785.2500      0.0000    613.6846      2.0136     99.3307
  1785.5000      0.0000    623.2893      1.8761    101.7107
  1785.7500      0.0000    635.6890      1.7546    105.4665
  1786.0000      0.0000    650.5203      1.6889    109.3388
  1786.2500      0.0000    663.5319      1.6595    112.1611
  1786.5000      0.0000    666.1967      1.6139    113.7993
  1786.7500      0.0000    655.6421      1.5499    115.0738
  1787.0000      0.0000    642.4697      1.5364    116.7179
  1787.2500      0.0000    636.9045      1.6182    118.6842
  1787.5000      0.0000    636.2344      1.7480    120.5811
  1787.7500      0.0000    635.5178      1.8735    122.4451
  1788.0000      0.0000    639.1895      2.0120    124.6261
  1788.2500      0.0000    654.3628      2.1732    126.9530
  1788.5000      0.0000    679.6372      2.3095    128.4508
  1788.7500      0.0000    706.0893      2.4015    128.1333
  1789.0000      0.0000    724.9146      2.5260    126.0061
  1789.2500      0.0000    729.9785      2.7880    123.2066
  1789.5000      0.0000    719.8429      3.2132    121.1206
  1789.7500      0.0000    700.9423      3.7489    120.3969
  1790.0000      0.0000    682.4638      4.3290    120.9076
  1790.2500      0.0000    669.4467      4.8949    122.3375
  1790.5000      0.0000    663.7332      5.4440    124.2444
  1790.7500      0.0000    666.2454      6.0809    125.6813
  1791.0000      0.0000    673.9741      6.8982    125.7520
  1791.2500      0.0000    673.7191      7.8535    124.9706
  1791.5000      0.0000    642.7461      8.8673    125.3566
  1791.7500      0.0000    567.6213      9.9095    128.5082
  1792.0000      0.0000    468.4730     10.9135    133.9206
  1792.2500      0.0000    387.2762     11.7513    139.7469
  1792.5000      0.0000    344.9659     12.3291    144.6541
  1792.7500      0.0000    330.8600     12.6440    147.9854
  1793.0000      0.0000    327.9395     12.8343    148.4895
  1793.2500      0.0000    327.7132     13.1785    144.3501
  1793.5000      0.0000    328.0191     13.8202    135.0251
  1793.7500      0.0000    330.4506     14.4716    122.5100
  1794.0000      0.0000    342.0130     14.6422    110.4257
  1794.2500      0.0000    373.5439     14.1705    101.9435
  1794.5000      0.0000    424.2885     13.3420     98.2676
  1794.7500      0.0000    471.4036     12.5084     98.3109
  1795.0000      0.0000    496.7178     11.7708     99.4561
  1795.2500      0.0000    511.7225     11.0965     99.0460
  1795.5000      0.0000    536.5696     10.5353     95.8067
  1795.7500      0.0000    571.2957     10.1710     90.2021
  1796.0000      0.0000    599.1836      9.9818     83.7346
  1796.2500      0.0000    615.6216      9.8459     78.1852
  1796.5000      0.0000    630.8187      9.6697     75.2771
  1796.7500      0.0000    644.1008      9.4749     76.3390
  1797.0000      0.0000    645.3398      9.3530     81.8278
  1797.2500      0.0000    633.7972      9.3199     91.2649
  1797.5000      0.0000    615.8616      9.2449    103.5739
  1797.7500      0.0000    591.3124      9.0329    117.1123
  1798.0000      0.0000    558.2090      8.8126    129.5474
  1798.2500      0.0000    523.7214      8.7851    138.6651
  1798.5000      0.0000    490.3786      8.9552    143.7661
  1798.7500      0.0000    456.5344      9.1561    145.8919
  1799.0000      0.0000    437.2628      9.2770    146.6191
  1799.2500      0.0000    442.4182      9.3638    147.0284
  1799.5000      0.0000    448.5992      9.4958    147.7098
  1799.7500      0.0000    433.0564      9.6065    148.8584
  1800.0000      0.0000    411.8146      9.5100    149.8390
  1800.2500      0.0000    417.8635      9.1477    149.2286
  1800.5000      0.0000    464.4512      8.6896    146.1564
  1800.7500      0.0000    536.4442      8.3190    141.6194
  1801.0000      0.0000    605.2332      8.0241    137.8534
  1801.2500      0.0000    651.0138      7.6447    136.1281
  1801.5000      0.0000    670.1788      7.0484    135.4292
  1801.7500      0.0000    672.0947      6.2773    133.6796
  1802.0000      0.0000    677.8129      5.5764    130.2455
  1802.2500      0.0000    709.4714      5.1555    126.6703
  1802.5000      0.0000    761.6802      4.8840    124.5528
  1802.7500      0.0000    792.4005      4.5430    123.3350
  1803.0000      0.0000    771.5743      4.2649    120.9971
  1803.2500      0.0000    720.4987      4.2652    116.5806
  1803.5000      0.0000    679.3299      4.4988    111.1736
  1803.7500     -2.0000    663.9398      4.8436    106.5073
  1804.0000      0.0000    661.8438      5.2593    103.3929
  1804.2500      0.0000    655.7274      5.7176    101.5663
  1804.5000      0.0000    651.2171      6.2274    100.2719
  1804.7500      0.0000    666.7500      6.9268     98.7156
  1805.0000      0.0000    698.2275      7.8540     96.4875
  1805.2500      0.0000    722.1296      8.6964     93.9223
  1805.5000      0.0000    721.1801      9.2350     92.0174
  1805.7500      0.0000    685.4069      9.7186     91.9578
  1806.0000      0.0000    608.6794     10.3337     94.5978
  1806.2500      0.0000    509.2911     10.8967     99.9090
  1806.5000      0.0000    430.9627     11.2336    106.6210
  1806.7500      0.0000    396.0753     11.4319    112.7364
  1807.0000      0.0000    385.0534     11.7351    116.7995
  1807.2500      0.0000    373.3445     12.3388    118.6474
  1807.5000      0.0000    357.5480     13.2976    119.0077
  1807.7500      0.0000    343.6232     14.4817    118.7392
  1808.0000      0.0000    334.6212     15.5315    118.4530
  1808.2500      0.0000    330.6801     16.0296    118.3874
  1808.5000      0.0000    331.1061     15.8138    118.2972
  1808.7500      0.0000    336.3083     15.0280    117.4214
