~Version Information
VERS.                      2.0: CWLS Log ASCII Standard - VERSION 2.0
WRAP.                       NO: One line per depth step
~Well Information Block
STRT.FT                 0.0000: 
STOP.FT               816.5000: 
STEP.FT                 0.1000: 
NULL.                -999.2500: 
COMP.          Pioneer Natural Resources: COMPANY
WELL.           Weissach 32-32: WELL
FLD.           Purgatorie River: FIELD
LOC.           2193' FNL & 2256' FEL: LOCATION
STAT.                 Colorado: State
CNTY.               Las Animas: COUNTY
CTRY. USA : Country
SECT. 32 : Section
TOWN. 33S : Township
RANG. 66W : Range
SRVC.                Patterson: SERVICE COMPANY
DATE.          Mon Sep 26 09:15:29 2005: LOG DATE
API. 05-071-08523                         : UNIQUE WELL ID
~Curve Information Block
DEPT.FT            0 000 00 00: Depth
DCAL.in                       : CDL Caliper
RHOB.g/cc                     : CDL Bulk Density
RHOC.g/cc                     : CDL Density Correction
DPOR.pu                       : CDL Density Porosity
GR.GAPI                       : Gamma Ray
NPOR.pu                       : Neutron Porosity
~Parameter Information Block
~A  Depth       DCAL        RHOB        RHOC        DPOR         GR         NPOR    
# ...
   211.2000     17.5128      2.0202      2.0000     -0.0126    108.3309     30.0943
   211.3000     17.5137      2.0338      2.0000     -0.0123    107.6030     29.4456
   211.4000     17.5137      2.0253      2.0000     -0.0125    103.4082     28.9997
   211.5000     17.5173      1.9947      2.0000     -0.0131    100.8604     28.9614
   211.6000     17.5173      1.9840      2.0000     -0.0133    102.2377     29.0004
   211.7000     17.5173      2.0040      2.0000     -0.0129    103.8256     29.0990
   211.8000     17.5129      2.0236      2.0000     -0.0125    103.0656     29.2394
   211.9000     17.5129      2.0399      2.0000     -0.0122    100.2812     29.2407
   212.0000     17.5150      2.0619      2.0000     -0.0118     98.2404     28.9666
   212.1000     17.5150      2.0778      2.0000     -0.0114     98.2986     28.3444
   212.2000     17.5150      2.0786      2.0000     -0.0114     98.0574     27.6013
   212.3000     17.5195      2.0657      2.0000     -0.0117     96.8940     27.2856
   212.4000     17.5195      2.0457      2.0000     -0.0121     97.5937     27.5514
   212.5000     17.5126      2.0281      2.0000     -0.0124     99.6834     27.9979
   212.6000     17.5126      2.0206      2.0000     -0.0126     99.0512     28.3050
   212.7000     17.5126      2.0189      2.0000     -0.0126     96.5238     28.1366
   212.8000     17.5104      2.0154      2.0000     -0.0127     96.4432     27.4723
   212.9000     17.5104      2.0118      2.0000     -0.0128     98.2076     26.9435
   213.0000     17.5162      2.0200      2.0000     -0.0126     99.1548     26.9298
   213.1000     17.5162      2.0419      2.0000     -0.0122    101.0118     27.2462
   213.2000     17.5162      2.0635      2.0000     -0.0117    105.3529     27.6282
   213.3000     17.5160      2.0821      2.0000     -0.0114    108.1532     27.7173
   213.4000     17.5160      2.0991      2.0000     -0.0110    107.1572     27.4279
   213.5000     17.5155      2.1050      2.0000     -0.0109    107.2949     27.3758
   213.6000     17.5155      2.1012      2.0000     -0.0110    111.1992     27.9270
   213.7000     17.5155      2.1020      2.0000     -0.0110    115.4607     28.4290
   213.8000     17.5125      2.1091      2.0000     -0.0108    116.9091     28.2697
   213.9000     17.5125      2.1055      2.0000     -0.0109    114.1470     27.7368
   214.0000     17.5131      2.0857      2.0000     -0.0113    107.9816     27.2561
   214.1000     17.5131      2.0703      2.0000     -0.0116    101.8631     27.0043
   214.2000     17.5131      2.0757      2.0000     -0.0115     99.0605     27.0116
   214.3000     17.5131      2.0908      2.0000     -0.0112    100.8634     27.0243
   214.4000     17.5131      2.1038      2.0000     -0.0109    105.4494     27.0219
   214.5000     17.5124      2.1322      2.0000     -0.0104    107.5493     27.1384
   214.6000     17.5124      2.1796      2.0000     -0.0094    105.6293     27.2437
   214.7000     17.5124      2.2076      2.0000     -0.0089    104.0126     27.2562
   214.8000     17.5143      2.1892      2.0000     -0.0092    104.2796     27.2163
   214.9000     17.5143      2.1440      2.0000     -0.0101    105.6771     27.2218
   215.0000     17.5142      2.1007      2.0000     -0.0110    108.9124     27.2706
   215.1000     17.5142      2.0821      2.0000     -0.0114    110.5125     27.4078
   215.2000     17.5142      2.0916      2.0000     -0.0112    107.2060     27.7467
   215.3000     17.5113      2.0978      2.0000     -0.0110    100.3698     27.9560
   215.4000     17.5113      2.0886      2.0000     -0.0112     93.6743     27.6107
   215.5000     17.5126      2.0782      2.0000     -0.0114     92.2023     27.0843
   215.6000     17.5126      2.0709      2.0000     -0.0116     94.4541     27.1188
   215.7000     17.5126      2.0753      2.0000     -0.0115     95.9133     27.6436
   215.8000     17.5104      2.0975      2.0000     -0.0111     99.5711     28.0863
   215.9000     17.5104      2.1197      2.0000     -0.0106    107.6954     28.2128
   216.0000     17.5155      2.1334      2.0000     -0.0103    112.7915     28.0748
   216.1000     17.5155      2.1400      2.0000     -0.0102    110.5745     27.9176
   216.2000     17.5155      2.1261      2.0000     -0.0105    107.1150     27.7780
   216.3000     17.5180      2.1009      2.0000     -0.0110    108.1728     27.5431
   216.4000     17.5180      2.0900      2.0000     -0.0112    113.4709     27.3743
   216.5000     17.5156      2.0991      2.0000     -0.0110    121.1573     27.1864
   216.6000     17.5156      2.1134      2.0000     -0.0107    127.2630     26.9271
   216.7000     17.5156      2.1060      2.0000     -0.0109    125.7069     26.9783
   216.8000     17.5112      2.0871      2.0000     -0.0113    118.4659     27.3605
   216.9000     17.5112      2.0843      2.0000     -0.0113    113.0756     27.7297
   217.0000     17.5113      2.0898      2.0000     -0.0112    111.3524     28.1203
   217.1000     17.5113      2.0875      2.0000     -0.0113    110.1044     28.5601
   217.2000     17.5113      2.0830      2.0000     -0.0113    108.0194     28.5238
   217.3000     17.5164      2.0788      2.0000     -0.0114    107.5570     27.8542
   217.4000     17.5164      2.0647      2.0000     -0.0117    109.7776     27.1356
   217.5000     17.5157      2.0395      2.0000     -0.0122    110.4792     26.7332
   217.6000     17.5157      2.0218      2.0000     -0.0126    107.7224     26.6157
   217.7000     17.5157      2.0298      2.0000     -0.0124    106.5086     26.7244
   217.8000     17.5138      2.0535      2.0000     -0.0119    107.7551     26.9914
   217.9000     17.5138      2.0711      2.0000     -0.0116    107.8344     27.1502
   218.0000     17.5158      2.0837      2.0000     -0.0113    106.6939     26.7903
   218.1000     17.5158      2.0958      2.0000     -0.0111    103.8701     26.1166
   218.2000     17.5158      2.1027      2.0000     -0.0110    100.4964     25.6786
   218.3000     17.5173      2.1049      2.0000     -0.0109    100.8775     25.5716
   218.4000     17.5173      2.1204      2.0000     -0.0106    104.1401     25.6403
   218.5000     17.5196      2.1581      2.0000     -0.0098    104.9832     25.8035
   218.6000     17.5196      2.1930      2.0000     -0.0091    101.3012     26.1602
   218.7000     17.5196      2.2039      2.0000     -0.0089     96.5664     26.5369
   218.8000     17.5189      2.1892      2.0000     -0.0092     94.4038     26.4630
   218.9000     17.5189      2.1523      2.0000     -0.0100     95.5459     26.1379
   219.0000     17.5130      2.1152      2.0000     -0.0107     99.7942     26.0431
   219.1000     17.5130      2.1065      2.0000     -0.0109    105.3570     26.0586
   219.2000     17.5130      2.1269      2.0000     -0.0105    109.2137     26.0447
   219.3000     17.5220      2.1479      2.0000     -0.0100    109.3821     26.0896
   219.4000     17.5220      2.1399      2.0000     -0.0102    106.9892     26.2286
   219.5000     17.5198      2.1087      2.0000     -0.0108    105.3370     26.4316
   219.6000     17.5198      2.0914      2.0000     -0.0112    106.4893     26.7494
   219.7000     17.5198      2.1038      2.0000     -0.0109    109.8322     27.1776
   219.8000     17.5159      2.1190      2.0000     -0.0106    110.6975     27.4823
   219.9000     17.5159      2.1101      2.0000     -0.0108    106.3865     27.5987
   220.0000     17.5132      2.0924      2.0000     -0.0112    100.7714     27.8765
   220.1000     17.5132      2.0997      2.0000     -0.0110     99.3563     28.3210
   220.2000     17.5132      2.1355      2.0000     -0.0103    101.6923     28.3246
   220.3000     17.5182      2.1704      2.0000     -0.0096    101.3002     27.8359
   220.4000     17.5182      2.1776      2.0000     -0.0095     98.4109     27.1105
   220.5000     17.5132      2.1648      2.0000     -0.0097     98.7995     26.3460
   220.6000     17.5132      2.1675      2.0000     -0.0097    101.2939     25.9093
   220.7000     17.5132      2.1975      2.0000     -0.0091    101.4834     25.7766
