~Version Information
VERS.                      2.0: CWLS Log ASCII Standard - VERSION 2.0
WRAP.                       NO: One line per depth step
~Well Information Block
STRT.FT                -6.7500: 
STOP.FT              2027.0000: 
STEP.FT                 0.2500: 
NULL.                -999.2500: 
COMP.          Pioneer Natural Resources: COMPANY
WELL.             Fleming 11-2: WELL
FLD.           Purgatorie River: FIELD
LOC.           534' FNL & 160' FWL--: LOCATION
CNTY.               Las Animas: COUNTY
SRVC.          Patterson Wireline: SERVICE COMPANY
DATE.          Thu Jul 13 10:28:00 2006: LOG DATE
UWI.           05 071 08491 00: UNIQUE WELL ID
STAT.                       CO: STATE
~Curve Information Block
DEPT.FT            0 000 00 00: Depth
CCL.                          : Casing Collar Locator
TT3.usec                      : CBL 3' Travel Time
AMP3.mV                       : CBL 3' Amplitude
GR.GAPI                       : Gamma Ray
~Parameter Information Block
~A  Depth       CCL         TT3         AMP3         GR     
    -6.7500   -999.2500   -999.2500   -999.2500     96.8636
    -6.5000   -999.2500   -999.2500   -999.2500    100.9112
    -6.2500   -999.2500   -999.2500   -999.2500    103.5659
    -6.0000   -999.2500   -999.2500   -999.2500    105.4330
    -5.7500   -999.2500   -999.2500   -999.2500    107.5678
    -5.5000   -999.2500   -999.2500   -999.2500    110.4288
    -5.2500   -999.2500   -999.2500   -999.2500    113.0365
    -5.0000   -999.2500   -999.2500   -999.2500    113.4254
    -4.7500   -999.2500   -999.2500   -999.2500    110.4406
    -4.5000   -999.2500   -999.2500   -999.2500    104.8115
    -4.2500   -999.2500   -999.2500   -999.2500     98.3290
    -4.0000   -999.2500   -999.2500   -999.2500     92.6929
    -3.7500   -999.2500   -999.2500   -999.2500     89.1605
    -3.5000   -999.2500   -999.2500   -999.2500     88.1860
    -3.2500   -999.2500   -999.2500   -999.2500     88.9716
    -3.0000   -999.2500   -999.2500   -999.2500     90.0069
    -2.7500   -999.2500   -999.2500   -999.2500     90.4420
    -2.5000   -999.2500   -999.2500   -999.2500     90.6701
    -2.2500   -999.2500   -999.2500   -999.2500     91.3753
    -2.0000   -999.2500   -999.2500   -999.2500     92.1747
    -1.7500   -999.2500   1161.0000      1.6748     91.5898
    -1.5000   -999.2500   1161.0000      1.6776     88.5861
    -1.2500   -999.2500   1161.0000      1.6814     83.7908
    -1.0000   -999.2500   1161.0000      1.6853     78.7811
    -0.7500   -999.2500   1161.0000      1.6888     74.4411
    -0.5000   -999.2500   1161.0000      1.6927     70.4591
    -0.2500   -999.2500   1161.0000      1.6982     66.1315
     0.0000   -999.2500   1161.0000      1.7038     61.1732
     0.2500   -999.2500   1161.0000      1.7054     55.9558
     0.5000   -999.2500   1161.0000      1.6831     48.3118
     0.7500   -999.2500   1161.0000      1.6639     47.1534
     1.0000   -999.2500   1161.0000      1.6477     47.4455
     1.2500   -999.2500   1161.0000      1.6393     48.0855
     1.5000   -999.2500   1161.0000      1.6392     47.6805
     1.7500   -999.2500   1161.0000      1.6445     45.2512
     2.0000   -999.2500   1161.0000      1.6528     40.9808
     2.2500   -999.2500   1161.0000      1.6629     36.2403
     2.5000   -999.2500   1161.0000      1.6744     32.7363
     2.7500   -999.2500   1161.0000      1.6854     31.4941
     3.0000   -999.2500   1161.0000      1.6933     32.4166
     3.2500   -999.2500   1161.0000      1.6954     34.6671
     3.5000      0.0000   1161.0000      1.6904     37.5450
     3.7500      0.0000   1161.0000      1.6794     41.1821
     4.0000      0.0000   1161.0000      1.6649     46.3381
     4.2500      0.0000   1161.0000      1.6502     53.2746
     4.5000      0.0000   1161.0000      1.6376     60.7315
     4.7500      0.0000   1161.0000      1.6281     66.3362
     5.0000      0.0000   1161.0000      1.6220     68.4185
     5.2500      0.0000   1161.0000      1.6190     67.4912
     5.5000      0.0000   1161.0000      1.6186     65.8433
     5.7500     -2.0000   1161.0000      1.6212     65.7256
     6.0000      0.0000   1160.9885      1.6283     67.9449
     6.2500      0.0000   1160.9132      1.6409     71.7296
     6.5000      0.0000   1160.5225      1.6580     75.3250
     6.7500      0.0000   1158.9755      1.6760     76.8413
     7.0000      2.0000   1154.1691      1.6908     75.2912
     7.2500      0.0000   1142.5415      1.7000     71.2891
     7.5000      0.0000   1120.7896      1.7040     66.6760
     7.7500      0.0000   1089.7657      1.7080     63.2457
     8.0000      0.0000   1056.9761      1.7316     61.6212
     8.2500      0.0000   1031.9526      1.8595     61.0909
     8.5000      0.0000   1014.7797      2.3826     60.3064
     8.7500      0.0000    988.4625      4.0409     58.3766
     9.0000      0.0000    926.9870      8.1537     55.6448
     9.2500      0.0000    816.1597     16.1567     53.3528
     9.5000      0.0000    668.7021     28.3999     52.3937
     9.7500      0.0000    518.4554     43.1569     52.6762
    10.0000      0.0000    398.5034     57.1999     53.9162
    10.2500      0.0000    322.7843     67.7695     56.5525
    10.5000      0.0000    284.9401     74.0642     61.2486
    10.7500      0.0000    270.0032     77.0145     67.5422
    11.0000      0.0000    265.3683     78.0685     73.4156
    11.2500      0.0000    264.2529     78.3077     76.5497
    11.5000      0.0000    264.0550     78.2900     76.1989
    11.7500      0.0000    264.0354     78.2476     73.7319
    12.0000      0.0000    264.0399     78.2684     71.0970
    12.2500      0.0000    264.0395     78.3783     69.0303
    12.5000      0.0000    264.0371     78.5586     67.1596
    12.7500      0.0000    264.0367     78.7566     65.3808
    13.0000      0.0000    264.0424     78.9127     64.3617
    13.2500      0.0000    264.0566     78.9943     64.8372
    13.5000      0.0000    264.0776     79.0096     67.0852
    13.7500      0.0000    264.1003     78.9886     71.0807
    14.0000      0.0000    264.1196     78.9429     76.3817
    14.2500      0.0000    264.1349     78.8046     81.5985
    14.5000      0.0000    264.1545     78.3479     84.6999
    14.7500      0.0000    264.2104     77.1377     84.4634
    15.0000      0.0000    264.4000     74.6054     81.5232
    15.2500      0.0000    264.9667     70.2978     77.8408
    15.5000      0.0000    266.3986     64.1712     75.2489
    15.7500      0.0000    269.4473     56.6930     74.4455
    16.0000      0.0000    274.8871     48.6465     74.9941
    16.2500      0.0000    283.0743     40.7976     76.0483
    16.5000      0.0000    293.7565     33.6608     76.9476
    16.7500      0.0000    306.4246     27.4631     77.0884
    17.0000      0.0000    320.6789     22.2408     75.7826
    17.2500      0.0000    335.9624     17.9512     72.8865
    17.5000      0.0000    351.0158     14.5264     69.3316
    17.7500      0.0000    363.9808     11.8756     66.4828
    18.0000      0.0000    373.3197      9.8861     65.0984
    18.2500      0.0000    378.7132      8.4466     65.2049
    18.5000      0.0000    381.0927      7.4627     66.6197
    18.7500      0.0000    381.9516      6.8453     69.1323
    19.0000      0.0000    382.7885      6.4967     72.3184
    19.2500      0.0000    385.1642      6.3199     75.4959
    19.5000      0.0000    390.9035      6.2384     77.9166
    19.7500      0.0000    401.5127      6.2014     79.1125
    20.0000      0.0000    416.7231      6.1756     79.3778
    20.2500      0.0000    433.6984      6.1389     79.7714
    20.5000      0.0000    448.4778      6.0826     81.1232
    20.7500      0.0000    458.8076      6.0116     83.0502
    21.0000      0.0000    465.7009      5.9388     84.2117
    21.2500      0.0000    472.6290      5.8767     83.3653
    21.5000      0.0000    483.3043      5.8314     80.1953
    21.7500      0.0000    499.2512      5.7998     75.6237
    22.0000      0.0000    518.7680      5.7702     71.3803
    22.2500      0.0000    539.0647      5.7269     68.8597
    22.5000      0.0000    560.1332      5.6562     68.3214
    22.7500      0.0000    585.3091      5.5512     69.2564
    23.0000      0.0000    617.1276      5.4141     71.1038
    23.2500      0.0000    653.6320      5.2592     73.4730
    23.5000      0.0000    689.2239      5.1111     76.2345
    23.7500      0.0000    718.2410      4.9943     79.6514
    24.0000      0.0000    737.6577      4.9204     83.9593
    24.2500      0.0000    747.2798      4.8838     88.5527
    24.5000      0.0000    748.0635      4.8662     91.9867
    24.7500      0.0000    741.1390      4.8482     93.1322
    25.0000      0.0000    728.8950      4.8173     92.1977
    25.2500      0.0000    715.6772      4.7709     90.4493
    25.5000      0.0000    706.0623      4.7134     89.0657
    25.7500      0.0000    703.0053      4.6540     88.4037
    26.0000      0.0000    708.1530      4.6058     88.1976
    26.2500      0.0000    722.5001      4.5828     88.1988
    26.5000      0.0000    745.0801      4.5937     88.6733
