~Version Information
VERS.                      2.0: CWLS Log ASCII Standard - VERSION 2.0
WRAP.                       NO: One line per depth step
~Well Information Block
STRT.FT               547.0000: 
STOP.FT              1685.5000: 
STEP.FT                 0.2500: 
NULL.                -999.2500: 
COMP.          Pioneer Natural Resources: COMPANY
WELL.           Pedri 42-33 Tr: WELL
FLD.           Purgatorie River: FIELD
LOC.           1933' FNL & 662' FEL: LOCATION
PROV.                 Colorado: PROVINCE
CNTY.               Las Animas: COUNTRY
SRVC.                Patterson: SERVICE COMPANY
DATE.          Mon Dec 19 10:09:44 2005: LOG DATE
UWI.                          : UNIQUE WELL ID
~Curve Information Block
DEPT.FT            0 000 00 00: Depth
DIR.Ohm-m                     : IEL Induction Resistivity
GR.GAPI                       : Gamma Ray
~Parameter Information Block
~A  Depth       DIR          GR     
# ...
  1606.2500      8.9997    139.9318
  1606.5000      8.9133    138.0150
  1606.7500      8.8370    136.7961
  1607.0000      8.7835    134.6798
  1607.2500      8.7611    133.2782
  1607.5000      8.7709    131.6361
  1607.7500      8.8088    130.6915
  1608.0000      8.8666    129.3461
  1608.2500      8.9346    129.1761
  1608.5000      9.0008    131.5476
  1608.7500      9.0509    134.6325
  1609.0000      9.0695    138.6654
  1609.2500      9.0451    139.2530
  1609.5000      8.9759    136.6099
  1609.7500      8.8710    133.8638
  1610.0000      8.7464    131.0411
  1610.2500      8.6176    130.5421
  1610.5000      8.4950    130.7498
  1610.7500      8.3834    130.9496
  1611.0000      8.2840    132.0832
  1611.2500      8.1975    134.2769
  1611.5000      8.1248    139.8387
  1611.7500      8.0671    143.8090
  1612.0000      8.0246    146.8226
  1612.2500      7.9973    145.5222
  1612.5000      7.9846    139.3348
  1612.7500      7.9863    134.2552
  1613.0000      8.0025    127.8125
  1613.2500      8.0335    124.2263
  1613.5000      8.0801    118.2329
  1613.7500      8.1433    113.4993
  1614.0000      8.2243    106.5290
  1614.2500      8.3246    102.7343
  1614.5000      8.4455     98.3826
  1614.7500      8.5877     96.0431
  1615.0000      8.7511     93.3952
  1615.2500      8.9344     92.5719
  1615.5000      9.1354     92.9267
  1615.7500      9.3522     93.6482
  1616.0000      9.5851     94.0169
  1616.2500      9.8368     93.5286
  1616.5000     10.1107     92.7604
  1616.7500     10.4089     93.1145
  1617.0000     10.7314     95.4338
  1617.2500     11.0775     97.6701
  1617.5000     11.4487    100.6722
  1617.7500     11.8494    101.7583
  1618.0000     12.2851    101.2367
  1618.2500     12.7598     99.3624
  1618.5000     13.2747     95.3250
  1618.7500     13.8299     93.0374
  1619.0000     14.4251     91.7131
  1619.2500     15.0585     91.9615
  1619.5000     15.7243     91.9920
  1619.7500     16.4120     90.6985
  1620.0000     17.1070     86.5330
  1620.2500     17.7928     82.9797
  1620.5000     18.4508     78.0097
  1620.7500     19.0586     75.5266
  1621.0000     19.5869     73.3921
  1621.2500     19.9978     72.9043
  1621.5000     20.2469     73.0842
  1621.7500     20.2918     73.7512
  1622.0000     20.1053     76.3762
  1622.2500     19.6860     79.7996
  1622.5000     19.0637     87.0464
  1622.7500     18.2956     91.8967
  1623.0000     17.4547     96.4638
  1623.2500     16.6106     97.3621
  1623.5000     15.8139     97.9154
  1623.7500     15.0889     99.6331
  1624.0000     14.4375    105.1038
  1624.2500     13.8476    109.5853
  1624.5000     13.3026    115.3601
  1624.7500     12.7875    118.2349
  1625.0000     12.2930    121.7227
  1625.2500     11.8174    123.8440
  1625.5000     11.3663    127.1535
  1625.7500     10.9496    129.9828
  1626.0000     10.5791    136.1486
  1626.2500     10.2659    141.4028
  1626.5000     10.0194    149.3110
  1626.7500      9.8459    153.4903
  1627.0000      9.7494    157.1291
  1627.2500      9.7308    157.6697
  1627.5000      9.7879    155.6077
  1627.7500      9.9143    152.4509
  1628.0000     10.0989    146.2195
  1628.2500     10.3272    142.4035
  1628.5000     10.5844    139.4597
  1628.7500     10.8591    139.6675
  1629.0000     11.1474    141.2624
  1629.2500     11.4549    141.3401
  1629.5000     11.7978    138.0825
  1629.7500     12.2013    133.7994
  1630.0000     12.6971    125.5243
  1630.2500     13.3191    119.6544
  1630.5000     14.0966    112.2609
  1630.7500     15.0435    109.5805
  1631.0000     16.1477    109.9207
  1631.2500     17.3629    112.2217
  1631.5000     18.6153    115.8058
  1631.7500     19.8241    116.8294
  1632.0000     20.9285    115.5946
  1632.2500     21.9050    113.2938
  1632.5000     22.7649    108.4945
  1632.7500     23.5412    104.7498
  1633.0000     24.2751     98.7964
  1633.2500     25.0058     94.9465
  1633.5000     25.7637     89.9954
  1633.7500     26.5645     87.5525
  1634.0000     27.4072     85.5538
  1634.2500     28.2748     85.4188
  1634.5000     29.1346     86.6141
  1634.7500     29.9366     87.8245
  1635.0000     30.6160     89.5700
  1635.2500     31.1076     90.6034
  1635.5000     31.3728     91.8924
  1635.7500     31.4216     92.4262
  1636.0000     31.3121     92.7677
  1636.2500     31.1251     92.9910
  1636.5000     30.9329     93.5398
  1636.7500     30.7840     93.6038
  1637.0000     30.7082     92.1728
  1637.2500     30.7294     90.2084
  1637.5000     30.8686     87.4857
  1637.7500     31.1303     87.1655
  1638.0000     31.4823     89.7617
  1638.2500     31.8482     92.7549
  1638.5000     32.1279     96.8287
  1638.7500     32.2423     98.2887
  1639.0000     32.1772     98.0951
  1639.2500     31.9912     96.5452
  1639.5000     31.7846     92.9161
  1639.7500     31.6523     90.4871
  1640.0000     31.6497     88.6243
  1640.2500     31.7813     89.2336
  1640.5000     32.0136     92.4501
  1640.7500     32.3053     95.0275
  1641.0000     32.6402     97.4159
  1641.2500     33.0409     97.1879
  1641.5000     33.5491     93.6679
  1641.7500     34.1879     89.6588
  1642.0000     34.9315     83.4332
  1642.2500     35.7018     80.9333
  1642.5000     36.3913     81.4694
  1642.7500     36.9015     84.2084
  1643.0000     37.1748     89.0872
  1643.2500     37.2034     91.0601
  1643.5000     37.0149     90.0563
  1643.7500     36.6532     86.4313
  1644.0000     36.1737     77.7843
  1644.2500     35.6477     71.4481
  1644.5000     35.1538     63.9511
  1644.7500     34.7504     61.2751
  1645.0000     34.4504     60.7745
  1645.2500     34.2195     62.1862
  1645.5000     34.0031     65.9817
  1645.7500     33.7616     69.6161
  1646.0000     33.4854     77.5733
  1646.2500     33.1774     84.8741
  1646.5000     32.8230     97.7286
  1646.7500     32.3798    105.9606
  1647.0000     31.8064    114.8667
  1647.2500     31.1067    117.5608
  1647.5000     30.3491    116.9039
  1647.7500     29.6432    114.0722
  1648.0000     29.1005    107.4891
  1648.2500     28.8077    102.0297
  1648.5000     28.8192     93.2685
  1648.7500     29.1540     88.1046
  1649.0000     29.7896     83.2807
  1649.2500     30.6478     82.3593
  1649.5000     31.5817     83.3687
  1649.7500     32.3807     84.8124
  1650.0000     32.8090     87.5532
  1650.2500     32.6747     89.6765
  1650.5000     31.8958     92.5518
  1650.7500     30.5295     93.4747
  1651.0000     28.7456     92.5540
  1651.2500     26.7646     90.7355
  1651.5000     24.7890     87.7715
  1651.7500     22.9602     86.3915
  1652.0000     21.3503     85.2671
  1652.2500     19.9771     84.7260
  1652.5000     18.8240     83.9840
  1652.7500     17.8570     83.9132
  1653.0000     17.0362     85.2706
  1653.2500     16.3235     87.4479
  1653.5000     15.6869     93.1563
  1653.7500     15.0994     98.9415
  1654.0000     14.5370    110.2261
  1654.2500     13.9809    118.2476
  1654.5000     13.4237    128.1234
  1654.7500     12.8743    132.3330
  1655.0000     12.3565    135.9201
  1655.2500     11.9012    137.6334
  1655.5000     11.5366    139.5504
  1655.7500     11.2828    139.2659
  1656.0000     11.1513    134.6992
  1656.2500     11.1463    129.3784
  1656.5000     11.2640    121.1853
  1656.7500     11.4911    117.6173
  1657.0000     11.8028    117.3294
  1657.2500     12.1644    120.6760
  1657.5000     12.5378    128.8681
  1657.7500     12.8905    134.2419
  1658.0000     13.2046    139.1978
  1658.2500     13.4821    140.1420
  1658.5000     13.7463    139.1228
  1658.7500     14.0388    137.2966
  1659.0000     14.4116    132.8438
  1659.2500     14.9173    128.8559
  1659.5000     15.5972    122.5854
  1659.7500     16.4725    119.2606
  1660.0000     17.5399    116.7383
  1660.2500     18.7750    116.6939
  1660.5000     20.1427    118.4283
  1660.7500     21.6069    120.4027
  1661.0000     23.1316    123.4264
  1661.2500     24.6723    124.0767
  1661.5000     26.1723    120.5073
  1661.7500     27.5779    114.9456
