~Version Information
VERS.                      2.0: CWLS Log ASCII Standard - VERSION 2.0
WRAP.                       NO: One line per depth step
~Well Information Block
STRT.FT               260.0000: 
STOP.FT              1229.5000: 
STEP.FT                 0.1000: 
NULL.                -999.2500: 
COMP.          Pioneer Natural Resources: COMPANY
WELL.             Mahalo 12-20: WELL
FLD.           Purgatoire River: FIELD
LOC.           1689' FNL & 479' FWL: LOCATION
CNTY.               Las Animas: COUNTY
SRVC.                Patterson: SERVICE COMPANY
DATE.          Mon Feb 27 07:00:19 2006: LOG DATE
UWI.           05 071 08700 00: UNIQUE WELL ID
STAT.                 Colorado: STATE
~Curve Information Block
DEPT.FT            0 000 00 00: Depth
DCAL.in                       : CDL Caliper
RHOB.g/cc                     : CDL Bulk Density
RHOC.g/cc                     : CDL Density Correction
DPOR.pu                       : CDL Density Porosity
GR.GAPI                       : Gamma Ray
NPOR.pu                       : Neutron Porosity
~Parameter Information Block
~A  Depth       DCAL        RHOB        RHOC        DPOR         GR         NPOR    
# ...
   960.8000      7.8096      2.5240      0.0728      7.6334     95.2145     25.9851
   960.9000      7.8096      2.5404      0.0509      6.6399     90.3234     26.0585
   961.0000      7.8119      2.5481      0.0262      6.1771     84.5123     26.0178
   961.1000      7.8119      2.5505      0.0522      6.0330     80.6365     25.7662
   961.2000      7.8119      2.5471      0.0346      6.2347     80.5514     25.7926
   961.3000      7.8113      2.5450      0.0262      6.3659     83.9105     26.2110
   961.4000      7.8113      2.5420      0.0462      6.5460     88.1442     26.6552
   961.5000      7.8114      2.5303     -0.0213      7.2552     89.0612     27.2623
   961.6000      7.8114      2.5197      0.0080      7.8942     87.0037     27.7164
   961.7000      7.8114      2.5134      0.0224      8.2775     87.5489     27.4004
   961.8000      7.8134      2.5030     -0.0032      8.9090     92.8943     26.5478
   961.9000      7.8134      2.4920      0.0087      9.5773     97.7954     25.7571
   962.0000      7.8134      2.4888      0.0087      9.7695     99.1338     25.1636
   962.1000      7.8134      2.4938      0.0169      9.4643    100.7474     24.8300
   962.2000      7.8134      2.4956      0.0599      9.3601    105.0733     24.6900
   962.3000      7.8105      2.4885      0.0244      9.7907    108.8885     24.7800
   962.4000      7.8105      2.4856      0.0448      9.9624    106.3413     25.2070
   962.5000      7.8184      2.4947      0.0406      9.4138     94.5581     25.4728
   962.6000      7.8184      2.5073      0.0703      8.6505     82.5891     25.2583
   962.7000      7.8184      2.5097      0.0682      8.5013     81.7126     24.9723
   962.8000      7.8160      2.4949      0.0630      9.4026     89.1116     24.7201
   962.9000      7.8160      2.4714      0.0494     10.8269     94.9761     24.5401
   963.0000      7.8123      2.4549      0.0304     11.8254     97.1822     25.1342
   963.1000      7.8123      2.4580      0.0163     11.6359     97.7014     26.4169
   963.2000      7.8123      2.4844      0.0431     10.0389     97.3770     27.3278
   963.3000      7.8116      2.5171      0.0476      8.0539     97.3582     27.3583
   963.4000      7.8116      2.5315      0.0859      7.1797     99.1287     26.9914
   963.5000      7.8137      2.5237      0.0528      7.6519    105.6677     26.7507
   963.6000      7.8137      2.5145      0.0309      8.2130    112.5608     26.6871
   963.7000      7.8137      2.5127      0.0667      8.3211    110.7810     26.7682
   963.8000      7.8144      2.5049      0.0453      8.7968    103.1863     26.8233
   963.9000      7.8144      2.4856      0.0416      9.9639     97.6238     26.8497
   964.0000      7.8149      2.4645      0.0092     11.2438     94.9487     26.8409
   964.1000      7.8149      2.4496      0.0341     12.1479     93.3270     26.8427
   964.2000      7.8149      2.4350      0.0187     13.0274     93.5622     26.5572
   964.3000      7.8135      2.4055      0.0724     14.8198     97.3116     25.8748
   964.4000      7.8135      2.3625     -0.0142     17.4226    100.8092     25.5955
   964.5000      7.8142      2.3282      0.0117     19.5031    101.1967     25.8437
   964.6000      7.8142      2.3179     -0.0278     20.1261    102.6745     26.2584
   964.7000      7.8142      2.3337      0.0110     19.1702    105.8744     26.8948
   964.8000      7.8140      2.3634      0.0438     17.3708    108.7833     27.4001
   964.9000      7.8140      2.3879      0.0723     15.8828    115.9618     27.2743
   965.0000      7.8135      2.4016      0.0933     15.0525    124.1976     26.6778
   965.1000      7.8135      2.4152      0.1141     14.2291    119.2425     26.3766
   965.2000      7.8135      2.4359      0.1441     12.9734    101.9404     27.1049
   965.3000      7.8145      2.4558      0.1493     11.7711     92.4880     28.4239
   965.4000      7.8145      2.4630      0.1448     11.3343    102.7694     29.4325
   965.5000      7.8275      2.4639      0.1143     11.2811    120.9321     29.7898
   965.6000      7.8275      2.4769      0.1030     10.4910    129.0686     29.4149
   965.7000      7.8275      2.4966      0.1405      9.2995    124.8003     28.6805
   965.8000      7.8189      2.4946      0.1340      9.4194    117.3914     28.4565
   965.9000      7.8189      2.4612      0.0982     11.4410    112.1953     29.0080
   966.0000      7.8221      2.4153      0.0696     14.2268    111.1213     29.6240
   966.1000      7.8221      2.3733      0.0385     16.7700    112.6395     29.5517
   966.2000      7.8221      2.3355      0.0349     19.0624    110.6544     29.0195
   966.3000      7.8242      2.2974     -0.0524     21.3711    106.3169     28.9729
   966.4000      7.8242      2.2534     -0.0133     24.0368    103.5011     29.3407
   966.5000      7.8267      2.1894     -0.0067     27.9129     99.9207     29.4503
   966.6000      7.8267      2.0982     -0.0355     33.4435     92.5584     29.5472
   966.7000      7.8267      1.9887     -0.0424     40.0776     81.5812     30.1124
   966.8000      7.8275      1.8762     -0.1053     46.8997     68.7968     30.8261
   966.9000      7.8275      1.7752     -0.0835     53.0183     57.8765     30.9573
   967.0000      7.8295      1.6880     -0.1001     58.3018     54.1817     30.2293
   967.1000      7.8295      1.6027     -0.0659     63.4756     54.7055     29.3010
   967.2000      7.8295      1.5161     -0.0727     68.7184     50.0547     29.0296
   967.3000      7.8327      1.4469     -0.0847     72.9157     41.8664     29.7424
   967.4000      7.8327      1.4062     -0.0623     75.3838     37.9064     31.0000
   967.5000      7.8368      1.3806      0.0172     76.9358     36.6561     31.8867
   967.6000      7.8368      1.3569      0.0377     78.3705     33.8923     32.1761
   967.7000      7.8368      1.3395     -0.0049     79.4250     30.1489     32.0533
   967.8000      7.8415      1.3335      0.0259     79.7877     27.6181     31.5519
   967.9000      7.8415      1.3322      0.0330     79.8697     28.1912     31.1757
   968.0000      7.8430      1.3287      0.0051     80.0761     33.4086     31.7641
   968.1000      7.8430      1.3249      0.0069     80.3115     43.5418     33.0798
   968.2000      7.8430      1.3261     -0.0047     80.2341     54.2522     34.0595
   968.3000      7.8438      1.3418     -0.0085     79.2841     60.6998     34.1743
   968.4000      7.8438      1.3824     -0.0008     76.8264     64.1960     33.8409
   968.5000      7.8501      1.4435      0.0291     73.1205     67.3054     33.5528
   968.6000      7.8501      1.5030      0.0797     69.5154     69.4700     33.2999
   968.7000      7.8501      1.5481      0.0625     66.7792     71.2156     33.0269
   968.8000      7.8574      1.5837      0.0912     64.6264     74.0087     32.6415
   968.9000      7.8574      1.6090      0.0915     63.0882     77.8437     32.1684
   969.0000      7.8398      1.6146      0.1063     62.7487     82.0606     31.9862
   969.1000      7.8398      1.5953      0.0872     63.9182     85.4781     32.3453
   969.2000      7.8398      1.5569      0.0530     66.2495     85.6756     33.1040
   969.3000      7.8452      1.5093      0.0208     69.1321     81.6458     33.6893
   969.4000      7.8452      1.4589     -0.0198     72.1897     75.6200     33.9137
   969.5000      7.8751      1.4073     -0.0194     75.3146     70.4369     34.0746
   969.6000      7.8751      1.3627     -0.0379     78.0169     69.1790     34.1064
   969.7000      7.8751      1.3471     -0.0449     78.9627     75.1444     33.8554
   969.8000      7.8816      1.3779     -0.0103     77.0972     85.9093     33.3528
   969.9000      7.8816      1.4469      0.0365     72.9130     95.9893     32.7099
   970.0000      7.8434      1.5292      0.0421     67.9276    108.3971     32.0937
   970.1000      7.8434      1.6034      0.0950     63.4296    122.8462     31.5483
   970.2000      7.8434      1.6593      0.1168     60.0443    129.9687     31.1173
   970.3000      7.8345      1.6964      0.1104     57.7917    129.8184     30.9528
