~Version Information
VERS.                      2.0: CWLS Log ASCII Standard - VERSION 2.0
WRAP.                       NO: One line per depth step
~Well Information Block
STRT.FT               845.0000: 
STOP.FT              2103.2000: 
STEP.FT                 0.1000: 
NULL.                -999.2500: 
COMP.          Petrogulf Corporation: COMPANY
WELL.               YWAM 7-32R: WELL
FLD.           Purgatorie River: FIELD
LOC.           2355' FNL & 2376' FEL: LOCATION
PROV.                 Colorado: PROVINCE
CNTY.               Las Animas: COUNTRY
SRVC.                Patterson: SERVICE COMPANY
DATE.          Thu Sep 29 23:12:08 2005: LOG DATE
UWI.                          : UNIQUE WELL ID
~Curve Information Block
DEPT.FT            0 000 00 00: Depth
SP.mV                         : DIL Spontaneous Potential
RILD.Ohm-m                    : DIL Deep Resistivity
RILM.Ohm-m                    : DIL Medium Resistivity
RLL3.Ohm-m                    : DIL Shallow Resistivity
GR.GAPI                       : Gamma Ray
~Parameter Information Block
~A  Depth        SP         RILD        RILM        RLL3         GR     
# ...
  2088.2000    199.8419     16.6404     15.0222     21.6956   -999.2500
  2088.3000    173.5533     18.3225     13.3883     16.5295   -999.2500
  2088.4000    173.5533     18.3225     13.3883     16.5295   -999.2500
  2088.5000    134.4728     21.6292     12.0700     13.5070   -999.2500
  2088.6000    134.4728     21.6292     12.0700     13.5070   -999.2500
  2088.7000    134.4728     21.6292     12.0700     13.5070   -999.2500
  2088.8000     89.8523     27.6330     11.0112     11.8518   -999.2500
  2088.9000     89.8523     27.6330     11.0112     11.8518   -999.2500
  2089.0000     50.3627     37.8204     10.1663     10.9238   -999.2500
  2089.1000     50.3627     37.8204     10.1663     10.9238   -999.2500
  2089.2000     50.3627     37.8204     10.1663     10.9238   -999.2500
  2089.3000     23.1929     53.7412      9.5009     10.3355   -999.2500
  2089.4000     23.1929     53.7412      9.5009     10.3355   -999.2500
  2089.5000      8.6447     74.9255      8.9908      9.9086   -999.2500
  2089.6000      8.6447     74.9255      8.9908      9.9086   -999.2500
  2089.7000      8.6447     74.9255      8.9908      9.9086   -999.2500
  2089.8000      2.5797     96.1068      8.6207      9.5725   -999.2500
  2089.9000      2.5797     96.1068      8.6207      9.5725   -999.2500
  2090.0000      0.6108    110.1877      8.3829      9.2918   -999.2500
  2090.1000      0.6108    110.1877      8.3829      9.2918   -999.2500
  2090.2000      0.6108    110.1877      8.3829      9.2918   -999.2500
  2090.3000      0.1130    115.7632      8.2772      9.0558   -999.2500
  2090.4000      0.1130    115.7632      8.2772      9.0558   -999.2500
  2090.5000      0.0150    116.6225      8.3114      8.9209   -999.2500
  2090.6000      0.0150    116.6225      8.3114      8.9209   -999.2500
  2090.7000      0.0150    116.6225      8.3114      8.9209   -999.2500
  2090.8000   -999.2500    116.6541      8.5032      9.0676   -999.2500
  2090.9000   -999.2500    116.6541      8.5032      9.0676   -999.2500
  2091.0000   -999.2500    118.2082      8.8839      9.8174   -999.2500
  2091.1000   -999.2500    118.2082      8.8839      9.8174   -999.2500
  2091.2000   -999.2500    118.2082      8.8839      9.8174   -999.2500
  2091.3000   -999.2500    327.7010      9.5037     11.5412   -999.2500
  2091.4000   -999.2500    327.7010      9.5037     11.5412   -999.2500
  2091.5000   -999.2500    388.1205     10.4412     14.4663   -999.2500
  2091.6000   -999.2500    388.1205     10.4412     14.4663   -999.2500
  2091.7000   -999.2500    388.1205     10.4412     14.4663   -999.2500
  2091.8000   -999.2500    500.4794     11.8172     18.5582   -999.2500
  2091.9000   -999.2500    500.4794     11.8172     18.5582   -999.2500
  2092.0000   -999.2500    700.0328     13.8157     23.7068   -999.2500
  2092.1000   -999.2500    700.0328     13.8157     23.7068   -999.2500
  2092.2000   -999.2500    700.0328     13.8157     23.7068   -999.2500
  2092.3000   -999.2500   1038.8571     16.7148     30.0545   -999.2500
  2092.4000   -999.2500   1038.8571     16.7148     30.0545   -999.2500
  2092.5000   -999.2500   1557.0496     20.9240     37.8701   -999.2500
  2092.6000   -999.2500   1557.0496     20.9240     37.8701   -999.2500
  2092.7000   -999.2500   1557.0496     20.9240     37.8701   -999.2500
  2092.8000   -999.2500   2193.0413     27.0113     46.8374   -999.2500
  2092.9000   -999.2500   2193.0413     27.0113     46.8374   -999.2500
  2093.0000   -999.2500   2746.1665     35.6585     55.6618   -999.2500
  2093.1000   -999.2500   2746.1665     35.6585     55.6618   -999.2500
  2093.2000   -999.2500   2746.1665     35.6585     55.6618   -999.2500
  2093.3000   -999.2500   3070.6150     47.2655     62.8068   -999.2500
  2093.4000   -999.2500   3070.6150     47.2655     62.8068   -999.2500
  2093.5000   -999.2500   3205.5476     62.0881     67.6773   -999.2500
  2093.6000   -999.2500   3205.5476     62.0881     67.6773   -999.2500
  2093.7000   -999.2500   3205.5476     62.0881     67.6773   -999.2500
  2093.8000   -999.2500   3248.8420     78.0754     70.7876   -999.2500
  2093.9000   -999.2500   3248.8420     78.0754     70.7876   -999.2500
  2094.0000   -999.2500   3260.2219     92.5257     72.6330   -999.2500
  2094.1000   -999.2500   3260.2219     92.5257     72.6330   -999.2500
  2094.2000   -999.2500   3260.2219     92.5257     72.6330   -999.2500
  2094.3000   -999.2500 100000.0000    103.0238     72.5410   -999.2500
  2094.4000   -999.2500 100000.0000    103.0238     72.5410   -999.2500
  2094.5000   -999.2500 100000.0000    109.0997     68.8514   -999.2500
  2094.6000   -999.2500 100000.0000    109.0997     68.8514   -999.2500
  2094.7000   -999.2500 100000.0000    109.0997     68.8514   -999.2500
  2094.8000   -999.2500 100000.0000    111.8986     60.4345   -999.2500
  2094.9000   -999.2500 100000.0000    111.8986     60.4345   -999.2500
  2095.0000   -999.2500 100000.0000    112.9299     48.1562   -999.2500
  2095.1000   -999.2500 100000.0000    112.9299     48.1562   -999.2500
  2095.2000   -999.2500 100000.0000    112.9299     48.1562   -999.2500
  2095.3000   -999.2500 100000.0000    113.3270     34.7914   -999.2500
  2095.4000   -999.2500 100000.0000    113.3270     34.7914   -999.2500
  2095.5000   -999.2500 100000.0000    113.7574     23.3916   -999.2500
  2095.6000   -999.2500 100000.0000    113.7574     23.3916   -999.2500
  2095.7000   -999.2500 100000.0000    113.7574     23.3916   -999.2500
  2095.8000   -999.2500 100000.0000    114.5695     15.6486   -999.2500
  2095.9000   -999.2500 100000.0000    114.5695     15.6486   -999.2500
  2096.0000   -999.2500 100000.0000    443.4809     11.6079   -999.2500
  2096.1000   -999.2500 100000.0000    443.4809     11.6079   -999.2500
  2096.2000   -999.2500 100000.0000    443.4809     11.6079   -999.2500
  2096.3000   -999.2500 100000.0000    474.3437     10.5299   -999.2500
  2096.4000   -999.2500 100000.0000    474.3437     10.5299   -999.2500
  2096.5000   -999.2500 100000.0000    521.1705     11.7713   -999.2500
  2096.6000   -999.2500 100000.0000    521.1705     11.7713   -999.2500
  2096.7000   -999.2500 100000.0000    521.1705     11.7713   -999.2500
  2096.8000   -999.2500 100000.0000    590.1642     14.8246   -999.2500
  2096.9000   -999.2500 100000.0000    590.1642     14.8246   -999.2500
  2097.0000   -999.2500 100000.0000    690.9290     18.6070   -999.2500
  2097.1000   -999.2500 100000.0000    690.9290     18.6070   -999.2500
  2097.2000   -999.2500 100000.0000    690.9290     18.6070   -999.2500
  2097.3000   -999.2500 100000.0000    838.3113     21.0626   -999.2500
  2097.4000   -999.2500 100000.0000    838.3113     21.0626   -999.2500
  2097.5000   -999.2500 100000.0000   1055.0223     20.1663   -999.2500
  2097.6000   -999.2500 100000.0000   1055.0223     20.1663   -999.2500
  2097.7000   -999.2500 100000.0000   1055.0223     20.1663   -999.2500
  2097.8000   -999.2500   -999.2500   1374.6505     15.6938   -999.2500
  2097.9000   -999.2500   -999.2500   1374.6505     15.6938   -999.2500
  2098.0000   -999.2500   -999.2500   1842.8167      9.6057   -999.2500
  2098.1000   -999.2500   -999.2500   1842.8167      9.6057   -999.2500
  2098.2000   -999.2500   -999.2500   1842.8167      9.6057   -999.2500
  2098.3000   -999.2500   -999.2500   2509.7532      4.3644   -999.2500
  2098.4000   -999.2500   -999.2500   2509.7532      4.3644   -999.2500
  2098.5000   -999.2500   -999.2500   3402.1064      1.1451   -999.2500
  2098.6000   -999.2500   -999.2500   3402.1064      1.1451   -999.2500
  2098.7000   -999.2500   -999.2500   3402.1064      1.1451   -999.2500
  2098.8000   -999.2500   -999.2500   4470.5127     -0.3249   -999.2500
  2098.9000   -999.2500   -999.2500   4470.5127     -0.3249   -999.2500
  2099.0000   -999.2500   -999.2500   5557.0718     -0.8333   -999.2500
  2099.1000   -999.2500   -999.2500   5557.0718     -0.8333   -999.2500
  2099.2000   -999.2500   -999.2500   5557.0718     -0.8333   -999.2500
  2099.3000   -999.2500   -999.2500   6461.9590     -0.9679   -999.2500
