~Version Information
VERS.                      2.0: CWLS Log ASCII Standard - VERSION 2.0
WRAP.                       NO: One line per depth step
~Well Information Block
STRT.FT                -7.0000: 
STOP.FT              1155.0000: 
STEP.FT                 0.2500: 
NULL.                -999.2500: 
COMP.          Pioneer Natural Resources: COMPANY
WELL.          Whitecoat 14-36: WELL
FLD.           Purgatorie River: FIELD
LOC.           606' FSL & 260' FWL--: LOCATION
PROV.                       CO: PROVINCE
CNTY.               Las Animas: COUNTRY
SRVC.          Patterson Wireline: SERVICE COMPANY
DATE.          Mon Dec 12 12:56:49 2005: LOG DATE
UWI.           08 071 08593 00: UNIQUE WELL ID
~Curve Information Block
DEPT.FT            0 000 00 00: Depth
CCL.                          : Casing Collar Locator
TT3.usec                      : CBL 3' Travel Time
AMP3.mV                       : CBL 3' Amplitude
GR.GAPI                       : Gamma Ray
~Parameter Information Block
~A  Depth       CCL         TT3         AMP3         GR     
# ...
   763.5000      0.0000    640.9283      4.1622    117.8837
   763.7500      0.0000    602.5917      4.2936    119.7261
   764.0000      0.0000    560.1147      4.4955    122.9542
   764.2500      0.0000    526.7372      4.6695    126.4847
   764.5000      0.0000    514.3715      4.7429    128.3016
   764.7500      0.0000    527.5802      4.7127    127.9202
   765.0000      0.0000    561.5233      4.6428    127.0987
   765.2500      0.0000    604.1727      4.6150    127.8655
   765.5000      0.0000    642.3547      4.6734    130.6644
   765.7500      0.0000    668.3947      4.8025    135.0539
   766.0000      0.0000    682.1899      4.9428    140.8460
   766.2500      0.0000    687.9343      5.0154    147.2569
   766.5000      0.0000    689.8383      4.9493    152.0184
   766.7500      0.0000    690.3003      4.7164    152.8408
   767.0000      0.0000    690.2284      4.3607    149.3972
   767.2500      0.0000    689.8864      3.9839    143.0657
   767.5000      0.0000    689.4033      3.6906    135.1360
   767.7500      0.0000    688.9025      3.5475    125.8733
   768.0000      0.0000    688.4753      3.5859    115.0655
   768.2500      0.0000    688.1790      3.8105    102.9442
   768.5000      0.0000    688.0367      4.1834     90.5226
   768.7500      0.0000    688.0269      4.6047     79.3773
   769.0000      0.0000    688.0912      4.9357     71.2085
   769.2500      0.0000    688.1779      5.0625     67.3140
   769.5000      0.0000    688.2720      4.9526     68.0709
   769.7500      0.0000    688.4022      4.6624     72.7503
   770.0000      0.0000    688.6307      4.2962     79.8184
   770.2500      0.0000    689.0444      3.9497     87.7588
   770.5000      0.0000    689.7652      3.6825     96.0610
   770.7500      0.0000    691.0106      3.5245    105.3103
   771.0000      0.0000    693.0516      3.4871    115.8381
   771.2500      0.0000    695.8344      3.5596    126.4302
   771.5000      0.0000    698.5255      3.7063    135.0357
   771.7500      0.0000    699.8038      3.8811    140.8074
   772.0000      0.0000    699.0123      4.0485    144.9398
   772.2500      0.0000    696.8648      4.1883    149.2277
   772.5000      0.0000    694.7246      4.2902    154.0428
   772.7500      0.0000    693.3784      4.3533    157.9905
   773.0000      0.0000    692.7100      4.3886    159.4017
   773.2500      0.0000    692.2675      4.4100    157.9198
   773.5000      0.0000    691.8054      4.4216    154.7435
   773.7500      0.0000    691.3524      4.4192    151.7297
   774.0000      0.0000    691.0264      4.4049    150.3239
   774.2500      0.0000    690.8965      4.3927    150.7829
   774.5000      0.0000    690.9437      4.3967    152.0087
   774.7500      0.0000    691.0795      4.4166    152.3165
   775.0000      0.0000    691.1960      4.4346    150.4050
   775.2500      0.0000    691.2327      4.4228    145.6917
   775.5000      0.0000    691.1989      4.3527    138.4448
   775.7500      0.0000    691.1290      4.2085    129.9899
   776.0000      0.0000    691.0313      4.0041    122.1754
   776.2500      0.0000    690.8862      3.7873    116.1401
   776.5000      0.0000    690.6806      3.6192    111.8096
   776.7500      0.0000    690.4365      3.5421    108.5208
   777.0000      0.0000    690.2076      3.5630    105.7419
   777.2500      0.0000    690.0410      3.6601    103.3549
   777.5000      0.0000    689.9441      3.8059    101.8436
   777.7500      0.0000    689.9077      3.9899    102.2862
   778.0000      0.0000    689.9529      4.2161    105.6409
   778.2500      0.0000    690.1176      4.4728    111.5286
   778.5000      0.0000    690.3793      4.7090    117.9356
   778.7500      0.0000    690.6266      4.8514    122.6612
   779.0000      0.0000    690.7142      4.8455    124.9388
   779.2500      0.0000    690.5248      4.6707    125.2631
   779.5000      0.0000    690.2620      4.3364    124.0484
   779.7500      0.0000    691.5623      3.8958    121.1190
   780.0000      0.0000    699.6713      3.4543    116.3751
   780.2500      0.0000    724.5160      3.1131    110.4863
   780.5000      0.0000    776.2412      2.9039    104.6754
   780.7500      0.0000    854.9909      2.8153     99.7202
   781.0000      0.0000    944.7072      2.8562     95.2704
   781.2500      0.0000   1021.2870      3.0417     90.3895
   781.5000      2.0000   1069.3904      3.3391     84.6863
   781.7500     -2.0000   1090.6227      3.6781     78.4639
   782.0000      0.0000   1096.8914      3.9999     71.9014
   782.2500      0.0000   1099.2096      4.2709     64.9218
   782.5000      0.0000   1101.7745      4.4683     58.1516
   782.7500      0.0000   1100.8280      4.5667     53.3087
   783.0000      0.0000   1085.8280      4.5303     52.1765
   783.2500      0.0000   1045.2061      4.3362     55.3265
   783.5000      0.0000    976.5653      4.0474     61.9769
   783.7500      0.0000    892.4588      3.8315     70.9762
   784.0000      0.0000    813.5374      3.8373     81.7222
   784.2500      0.0000    754.3712      4.0619     93.9051
   784.5000      0.0000    715.5631      4.3789    106.6370
   784.7500      0.0000    687.3298      4.6653    118.3020
   785.0000      0.0000    658.7286      4.8586    127.1476
   785.2500      0.0000    625.2443      4.9309    131.7479
   785.5000      0.0000    590.0533      4.8757    131.3604
   785.7500      0.0000    558.2670      4.7309    126.2887
   786.0000      0.0000    531.2339      4.5772    117.9344
   786.2500      0.0000    509.0456      4.4912    108.6628
   786.5000      0.0000    496.8514      4.4973    101.4561
   786.7500      0.0000    503.1986      4.5673     98.7213
   787.0000      0.0000    529.8154      4.6626    100.7759
   787.2500      0.0000    565.5328      4.7700    105.6826
   787.5000      0.0000    593.9212      4.8920    110.8450
   787.7500      0.0000    608.0751      5.0079    114.8416
   788.0000      0.0000    615.9959      5.0643    117.9436
   788.2500      0.0000    629.9199      5.0198    121.0176
   788.5000      0.0000    652.0435      4.8952    124.0027
   788.7500      0.0000    672.7817      4.7677    125.8251
   789.0000      0.0000    680.9037      4.7077    125.9910
   789.2500      0.0000    671.7054      4.7265    125.5380
   789.5000      0.0000    646.7439      4.7845    125.8585
   789.7500      0.0000    610.9871      4.8419    127.0354
   790.0000      0.0000    572.1268      4.8912    127.8512
   790.2500      0.0000    539.3843      4.9451    127.3570
   790.5000      0.0000    520.2599      5.0059    126.2972
   790.7500      0.0000    518.6357      5.0583    126.8777
   791.0000      0.0000    535.1612      5.0856    130.8116
   791.2500      0.0000    566.5898      5.0815    137.3551
   791.5000      0.0000    604.0896      5.0497    143.4863
   791.7500      0.0000    634.8129      5.0017    146.2187
   792.0000      0.0000    647.4535      4.9518    144.6325
   792.2500      0.0000    637.5255      4.9004    139.7773
   792.5000      0.0000    609.6510      4.8246    133.4248
   792.7500      0.0000    576.7294      4.6945    127.5568
   793.0000      0.0000    554.9878      4.5069    124.3615
   793.2500      0.0000    555.6629      4.3087    125.3809
   793.5000      0.0000    578.6468      4.1816    130.1918
   793.7500      0.0000    613.3993      4.1888    136.3945
   794.0000      0.0000    646.5129      4.3253    141.3076
   794.2500      0.0000    669.6503      4.5255    143.7703
   794.5000      0.0000    681.9902      4.7224    144.2603
   794.7500      0.0000    687.1339      4.8860    143.3780
   795.0000      0.0000    689.0977      5.0042    140.7097
   795.2500      0.0000    690.7350      5.0499    135.4673
   795.5000      0.0000    694.2438      4.9883    127.6251
   795.7500      0.0000    701.5857      4.8164    117.9752
   796.0000      0.0000    713.1448      4.5881    107.8791
   796.2500      0.0000    725.1591      4.3912     99.5610
   796.5000      0.0000    729.4327      4.2916     95.7501
   796.7500      0.0000    718.2621      4.2926     97.8901
