~Version Information
VERS.                      2.0: CWLS Log ASCII Standard - VERSION 2.0
WRAP.                       NO: One line per depth step
~Well Information Block
STRT.FT                 0.0000: 
STOP.FT              2792.7500: 
STEP.FT                 0.2500: 
NULL.                -999.2500: 
COMP.          Pioneer Natural Resources: COMPANY
WELL.          Black Cat 13-32: WELL
FLD.           Purgatorie River: FIELD
LOC.           1865' FSL & 1120' FWL: LOCATION
PROV.                 Colorado: PROVINCE
CNTY.               Las Animas: COUNTRY
SRVC.                Patterson: SERVICE COMPANY
DATE.          Fri Aug 19 09:19:21 2005: LOG DATE
UWI.                          : UNIQUE WELL ID
~Curve Information Block
DEPT.FT            0 000 00 00: Depth
CCL.                          : Casing Collar Locator
TT3.usec                      : CBL 3' Travel Time
AMP3.mV                       : CBL 3' Amplitude
GR.GAPI                       : Gamma Ray
~Parameter Information Block
~A  Depth       CCL         TT3         AMP3         GR     
# ...
  1105.5000      0.0000    564.3561      4.7878    135.0769
  1105.7500      0.0000    513.0309      4.7698    132.9589
  1106.0000      0.0000    485.4520      4.7360    130.2572
  1106.2500      0.0000    478.4431      4.7139    128.5164
  1106.5000      0.0000    484.2149      4.7272    128.3898
  1106.7500      0.0000    495.8160      4.7585    129.1175
  1107.0000      0.0000    508.9979      4.7748    129.6908
  1107.2500      0.0000    523.4312      4.7685    130.4162
  1107.5000      0.0000    535.7194      4.7535    132.7249
  1107.7500      0.0000    534.0263      4.7377    137.4686
  1108.0000      0.0000    513.5054      4.7262    143.9979
  1108.2500      0.0000    488.6710      4.7389    150.8352
  1108.5000      0.0000    476.6200      4.7932    156.5887
  1108.7500      0.0000    482.0308      4.8777    160.1862
  1109.0000      0.0000    503.0042      4.9618    160.7742
  1109.2500      0.0000    536.8445      5.0209    157.8278
  1109.5000      0.0000    577.1614      5.0523    151.6245
  1109.7500      0.0000    613.7560      5.0766    143.8057
  1110.0000      0.0000    640.7158      5.1176    136.9595
  1110.2500      0.0000    662.1610      5.1750    132.7327
  1110.5000      0.0000    684.7758      5.2243    130.2405
  1110.7500      0.0000    706.2060      5.2481    127.1312
  1111.0000      0.0000    718.6779      5.2526    122.5039
  1111.2500      0.0000    721.0195      5.2455    118.2066
  1111.5000      0.0000    719.1353      5.2243    117.0699
  1111.7500      0.0000    716.0441      5.1957    120.3033
  1112.0000      0.0000    708.8546      5.1743    126.4889
  1112.2500      0.0000    698.6523      5.1703    132.4581
  1112.5000      0.0000    692.7389      5.1942    135.0439
  1112.7500      0.0000    690.2861      5.2439    132.5782
  1113.0000      0.0000    680.5808      5.2799    125.3123
  1113.2500      0.0000    662.2064      5.2453    114.8530
  1113.5000      0.0000    646.1985      5.1185    103.4051
  1113.7500      0.0000    638.7877      4.9375     93.1793
  1114.0000      0.0000    636.8538      4.7695     85.7051
  1114.2500      0.0000    636.4832      4.6541     81.3337
  1114.5000      0.0000    636.4288      4.5776     79.4667
  1114.7500      0.0000    636.4164      4.5035     79.0288
  1115.0000      0.0000    635.7928      4.4251     78.5996
  1115.2500      0.0000    633.2501      4.3743     76.8406
  1115.5000      0.0000    627.8420      4.3752     73.5288
  1115.7500      0.0000    620.8160      4.4123     69.8682
  1116.0000      0.0000    615.0839      4.4458     67.2491
  1116.2500      0.0000    612.2209      4.4437     65.8919
  1116.5000      0.0000    611.5795      4.3989     65.0196
  1116.7500      0.0000    612.3482      4.3230     64.0661
  1117.0000      0.0000    615.8421      4.2341     63.4202
  1117.2500      0.0000    626.2383      4.1580     64.1611
  1117.5000      0.0000    647.0464      4.1283     67.2201
  1117.7500      0.0000    674.4259      4.1602     72.7390
  1118.0000      0.0000    698.4492      4.2344     80.1620
  1118.2500      0.0000    713.9748      4.3142     88.8402
  1118.5000      0.0000    723.3538      4.3808     98.4566
  1118.7500      0.0000    728.5654      4.4550    108.7740
  1119.0000      0.0000    729.0640      4.5591    119.1427
  1119.2500      0.0000    726.2475      4.6687    128.5695
  1119.5000      0.0000    724.6473      4.7408    136.2354
  1119.7500      0.0000    727.1157      4.7537    141.6592
  1120.0000      0.0000    731.4485      4.7031    144.5153
  1120.2500      0.0000    734.3538      4.6192    144.7702
  1120.5000      0.0000    735.2943      4.5752    142.9977
  1120.7500      0.0000    734.9339      4.6158    139.9763
  1121.0000      0.0000    732.4382      4.7034    135.8956
  1121.2500      0.0000    724.7769      4.7703    130.5558
  1121.5000      0.0000    709.7181      4.7978    124.4781
  1121.7500      0.0000    690.7813      4.8220    119.2259
  1122.0000      0.0000    675.5582      4.8709    116.3289
  1122.2500      0.0000    667.7765      4.9211    116.2901
  1122.5000      0.0000    665.2355      4.9363    118.8172
  1122.7500      0.0000    664.2868      4.9120    123.4426
  1123.0000      0.0000    663.0143      4.8627    129.4933
  1123.2500      0.0000    662.8820      4.8049    135.6885
  1123.5000      0.0000    669.1811      4.7613    140.1310
  1123.7500      0.0000    685.5367      4.7510    140.9811
  1124.0000      0.0000    706.8950      4.7776    137.5858
  1124.2500      0.0000    723.6442      4.8425    131.2066
  1124.5000      0.0000    731.8889      4.9434    124.6650
  1124.7500      0.0000    734.3934      5.0464    121.2217
  1125.0000      0.0000    734.3318      5.0900    123.1381
  1125.2500      0.0000    731.5109      5.0216    130.1904
  1125.5000      0.0000    722.2803      4.8482    139.1886
  1125.7500      0.0000    703.6969      4.6760    145.6197
  1126.0000      0.0000    681.2079      4.5946    146.4670
  1126.2500      0.0000    667.3654      4.5164    141.9072
  1126.5000      0.0000    667.3130      4.3500    134.6702
  1126.7500      0.0000    673.7343      4.2037    127.8300
  1127.0000      0.0000    679.4104      4.1821    122.9723
  1127.2500      0.0000    684.0821      4.2324    120.1854
  1127.5000      2.0000    687.0662      4.2884    119.1300
  1127.7500      0.0000    680.0675      4.3477    119.4597
  1128.0000      0.0000    657.6939      4.4167    120.6363
  1128.2500      0.0000    635.8306      4.4990    122.3406
  1128.5000      0.0000    635.6405      4.6156    125.1919
  1128.7500      0.0000    650.9626      4.7529    130.2799
  1129.0000      0.0000    659.5683      4.8474    137.5116
  1129.2500      0.0000    654.1970      4.8837    144.7681
  1129.5000      0.0000    641.4924      4.9029    149.0800
  1129.7500      0.0000    624.7095      4.9174    148.7312
  1130.0000      0.0000    604.9796      4.9200    144.4121
  1130.2500      0.0000    594.2826      4.9231    138.6849
  1130.5000      0.0000    606.1711      4.9304    134.2378
  1130.7500      0.0000    629.1828      4.9145    132.2372
  1131.0000      0.0000    632.7686      4.8536    132.1758
  1131.2500      0.0000    604.9442      4.7635    133.0675
  1131.5000      0.0000    566.8574      4.6778    134.2601
  1131.7500      0.0000    549.1946      4.6217    135.0620
  1132.0000      0.0000    562.7737      4.6104    134.2522
  1132.2500      0.0000    593.8840      4.6431    130.4277
  1132.5000      0.0000    623.0844      4.6931    122.9788
  1132.7500      0.0000    642.4926      4.7341    112.9688
  1133.0000      0.0000    654.3315      4.7667    103.0640
  1133.2500      0.0000    661.8862      4.7906     96.0224
  1133.5000      0.0000    667.6984      4.7857     92.8988
  1133.7500      0.0000    673.7034      4.7548     92.7133
  1134.0000      0.0000    678.4895      4.7279     93.5409
  1134.2500      0.0000    678.4905      4.7161     93.7081
  1134.5000      0.0000    673.6596      4.7067     92.4394
  1134.7500      0.0000    668.0812      4.6850     89.9801
  1135.0000      0.0000    664.8928      4.6472     87.3008
  1135.2500      0.0000    664.0994      4.6107     85.5660
  1135.5000      0.0000    664.7587      4.5977     85.6942
  1135.7500      0.0000    667.3596      4.6034     88.1586
  1136.0000      0.0000    673.9724      4.5995     92.9093
  1136.2500      0.0000    684.7878      4.5696     99.1685
  1136.5000      0.0000    694.7274      4.5272    105.3549
  1136.7500      0.0000    697.8335      4.4882    109.7496
  1137.0000      0.0000    693.2491      4.4456    111.7739
  1137.2500      0.0000    681.5074      4.3851    112.3776
  1137.5000      0.0000    661.0025      4.3077    112.7680
  1137.7500      0.0000    634.4163      4.2346    112.8872
  1138.0000      0.0000    614.0472      4.2043    111.5151
  1138.2500      0.0000    613.2498      4.2432    107.8068
  1138.5000      0.0000    628.7178      4.3175    102.4128
  1138.7500      0.0000    641.5563      4.3528     97.0400
