~Version Information
VERS.                      2.0: CWLS Log ASCII Standard - VERSION 2.0
WRAP.                       NO: One line per depth step
~Well Information Block
STRT.FT               570.0000: 
STOP.FT              1958.5000: 
STEP.FT                 0.2500: 
NULL.                -999.2500: 
COMP.          Petrogulf Corporation: COMPANY
WELL.            Montoya 7-14R: WELL
FLD.           Purgatorie River: FIELD
LOC.           628' FSL & 454' FWL: LOCATION
PROV.                 Colorado: PROVINCE
CNTY.               Las Animas: COUNTRY
SRVC.                Patterson: SERVICE COMPANY
DATE.          Sat Oct 08 17:13:52 2005: LOG DATE
UWI.                          : UNIQUE WELL ID
~Curve Information Block
DEPT.FT            0 000 00 00: Depth
SP.mV                         : DIL Spontaneous Potential
RILD.Ohm-m                    : DIL Deep Resistivity
RILM.Ohm-m                    : DIL Medium Resistivity
RLL3.Ohm-m                    : DIL Shallow Resistivity
GR.GAPI                       : Gamma Ray
~Parameter Information Block
~A  Depth        SP         RILD        RILM        RLL3         GR     
# ...
   654.0000   2000.0000     12.7301     11.8984   2000.0000    176.4056
   654.2500   2000.0000     12.6123     11.6953   2000.0000    178.7235
   654.5000   2000.0000     12.5579     11.5713   2000.0000    180.7063
   654.7500   2000.0000     12.5670     11.5281   2000.0000    180.0413
   655.0000   2000.0000     12.6390     11.5662   2000.0000    174.9101
   655.2500   2000.0000     12.7726     11.6855   2000.0000    168.8339
   655.5000   2000.0000     12.9662     11.8864   2000.0000    157.2128
   655.7500   2000.0000     13.2172     12.1696   2000.0000    149.1543
   656.0000   2000.0000     13.5215     12.5361   2000.0000    139.0101
   656.2500   2000.0000     13.8717     12.9861   2000.0000    134.4880
   656.5000   2000.0000     14.2577     13.5161   2000.0000    131.1677
   656.7500   2000.0000     14.6680     14.1175   2000.0000    130.4919
   657.0000   2000.0000     15.0909     14.7738   2000.0000    129.9900
   657.2500   2000.0000     15.5171     15.4598   2000.0000    129.2063
   657.5000   2000.0000     15.9408     16.1419   2000.0000    126.5995
   657.7500   2000.0000     16.3617     16.7832   2000.0000    123.6702
   658.0000   2000.0000     16.7851     17.3495   2000.0000    117.7523
   658.2500   2000.0000     17.2192     17.8187   2000.0000    113.5616
   658.5000   2000.0000     17.6711     18.1866   2000.0000    108.8201
   658.7500   2000.0000     18.1419     18.4684   2000.0000    107.6369
   659.0000   2000.0000     18.6253     18.6943   2000.0000    109.6936
   659.2500   2000.0000     19.1100     18.9011   2000.0000    113.6401
   659.5000   2000.0000     19.5845     19.1236   2000.0000    122.5702
   659.7500   2000.0000     20.0429     19.3893   2000.0000    129.4638
   660.0000   2000.0000     20.4870     19.7159   2000.0000    138.3712
   660.2500   2000.0000     20.9246     20.1137   2000.0000    141.4496
   660.5000   2000.0000     21.3667     20.5887   2000.0000    140.0195
   660.7500   2000.0000     21.8247     21.1462   2000.0000    135.8407
   661.0000   2000.0000     22.3082     21.7931   2000.0000    128.4345
   661.2500   2000.0000     22.8223     22.5360   2000.0000    124.5603
   661.5000   2000.0000     23.3636     23.3764   2000.0000    120.7782
   661.7500   2000.0000     23.9170     24.3030   2000.0000    118.7832
   662.0000   2000.0000     24.4547     25.2832   2000.0000    115.6111
   662.2500   2000.0000     24.9394     26.2570   2000.0000    113.5370
   662.5000   2000.0000     25.3334     27.1382   2000.0000    110.8619
   662.7500   2000.0000     25.6108     27.8259   2000.0000    109.1281
   663.0000   2000.0000     25.7666     28.2284   2000.0000    106.0336
   663.2500   2000.0000     25.8168     28.2921   2000.0000    103.7966
   663.5000   2000.0000     25.7888     28.0203   2000.0000    101.1262
   663.7500   2000.0000     25.7075     27.4742   2000.0000    100.2907
   664.0000   2000.0000     25.5834     26.7511   2000.0000    100.9398
   664.2500   2000.0000     25.4065     25.9550   2000.0000    102.8349
   664.5000   2000.0000     25.1500     25.1713   2000.0000    108.0467
   664.7500   2000.0000     24.7828     24.4528   2000.0000    112.9828
   665.0000   2000.0000     24.2861     23.8166   2000.0000    121.5994
   665.2500   2000.0000     23.6650     23.2495   2000.0000    126.9623
   665.5000   2000.0000     22.9496     22.7178   2000.0000    131.9300
   665.7500   2000.0000     22.1864     22.1804   2000.0000    132.3029
   666.0000   2000.0000     21.4250     21.6036   2000.0000    128.9350
   666.2500   2000.0000     20.7080     20.9717   2000.0000    125.3250
   666.5000   2000.0000     20.0647     20.2909   2000.0000    120.5636
   666.7500   2000.0000     19.5080     19.5845   2000.0000    119.0781
   667.0000   2000.0000     19.0351     18.8830   2000.0000    120.0707
   667.2500   2000.0000     18.6301     18.2136   2000.0000    122.4416
   667.5000   2000.0000     18.2710     17.5938   2000.0000    127.2460
   667.7500   2000.0000     17.9367     17.0309   2000.0000    130.5157
   668.0000   2000.0000     17.6121     16.5248   2000.0000    134.2211
   668.2500   2000.0000     17.2909     16.0728   2000.0000    135.4003
   668.5000   2000.0000     16.9751     15.6733   2000.0000    135.7295
   668.7500   2000.0000     16.6752     15.3277   2000.0000    135.8888
   669.0000   2000.0000     16.4062     15.0401   2000.0000    136.9430
   669.2500   2000.0000     16.1824     14.8145   2000.0000    137.9350
   669.5000   2000.0000     16.0109     14.6527   2000.0000    139.2142
   669.7500   2000.0000     15.8907     14.5521   2000.0000    140.0184
   670.0000   2000.0000     15.8154     14.5060   2000.0000    141.6015
   670.2500   2000.0000     15.7781     14.5049   2000.0000    142.9157
   670.5000   2000.0000     15.7749     14.5389   2000.0000    145.0023
   670.7500   2000.0000     15.8050     14.6001   2000.0000    146.1720
   671.0000   2000.0000     15.8677     14.6837   2000.0000    146.4229
   671.2500   2000.0000     15.9596     14.7877   2000.0000    144.8175
   671.5000   2000.0000     16.0721     14.9107   2000.0000    140.0801
   671.7500   2000.0000     16.1919     15.0499   2000.0000    136.8381
   672.0000   2000.0000     16.3032     15.1990   2000.0000    134.5901
   672.2500   2000.0000     16.3922     15.3482   2000.0000    135.2873
   672.5000   2000.0000     16.4509     15.4861   2000.0000    138.3740
   672.7500   2000.0000     16.4802     15.6024   2000.0000    140.7662
   673.0000   2000.0000     16.4904     15.6914   2000.0000    143.7121
   673.2500   2000.0000     16.5031     15.7542   2000.0000    144.9512
   673.5000   2000.0000     16.5532     15.7998   2000.0000    145.6764
   673.7500   2000.0000     16.6871     15.8435   2000.0000    145.5201
   674.0000   2000.0000     16.9499     15.9054   2000.0000    144.3169
   674.2500   2000.0000     17.3634     16.0085   2000.0000    142.7138
   674.5000   2000.0000     17.9083     16.1767   2000.0000    139.3173
   674.7500   2000.0000     18.5301     16.4347   2000.0000    137.0216
   675.0000   2000.0000     19.1706     16.8065   2000.0000    134.7149
   675.2500   2000.0000     19.8060     17.3156   2000.0000    134.2085
   675.5000   2000.0000     20.4571     17.9840   2000.0000    134.7022
   675.7500   2000.0000     21.1692     18.8327   2000.0000    135.3755
   676.0000   2000.0000     21.9846     19.8821   2000.0000    135.5984
   676.2500   2000.0000     22.9333     21.1527   2000.0000    134.5166
   676.5000   2000.0000     24.0399     22.6657   2000.0000    130.9806
   676.7500   2000.0000     25.3337     24.4428   2000.0000    128.1567
   677.0000   2000.0000     26.8512     26.5029   2000.0000    125.0066
   677.2500   2000.0000     28.6332     28.8581   2000.0000    124.0151
   677.5000   2000.0000     30.7168     31.5075   2000.0000    123.0956
   677.7500   2000.0000     33.1281     34.4351   2000.0000    121.7011
   678.0000   2000.0000     35.8720     37.6139   2000.0000    117.0853
   678.2500   2000.0000     38.9227     41.0161   2000.0000    112.3882
   678.5000   2000.0000     42.2140     44.6249   2000.0000    104.2766
   678.7500   2000.0000     45.6351     48.4370   2000.0000     99.2546
   679.0000   2000.0000     49.0434     52.4520   2000.0000     93.9389
   679.2500   2000.0000     52.3030     56.6503   2000.0000     92.4201
   679.5000   2000.0000     55.3395     60.9703   2000.0000     93.0425
   679.7500   2000.0000     58.1657     65.2966   2000.0000     94.5732
   680.0000   2000.0000     60.8434     69.4668   2000.0000     96.2713
   680.2500   2000.0000     63.4057     73.3006   2000.0000     95.8650
   680.5000   2000.0000     65.8054     76.6400   2000.0000     92.7999
   680.7500   2000.0000     67.9345     79.3900   2000.0000     90.2285
   681.0000   2000.0000     69.6968     81.5409   2000.0000     87.8640
   681.2500   2000.0000     71.0733     83.1641   2000.0000     87.7056
   681.5000   2000.0000     72.1434     84.3900   2000.0000     88.4622
   681.7500   2000.0000     73.0586     85.3745   2000.0000     88.7219
