~Version Information
VERS.                      2.0: CWLS Log ASCII Standard - VERSION 2.0
WRAP.                       NO: One line per depth step
~Well Information Block
STRT.FT               575.0000: 
STOP.FT              1557.5000: 
STEP.FT                 0.1000: 
NULL.                -999.2500: 
COMP.          Pioneer Natural Resources: COMPANY
WELL.          McClaren 13-34 Tr: WELL
FLD.           Purgatoire River: FIELD
LOC.           1934' FSL & 826' FWL: LOCATION
PROV.                 Colorado: PROVINCE
CNTY.               Las Animas: COUNTRY
SRVC.                Patterson: SERVICE COMPANY
DATE.          Tue Jul 12 07:15:27 2005: LOG DATE
UWI.           05 071 08437 00: UNIQUE WELL ID
~Curve Information Block
DEPT.FT            0 000 00 00: Depth
DCAL.in                       : CDL Caliper
RHOB.g/cc                     : CDL Bulk Density
RHOC.g/cc                     : CDL Density Correction
DPOR.pu                       : CDL Density Porosity
GR.GAPI                       : Gamma Ray
NPOR.pu                       : Neutron Porosity
~Parameter Information Block
~A  Depth       DCAL        RHOB        RHOC        DPOR         GR         NPOR    
# ...
  1544.6000      7.8516      2.6195      0.0932      1.8506   -999.2500     53.8263
  1544.7000      7.8516      2.6190      0.0954      1.8784   -999.2500   -999.2500
  1544.8000      7.8511      2.6113      0.0842      2.3481   -999.2500   -999.2500
  1544.9000      7.8511      2.5956      0.0519      3.2989   -999.2500   -999.2500
  1545.0000      7.8667      2.5863      0.0355      3.8608   -999.2500   -999.2500
  1545.1000      7.8667      2.5958      0.0477      3.2858   -999.2500   -999.2500
  1545.2000      7.8667      2.6145      0.0632      2.1518   -999.2500   -999.2500
  1545.3000      7.8800      2.6255      0.0761      1.4854   -999.2500   -999.2500
  1545.4000      7.8800      2.6269      0.0512      1.3979   -999.2500   -999.2500
  1545.5000      7.8844      2.6297      0.0443      1.2287   -999.2500   -999.2500
  1545.6000      7.8844      2.6335      0.1026      0.9972   -999.2500   -999.2500
  1545.7000      7.8844      2.6314      0.0905      1.1298   -999.2500   -999.2500
  1545.8000      7.8839      2.6267      0.1026      1.4120   -999.2500   -999.2500
  1545.9000      7.8839      2.6227      0.0858      1.6538   -999.2500   -999.2500
  1546.0000      7.8843      2.6196      0.0535      1.8420   -999.2500   -999.2500
  1546.1000      7.8843      2.6199      0.0375      1.8254   -999.2500   -999.2500
  1546.2000      7.8843      2.6225      0.0671      1.6646   -999.2500   -999.2500
  1546.3000      7.8862      2.6249      0.0714      1.5227   -999.2500   -999.2500
  1546.4000      7.8862      2.6249      0.0744      1.5219   -999.2500   -999.2500
  1546.5000      7.8859      2.6170      0.0903      1.9998   -999.2500   -999.2500
  1546.6000      7.8859      2.5967      0.0724      3.2289   -999.2500   -999.2500
  1546.7000      7.8859      2.5721      0.0418      4.7189   -999.2500   -999.2500
  1546.8000      7.8868      2.5575      0.0273      5.6080   -999.2500   -999.2500
  1546.9000      7.8868      2.5557      0.0385      5.7137   -999.2500   -999.2500
  1547.0000      7.8953      2.5587      0.0258      5.5311   -999.2500   -999.2500
  1547.1000      7.8953      2.5562      0.0387      5.6842   -999.2500   -999.2500
  1547.2000      7.8953      2.5441      0.0317      6.4177   -999.2500   -999.2500
  1547.3000      7.9064      2.5268      0.0051      7.4637   -999.2500   -999.2500
  1547.4000      7.9064      2.5082      0.0100      8.5936   -999.2500   -999.2500
  1547.5000      7.9094      2.4888      0.0155      9.7691   -999.2500   -999.2500
  1547.6000      7.9094      2.4664      0.0185     11.1284   -999.2500   -999.2500
  1547.7000      7.9094      2.4304      0.0207     13.3077   -999.2500   -999.2500
  1547.8000      7.9074      2.3792     -0.0003     16.4128   -999.2500   -999.2500
  1547.9000      7.9074      2.3353     -0.0223     19.0716   -999.2500   -999.2500
  1548.0000      7.9076      2.3217      0.0029     19.8943   -999.2500   -999.2500
  1548.1000      7.9076      2.3352      0.0430     19.0774   -999.2500   -999.2500
  1548.2000      7.9076      2.3584      0.0308     17.6750   -999.2500   -999.2500
  1548.3000      7.9125      2.3806      0.0681     16.3267   -999.2500   -999.2500
  1548.4000      7.9125      2.3965      0.1164     15.3618   -999.2500   -999.2500
  1548.5000      7.9224      2.4042      0.1602     14.8953   -999.2500   -999.2500
  1548.6000      7.9224      2.4123      0.1470     14.4063   -999.2500   -999.2500
  1548.7000      7.9224      2.4316      0.1167     13.2363   -999.2500   -999.2500
  1548.8000      7.9354      2.4587      0.0857     11.5922   -999.2500   -999.2500
  1548.9000      7.9354      2.4843      0.0662     10.0395   -999.2500   -999.2500
  1549.0000      7.9576      2.5064      0.0851      8.7038   -999.2500   -999.2500
  1549.1000      7.9576      2.5229      0.0924      7.7016   -999.2500   -999.2500
  1549.2000      7.9576      2.5380      0.0960      6.7906   -999.2500   -999.2500
  1549.3000      7.9655      2.5610      0.1060      5.3962   -999.2500   -999.2500
  1549.4000      7.9655      2.5896      0.1213      3.6582   -999.2500   -999.2500
  1549.5000      7.9313      2.6096      0.1373      2.4504   -999.2500   -999.2500
  1549.6000      7.9313      2.6116      0.1131      2.3265   -999.2500   -999.2500
  1549.7000      7.9313      2.6024      0.0763      2.8860   -999.2500   -999.2500
  1549.8000      7.8883      2.5980      0.0399      3.1488   -999.2500   -999.2500
  1549.9000      7.8883      2.6102      0.0579      2.4137   -999.2500   -999.2500
  1550.0000      7.8555      2.6330      0.1009      1.0284   -999.2500   -999.2500
  1550.1000      7.8555      2.6517      0.0909     -0.1044   -999.2500   -999.2500
  1550.2000      7.8555      2.6581      0.0843     -0.4884   -999.2500   -999.2500
  1550.3000      7.8366      2.6487      0.1163      0.0786   -999.2500   -999.2500
  1550.4000      7.8366      2.6260      0.0769      1.4568   -999.2500   -999.2500
  1550.5000      7.8328      2.6041      0.0649      2.7811   -999.2500   -999.2500
  1550.6000      7.8328      2.5947      0.0554      3.3518   -999.2500   -999.2500
  1550.7000      7.8328      2.5998      0.0557      3.0418   -999.2500   -999.2500
  1550.8000      7.8384      2.6181      0.0612      1.9306   -999.2500   -999.2500
  1550.9000      7.8384      2.6404      0.0666      0.5846   -999.2500   -999.2500
  1551.0000      7.8411      2.6523      0.1026     -0.1368   -999.2500   -999.2500
  1551.1000      7.8411      2.6506      0.1026     -0.0355   -999.2500   -999.2500
  1551.2000      7.8411      2.6480      0.0660      0.1186   -999.2500   -999.2500
  1551.3000      7.8398      2.6505      0.0897     -0.0330   -999.2500   -999.2500
  1551.4000      7.8398      2.6480      0.0683      0.1242   -999.2500   -999.2500
  1551.5000      7.8398      2.6406      0.0263      0.5697   -999.2500   -999.2500
  1551.6000      7.8398      2.6409      0.0484      0.5513   -999.2500   -999.2500
  1551.7000      7.8398      2.6521      0.0461     -0.1282   -999.2500   -999.2500
  1551.8000      7.8375      2.6652      0.0793     -0.9184   -999.2500   -999.2500
  1551.9000      7.8375      2.6662      0.0774     -0.9823   -999.2500   -999.2500
  1552.0000      7.8312      2.6514      0.0720     -0.0838   -999.2500   -999.2500
  1552.1000      7.8312      2.6310      0.0344      1.1521   -999.2500   -999.2500
  1552.2000      7.8312      2.6173      0.0378      1.9818   -999.2500   -999.2500
  1552.3000      7.8267      2.6080      0.0409      2.5433   -999.2500   -999.2500
  1552.4000      7.8267      2.5931      0.0172      3.4458   -999.2500   -999.2500
  1552.5000      7.8245      2.5742      0.0273      4.5935   -999.2500   -999.2500
  1552.6000      7.8245      2.5652      0.0314      5.1379   -999.2500   -999.2500
  1552.7000      7.8245      2.5788      0.0378      4.3181   -999.2500   -999.2500
  1552.8000      7.8142      2.6044      0.1018      2.7661   -999.2500   -999.2500
  1552.9000      7.8142      2.6150      0.1201      2.1217   -999.2500   -999.2500
  1553.0000      7.7922      2.6040      0.0935      2.7874   -999.2500   -999.2500
  1553.1000      7.7922      2.5867      0.0819      3.8359   -999.2500   -999.2500
  1553.2000      7.7922      2.5709      0.0931      4.7959   -999.2500   -999.2500
  1553.3000      7.7675      2.5532      0.0880      5.8647   -999.2500   -999.2500
  1553.4000      7.7675      2.5371      0.0537      6.8447   -999.2500   -999.2500
  1553.5000      7.7479      2.5310      0.0475      7.2143   -999.2500   -999.2500
  1553.6000      7.7479      2.5350      0.0874      6.9668   -999.2500   -999.2500
  1553.7000      7.7479      2.5400      0.0952      6.6677   -999.2500   -999.2500
  1553.8000      7.7327      2.5404      0.0886      6.6439   -999.2500   -999.2500
  1553.9000      7.7327      2.5415      0.0704      6.5767   -999.2500   -999.2500
  1554.0000      7.7226      2.5478      0.1034      6.1944   -999.2500   -999.2500
  1554.1000      7.7226      2.5539      0.1367      5.8244   -999.2500   -999.2500
