~Version Information
VERS.                      2.0: CWLS Log ASCII Standard - VERSION 2.0
WRAP.                       NO: One line per depth step
~Well Information Block
STRT.FT               686.2000: 
STOP.FT              1252.7000: 
STEP.FT                 0.1000: 
NULL.                -999.2500: 
COMP.          Pioneer Natural Resources: COMPANY
WELL.          Rock Island 44-24 Tr: WELL
FLD.           Purgatoire River: FIELD
LOC.           814' FSL & 761' FEL--: LOCATION
CNTY.               Las Animas: COUNTY
SRVC.                Patterson: SERVICE COMPANY
DATE.          Thu Apr 20 08:34:45 2006: LOG DATE
UWI.           05 071 08680 00: UNIQUE WELL ID
STAT.                 Colorado: STATE
~Curve Information Block
DEPT.FT            0 000 00 00: Depth
DCAL.in                       : CDL Caliper
RHOB.g/cc                     : CDL Bulk Density
RHOC.g/cc                     : CDL Density Correction
DPOR.pu                       : CDL Density Porosity
GR.GAPI                       : Gamma Ray
~Parameter Information Block
~A  Depth       DCAL        RHOB        RHOC        DPOR         GR     
# ...
   731.0000      8.0237      2.5548      0.0699      5.7671    119.4814
   731.1000      8.0237      2.5445      0.0555      6.3938    118.7329
   731.2000      8.0237      2.5360      0.0215      6.9109    118.1766
   731.3000      8.0325      2.5321      0.0577      7.1467    117.1598
   731.4000      8.0325      2.5191      0.0201      7.9346    114.9444
   731.5000      8.0345      2.5012      0.0153      9.0190    114.4311
   731.6000      8.0345      2.4909      0.0421      9.6404    119.2757
   731.7000      8.0345      2.4851      0.0523      9.9928    127.7018
   731.8000      8.0313      2.4800      0.0311     10.3059    133.5090
   731.9000      8.0313      2.4768      0.0394     10.4977    134.5324
   732.0000      8.0332      2.4743      0.0590     10.6489    135.4973
   732.1000      8.0332      2.4707      0.1007     10.8689    137.1036
   732.2000      8.0332      2.4666      0.0918     11.1149    137.6623
   732.3000      8.0400      2.4652      0.0636     11.1975    138.7403
   732.4000      8.0400      2.4644      0.0751     11.2515    139.3872
   732.5000      8.0382      2.4619      0.0424     11.3996    138.2240
   732.6000      8.0382      2.4669      0.0660     11.0962    135.8571
   732.7000      8.0382      2.4767      0.0899     10.5040    131.7054
   732.8000      8.0330      2.4703      0.1020     10.8937    127.5286
   732.9000      8.0330      2.4411      0.0431     12.6622    127.3871
   733.0000      8.0386      2.4045      0.0448     14.8793    128.4874
   733.1000      8.0386      2.3721      0.0083     16.8403    127.8409
   733.2000      8.0386      2.3455      0.0290     18.4541    126.7338
   733.3000      8.0503      2.3283      0.0003     19.4964    124.7202
   733.4000      8.0503      2.3336      0.0189     19.1741    122.4983
   733.5000      8.0559      2.3634      0.0393     17.3696    121.1862
   733.6000      8.0559      2.4002      0.0458     15.1365    123.6668
   733.7000      8.0559      2.4262      0.0780     13.5657    131.7214
   733.8000      8.0566      2.4343      0.0598     13.0729    138.9038
   733.9000      8.0566      2.4391      0.0230     12.7808    141.0901
   734.0000      8.0553      2.4627      0.0545     11.3509    139.8199
   734.1000      8.0553      2.5038      0.1153      8.8615    136.8240
   734.2000      8.0553      2.5431      0.1431      6.4796    132.6151
   734.3000      8.0528      2.5749      0.1177      4.5523    129.0289
   734.4000      8.0528      2.6065      0.1748      2.6341    130.3261
   734.5000      8.0341      2.6375      0.2030      0.7570    135.5402
   734.6000      8.0341      2.6597      0.1736     -0.5853    137.2333
   734.7000      8.0341      2.6649      0.1676     -0.9049    130.0589
   734.8000      7.9922      2.6519      0.0981     -0.1134    117.5994
   734.9000      7.9922      2.6288      0.0900      1.2825    105.4135
   735.0000      7.9588      2.6195     -0.0058      1.8488     94.7700
   735.1000      7.9588      2.6439      0.0405      0.3675     84.9450
   735.2000      7.9588      2.6845      0.0212     -2.0913     74.2245
   735.3000      7.9432      2.7163      0.0534     -4.0189     64.2317
   735.4000      7.9432      2.7307      0.0683     -4.8939     58.7111
   735.5000      7.9326      2.7236      0.0733     -4.4630     57.0041
   735.6000      7.9326      2.7040      0.0967     -3.2703     55.1095
   735.7000      7.9326      2.6869      0.0899     -2.2369     53.2296
   735.8000      7.9218      2.6674      0.1418     -1.0565     55.0739
   735.9000      7.9218      2.6332      0.0741      1.0154     59.0180
   736.0000      7.9141      2.5963      0.0214      3.2544     60.7652
   736.1000      7.9141      2.5760      0.0490      4.4824     61.2172
   736.2000      7.9141      2.5790      0.0260      4.3034     61.8038
   736.3000      7.9117      2.5917      0.1043      3.5334     60.5480
   736.4000      7.9117      2.5821      0.1004      4.1169     56.4942
   736.5000      7.9143      2.5440      0.0271      6.4214     52.3924
   736.6000      7.9143      2.5046      0.0329      8.8125     52.3185
   736.7000      7.9143      2.4785      0.0467     10.3913     56.8710
   736.8000      7.9287      2.4567      0.0209     11.7154     63.5356
   736.9000      7.9287      2.4271      0.0016     13.5107     72.0117
   737.0000      7.9650      2.3845      0.0324     16.0933     83.3158
   737.1000      7.9650      2.3336     -0.0086     19.1751     96.4246
   737.2000      7.9650      2.2873      0.0051     21.9829    108.5603
   737.3000      8.0201      2.2457      0.0087     24.5017    116.5299
   737.4000      8.0201      2.2041     -0.0155     27.0269    119.1698
   737.5000      8.0708      2.1720     -0.0210     28.9691    119.5212
   737.6000      8.0708      2.1600      0.0106     29.6999    123.4706
   737.7000      8.0708      2.1639      0.0435     29.4578    131.7310
   737.8000      8.0990      2.1763      0.0558     28.7107    137.7685
   737.9000      8.0990      2.1955      0.0547     27.5431    137.4347
   738.0000      8.1007      2.2220      0.0884     25.9409    133.7156
   738.1000      8.1007      2.2568      0.1002     23.8294    132.2045
   738.2000      8.1007      2.3096      0.1135     20.6291    134.0776
   738.3000      8.0819      2.3883      0.1546     15.8624    135.2491
   738.4000      8.0819      2.4782      0.2055     10.4120    132.1517
   738.5000      8.0575      2.5429      0.2216      6.4884    124.6878
   738.6000      8.0575      2.5623      0.1593      5.3160    119.4719
   738.7000      8.0575      2.5517      0.1732      5.9570    118.6985
   738.8000      8.0388      2.5279      0.1419      7.3977    117.5565
   738.9000      8.0388      2.4983      0.0946      9.1957    115.7877
   739.0000      8.0367      2.4796      0.0216     10.3283    115.0144
   739.1000      8.0367      2.4891      0.0432      9.7526    117.1576
   739.2000      8.0367      2.5170      0.0470      8.0591    125.2704
   739.3000      8.0624      2.5267      0.0750      7.4747    135.1188
   739.4000      8.0624      2.4938      0.0096      9.4659    139.3925
   739.5000      8.1158      2.4323     -0.0151     13.1913    138.3400
   739.6000      8.1158      2.3620      0.0390     17.4570    134.8394
   739.7000      8.1158      2.2858      0.0460     22.0709    131.7120
   739.8000      8.1868      2.2023      0.0449     27.1341    133.0065
   739.9000      8.1868      2.1127      0.0092     32.5646    137.7494
   740.0000      8.2961      2.0206     -0.0401     38.1438    140.1559
   740.1000      8.2961      1.9326     -0.0832     43.4815    139.1589
   740.2000      8.2961      1.8579     -0.0882     48.0044    139.3743
   740.3000      8.4231      1.8043     -0.0924     51.2558    139.4764
   740.4000      8.4231      1.7764     -0.0682     52.9445    135.4874
   740.5000      8.4553      1.7751     -0.0333     53.0219    130.0196
   740.6000      8.4553      1.7991      0.0224     51.5709    124.6977
   740.7000      8.4553      1.8424      0.1177     48.9464    116.5434
   740.8000      8.3873      1.8930      0.1786     45.8769    106.3973
   740.9000      8.3873      1.9468      0.2029     42.6189     97.9490
   741.0000      8.3348      2.0049      0.2545     39.0987     95.2610
   741.1000      8.3348      2.0541      0.2621     36.1148     98.7715
   741.2000      8.3348      2.0707      0.2465     35.1088    103.2354
   741.3000      8.2813      2.0483      0.1111     36.4681    103.9422
   741.4000      8.2813      2.0106      0.0149     38.7523     99.9590
   741.5000      8.2083      1.9857     -0.0045     40.2610     97.3266
   741.6000      8.2083      1.9798      0.0066     40.6152    102.6530
   741.7000      8.2083      1.9796      0.0547     40.6276    111.3028
   741.8000      8.1864      1.9690      0.0757     41.2747    116.9300
   741.9000      8.1864      1.9413      0.0623     42.9527    120.8780
   742.0000      8.2148      1.8984      0.0546     45.5530    123.4784
   742.1000      8.2148      1.8487      0.0026     48.5618    120.4942
