~Version Information
VERS.                      2.0: CWLS Log ASCII Standard - VERSION 2.0
WRAP.                       NO: One line per depth step
~Well Information Block
STRT.FT               335.0000: 
STOP.FT              1154.7000: 
STEP.FT                 0.1000: 
NULL.                -999.2500: 
COMP.          Pioneer Natural Resources: COMPANY
WELL.             Croc 42-9 Tr: WELL
FLD.           Purgatoire River: FIELD
LOC.           2429' FNL & 315' FEL--: LOCATION
STAT.                 Colorado: State
CNTY.               Las Animas: COUNTY
CTRY. USA : Country
SECT. 9 : Section
TOWN. 32S : Township
RANG. 66W : Range
SRVC.                Patterson: SERVICE COMPANY
DATE.          Fri Oct 14 07:56:23 2005: LOG DATE
API.           05 071 08550 00: UNIQUE WELL ID
~Curve Information Block
DEPT.FT            0 000 00 00: Depth
DCAL.in                       : CDL Caliper
RHOB.g/cc                     : CDL Bulk Density
RHOC.g/cc                     : CDL Density Correction
DPOR.pu                       : CDL Density Porosity
NPOR.pu                       : Neutron Porosity
GR.GAPI                       : Gamma Ray
~Parameter Information Block
~A  Depth       DCAL        RHOB        RHOC        DPOR        NPOR         GR     
# ...
  1122.2000      7.8319      2.5937      0.0434      3.4128     29.0762    120.8063
  1122.3000      7.8320      2.6000      0.0600      3.0330     28.3959    124.5968
  1122.4000      7.8320      2.6153      0.0377      2.1031     27.9609    114.7000
  1122.5000      7.8318      2.6287      0.0561      1.2911     27.9926     84.1809
  1122.6000      7.8318      2.6296      0.0694      1.2351     28.2730     43.0448
  1122.7000      7.8318      2.6250      0.0468      1.5159     28.1362     13.6668
  1122.8000      7.8265      2.6202      0.0698      1.8087     27.5687      2.5001
  1122.9000      7.8265      2.6086      0.0497      2.5112     27.1179      0.2523
  1123.0000      7.8173      2.5951     -0.0020      3.3279     26.9486      0.0134
  1123.1000      7.8173      2.5926     -0.0181      3.4784     27.0834      0.0000
  1123.2000      7.8173      2.5986      0.0294      3.1131     27.5535   -999.2500
  1123.3000      7.8115      2.6045      0.0396      2.7588     28.1218   -999.2500
  1123.4000      7.8115      2.6111      0.0456      2.3596     28.3874   -999.2500
  1123.5000      7.8104      2.6147      0.0978      2.1372     28.1720   -999.2500
  1123.6000      7.8104      2.6038      0.0861      2.7982     27.7503   -999.2500
  1123.7000      7.8104      2.5824      0.0813      4.0969     27.3857   -999.2500
  1123.8000      7.8142      2.5664      0.0441      5.0662     26.8654   -999.2500
  1123.9000      7.8142      2.5618      0.0295      5.3443     26.3662   -999.2500
  1124.0000      7.8231      2.5565      0.0457      5.6694     26.2126   -999.2500
  1124.1000      7.8231      2.5357      0.0123      6.9269     26.0663   -999.2500
  1124.2000      7.8231      2.5143     -0.0264      8.2239     25.6516   -999.2500
  1124.3000      7.8322      2.5212      0.0013      7.8048     25.2377   -999.2500
  1124.4000      7.8322      2.5557      0.0557      5.7133     24.9151   -999.2500
  1124.5000      7.8376      2.5884      0.0844      3.7339     24.4765   -999.2500
  1124.6000      7.8376      2.6023      0.0628      2.8926     24.1561   -999.2500
  1124.7000      7.8376      2.6075      0.0453      2.5760     24.0260   -999.2500
  1124.8000      7.8396      2.6098      0.0763      2.4350     23.8118   -999.2500
  1124.9000      7.8396      2.6053      0.0328      2.7117     23.7559   -999.2500
  1125.0000      7.8402      2.5983      0.0399      3.1341     24.0751   -999.2500
  1125.1000      7.8402      2.5876      0.0491      3.7829     24.6318   -999.2500
  1125.2000      7.8402      2.5636      0.0325      5.2389     25.5209   -999.2500
  1125.3000      7.8413      2.5363     -0.0322      6.8904     26.3111   -999.2500
  1125.4000      7.8413      2.5214      0.0458      7.7913     26.6398   -999.2500
  1125.5000      7.8416      2.5080      0.0499      8.6035     27.2181   -999.2500
  1125.6000      7.8416      2.4842      0.0277     10.0478     28.2905   -999.2500
  1125.7000      7.8416      2.4582      0.0025     11.6260     29.2318   -999.2500
  1125.8000      7.8328      2.4468     -0.0159     12.3126     29.8086   -999.2500
  1125.9000      7.8328      2.4563      0.0237     11.7364     30.0868   -999.2500
  1126.0000      7.8143      2.4753      0.0596     10.5888     29.8864   -999.2500
  1126.1000      7.8143      2.4922      0.0606      9.5615     29.4150   -999.2500
  1126.2000      7.8143      2.5040      0.0933      8.8505     29.3399   -999.2500
  1126.3000      7.8022      2.5121      0.0885      8.3552     29.7541   -999.2500
  1126.4000      7.8022      2.5251      0.0536      7.5711     29.9910   -999.2500
  1126.5000      7.7982      2.5380      0.1157      6.7884     29.5445   -999.2500
  1126.6000      7.7982      2.5334      0.0680      7.0664     28.6597   -999.2500
  1126.7000      7.7982      2.5154      0.0433      8.1572     28.1518   -999.2500
  1126.8000      7.7895      2.5014      0.0380      9.0068     28.5225   -999.2500
  1126.9000      7.7895      2.4926      0.0362      9.5424     29.2943   -999.2500
  1127.0000      7.7747      2.4789      0.0447     10.3710     29.7742   -999.2500
  1127.1000      7.7747      2.4610      0.0036     11.4521     30.0171   -999.2500
  1127.2000      7.7747      2.4462      0.0411     12.3531     30.3127   -999.2500
  1127.3000      7.7617      2.4357      0.0157     12.9901     30.6951   -999.2500
  1127.4000      7.7617      2.4298      0.0591     13.3474     30.9430   -999.2500
  1127.5000      7.7559      2.4243      0.0385     13.6793     30.8446   -999.2500
  1127.6000      7.7559      2.4128      0.0192     14.3772     30.5838   -999.2500
  1127.7000      7.7559      2.3973      0.0224     15.3146     30.3924   -999.2500
  1127.8000      7.7700      2.3881      0.0179     15.8715     30.5985   -999.2500
  1127.9000      7.7700      2.3856      0.0608     16.0243     32.4339   -999.2500
  1128.0000      7.8006      2.3714      0.0748     16.8847     37.6012   -999.2500
  1128.1000      7.8006      2.3452     -0.0123     18.4719     44.7029   -999.2500
  1128.2000      7.8006      2.3341      0.0223     19.1458     49.5944   -999.2500
  1128.3000      7.8217      2.3422      0.0559     18.6521     51.3693   -999.2500
  1128.4000      7.8217      2.3526      0.0654     18.0223     51.7195   -999.2500
  1128.5000      7.8223      2.3595      0.0684     17.6090     51.7566   -999.2500
  1128.6000      7.8223      2.3628      0.0790     17.4036     51.7587   -999.2500
  1128.7000      7.8223      2.3565      0.0869     17.7885   -999.2500   -999.2500
  1128.8000      7.8097      2.3370      0.0600     18.9699   -999.2500   -999.2500
  1128.9000      7.8097      2.3197      0.0430     20.0208   -999.2500   -999.2500
  1129.0000      7.7992      2.3274      0.0489     19.5485   -999.2500   -999.2500
  1129.1000      7.7992      2.3594      0.1004     17.6127   -999.2500   -999.2500
  1129.2000      7.7992      2.3944      0.0706     15.4921   -999.2500   -999.2500
  1129.3000      7.8013      2.4300      0.0395     13.3325   -999.2500   -999.2500
  1129.4000      7.8013      2.4786      0.1195     10.3882   -999.2500   -999.2500
  1129.5000      7.8133      2.5397      0.1504      6.6831   -999.2500   -999.2500
  1129.6000      7.8133      2.6074      0.2138      2.5833   -999.2500   -999.2500
  1129.7000      7.8133      2.6779      0.2437     -1.6918   -999.2500   -999.2500
  1129.8000      7.8328      2.7370      0.2565     -5.2751   -999.2500   -999.2500
  1129.9000      7.8328      2.7617      0.2050     -6.7667   -999.2500   -999.2500
  1130.0000      7.8386      2.7543      0.0669     -6.3206   -999.2500   -999.2500
  1130.1000      7.8386      2.7409      0.0504     -5.5120   -999.2500   -999.2500
  1130.2000      7.8386      2.7357      0.0064     -5.1923   -999.2500   -999.2500
  1130.3000      7.8114      2.7385      0.0333     -5.3643   -999.2500   -999.2500
  1130.4000      7.8114      2.7424      0.0172     -5.5995   -999.2500   -999.2500
  1130.5000      7.7885      2.7453      0.0221     -5.7767   -999.2500   -999.2500
  1130.6000      7.7885      2.7501      0.0378     -6.0697   -999.2500   -999.2500
  1130.7000      7.7885      2.7509      0.0481     -6.1155   -999.2500   -999.2500
  1130.8000      7.7813      2.7418      0.0381     -5.5662   -999.2500   -999.2500
  1130.9000      7.7813      2.7238      0.0510     -4.4708   -999.2500   -999.2500
  1131.0000      7.7731      2.7007      0.0232     -3.0720   -999.2500   -999.2500
  1131.1000      7.7731      2.6848     -0.0095     -2.1111   -999.2500   -999.2500
  1131.2000      7.7731      2.6848      0.0287     -2.1106   -999.2500   -999.2500
  1131.3000      7.7645      2.6882      0.0762     -2.3164   -999.2500   -999.2500
  1131.4000      7.7645      2.6828      0.0484     -1.9850   -999.2500   -999.2500
  1131.5000      7.7625      2.6693      0.0660     -1.1672   -999.2500   -999.2500
  1131.6000      7.7625      2.6369      0.0704      0.7938   -999.2500   -999.2500
  1131.7000      7.7625      2.5692      0.0356      4.8967   -999.2500   -999.2500
