~Version Information
VERS.                      2.0: CWLS Log ASCII Standard - VERSION 2.0
WRAP.                       NO: One line per depth step
~Well Information Block
STRT.FT                -7.2500: 
STOP.FT              1221.7500: 
STEP.FT                 0.2500: 
NULL.                -999.2500: 
COMP.          Pioneer Natural Resources: COMPANY
WELL.           Tennis 7-12 Tr: WELL
FLD.           Purgatorie River: FIELD
LOC.           1794' FNL & 1563' FEL--: LOCATION
PROV.                       CO: PROVINCE
CNTY.               Las Animas: COUNTRY
SRVC.          Patterson Wireline: SERVICE COMPANY
DATE.          Tue Dec 27 14:16:59 2005: LOG DATE
UWI.           05 071 008635 00: UNIQUE WELL ID
~Curve Information Block
DEPT.FT            0 000 00 00: Depth
CCL.                          : Casing Collar Locator
TT3.usec                      : CBL 3' Travel Time
AMP3.mV                       : CBL 3' Amplitude
GR.GAPI                       : Gamma Ray
~Parameter Information Block
~A  Depth       CCL         TT3         AMP3         GR     
# ...
   796.7500      0.0000    704.7575      6.0725     88.2080
   797.0000      0.0000    708.6199      6.0873     89.3027
   797.2500      0.0000    710.9376      6.0575     89.8244
   797.5000      0.0000    712.7389      5.9772     89.0233
   797.7500      0.0000    715.6358      5.8579     86.4499
   798.0000      0.0000    721.6979      5.7232     81.9939
   798.2500      0.0000    732.7241      5.6004     76.1061
   798.5000      0.0000    748.7051      5.5151     69.9715
   798.7500      0.0000    766.9150      5.4831     65.2269
   799.0000      0.0000    783.4394      5.5013     62.9908
   799.2500      0.0000    796.1123      5.5477     62.9133
   799.5000      0.0000    806.1847      5.5947     63.5398
   799.7500      0.0000    817.4961      5.6301     63.6919
   800.0000      0.0000    833.6123      5.6673     63.1530
   800.2500      0.0000    854.4954      5.7339     62.1225
   800.5000      0.0000    875.6774      5.8484     60.5026
   800.7500      0.0000    890.8134      6.0080     57.8251
   801.0000      0.0000    893.8001      6.1963     53.7876
   801.2500      0.0000    879.4844      6.3959     48.9521
   801.5000      0.0000    847.2239      6.5927     44.7326
   801.7500      0.0000    804.0120      6.7751     42.3163
   802.0000      0.0000    758.7693      6.9336     41.6801
   802.2500      0.0000    713.2355      7.0573     41.9627
   802.5000      0.0000    663.3150      7.1350     42.5172
   802.7500      0.0000    609.0835      7.1642     43.1690
   803.0000      0.0000    558.5140      7.1560     43.7452
   803.2500      0.0000    520.7404      7.1260     44.0307
   803.5000      0.0000    499.5998      7.0804     44.1339
   803.7500      0.0000    494.7244      7.0159     44.3160
   804.0000      0.0000    506.0096      6.9293     44.4663
   804.2500      0.0000    534.3682      6.8222     44.2436
   804.5000      0.0000    577.5170      6.6955     43.8008
   804.7500      0.0000    626.4740      6.5414     44.0323
   805.0000      0.0000    668.7636      6.3478     45.9496
   805.2500      0.0000    696.2238      6.1174     49.7146
   805.5000      0.0000    709.1286      5.8830     54.1257
   805.7500      0.0000    713.1527      5.6962     57.1584
   806.0000      0.0000    714.0672      5.5979     57.3447
   806.2500      0.0000    715.2771      5.5966     54.8100
   806.5000      0.0000    718.0303      5.6728     51.1143
   806.7500      0.0000    721.8320      5.7968     48.3448
   807.0000      0.0000    724.5606      5.9443     48.4369
   807.2500      0.0000    723.7296      6.0981     52.8583
   807.5000      0.0000    718.8649      6.2384     62.0776
   807.7500      0.0000    712.3962      6.3360     74.8849
   808.0000      0.0000    707.5841      6.3639     88.6741
   808.2500      0.0000    705.8486      6.3185    101.0815
   808.5000      0.0000    706.3554      6.2256    111.3116
   808.7500      0.0000    707.6312      6.1215    119.5704
   809.0000      0.0000    709.1215      6.0292    125.6773
   809.2500      0.0000    711.5934      5.9492    128.9375
   809.5000      0.0000    716.5575      5.8658    129.2480
   809.7500      0.0000    724.8725      5.7611    127.8314
   810.0000      0.0000    735.0536      5.6310    126.6533
   810.2500      0.0000    742.7522      5.4894    127.0246
   810.5000      0.0000    742.7877      5.3569    128.9538
   810.7500      0.0000    733.1982      5.2414    132.1953
   811.0000      0.0000    718.4745      5.1354    137.4724
   811.2500      0.0000    708.4024      5.0311    145.6196
   811.5000      0.0000    711.7396      4.9353    155.4001
   811.7500      0.0000    729.8201      4.8653    162.8076
   812.0000      0.0000    756.3773      4.8338    162.8085
   812.2500      0.0000    783.1603      4.8377    152.2748
   812.5000      0.0000    805.0638      4.8599    132.4153
   812.7500      0.0000    820.6013      4.8801    108.8096
   813.0000      0.0000    829.3748      4.8844     88.2670
   813.2500      0.0000    830.6907      4.8678     74.8684
   813.5000      0.0000    824.2479      4.8288     68.5766
   813.7500      0.0000    810.7327      4.7635     66.8115
   814.0000      0.0000    791.6204      4.6686     66.7612
   814.2500      0.0000    769.0203      4.5486     66.8388
   814.5000      0.0000    745.6731      4.4174     66.9584
   814.7500      0.0000    724.7271      4.2930     67.5926
   815.0000      0.0000    709.6257      4.1938     68.3480
   815.2500      0.0000    703.8513      4.1362     67.7065
   815.5000      0.0000    709.6328      4.1287     64.4627
   815.7500      0.0000    725.9125      4.1638     59.1424
   816.0000      0.0000    747.7242      4.2200     53.6347
   816.2500      0.0000    768.4290      4.2770     49.6910
   816.5000      0.0000    783.2548      4.3310     48.1328
   816.7500      0.0000    791.2737      4.3951     49.0647
   817.0000      0.0000    794.6363      4.4839     52.1214
   817.2500      0.0000    795.9148      4.6014     56.5806
   817.5000      0.0000    795.8416      4.7412     61.7997
   817.7500      0.0000    794.2441      4.8944     67.7199
   818.0000      0.0000    793.7290      5.0552     74.7706
   818.2500      0.0000    800.8040      5.2221     83.1519
   818.5000      0.0000    820.6192      5.3995     92.1533
   818.7500      0.0000    849.5290      5.5982    100.1535
   819.0000      0.0000    874.3497      5.8285    105.4603
   819.2500      0.0000    880.9895      6.0850    107.4598
   819.5000      0.0000    864.9352      6.3346    107.0783
   819.7500      0.0000    833.6067      6.5231    105.9231
   820.0000      0.0000    798.6894      6.6044    104.8025
   820.2500      0.0000    766.4924      6.5813    103.1185
   820.5000      0.0000    736.3383      6.5233     99.6874
   820.7500      0.0000    707.6970      6.5216     94.1763
   821.0000      0.0000    686.1884      6.6023     87.7107
   821.2500      0.0000    680.3062      6.6970     82.0248
   821.5000      0.0000    692.8205      6.7272     78.1306
   821.7500      0.0000    717.1479      6.6937     75.9137
   822.0000      0.0000    742.7039      6.6490     74.6657
   822.2500      0.0000    763.5068      6.6124     73.8414
   822.5000      2.0000    781.3719      6.5583     73.6675
   822.7500     -2.0000    800.6442      6.4738     74.9997
   823.0000      0.0000    820.5110      6.3861     78.0866
   823.2500      0.0000    833.9211      6.3264     81.7124
   823.5000      0.0000    834.4519      6.2818     84.2504
   823.7500      0.0000    823.1084      6.1922     85.5680
   824.0000      0.0000    807.8044      6.0091     87.6292
   824.2500      0.0000    796.5347      5.7739     93.2085
   824.5000      0.0000    791.0787      5.6195    103.7090
   824.7500      0.0000    786.6987      5.6630    117.5597
   825.0000      0.0000    777.2878      5.9052    130.6358
   825.2500      0.0000    761.2649      6.2408    138.9526
   825.5000      0.0000    743.8647      6.5488    141.5189
   825.7500      0.0000    734.0424      6.7610    140.6340
   826.0000      0.0000    737.7352      6.8685    139.5094
   826.2500      0.0000    752.9811      6.8937    139.8209
   826.5000      0.0000    771.6875      6.8668    141.3421
   826.7500      0.0000    786.0140      6.8174    143.2789
   827.0000      0.0000    792.7791      6.7695    145.3757
   827.2500      0.0000    793.0513      6.7346    147.7023
   827.5000      0.0000    789.6175      6.7091    149.8148
   827.7500      0.0000    785.0889      6.6781    150.7379
   828.0000      0.0000    780.9183      6.6238    150.0311
   828.2500      0.0000    777.1818      6.5376    148.6118
   828.5000      0.0000    773.4053      6.4286    148.2474
   828.7500      0.0000    769.9863      6.3210    150.0231
   829.0000      0.0000    768.7242      6.2405    152.9971
   829.2500      0.0000    771.4185      6.2030    154.3347
   829.5000      0.0000    777.2905      6.2108    151.3121
   829.7500      0.0000    782.0273      6.2531    143.4667
   830.0000      0.0000    780.9848      6.3072    132.6418
