~Version Information
 VERS.                                  2.0 : CWLS LAS VERSION
 WRAP.                                   NO : WRAPING MODE
 SWARE .                  MController 2.5.1 : SOFTWARE VERSION
~Well Information
 WELL.                           Erin 21-15 : WELL
 COMP.  Pioneer Natural Resources USA, Inc. : COMPANY
 FLD.                      Purgatoire River : FIELD
 LOC.             NE/NW Sec. 15, T33S, R67W : LOCATION
 DATE.                03/01/2006-03/02/2006 : DATE(S) LOGGED
 SRVC.                  Entrada GeoSciences : SERVICE COMPANY
 STAT.                             Colorado : STATE
 CNTY.                           Las Animas : COUNTY
 CTRY.                        United States : COUNTRY
 API.                          05-071-08713 : API NUMBER
 STRT.FT                             553.00 : START DEPTH
 STOP.FT                            2200.00 : STOP DEPTH
 STEP.FT                               1.00 : DEPTH INCREMENT
 NULL.                                -9999 : NULL VALUE
~Curve information
 DEPTH.FT                                   :
 ROP.MIN/FT                                 :
 GAS.UNITS                                  :
~ASCII Log data
# ...
      953.00         0.23         38.5 
      954.00         0.37         69.7 
      955.00         0.13         76.0 
      956.00         0.23         88.7 
      957.00         0.27         57.3 
      958.00         0.35         36.3 
      959.00         0.13         31.6 
      960.00         0.17         28.1 
      961.00         0.17         27.4 
      962.00         0.17         25.5 
      963.00         0.13         25.6 
      964.00         0.17         23.8 
      965.00         0.17         23.7 
      966.00         0.17         23.1 
      967.00         0.10         24.3 
      968.00         0.13         23.4 
      969.00         0.17         25.2 
      970.00         0.23         24.9 
      971.00         0.17         24.7 
      972.00         0.23         22.8 
      973.00         0.30         20.6 
      974.00         0.40         21.6 
      975.00         0.32         37.6 
      976.00         0.33         59.2 
      977.00         0.27         73.6 
      978.00         0.27         26.5 
      979.00         0.37         24.7 
      980.00         0.23         24.4 
      981.00         0.20         23.6 
      982.00         0.23         21.6 
      983.00         0.37         48.5 
      984.00         0.17        118.7 
      985.00         0.17        150.6 
      986.00         0.17        154.4 
      987.00         0.17        227.2 
      988.00         0.17        281.5 
      989.00         0.17        202.4 
      990.00         0.25        116.2 
      991.00         0.40         62.1 
      992.00         0.20         52.9 
      993.00         0.23         45.5 
      994.00         0.17         45.1 
      995.00         0.17         48.5 
      996.00         0.17         53.0 
      997.00         0.30         60.2 
      998.00         0.20         64.9 
      999.00         0.23         67.0 
     1000.00         0.20         71.2 
     1001.00         0.20         67.9 
     1002.00         0.33         62.9 
     1003.00         0.27         65.6 
     1004.00         0.28         68.3 
     1005.00         0.27         67.6 
     1006.00         0.23         66.2 
     1007.00         0.37         62.5 
     1008.00         0.27         19.7 
     1009.00         0.20         22.8 
     1010.00         0.27         41.0 
     1011.00         0.47        197.2 
     1012.00         0.37        108.3 
     1013.00         0.40         54.9 
     1014.00         0.58         45.7 
     1015.00         0.23         52.3 
     1016.00         0.23         58.2 
     1017.00         0.20         64.1 
     1018.00         0.17         68.0 
     1019.00         0.17         70.4 
     1020.00         0.13         71.8 
     1021.00         0.10         73.1 
     1022.00         0.07         73.9 
     1023.00         0.20         72.7 
     1024.00         0.10         72.7 
     1025.00         0.13         73.3 
     1026.00         0.10         73.8 
     1027.00         0.23         76.6 
     1028.00         0.33         81.0 
     1029.00         0.10         82.0 
     1030.00         0.20         82.7 
     1031.00         0.20         85.6 
     1032.00         0.28         85.0 
     1033.00         0.20         81.0 
     1034.00         0.27         72.3 
     1035.00         0.27         65.6 
     1036.00         0.33         64.6 
     1037.00         0.27         70.1 
     1038.00         0.40         24.7 
     1039.00         0.50         22.1 
     1040.00         0.10         20.7 
     1041.00         0.17         28.7 
     1042.00         0.47        170.1 
     1043.00         0.20        199.6 
     1044.00         0.33        230.1 
     1045.00         0.35        140.5 
     1046.00         0.17        101.3 
     1047.00         0.13         84.7 
     1048.00         0.17         73.0 
     1049.00         0.20         64.4 
     1050.00         0.27         60.9 
     1051.00         0.53         62.6 
     1052.00         0.27         64.4 
     1053.00         0.30         72.0 
     1054.00         0.27         75.6 
     1055.00         0.17         75.1 
     1056.00         0.20         73.4 
     1057.00         0.20         72.3 
     1058.00         0.42         71.6 
     1059.00         0.47         76.4 
     1060.00         0.37         75.4 
     1061.00         0.17         74.5 
     1062.00         0.43         74.2 
     1063.00         0.27         78.9 
     1064.00         0.27         81.1 
     1065.00         0.50         72.6 
     1066.00         0.27         74.9 
     1067.00         0.20         73.2 
     1068.00         0.23         29.0 
     1069.00         0.17         29.0 
     1070.00         0.17         28.1 
     1071.00         0.13         28.7 
     1072.00         0.10         27.8 
     1073.00         0.17         26.0 
     1074.00         0.17         26.4 
     1075.00         0.20         23.8 
     1076.00         0.20         30.6 
     1077.00         0.20         47.7 
     1078.00         0.32         57.2 
     1079.00         0.20        138.5 
     1080.00         0.17        225.2 
     1081.00         0.23        137.8 
     1082.00         0.33         69.1 
     1083.00         0.13         58.5 
     1084.00         0.17         47.0 
     1085.00         0.17         40.1 
     1086.00         0.17         34.8 
     1087.00         0.33         29.7 
     1088.00         0.27         33.0 
     1089.00         0.23         37.8 
     1090.00         0.17         40.8 
     1091.00         0.17         43.1 
     1092.00         0.30         48.1 
     1093.00         0.15         48.2 
     1094.00         0.13         48.3 
     1095.00         0.27         47.1 
     1096.00         0.27         46.2 
     1097.00         0.17         47.4 
     1098.00         0.37         16.9 
     1099.00         0.43         15.8 
     1100.00         0.30         25.1 
     1101.00         0.30         48.2 
     1102.00         0.30         66.1 
     1103.00         0.28         68.5 
     1104.00         0.27         65.3 
     1105.00         0.30        146.3 
     1106.00         0.23         86.7 
     1107.00         0.23         54.2 
     1108.00         0.23         43.4 
     1109.00         0.30         34.3 
     1110.00         0.27         33.4 
     1111.00         0.40         38.2 
     1112.00         0.33         46.2 
     1113.00         0.33         52.8 
     1114.00         0.25         55.0 
     1115.00         0.27         53.9 
     1116.00         0.30         55.6 
     1117.00         0.33         57.0 
     1118.00         0.40         60.6 
     1119.00         0.23         63.4 
     1120.00         0.27         61.4 
     1121.00         0.27         63.3 
     1122.00         0.23         63.4 
     1123.00         0.17         64.7 
     1124.00         0.37         64.7 
     1125.00         0.27         63.1 
     1126.00         0.28         62.8 
     1127.00         0.27         63.9 
     1128.00         0.43         27.7 
     1129.00         0.33         27.2 
     1130.00         0.40         28.0 
     1131.00         0.37        197.6 
     1132.00         0.43        259.1 
     1133.00         0.37        171.2 
     1134.00         0.25        111.5 
     1135.00         0.30         75.8 
     1136.00         0.33         59.5 
     1137.00         0.33         54.9 
     1138.00         0.17         57.6 
     1139.00         0.20         61.3 
     1140.00         0.20         63.2 
     1141.00         0.20         64.0 
     1142.00         0.17         65.6 
     1143.00         0.23         67.0 
     1144.00         0.10         67.3 
     1145.00         0.27         67.8 
     1146.00         0.40         68.7 
     1147.00         0.30         66.1 
     1148.00         0.25         64.5 
     1149.00         0.20         64.7 
     1150.00         0.20         65.9 
     1151.00         0.17         66.6 
     1152.00         0.17         67.1 
