~Version Information
VERS.                      2.0: CWLS Log ASCII Standard - VERSION 2.0
WRAP.                       NO: One line per depth step
~Well Information Block
STRT.FT                -7.0000: 
STOP.FT              1155.0000: 
STEP.FT                 0.2500: 
NULL.                -999.2500: 
COMP.          Pioneer Natural Resources: COMPANY
WELL.          Whitecoat 14-36: WELL
FLD.           Purgatorie River: FIELD
LOC.           606' FSL & 260' FWL--: LOCATION
PROV.                       CO: PROVINCE
CNTY.               Las Animas: COUNTRY
SRVC.          Patterson Wireline: SERVICE COMPANY
DATE.          Mon Dec 12 12:56:49 2005: LOG DATE
UWI.           08 071 08593 00: UNIQUE WELL ID
~Curve Information Block
DEPT.FT            0 000 00 00: Depth
CCL.                          : Casing Collar Locator
TT3.usec                      : CBL 3' Travel Time
AMP3.mV                       : CBL 3' Amplitude
GR.GAPI                       : Gamma Ray
~Parameter Information Block
~A  Depth       CCL         TT3         AMP3         GR     
# ...
    60.0000      0.0000    771.7173      5.9793     91.9429
    60.2500      0.0000    783.8448      5.9589     93.1086
    60.5000      0.0000    793.0321      5.9691     92.3987
    60.7500      0.0000    803.1146      6.0188     90.9488
    61.0000      0.0000    817.6782      6.0920     89.9591
    61.2500      0.0000    836.9368      6.1701     90.4009
    61.5000      0.0000    856.6956      6.2509     93.0352
    61.7500      0.0000    871.0992      6.3405     97.7204
    62.0000      0.0000    877.1266      6.4320    102.7758
    62.2500      0.0000    876.0746      6.5023    106.0770
    62.5000      0.0000    870.1606      6.5305    106.9905
    62.7500      0.0000    858.2944      6.5163    106.5107
    63.0000      0.0000    836.8024      6.4805    105.5268
    63.2500      0.0000    805.0809      6.4495    103.8367
    63.5000      0.0000    769.1043      6.4370    100.9471
    63.7500      0.0000    737.8505      6.4341     97.0418
    64.0000      0.0000    716.8245      6.4229     92.8488
    64.2500      0.0000    705.7090      6.4039     89.0902
    64.5000      0.0000    700.9938      6.4049     86.3711
    64.7500      0.0000    699.3447      6.4534     85.0958
    65.0000      0.0000    698.8820      6.5433     84.9620
    65.2500      0.0000    698.8502      6.6381     84.7945
    65.5000      0.0000    698.9868      6.7060     83.3914
    65.7500      0.0000    699.1830      6.7444     80.5941
    66.0000      0.0000    699.3704      6.7695     77.3860
    66.2500      0.0000    699.5085      6.7951     75.0289
    66.5000      0.0000    699.5875      6.8271     74.0846
    66.7500      0.0000    699.6190      6.8678     74.1079
    67.0000      0.0000    699.6215      6.9155     74.2432
    67.2500      0.0000    699.6233      6.9611     74.1440
    67.5000      0.0000    699.6624      6.9934     74.2893
    67.7500      0.0000    699.7664      7.0064     75.4287
    68.0000      0.0000    699.9852      7.0005     77.6969
    68.2500      0.0000    700.5180      6.9791     80.2511
    68.5000      0.0000    701.8852      6.9498     81.9009
    68.7500      0.0000    704.9206      6.9232     82.2220
    69.0000      0.0000    710.2841      6.9048     82.0079
    69.2500      0.0000    717.5677      6.8927     82.6325
    69.5000      0.0000    724.9191      6.8908     84.9956
    69.7500      0.0000    730.1191      6.9188     88.9035
    70.0000      0.0000    732.3210      6.9958     93.1507
    70.2500      0.0000    732.4818      7.1110     96.1699
    70.5000      0.0000    732.1539      7.2217     96.9120
    70.7500      0.0000    732.4044      7.2853     95.4028
    71.0000      0.0000    733.7200      7.2939     92.5328
    71.2500      0.0000    735.9396      7.2761     89.2700
    71.5000      0.0000    737.9077      7.2652     85.9840
    71.7500      0.0000    737.8217      7.2689     82.5498
    72.0000      0.0000    734.4545      7.2691     79.1620
    72.2500      0.0000    728.2742      7.2460     76.7274
    72.5000      0.0000    721.4264      7.2002     75.9553
    72.7500      0.0000    716.2473      7.1530     76.1164
    73.0000      0.0000    713.4041      7.1241     75.2583
    73.2500      0.0000    711.6291      7.1097     71.9976
    73.5000      0.0000    709.4106      7.0899     67.0337
    73.7500      0.0000    706.5460      7.0574     62.7303
    74.0000      0.0000    703.8741      7.0319     61.2551
    74.2500      0.0000    702.0698      7.0425     63.2482
    74.5000      0.0000    701.1115      7.0971     67.9398
    74.7500      0.0000    700.6000      7.1708     73.9719
    75.0000      0.0000    700.1863      7.2212     80.0126
    75.2500      0.0000    699.7396      7.2168     84.9235
    75.5000      0.0000    699.3212      7.1586     87.6441
    75.7500      0.0000    699.1143      7.0804     87.2533
    76.0000      0.0000    699.3705      7.0275     83.6225
    76.2500      0.0000    700.4064      7.0306     78.0636
    76.5000      0.0000    702.4777      7.0916     72.8316
    76.7500      0.0000    705.3776      7.1869     69.6330
    77.0000      0.0000    708.0881      7.2863     68.6866
    77.2500      0.0000    709.2092      7.3710     69.2497
    77.5000      0.0000    708.1140      7.4365     70.6774
    77.7500      0.0000    705.5466      7.4840     72.5610
    78.0000      0.0000    702.9085      7.5123     74.1237
    78.2500      0.0000    701.2130      7.5235     74.3898
    78.5000      0.0000    700.9037      7.5345     73.2942
    78.7500      0.0000    702.2202      7.5799     71.9850
    79.0000      0.0000    705.1749      7.6918     71.6476
    79.2500      0.0000    709.0810      7.8713     72.4751
    79.5000      0.0000    712.4406      8.0805     73.9426
    79.7500      0.0000    713.6699      8.2629     75.4547
    80.0000      0.0000    712.1104      8.3727     76.3928
    80.2500      0.0000    708.4547      8.3857     75.9859
    80.5000      0.0000    704.2413      8.2939     73.6638
    80.7500      0.0000    700.8168      8.1008     69.5608
    81.0000      0.0000    698.5975      7.8341     64.5465
    81.2500      0.0000    697.1198      7.5567     59.8219
    81.5000      0.0000    695.6389      7.3456     56.6198
    81.7500      0.0000    693.8018      7.2426     56.0851
    82.0000      0.0000    692.0353      7.2239     58.9323
    82.2500      0.0000    691.2645      7.2241     64.9818
    82.5000      0.0000    692.0323      7.1900     73.1293
    82.7500      0.0000    693.9049      7.1106     81.8609
    83.0000      0.0000    695.8704      7.0042     89.8742
    83.2500      0.0000    697.1400      6.8897     96.4795
    83.5000      0.0000    697.4041      6.7783    101.6556
    83.7500      0.0000    696.4777      6.6879    105.6523
    84.0000      0.0000    693.9905      6.6513    108.2738
    84.2500      0.0000    689.6289      6.7017    108.6678
    84.5000      0.0000    683.8638      6.8394    106.3158
    84.7500      0.0000    678.3368      7.0095    102.1939
    85.0000      0.0000    675.1068      7.1201     98.3006
    85.2500      0.0000    675.2150      7.0971     95.9129
    85.5000      0.0000    678.0529      6.9285     94.8174
    85.7500      0.0000    681.9951      6.6603     94.1476
    86.0000      0.0000    685.6718      6.3566     93.2418
    86.2500      0.0000    689.4088      6.0710     91.7103
    86.5000      0.0000    696.6210      5.8429     89.6177
    86.7500      0.0000    712.7128      5.6911     87.7847
    87.0000      0.0000    739.0688      5.5946     86.9955
    87.2500      0.0000    766.7285      5.4928     86.6824
    87.5000      0.0000    780.0590      5.3197     85.2386
    87.7500      0.0000    770.7494      5.0422     81.9932
    88.0000      0.0000    746.1800      4.6699     78.2880
    88.2500      0.0000    721.3962      4.2466     76.1691
    88.5000      0.0000    705.7014      3.8377     76.3532
    88.7500      0.0000    699.0531      3.5115     77.8402
    89.0000      0.0000    697.4832      3.3179     79.2695
    89.2500      0.0000    698.1201      3.2758     80.1553
    89.5000      0.0000    699.9912      3.3658     80.6674
    89.7500      0.0000    702.6749      3.5204     80.7392
    90.0000      0.0000    705.2640      3.6377     80.1262
    90.2500      0.0000    706.8660      3.6425     79.2177
    90.5000      0.0000    708.4319      3.5502     78.9329
    90.7500      0.0000    713.8889      3.4565     79.6572
    91.0000      0.0000    727.9337      3.4553     80.9407
    91.2500      0.0000    749.9706      3.5676     82.3967
    91.5000      0.0000    769.4238      3.7403     84.3424
    91.7500      0.0000    770.8635      3.8955     87.1331
    92.0000      0.0000    747.5628      3.9719     90.1251
    92.2500      0.0000    707.9885      3.9370     91.8305
    92.5000      0.0000    666.9684      3.7816     91.2929
    92.7500      0.0000    634.4283      3.5174     88.9613
    93.0000      0.0000    613.5760      3.1773     86.1784
    93.2500      0.0000    602.7579      2.8128     84.1697
