~Version Information
VERS.                      2.0: CWLS Log ASCII Standard - VERSION 2.0
WRAP.                       NO: One line per depth step
~Well Information Block
STRT.FT                -6.0000: 
STOP.FT               783.7500: 
STEP.FT                 0.2500: 
NULL.                -999.2500: 
COMP.          Pioneer Natural Resources: COMPANY
WELL.           Weissach 32-32: WELL
FLD.           Purgatorie River: FIELD
LOC.           --2193' FNL & 2256' FEL--: LOCATION
STAT.                       CO: State
CNTY.               Las Animas: COUNTY
CTRY. USA : Country
SECT. 32 : Section
TOWN. 33S : Township
RANG. 65W : Range
SRVC.          Patterson Wireline: SERVICE COMPANY
DATE.          Thu Sep 29 12:52:09 2005: LOG DATE
API.           05 071 08523 00: UNIQUE WELL ID
~Curve Information Block
DEPT.FT            0 000 00 00: Depth
CCL.                          : Casing Collar Locator
TT3.usec                      : CBL 3' Travel Time
AMP3.mV                       : CBL 3' Amplitude
GR.GAPI                       : Gamma Ray
~Parameter Information Block
~A  Depth       CCL         TT3         AMP3         GR     
# ...
   362.5000      0.0000    637.4250      9.0296     64.0641
   362.7500      0.0000    668.6980      9.0719     62.5042
   363.0000      0.0000    691.9802      9.1305     60.1729
   363.2500      0.0000    708.5421      9.2082     57.4900
   363.5000      0.0000    721.1024      9.3047     56.1282
   363.7500      0.0000    731.5974      9.4085     57.7309
   364.0000      0.0000    740.5552      9.4871     62.1237
   364.2500      0.0000    748.1852      9.4889     67.5333
   364.5000      0.0000    754.7764      9.3611     72.6979
   364.7500      0.0000    759.3065      9.0850     78.0349
   365.0000      0.0000    758.4918      8.6977     84.5162
   365.2500      0.0000    748.9589      8.2659     92.0202
   365.5000      0.0000    731.8465      7.8404     99.2738
   365.7500      0.0000    714.6514      7.4699    105.2818
   366.0000      0.0000    706.6534      7.2388    110.2357
   366.2500      0.0000    711.5198      7.2241    114.6280
   366.5000      0.0000    725.0021      7.4062    117.9903
   366.7500      0.0000    740.2313      7.6721    119.3146
   367.0000      0.0000    754.7237      7.9105    118.6871
   367.2500     -2.0000    771.3709      8.0746    117.7943
   367.5000      2.0000    791.9509      8.1789    118.3528
   367.7500      0.0000    810.2557      8.2834    120.1122
   368.0000      0.0000    814.2749      8.4724    120.8312
   368.2500      0.0000    797.4542      8.7902    118.6470
   368.5000      0.0000    766.4354      9.1844    114.2232
   368.7500      0.0000    735.4323      9.5498    109.9718
   369.0000      0.0000    714.3735      9.8309    107.3967
   369.2500      0.0000    704.1186     10.0433    105.8005
   369.5000      0.0000    700.5187     10.2121    103.4564
   369.7500      0.0000    699.6271     10.3324     99.3682
   370.0000      0.0000    699.4631     10.3856     93.9900
   370.2500      0.0000    699.4014     10.3643     89.0574
   370.5000      0.0000    699.3446     10.2779     86.7421
   370.7500      0.0000    699.2880     10.1413     88.0706
   371.0000      0.0000    699.2202      9.9640     91.8946
   371.2500      0.0000    699.1317      9.7527     95.8275
   371.5000      0.0000    699.0279      9.5289     98.2388
   371.7500      0.0000    698.9198      9.3381     99.1172
   372.0000      0.0000    698.8093      9.2318     99.1262
   372.2500      0.0000    698.6935      9.2351     98.1670
   372.5000      0.0000    698.5697      9.3332     95.1574
   372.7500      0.0000    698.4316      9.4890     89.3664
   373.0000      0.0000    698.2754      9.6680     81.8877
   373.2500      0.0000    698.1141      9.8453     75.5208
   373.5000      0.0000    697.9724      9.9960     72.8840
   373.7500      0.0000    697.8633     10.0925     74.5617
   374.0000      0.0000    697.7825     10.1166     79.2990
   374.2500      0.0000    697.7263     10.0773     85.7584
   374.5000      0.0000    697.7046     10.0127     93.3626
   374.7500      0.0000    697.7252      9.9696    101.5196
   375.0000      0.0000    697.7740      9.9739    108.9940
   375.2500      0.0000    697.8207     10.0192    114.5197
   375.5000      0.0000    697.8419     10.0836    117.8178
   375.7500      0.0000    697.8289     10.1519    119.8177
   376.0000      0.0000    697.7819     10.2208    121.8027
   376.2500      0.0000    697.7095     10.2881    124.3717
   376.5000      0.0000    697.6293     10.3442    127.3189
   376.7500      0.0000    697.5595     10.3754    130.2174
   377.0000      0.0000    697.5181     10.3727    132.6764
   377.2500      0.0000    697.5392     10.3361    134.0715
   377.5000      0.0000    697.7770     10.2726    133.4836
   377.7500      0.0000    698.6962     10.1950    130.2613
   378.0000      0.0000    701.2595     10.1192    124.7262
   378.2500      0.0000    706.5871     10.0632    118.3507
   378.5000      0.0000    714.7117     10.0413    113.0796
   378.7500      0.0000    723.5498     10.0559    110.0923
   379.0000      0.0000    730.4114     10.0958    108.9609
   379.2500      0.0000    735.5477     10.1456    108.1300
   379.5000      0.0000    742.8506     10.2014    106.3465
   379.7500      0.0000    755.2437     10.2750    103.5691
   380.0000      0.0000    770.3444     10.3820    100.6979
   380.2500      0.0000    782.5309     10.5272     98.7314
   380.5000      0.0000    788.5282     10.7015     98.0148
   380.7500      0.0000    789.3098     10.8890     97.8063
   381.0000      0.0000    787.6750     11.0732     96.5503
   381.2500      0.0000    786.2047     11.2369     92.9833
   381.5000      0.0000    786.7741     11.3630     87.2363
   381.7500      0.0000    789.4528     11.4382     80.8091
   382.0000      0.0000    791.6635     11.4608     75.4262
   382.2500      0.0000    790.1472     11.4430     71.9039
   382.5000      0.0000    784.2748     11.4030     69.9374
   382.7500      0.0000    776.5479     11.3516     68.7483
   383.0000      0.0000    769.8477     11.2837     67.8655
   383.2500      0.0000    764.9364     11.1825     67.3325
   383.5000      0.0000    760.4836     11.0354     67.3034
   383.7500      0.0000    754.7226     10.8497     67.5535
   384.0000      0.0000    747.0400     10.6534     67.4375
   384.2500      0.0000    738.4917     10.4789     66.3587
   384.5000      0.0000    731.0017     10.3417     64.4162
   384.7500      0.0000    726.0107     10.2359     62.5659
   385.0000      0.0000    723.9094     10.1479     61.9514
   385.2500      0.0000    724.6876     10.0713     62.9622
   385.5000      0.0000    728.7811     10.0095     64.8258
   385.7500      0.0000    736.7894      9.9682     65.9082
   386.0000      0.0000    747.9413      9.9473     64.6584
   386.2500      0.0000    758.9509      9.9386     60.8865
   386.5000      0.0000    765.1506      9.9344     56.2760
   386.7500      0.0000    763.5308      9.9368     53.2814
   387.0000      0.0000    754.9992      9.9580     53.2928
   387.2500      0.0000    743.7947     10.0093     55.7558
   387.5000      0.0000    734.6219     10.0905     58.7832
   387.7500      0.0000    729.8170     10.1889     60.4843
   388.0000      0.0000    728.5215     10.2855     60.0598
   388.2500      0.0000    728.2342     10.3650     58.1007
   388.5000      0.0000    727.3644     10.4243     56.0339
   388.7500      0.0000    726.6925     10.4748     55.1441
   389.0000      0.0000    728.6845     10.5359     55.7569
   389.2500      0.0000    735.4706     10.6207     57.0250
   389.5000      0.0000    747.0265     10.7234     57.5623
   389.7500      0.0000    760.8016     10.8194     56.6192
   390.0000      0.0000    773.2073     10.8828     54.8150
   390.2500      0.0000    781.8301     10.9040     53.6437
   390.5000      0.0000    786.3793     10.8855     54.1859
   390.7500      0.0000    787.8409     10.8273     56.5541
   391.0000      0.0000    787.1323     10.7264     60.7635
   391.2500      0.0000    784.6418     10.5880     67.5805
   391.5000      0.0000    780.9089     10.4256     77.7238
   391.7500      0.0000    777.5320     10.2549     90.3865
   392.0000      0.0000    776.8950     10.0961    103.2012
   392.2500      0.0000    780.4958      9.9784    113.8474
   392.5000      0.0000    787.6617      9.9277    121.6033
   392.7500      0.0000    796.1365      9.9446    127.4167
   393.0000      0.0000    803.6264     10.0003    132.5147
   393.2500      0.0000    808.6840     10.0538    136.8662
   393.5000      0.0000    810.8231     10.0789    139.0957
   393.7500      0.0000    810.6508     10.0760    138.0493
   394.0000      0.0000    809.7821     10.0601    134.3002
   394.2500      0.0000    809.6436     10.0412    129.9701
   394.5000      0.0000    809.8976     10.0207    127.2628
   394.7500      0.0000    808.4507     10.0062    127.4270
   395.0000      0.0000    803.3028     10.0209    130.7557
   395.2500      0.0000    794.5842     10.0890    136.5761
   395.5000      0.0000    785.2211     10.2158    142.7961
   395.7500      0.0000    779.1826     10.3819    146.3998
