~Version Information
VERS.                      2.0: CWLS Log ASCII Standard - VERSION 2.0
WRAP.                       NO: One line per depth step
~Well Information Block
STRT.FT               840.0000: 
STOP.FT              1913.5000: 
STEP.FT                 0.2500: 
NULL.                -999.2500: 
COMP.          Petrogulf Corporation: COMPANY
WELL.             Kraft 17-23R: WELL
FLD.           Purgatorie River: FIELD
LOC.           1509' FSL & 1673' FWL: LOCATION
PROV.                 Colorado: PROVINCE
CNTY.               Las Animas: COUNTRY
SRVC.                Patterson: SERVICE COMPANY
DATE.          Tue Oct 11 13:03:25 2005: LOG DATE
UWI.                          : UNIQUE WELL ID
~Curve Information Block
DEPT.FT            0 000 00 00: Depth
SP.mV                         : DIL Spontaneous Potential
RILD.Ohm-m                    : DIL Deep Resistivity
RILM.Ohm-m                    : DIL Medium Resistivity
RLL3.Ohm-m                    : DIL Shallow Resistivity
GR.GAPI                       : Gamma Ray
~Parameter Information Block
~A  Depth        SP         RILD        RILM        RLL3         GR     
# ...
  1316.0000    186.9652     19.0324     25.0649     85.9867     72.1669
  1316.2500    187.4280     19.6312     27.0129     83.6367     66.9489
  1316.5000    187.9158     20.1217     28.5899     76.3356     62.0716
  1316.7500    188.3943     20.5023     29.6107     66.5419     61.2100
  1317.0000    188.8510     20.7623     29.9581     56.7924     63.3738
  1317.2500    189.2853     20.8856     29.6162     48.5715     66.6324
  1317.5000    189.6953     20.8586     28.6727     41.9406     73.2331
  1317.7500    190.0711     20.6767     27.2897     36.2091     78.3258
  1318.0000    190.3991     20.3459     25.6577     30.8619     86.4046
  1318.2500    190.6678     19.8813     23.9524     25.9053     91.7542
  1318.5000    190.8717     19.3037     22.3067     21.6567     99.5930
  1318.7500    191.0139     18.6375     20.8031     18.4492    105.1832
  1319.0000    191.1082     17.9112     19.4791     16.4745    115.1947
  1319.2500    191.1794     17.1594     18.3391     15.7164    122.5546
  1319.5000    191.2578     16.4212     17.3680     15.9178    131.2608
  1319.7500    191.3684     15.7348     16.5420     16.5915    133.3121
  1320.0000    191.5201     15.1314     15.8380     17.1453    130.2182
  1320.2500    191.7010     14.6304     15.2382     17.1385    125.9936
  1320.5000    191.8818     14.2377     14.7324     16.5099    120.7941
  1320.7500    192.0260     13.9466     14.3163     15.5715    119.5784
  1321.0000    192.1047     13.7405     13.9888     14.7776    121.2175
  1321.2500    192.1100     13.5973     13.7479     14.4640    123.7963
  1321.5000    192.0584     13.4925     13.5869     14.6989    127.8865
  1321.7500    191.9816     13.4021     13.4924     15.2868    129.4259
  1322.0000    191.9131     13.3040     13.4436     15.9325    128.0781
  1322.2500    191.8792     13.1813     13.4133     16.4689    124.6097
  1322.5000    191.8976     13.0274     13.3712     16.9352    117.6331
  1322.7500    191.9792     12.8484     13.2891     17.4192    113.6902
  1323.0000    192.1296     12.6615     13.1467     17.8447    110.9907
  1323.2500    192.3504     12.4889     12.9372     17.9440    111.3808
  1323.5000    192.6402     12.3495     12.6690     17.4502    114.1513
  1323.7500    192.9948     12.2546     12.3642     16.3265    116.8741
  1324.0000    193.4042     12.2080     12.0525     14.8340    121.7085
  1324.2500    193.8490     12.2094     11.7652     13.3937    125.1049
  1324.5000    194.3026     12.2578     11.5300     12.3675    129.6222
  1324.7500    194.7351     12.3527     11.3681     11.9132    131.7773
  1325.0000    195.1154     12.4930     11.2947     11.9747    133.5822
  1325.2500    195.4104     12.6762     11.3197     12.3722    134.2999
  1325.5000    195.5887     12.9004     11.4505     12.9307    135.6592
  1325.7500    195.6284     13.1667     11.6939     13.5900    136.7153
  1326.0000    195.5219     13.4818     12.0579     14.4524    136.9334
  1326.2500    195.2721     13.8575     12.5527     15.7639    134.9917
  1326.5000    194.8850     14.3096     13.1910     17.8489    128.0353
  1326.7500    194.3704     14.8556     13.9871     21.0000    121.0796
  1327.0000    193.7466     15.5130     14.9550     25.3076    108.9335
  1327.2500    193.0440     16.2995     16.1060     30.4780    100.8996
  1327.5000    192.3007     17.2318     17.4456     35.8118     90.1432
  1327.7500    191.5571     18.3227     18.9715     40.4884     83.7049
  1328.0000    190.8514     19.5766     20.6724     44.0246     74.4353
  1328.2500    190.2159     20.9871     22.5304     46.4897     68.6856
  1328.5000    189.6719     22.5354     24.5227     48.2343     62.2174
  1328.7500    189.2277     24.1889     26.6246     49.4071     60.1385
  1329.0000    188.8804     25.8977     28.8077     49.7775     60.3785
  1329.2500    188.6164     27.5920     31.0344     49.0423     62.1626
  1329.5000    188.4063     29.1861     33.2497     47.2744     66.3087
  1329.7500    188.2030     30.5936     35.3746     45.0648     69.7942
  1330.0000    187.9527     31.7479     37.3069     43.2490     75.4697
  1330.2500    187.6172     32.6199     38.9337     42.4686     78.5945
  1330.5000    187.1921     33.2201     40.1546     42.8635     80.1355
  1330.7500    186.7036     33.5861     40.9081     44.0221     78.4739
  1331.0000    186.1924     33.7656     41.1890     45.1806     73.0102
  1331.2500    185.6969     33.8092     41.0506     45.5977     68.7112
  1331.5000    185.2460     33.7731     40.5910     44.9292     63.3155
  1331.7500    184.8551     33.7160     39.9314     43.3792     61.1891
  1332.0000    184.5246     33.6870     39.1933     41.5339     60.6669
  1332.2500    184.2446     33.7122     38.4818     40.0146     61.6283
  1332.5000    184.0071     33.7940     37.8758     39.1843     63.0955
  1332.7500    183.8167     33.9197     37.4245     39.0719     62.9992
  1333.0000    183.6855     34.0708     37.1479     39.5029     60.7645
  1333.2500    183.6178     34.2293     37.0411     40.2834     58.4232
  1333.5000    183.6019     34.3864     37.0795     41.2856     54.9435
  1333.7500    183.6187     34.5519     37.2260     42.4256     53.1172
  1334.0000    183.6515     34.7558     37.4396     43.6259     51.1309
  1334.2500    183.6832     35.0352     37.6842     44.8139     50.0550
  1334.5000    183.6904     35.4152     37.9374     45.9247     48.6071
  1334.7500    183.6481     35.9013     38.1961     46.8730     47.8877
  1335.0000    183.5438     36.4862     38.4763     47.5282     47.3960
  1335.2500    183.3843     37.1624     38.8092     47.7641     47.3415
  1335.5000    183.1878     37.9247     39.2333     47.5960     47.3742
  1335.7500    182.9706     38.7594     39.7856     47.2908     47.5042
  1336.0000    182.7406     39.6326     40.4938     47.3139     48.0314
  1336.2500    182.4977     40.4897     41.3713     48.1104     48.4668
  1336.5000    182.2410     41.2745     42.4137     49.8689     48.5905
  1336.7500    181.9802     41.9552     43.5982     52.4219     47.9453
  1337.0000    181.7429     42.5376     44.8866     55.3301     45.6872
  1337.2500    181.5709     43.0556     46.2305     58.1000     43.5684
  1337.5000    181.5043     43.5458     47.5786     60.4295     40.2909
  1337.7500    181.5644     44.0263     48.8837     62.3455     38.4633
  1338.0000    181.7485     44.4881     50.1071     64.1129     36.5685
  1338.2500    182.0377     44.9034     51.2186     65.9244     35.8296
  1338.5000    182.4060     45.2451     52.1930     67.5908     35.1743
  1338.7500    182.8236     45.5033     53.0064     68.5462     34.7884
  1339.0000    183.2579     45.6833     53.6341     68.2612     34.1481
  1339.2500    183.6777     45.7870     54.0529     66.7502     33.8739
  1339.5000    184.0605     45.7957     54.2452     64.7157     34.1137
  1339.7500    184.3939     45.6757     54.2040     63.1814     34.6779
  1340.0000    184.6756     45.4048     53.9362     62.8794     35.4531
  1340.2500    184.9144     44.9925     53.4635     63.7984     35.4717
  1340.5000    185.1325     44.4744     52.8207     65.1523     34.7033
  1340.7500    185.3604     43.8858     52.0536     65.7932     34.1439
  1341.0000    185.6251     43.2439     51.2147     64.8788     34.2645
  1341.2500    185.9410     42.5542     50.3591     62.4009     35.2494
  1341.5000    186.3116     41.8306     49.5386     59.1762     37.7295
  1341.7500    186.7370     41.1051     48.7961     56.2736     39.5868
  1342.0000    187.2199     40.4169     48.1611     54.3393     42.0011
  1342.2500    187.7659     39.7934     47.6472     53.3418     43.2065
  1342.5000    188.3807     39.2430     47.2533     52.8322     44.4104
  1342.7500    189.0654     38.7630     46.9674     52.3953     44.7867
  1343.0000    189.8085     38.3549     46.7725     51.9119     44.6302
  1343.2500    190.5800     38.0333     46.6521     51.5060     44.1808
  1343.5000    191.3323     37.8207     46.5952     51.3237     43.6922
  1343.7500    192.0129     37.7344     46.5987     51.3790     43.9654
