~Version Information
VERS.                      2.0: CWLS Log ASCII Standard - VERSION 2.0
WRAP.                       NO: One line per depth step
~Well Information Block
STRT.FT               322.3000: 
STOP.FT              1375.0000: 
STEP.FT                 0.1000: 
NULL.                -999.2500: 
COMP.          Pioneer Natural Resources: COMPANY
WELL.          Buffet 41-36 Tr: WELL
FLD.           Purgatoire River: FIELD
LOC.           119' FNL & 271' FEL: LOCATION
PROV.                 Colorado: PROVINCE
CNTY.               Las Animas: COUNTRY
SRVC.                Patterson: SERVICE COMPANY
DATE.          Thu Dec 29 07:13:13 2005: LOG DATE
UWI.           05 071 08627 00: UNIQUE WELL ID
~Curve Information Block
DEPT.FT            0 000 00 00: Depth
DCAL.in                       : CDL Caliper
RHOB.g/cc                     : CDL Bulk Density
RHOC.g/cc                     : CDL Density Correction
DPOR.pu                       : CDL Density Porosity
GR.GAPI                       : Gamma Ray
~Parameter Information Block
~A  Depth       DCAL        RHOB        RHOC        DPOR         GR     
# ...
  1229.5000      7.8450      2.2632      0.0349     23.4420    141.2507
  1229.6000      7.8450      2.2691      0.0930     23.0833    136.5959
  1229.7000      7.8450      2.2804      0.1288     22.3974    130.5009
  1229.8000      7.8478      2.2859      0.1176     22.0691    126.7183
  1229.9000      7.8478      2.2768      0.1088     22.6167    124.8270
  1230.0000      7.8506      2.2409      0.0703     24.7929    124.1619
  1230.1000      7.8506      2.1747      0.0357     28.8078    123.2554
  1230.2000      7.8506      2.0982     -0.0013     33.4404    121.2366
  1230.3000      7.8515      2.0471      0.0248     36.5365    119.1635
  1230.4000      7.8515      2.0431      0.0295     36.7834    117.4518
  1230.5000      7.8511      2.0809      0.0731     34.4918    115.5353
  1230.6000      7.8511      2.1427      0.1393     30.7474    114.3217
  1230.7000      7.8511      2.2203      0.1800     26.0428    115.0853
  1230.8000      7.8509      2.3149      0.2724     20.3087    113.9724
  1230.9000      7.8509      2.4146      0.3252     14.2684    109.2139
  1231.0000      7.8511      2.5015      0.3526      8.9973    105.9262
  1231.1000      7.8511      2.5681      0.2974      4.9660    104.2018
  1231.2000      7.8511      2.6084      0.2220      2.5185     99.9736
  1231.3000      7.8500      2.6189      0.1343      1.8874     92.4936
  1231.4000      7.8500      2.6042      0.0538      2.7779     84.5125
  1231.5000      7.8483      2.5766      0.0260      4.4509     80.0718
  1231.6000      7.8483      2.5468      0.0466      6.2563     79.5220
  1231.7000      7.8483      2.5147      0.0155      8.2022     79.9016
  1231.8000      7.8473      2.4815     -0.0290     10.2104     79.7004
  1231.9000      7.8473      2.4607     -0.0409     11.4719     77.7609
  1232.0000      7.8470      2.4588     -0.0244     11.5907     73.9713
  1232.1000      7.8470      2.4675     -0.0017     11.0587     71.2014
  1232.2000      7.8470      2.4827     -0.0086     10.1392     71.1580
  1232.3000      7.8472      2.5070      0.0255      8.6638     72.5929
  1232.4000      7.8472      2.5337      0.0722      7.0458     75.8941
  1232.5000      7.8475      2.5458      0.0863      6.3151     80.1066
  1232.6000      7.8475      2.5394      0.0653      6.7037     79.7057
  1232.7000      7.8475      2.5336      0.0583      7.0526     72.3343
  1232.8000      7.8479      2.5497      0.0623      6.0767     63.2508
  1232.9000      7.8479      2.5884      0.0574      3.7339     58.9480
  1233.0000      7.8479      2.6278      0.0774      1.3452     59.6923
  1233.1000      7.8479      2.6461      0.0928      0.2377     61.3294
  1233.2000      7.8479      2.6418      0.0963      0.4970     62.2814
  1233.3000      7.8471      2.6240      0.1023      1.5729     62.8034
  1233.4000      7.8471      2.5973      0.0782      3.1956     62.0590
  1233.5000      7.8465      2.5683      0.0247      4.9497     59.4391
  1233.6000      7.8465      2.5483     -0.0223      6.1627     56.4872
  1233.7000      7.8465      2.5357     -0.0230      6.9246     56.2294
  1233.8000      7.8467      2.5283     -0.0997      7.3772     57.5673
  1233.9000      7.8467      2.5339     -0.0336      7.0381     58.6526
  1234.0000      7.8466      2.5468      0.0134      6.2534     61.4511
  1234.1000      7.8466      2.5545      0.0452      5.7864     66.2586
  1234.2000      7.8466      2.5500      0.0915      6.0598     69.4798
  1234.3000      7.8461      2.5327      0.0907      7.1091     69.6128
  1234.4000      7.8461      2.5126      0.0381      8.3301     68.4156
  1234.5000      7.8464      2.5030      0.0063      8.9103     67.4774
  1234.6000      7.8464      2.5063      0.0445      8.7062     66.8764
  1234.7000      7.8464      2.5152      0.0030      8.1725     66.0433
  1234.8000      7.8473      2.5234     -0.0017      7.6726     65.9183
  1234.9000      7.8473      2.5241      0.0132      7.6287     68.2689
  1235.0000      7.8479      2.5221      0.0034      7.7534     72.4174
  1235.1000      7.8479      2.5283      0.0442      7.3757     74.9570
  1235.2000      7.8479      2.5334      0.0435      7.0686     74.2315
  1235.3000      7.8483      2.5286      0.0224      7.3584     72.9662
  1235.4000      7.8483      2.5219      0.0321      7.7620     70.8479
  1235.5000      7.8496      2.5172      0.0206      8.0503     63.9967
  1235.6000      7.8496      2.5114      0.0386      8.3997     56.7026
  1235.7000      7.8496      2.5063     -0.0138      8.7077     57.8589
  1235.8000      7.8539      2.5070      0.0139      8.6669     64.3665
  1235.9000      7.8539      2.5129     -0.0348      8.3074     66.3252
  1236.0000      7.8574      2.5217     -0.0159      7.7773     63.2499
  1236.1000      7.8574      2.5314      0.0079      7.1884     59.9039
  1236.2000      7.8574      2.5435     -0.0067      6.4535     60.2992
  1236.3000      7.8524      2.5553      0.0439      5.7415     64.2394
  1236.4000      7.8524      2.5568      0.0465      5.6514     66.1796
  1236.5000      7.8460      2.5521      0.0389      5.9309     62.7325
  1236.6000      7.8460      2.5513      0.0434      5.9793     57.7300
  1236.7000      7.8460      2.5526      0.0340      5.9048     56.5609
  1236.8000      7.8453      2.5472      0.0527      6.2313     58.8083
  1236.9000      7.8453      2.5314      0.0168      7.1878     60.2562
  1237.0000      7.8466      2.5134     -0.0101      8.2760     60.4862
  1237.1000      7.8466      2.5033      0.0225      8.8883     59.6440
  1237.2000      7.8466      2.5016      0.0368      8.9917     55.4068
  1237.3000      7.8486      2.5015      0.0384      9.0019     50.0937
  1237.4000      7.8486      2.5009      0.0142      9.0381     50.0676
  1237.5000      7.8518      2.5053      0.0184      8.7712     55.9361
  1237.6000      7.8518      2.5146      0.0196      8.2066     61.2682
  1237.7000      7.8518      2.5176      0.0469      8.0263     61.4606
  1237.8000      7.8546      2.5076      0.0065      8.6294     57.8333
  1237.9000      7.8546      2.4998      0.0019      9.1043     54.3059
  1238.0000      7.8540      2.5069      0.0402      8.6710     52.7122
  1238.1000      7.8540      2.5172      0.0488      8.0473     52.6134
  1238.2000      7.8540      2.5186      0.0654      7.9664     52.3462
  1238.3000      7.8521      2.5133      0.0367      8.2859     51.4047
  1238.4000      7.8521      2.5020      0.0299      8.9710     50.6024
  1238.5000      7.8516      2.4860      0.0230      9.9405     48.5897
  1238.6000      7.8516      2.4775     -0.0025     10.4548     46.2947
  1238.7000      7.8516      2.4841      0.0568     10.0576     47.3757
  1238.8000      7.8521      2.4998      0.0170      9.1042     51.7525
  1238.9000      7.8521      2.5149      0.0536      8.1877     55.7230
  1239.0000      7.8517      2.5222      0.0549      7.7437     55.8596
  1239.1000      7.8517      2.5292      0.0063      7.3186     52.4438
  1239.2000      7.8517      2.5401      0.0589      6.6580     50.1010
  1239.3000      7.8507      2.5418      0.0570      6.5563     52.1778
  1239.4000      7.8507      2.5352      0.0241      6.9565     57.4035
  1239.5000      7.8499      2.5301      0.0332      7.2684     62.5386
  1239.6000      7.8499      2.5227      0.0244      7.7147     66.9585
  1239.7000      7.8499      2.5096      0.0407      8.5117     70.1949
  1239.8000      7.8495      2.4944      0.0426      9.4298     69.9254
  1239.9000      7.8495      2.4826      0.0130     10.1482     66.0508
  1240.0000      7.8499      2.4696      0.0616     10.9360     60.5602
  1240.1000      7.8499      2.4482     -0.0056     12.2308     53.9134
  1240.2000      7.8499      2.4294     -0.0382     13.3697     47.4916
  1240.3000      7.8507      2.4264     -0.0038     13.5494     45.2442
  1240.4000      7.8507      2.4371      0.0150     12.9050     50.1162
  1240.5000      7.8509      2.4524      0.0218     11.9756     57.3624
  1240.6000      7.8509      2.4631      0.0279     11.3270     58.2150
