~Version Information
VERS.                      2.0: CWLS Log ASCII Standard - VERSION 2.0
WRAP.                       NO: One line per depth step
~Well Information Block
STRT.FT               550.0000: 
STOP.FT              1979.0000: 
STEP.FT                 0.1000: 
NULL.                -999.2500: 
COMP.          Pioneer Natural Resources: COMPANY
WELL.          Flying Horse 12-11 Tr: WELL
FLD.           Purgatoire River: FIELD
LOC.           2459' FNL & 410' FWL: LOCATION
STAT.                 Colorado: PROVINCE
CNTY.               Las Animas: COUNTY
CTRY. USA : Country
SECT. 11 : Section
TOWN. 32S : Township
RANG. 66W : Range
SRVC.                Patterson: SERVICE COMPANY
DATE.          Tue Sep 06 07:09:24 2005: LOG DATE
API.           05 071 08485 00: UNIQUE WELL ID
~Curve Information Block
DEPT.FT            0 000 00 00: Depth
DCAL.in                       : CDL Caliper
RHOB.g/cc                     : CDL Bulk Density
RHOC.g/cc                     : CDL Density Correction
DPOR.pu                       : CDL Density Porosity
GR.GAPI                       : Gamma Ray
NPOR.pu                       : Neutron Porosity
~Parameter Information Block
~A  Depth       DCAL        RHOB        RHOC        DPOR         GR         NPOR    
# ...
  1586.8000      8.0613      2.5628      0.0932      5.2869    131.5803     24.8018
  1586.9000      8.0613      2.5464     -0.0129      6.2795    132.7146     23.7816
  1587.0000      8.0853      2.5440      0.0446      6.4224    134.0816     23.1071
  1587.1000      8.0853      2.5658     -0.0295      5.1009    136.1725     23.3361
  1587.2000      8.0853      2.6005      0.1024      2.9998    136.2857     24.0963
  1587.3000      8.0693      2.6231      0.0272      1.6278    130.6467     24.8081
  1587.4000      8.0693      2.6291      0.0243      1.2682    120.7566     25.6405
  1587.5000      8.0802      2.6278      0.0670      1.3448    114.5020     26.4251
  1587.6000      8.0802      2.6245      0.0626      1.5476    115.3291     26.8041
  1587.7000      8.0802      2.6374      0.0212      0.7617    114.3354     26.5042
  1587.8000      8.0654      2.6803      0.0969     -1.8366    106.0203     24.8763
  1587.9000      8.0654      2.7176      0.1357     -4.0997     94.1652     22.4594
  1588.0000      8.0470      2.7056      0.1059     -3.3683     86.1187     20.7550
  1588.1000      8.0470      2.6637      0.0508     -0.8273     86.5238     20.5339
  1588.2000      8.0470      2.6426      0.0605      0.4458     90.3292     21.4496
  1588.3000      8.0316      2.6505      0.0949     -0.0324     90.5458     22.2157
  1588.4000      8.0316      2.6602      0.0766     -0.6169     88.9681     21.9300
  1588.5000      8.0315      2.6497      0.0943      0.0152     90.3021     21.2602
  1588.6000      8.0315      2.6185      0.0585      1.9078     95.1980     21.2873
  1588.7000      8.0315      2.5858      0.0310      3.8910    102.4149     21.9221
  1588.8000      8.0406      2.5586      0.0444      5.5400    108.1086     22.6731
  1588.9000      8.0406      2.5211      0.0551      7.8113    109.5081     23.8713
  1589.0000      8.0583      2.4751     -0.0322     10.6014    109.5594     25.4282
  1589.1000      8.0583      2.4338      0.0503     13.1004    113.9093     26.3693
  1589.2000      8.0583      2.3917     -0.0288     15.6569    125.3844     26.6108
  1589.3000      8.0626      2.3436     -0.0290     18.5692    136.6927     27.3523
  1589.4000      8.0626      2.2941     -0.0723     21.5697    137.0376     28.8419
  1589.5000      8.1078      2.2527     -0.0207     24.0767    129.4155     29.8315
  1589.6000      8.1078      2.2380     -0.0463     24.9683    124.6300     30.0268
  1589.7000      8.1078      2.2678      0.0237     23.1651    124.6455     29.9357
  1589.8000      8.1155      2.3289      0.0904     19.4592    124.5201     29.8717
  1589.9000      8.1155      2.3820      0.1538     16.2453    125.7432     29.9886
  1590.0000      8.1145      2.4021      0.1320     15.0253    132.9781     30.1051
  1590.1000      8.1145      2.3963      0.1005     15.3754    141.2961     30.1382
  1590.2000      8.1145      2.3875      0.1016     15.9075    144.3414     30.0278
  1590.3000      8.1219      2.3945      0.0548     15.4863    145.0451     29.5965
  1590.4000      8.1219      2.4162      0.1199     14.1705    146.3960     29.1192
  1590.5000      8.1189      2.4330      0.1417     13.1532    144.6317     28.7200
  1590.6000      8.1189      2.4358      0.0905     12.9799    137.1935     28.1638
  1590.7000      8.1189      2.4345      0.0857     13.0597    126.9228     28.0726
  1590.8000      8.1412      2.4351      0.0595     13.0249    117.8014     28.8519
  1590.9000      8.1412      2.4318      0.0961     13.2218    115.1457     29.2201
  1591.0000      8.2339      2.4149      0.0751     14.2495    121.0659     29.1239
  1591.1000      8.2339      2.3799      0.0717     16.3695    129.6604     29.9289
  1591.2000      8.2339      2.3339     -0.0128     19.1576    133.9593     31.4546
  1591.3000      8.2632      2.2836      0.0456     22.2071    130.8887     32.5187
  1591.4000      8.2632      2.2210      0.0115     25.9981    124.4092     32.7229
  1591.5000      8.3534      2.1452     -0.0010     30.5955    122.6667     32.6606
  1591.6000      8.3534      2.0634      0.0262     35.5493    126.0715     32.2731
  1591.7000      8.3534      1.9754      0.0582     40.8820    125.4649     31.2715
  1591.8000      8.3727      1.8786      0.0102     46.7508    119.0777     30.7313
  1591.9000      8.3727      1.7697      0.0122     53.3511    114.3439     31.8123
  1592.0000      8.3408      1.6549     -0.0543     60.3066    111.3642     33.4685
  1592.1000      8.3408      1.5670     -0.0897     65.6392    106.0274     33.8564
  1592.2000      8.3408      1.5351     -0.0731     67.5682     98.6317     33.1840
  1592.3000      8.3522      1.5585     -0.0796     66.1518     94.4777     32.5366
  1592.4000      8.3522      1.6178      0.0615     62.5592     98.0533     32.3740
  1592.5000      8.4054      1.6992      0.0823     57.6259    102.2713     32.8082
  1592.6000      8.4054      1.8164      0.1278     50.5214     98.9377     32.8885
  1592.7000      8.4054      1.9807      0.1980     40.5666     91.9056     31.9920
  1592.8000      8.5498      2.1616      0.2291     29.5998     88.8846     31.0768
  1592.9000      8.5498      2.3125      0.2657     20.4551     90.2126     30.7404
  1593.0000      8.5138      2.4170      0.2164     14.1242     91.3359     30.3638
  1593.1000      8.5138      2.4864      0.2379      9.9153     91.5770     29.4098
  1593.2000      8.5138      2.5271      0.2338      7.4466     93.3244     28.4081
  1593.3000      8.0392      2.5369      0.1839      6.8519     94.5610     28.1719
  1593.4000      8.0392      2.5242      0.0908      7.6240     93.2745     28.6312
  1593.5000      7.9352      2.5163      0.0436      8.1052     91.7215     28.8753
  1593.6000      7.9352      2.5291      0.1104      7.3262     90.1965     28.1346
  1593.7000      7.9352      2.5457      0.1190      6.3211     86.7749     26.6158
  1593.8000      7.9227      2.5495      0.0948      6.0901     84.4231     25.3836
  1593.9000      7.9227      2.5507      0.0714      6.0153     88.1230     25.1425
  1594.0000      7.9508      2.5699      0.1009      4.8518     96.7468     25.4805
  1594.1000      7.9508      2.6055      0.1368      2.6943    105.4244     25.9917
  1594.2000      7.9508      2.6338      0.1325      0.9839    112.5435     26.8921
  1594.3000      7.9949      2.6460      0.1371      0.2449    118.7980     28.0979
  1594.4000      7.9949      2.6521      0.1165     -0.1267    120.6468     28.7890
  1594.5000      7.9939      2.6429      0.1808      0.4275    115.8392     28.0430
  1594.6000      7.9939      2.6048      0.0641      2.7422    109.9799     26.1027
  1594.7000      7.9939      2.5625      0.0005      5.3001    107.5584     24.7039
  1594.8000      7.9747      2.5447      0.0250      6.3792    109.0633     24.8184
  1594.9000      7.9747      2.5507      0.0158      6.0186    112.3192     25.7125
  1595.0000      8.0399      2.5689      0.0311      4.9170    114.8104     26.5826
  1595.1000      8.0399      2.5865      0.0618      3.8457    115.4838     27.3130
  1595.2000      8.0399      2.5947      0.0766      3.3498    114.2590     27.4413
  1595.3000      8.0529      2.5887      0.1069      3.7156    115.4211     26.7291
  1595.4000      8.0529      2.5653      0.0632      5.1312    121.7626     26.0335
  1595.5000      8.0532      2.5283      0.0722      7.3746    129.2035     25.6264
  1595.6000      8.0532      2.4885      0.0511      9.7896    132.0882     25.1972
  1595.7000      8.0532      2.4606      0.0047     11.4778    128.8726     25.2383
  1595.8000      8.0525      2.4544     -0.0053     11.8529    123.5335     26.0640
  1595.9000      8.0525      2.4581      0.0422     11.6300    123.8495     27.0703
  1596.0000      8.0589      2.4488      0.0296     12.1940    131.7962     27.8124
  1596.1000      8.0589      2.4294     -0.0089     13.3704    139.0663     28.7266
  1596.2000      8.0589      2.4299     -0.0027     13.3420    139.2661     29.5014
  1596.3000      8.0589      2.4619      0.0790     11.4008    134.9683     29.2610
