~Version Information
VERS.                      2.0: CWLS Log ASCII Standard - VERSION 2.0
WRAP.                       NO: One line per depth step
~Well Information Block
STRT.FT                -6.5000: 
STOP.FT              1467.0000: 
STEP.FT                 0.2500: 
NULL.                -999.2500: 
COMP.          Pioneer Natural Resources: COMPANY
WELL.          Surtees 23-34 Tr: WELL
FLD.           Purgatorie River: FIELD
LOC.           1559' FSL & 1997' FWL--: LOCATION
PROV.                       CO: PROVINCE
CNTY.               Las Animas: COUNTRY
SRVC.          Patterson Wireline: SERVICE COMPANY
DATE.          Tue Aug 02 13:04:45 2005: LOG DATE
UWI.           05 071 08449 00: UNIQUE WELL ID
~Curve Information Block
DEPT.FT            0 000 00 00: Depth
CCL.                          : Casing Collar Locator
TT3.usec                      : CBL 3' Travel Time
AMP3.mV                       : CBL 3' Amplitude
GR.GAPI                       : Gamma Ray
~Parameter Information Block
~A  Depth       CCL         TT3         AMP3         GR     
# ...
   295.0000      0.0000    783.0851     11.9220     85.1385
   295.2500      0.0000    784.6378     11.9378     96.5472
   295.5000      0.0000    787.7990     11.9701    104.6995
   295.7500      0.0000    793.0988     12.0007    107.9368
   296.0000      0.0000    800.1573     12.0153    106.9451
   296.2500      0.0000    807.4731     12.0080    103.9707
   296.5000      0.0000    813.6550     11.9833    101.0592
   296.7500      0.0000    819.2336     11.9551     99.0318
   297.0000      0.0000    826.7234     11.9386     97.8137
   297.2500      0.0000    838.3138     11.9426     97.2899
   297.5000      0.0000    853.6317     11.9663     97.7504
   297.7500      0.0000    869.9189     12.0020     99.5824
   298.0000      0.0000    883.9536     12.0402    102.5384
   298.2500      0.0000    893.6248     12.0750    105.4625
   298.5000      0.0000    898.1851     12.1029    106.9934
   298.7500      0.0000    897.6650     12.1159    106.4980
   299.0000      0.0000    892.3407     12.1014    104.2608
   299.2500      0.0000    882.6201     12.0531    101.0297
   299.5000      0.0000    868.9661     11.9805     97.4957
   299.7500      0.0000    851.9144     11.9031     93.9171
   300.0000      0.0000    832.7672     11.8332     90.1416
   300.2500      0.0000    814.2352     11.7665     86.1765
   300.5000      0.0000    799.4507     11.6890     82.6100
   300.7500      0.0000    789.9810     11.5894     80.1899
   301.0000      0.0000    785.1605     11.4681     79.1974
   301.2500      0.0000    783.2163     11.3339     79.5003
   301.5000      0.0000    782.6036     11.1973     80.8339
   301.7500      0.0000    782.4608     11.0652     82.6738
   302.0000      0.0000    782.4193     10.9422     84.0493
   302.2500      0.0000    782.3478     10.8332     83.7714
   302.5000      0.0000    782.2095     10.7434     81.0691
   302.7500      0.0000    782.0216     10.6766     76.3537
   303.0000      0.0000    781.8322     10.6354     71.3063
   303.2500      0.0000    781.6921     10.6220     67.5502
   303.5000      0.0000    781.6240     10.6376     65.0255
   303.7500      0.0000    781.6152     10.6797     62.2693
   304.0000      0.0000    781.6457     10.7403     58.4859
   304.2500      0.0000    781.7247     10.8067     54.7265
   304.5000      0.0000    781.8958     10.8645     52.8155
   304.7500      0.0000    782.1984     10.9029     53.6192
   305.0000      0.0000    782.6215     10.9199     56.4769
   305.2500      0.0000    783.0930     10.9218     59.8413
   305.5000      0.0000    783.5247     10.9160     62.2603
   305.7500      0.0000    783.8746     10.9022     63.2315
   306.0000      0.0000    784.1561     10.8740     63.5552
   306.2500      0.0000    784.3804     10.8292     64.8226
   306.5000      0.0000    784.5109     10.7745     68.2383
   306.7500      0.0000    784.5095     10.7215     73.6416
   307.0000      0.0000    784.4241     10.6762     79.5085
   307.2500      0.0000    784.3863     10.6345     83.9561
   307.5000      0.0000    784.5031     10.5886     86.0407
   307.7500      0.0000    784.7632     10.5366     86.2420
   308.0000      0.0000    785.0529     10.4853     85.6437
   308.2500      0.0000    785.2499     10.4438     84.7755
   308.5000      0.0000    785.3171     10.4155     83.5231
   308.7500      0.0000    785.3290     10.3978     82.0015
   309.0000      0.0000    785.4408     10.3878     80.8810
   309.2500      0.0000    785.8522     10.3880     80.4809
   309.5000      0.0000    786.8091     10.4058     79.9129
   309.7500      0.0000    788.5072     10.4452     77.6567
   310.0000      0.0000    790.7616     10.4990     72.9120
   310.2500      0.0000    792.7100     10.5509     66.1775
   310.5000      0.0000    793.1759     10.5868     58.8200
   310.7500      0.0000    791.6700     10.6046     52.4091
   311.0000      0.0000    788.9236     10.6138     48.0891
   311.2500      0.0000    786.2231     10.6252     46.1672
   311.5000      0.0000    784.3832     10.6418     46.3416
   311.7500      0.0000    783.4736     10.6610     48.1383
   312.0000      0.0000    783.2485     10.6829     50.7802
   312.2500      0.0000    783.5812     10.7136     52.9717
   312.5000      0.0000    784.5975     10.7588     53.5434
   312.7500      0.0000    786.5044     10.8158     52.4551
   313.0000      0.0000    789.1478     10.8741     50.8636
   313.2500      0.0000    791.6254     10.9208     50.1031
   313.5000      0.0000    792.6309     10.9468     50.7206
   313.7500      0.0000    791.5208     10.9486     52.4948
   314.0000      0.0000    788.9532     10.9272     55.0145
   314.2500      0.0000    786.2695     10.8862     57.8579
   314.5000      0.0000    784.4017     10.8312     60.4640
   314.7500      0.0000    783.4985     10.7678     62.3867
   315.0000      0.0000    783.3218     10.7023     63.5815
   315.2500      0.0000    783.8171     10.6440     64.1362
   315.5000      0.0000    785.5344     10.6069     64.0620
   315.7500      0.0000    789.7535     10.6055     63.7581
   316.0000      0.0000    797.7600     10.6449     64.2857
   316.2500      0.0000    808.9932     10.7143     66.6716
   316.5000      0.0000    819.6353     10.7918     70.8986
   316.7500      0.0000    824.2906     10.8574     75.5833
   317.0000      0.0000    820.4138     10.9017     78.5845
   317.2500      0.0000    811.1177     10.9268     78.2621
   317.5000      0.0000    803.3505     10.9423     74.6372
   317.7500      0.0000    804.0017     10.9618     69.3225
   318.0000      0.0000    816.9727     10.9959     64.0529
   318.2500      0.0000    840.5381     11.0438     59.4839
   318.5000      0.0000    865.5062     11.0952     55.6156
   318.7500      0.0000    878.9637     11.1396     52.7611
   319.0000      0.0000    873.8567     11.1704     51.3787
   319.2500      0.0000    854.7926     11.1804     51.2667
   319.5000      0.0000    833.1976     11.1626     51.5501
   319.7500      0.0000    818.1669     11.1176     51.4037
   320.0000      0.0000    812.2675     11.0575     50.5339
   320.2500      0.0000    813.1216     10.9980     49.1194
   320.5000      0.0000    816.7580     10.9504     47.4976
   320.7500      0.0000    820.1552     10.9166     45.8876
   321.0000      0.0000    822.1242     10.8887     44.3536
   321.2500      0.0000    822.7364     10.8495     42.9934
   321.5000      0.0000    822.3188     10.7718     42.0622
   321.7500      0.0000    821.1783     10.6212     41.9000
   322.0000      0.0000    820.3591     10.3722     42.8084
   322.2500      0.0000    822.8336     10.0337     44.8259
   322.5000      0.0000    833.5645      9.6440     47.3770
   322.7500      0.0000    856.8403      9.2243     49.3917
   323.0000      0.0000    891.8903      8.7578     50.2031
   323.2500      0.0000    931.6721      8.2500     50.2714
   323.5000      0.0000    968.4314      7.7800     50.5455
   323.7500      0.0000   1000.8121      7.4478     51.0301
   324.0000      0.0000   1032.8940      7.2825     50.5645
   324.2500      2.0000   1066.1460      7.2349     48.3834
   324.5000      0.0000   1095.5341      7.2415     45.4587
   324.7500      0.0000   1113.6975      7.2785     43.7909
   325.0000      0.0000   1115.3385      7.3750     44.5498
   325.2500      0.0000   1096.8755      7.5909     47.2452
   325.5000      0.0000   1055.9147      7.9698     50.4949
   325.7500      0.0000    995.0613      8.4963     53.0244
   326.0000      0.0000    925.6875      9.0964     53.9384
   326.2500      0.0000    863.9932      9.6695     52.7708
   326.5000      0.0000    821.1880     10.1277     49.8571
   326.7500      0.0000    798.0371     10.4317     46.5060
   327.0000      0.0000    788.2650     10.6055     44.4366
   327.2500      0.0000    785.0043     10.7076     44.7538
   327.5000      0.0000    784.0540     10.7856     47.1691
   327.7500      0.0000    783.6675     10.8591     50.1426
   328.0000      0.0000    783.3430     10.9298     52.0782
   328.2500      0.0000    783.0115     10.9967     52.5630
