~Version Information
VERS.                      2.0: CWLS Log ASCII Standard - VERSION 2.0
WRAP.                       NO: One line per depth step
~Well Information Block
STRT.FT               240.0000: 
STOP.FT              1456.0000: 
STEP.FT                 0.1000: 
NULL.                -999.2500: 
COMP.          Pioneer Natural Resources: COMPANY
WELL.              Darren 11-7: WELL
FLD.           Purgatoire River: FIELD
LOC.           230' FNL & 596' FWL: LOCATION
CNTY.               Las Animas: COUNTY
SRVC.                Patterson: SERVICE COMPANY
DATE.          Mon Mar 20 07:16:06 2006: LOG DATE
UWI.           05 071 08720 00: UNIQUE WELL ID
STAT.                 Colorado: STATE
~Curve Information Block
DEPT.FT            0 000 00 00: Depth
DCAL.in                       : CDL Caliper
RHOB.g/cc                     : CDL Bulk Density
RHOC.g/cc                     : CDL Density Correction
DPOR.pu                       : CDL Density Porosity
GR.GAPI                       : Gamma Ray
NPOR.pu                       : Neutron Porosity
~Parameter Information Block
~A  Depth       DCAL        RHOB        RHOC        DPOR         GR         NPOR    
# ...
   480.0000      8.0492      2.5386      0.1135      6.7510    107.8448     28.7750
   480.1000      8.0492      2.5700      0.1088      4.8506    104.0978     28.3251
   480.2000      8.0492      2.5932      0.1176      3.4449    100.1172     28.3359
   480.3000      8.0508      2.6043      0.1596      2.7681     96.2175     28.6932
   480.4000      8.0508      2.5975      0.1431      3.1823     93.3125     28.8924
   480.5000      8.0545      2.5845      0.0966      3.9709     91.8857     28.8720
   480.6000      8.0545      2.5837      0.1190      4.0183     92.0224     28.9264
   480.7000      8.0545      2.5879      0.1485      3.7612     92.5741     29.0801
   480.8000      8.0592      2.5827      0.0858      4.0797     93.5787     29.1701
   480.9000      8.0592      2.5691      0.1078      4.9048     95.7496     29.1894
   481.0000      8.0266      2.5580      0.1159      5.5746     99.2423     29.1663
   481.1000      8.0266      2.5576      0.1458      5.6017    104.8958     29.0787
   481.2000      8.0266      2.5614      0.1585      5.3719    110.7897     29.0006
   481.3000      8.0392      2.5620      0.1237      5.3338    109.8903     28.9516
   481.4000      8.0392      2.5687      0.0793      4.9245    100.7327     28.8607
   481.5000      8.0016      2.5872      0.1637      3.8037     90.0942     28.7714
   481.6000      8.0016      2.6039      0.1514      2.7928     84.7520     28.8536
   481.7000      8.0016      2.6080      0.1342      2.5481     84.6755     29.1511
   481.8000      7.9295      2.5982      0.1432      3.1415     86.1717     29.3764
   481.9000      7.9295      2.5815      0.1154      4.1539     87.7043     29.2777
   482.0000      7.9587      2.5721      0.0927      4.7192     88.9826     28.9971
   482.1000      7.9587      2.5752      0.0930      4.5305     89.9051     28.8351
   482.2000      7.9587      2.5869      0.0740      3.8246     89.0754     29.0182
   482.3000      7.9291      2.6056      0.1088      2.6938     85.8985     29.5225
   482.4000      7.9291      2.6223      0.1225      1.6808     84.5078     29.9459
   482.5000      7.9445      2.6295      0.0997      1.2426     84.5276     29.9744
   482.6000      7.9445      2.6404      0.0907      0.5840     82.1654     29.8404
   482.7000      7.9445      2.6689      0.0958     -1.1445     80.6896     29.8470
   482.8000      7.9813      2.7085      0.1358     -3.5476     82.8243     30.0251
   482.9000      7.9813      2.7397      0.1137     -5.4353     83.1820     30.2665
   483.0000      7.9746      2.7473      0.1577     -5.8939     79.3993     30.3637
   483.1000      7.9746      2.7320      0.1229     -4.9689     76.8764     30.1557
   483.2000      7.9746      2.7088      0.0641     -3.5659     79.7103     29.7457
   483.3000      7.9974      2.6898      0.0704     -2.4150     83.9987     29.2739
   483.4000      7.9974      2.6712      0.0780     -1.2843     85.2942     28.9072
   483.5000      8.0017      2.6495      0.0412      0.0284     85.9093     28.9055
   483.6000      8.0017      2.6351      0.0453      0.9035     87.3029     29.2544
   483.7000      8.0017      2.6333      0.0621      1.0130     86.2632     29.6200
   483.8000      8.0044      2.6347      0.1026      0.9302     82.1660     29.6703
   483.9000      8.0044      2.6315      0.1157      1.1200     79.3348     29.1960
   484.0000      8.0233      2.6227      0.1114      1.6527     80.2952     28.4000
   484.1000      8.0233      2.6057      0.1456      2.6867     83.5927     27.7708
   484.2000      8.0233      2.5870      0.0659      3.8188     86.0844     27.4297
   484.3000      8.0190      2.5886      0.0886      3.7206     85.6412     27.3565
   484.4000      8.0190      2.6185      0.1266      1.9061     83.2566     27.5910
   484.5000      8.0058      2.6558      0.1756     -0.3541     80.2041     27.9146
   484.6000      8.0058      2.6766      0.1300     -1.6128     77.7169     28.0970
   484.7000      8.0058      2.6725      0.1366     -1.3641     76.7595     28.2255
   484.8000      8.0225      2.6515      0.1563     -0.0891     79.1074     28.3173
   484.9000      8.0225      2.6325      0.0675      1.0579     84.2872     28.3954
   485.0000      8.0276      2.6247      0.0790      1.5355     87.6575     28.4534
   485.1000      8.0276      2.6232      0.0565      1.6230     86.6211     28.4639
   485.2000      8.0276      2.6285      0.0748      1.3008     84.4546     28.4785
   485.3000      8.0362      2.6424      0.0641      0.4581     86.5050     28.4130
   485.4000      8.0362      2.6571      0.1101     -0.4298     91.6791     28.2044
   485.5000      8.0355      2.6566      0.1336     -0.4018     94.7848     28.0114
   485.6000      8.0355      2.6366      0.1371      0.8118     93.6900     28.1147
   485.7000      8.0355      2.6090      0.0724      2.4856     88.0434     28.4752
   485.8000      8.0428      2.5822      0.0936      4.1081     82.8748     28.7102
   485.9000      8.0428      2.5593      0.0613      5.4946     84.6343     28.9044
   486.0000      8.0349      2.5561      0.0334      5.6918     90.3438     29.1945
   486.1000      8.0349      2.5818      0.0572      4.1331     94.5892     29.1321
   486.2000      8.0349      2.6131      0.1351      2.2372     96.7231     28.5997
   486.3000      8.0239      2.6241      0.1572      1.5707     96.6318     28.2342
   486.4000      8.0239      2.6270      0.0892      1.3943     95.8129     28.2331
   486.5000      8.0153      2.6377      0.1803      0.7445     97.9492     28.1123
   486.6000      8.0153      2.6314      0.2070      1.1258    100.7578     27.8938
   486.7000      8.0153      2.5935      0.1133      3.4270     98.9147     27.9409
   486.8000      8.0145      2.5522      0.0626      5.9277     95.7944     28.2222
   486.9000      8.0145      2.5355      0.0015      6.9389     94.8628     28.4539
   487.0000      8.0089      2.5520     -0.0074      5.9398     94.0823     28.5123
   487.1000      8.0089      2.5904      0.0679      3.6126     93.9179     28.6525
   487.2000      8.0089      2.6216      0.0913      1.7189     94.5777     29.0275
   487.3000      7.9984      2.6263      0.1243      1.4342     95.5021     29.2293
   487.4000      7.9984      2.6155      0.0841      2.0919     96.3071     28.8833
   487.5000      7.9729      2.6117      0.0897      2.3204     95.7505     28.4350
   487.6000      7.9729      2.6165      0.1177      2.0278     93.5500     28.5922
   487.7000      7.9729      2.6144      0.0844      2.1553     92.2734     29.1753
   487.8000      7.9601      2.6071      0.0600      2.5990     93.4645     29.4305
   487.9000      7.9601      2.6134      0.0727      2.2186     95.4044     29.2812
   488.0000      7.9539      2.6340      0.0877      0.9687     95.3708     29.3459
   488.1000      7.9539      2.6460      0.1000      0.2406     91.8049     29.8424
   488.2000      7.9539      2.6394      0.0655      0.6442     87.4974     30.2201
   488.3000      7.9855      2.6267      0.1015      1.4107     86.2018     29.8954
   488.4000      7.9855      2.6205      0.0811      1.7882     87.1162     29.2236
   488.5000      7.9975      2.6225      0.0496      1.6640     88.0756     28.9234
   488.6000      7.9975      2.6189      0.0767      1.8862     87.6423     28.9086
   488.7000      7.9975      2.5930      0.0798      3.4540     83.9246     28.9301
   488.8000      7.9800      2.5621      0.0344      5.3271     80.0717     29.1224
   488.9000      7.9800      2.5539      0.0561      5.8256     82.5570     29.2646
   489.0000      7.9920      2.5661      0.0001      5.0848     90.6646     28.9950
   489.1000      7.9920      2.5850      0.0701      3.9383     97.7361     28.5828
   489.2000      7.9920      2.5977      0.0809      3.1676     98.5143     28.3629
   489.3000      8.0010      2.5957      0.0767      3.2907     93.4489     28.3075
   489.4000      8.0010      2.5780      0.1003      4.3617     88.1131     28.3944
   489.5000      7.9959      2.5548      0.0519      5.7713     87.0112     28.6748
