~Version Information
VERS.                      2.0: CWLS Log ASCII Standard - VERSION 2.0
WRAP.                       NO: One line per depth step
~Well Information Block
STRT.FT               650.0000: 
STOP.FT              2127.7000: 
STEP.FT                 0.1000: 
NULL.                -999.2500: 
COMP.          Pioneer Natural Resources: COMPANY
WELL.          Kennington 41-26: WELL
FLD.           Purgatoire River: FIELD
LOC.           940' FNL & 1008' FEL--: LOCATION
CNTY.               Las Animas: COUNTY
SRVC.                Patterson: SERVICE COMPANY
DATE.          Wed Mar 29 11:30:50 2006: LOG DATE
UWI.           05 071 08679 00: UNIQUE WELL ID
STAT.                 Colorado: STATE
~Curve Information Block
DEPT.FT            0 000 00 00: Depth
DCAL.in                       : CDL Caliper
RHOB.g/cc                     : CDL Bulk Density
RHOC.g/cc                     : CDL Density Correction
DPOR.pu                       : CDL Density Porosity
NPOR.pu                       : Neutron Porosity
GR.GAPI                       : Gamma Ray
~Parameter Information Block
~A  Depth       DCAL        RHOB        RHOC        DPOR        NPOR         GR     
# ...
  1811.6000      7.9222      2.5434      0.0494      6.4592     20.1464    124.7904
  1811.7000      7.9222      2.5680      0.0541      4.9713     20.9196    122.4014
  1811.8000      7.9214      2.5655      0.0596      5.1206     22.1916    120.3771
  1811.9000      7.9214      2.5483      0.0236      6.1610     22.8805    122.3461
  1812.0000      7.9147      2.5427      0.0008      6.5058     22.4825    126.7422
  1812.1000      7.9147      2.5462      0.0876      6.2927     21.9325    128.1084
  1812.2000      7.9147      2.5459      0.0219      6.3072     21.8976    125.1541
  1812.3000      7.8997      2.5490      0.0154      6.1211     22.0139    123.7655
  1812.4000      7.8997      2.5540      0.0835      5.8198     22.0882    127.3143
  1812.5000      7.8839      2.5454      0.0632      6.3391     22.2654    130.7728
  1812.6000      7.8839      2.5342      0.0215      7.0195     22.2182    130.3852
  1812.7000      7.8839      2.5356      0.0734      6.9321     21.4815    129.6304
  1812.8000      7.8769      2.5345      0.0544      7.0022     20.1078    130.1492
  1812.9000      7.8769      2.5218      0.0168      7.7694     18.5133    129.1664
  1813.0000      7.8814      2.5131      0.0262      8.2946     16.8413    125.7145
  1813.1000      7.8814      2.5174      0.0495      8.0339     14.6200    119.4431
  1813.2000      7.8814      2.5262      0.0280      7.5005     12.2546    114.0155
  1813.3000      7.8933      2.5321      0.0287      7.1478     11.7482    116.0120
  1813.4000      7.8933      2.5392      0.0310      6.7166     14.0706    123.7580
  1813.5000      7.8984      2.5514      0.0274      5.9783     17.3079    131.4080
  1813.6000      7.8984      2.5543      0.1146      5.7994     18.6356    137.1160
  1813.7000      7.8984      2.5334      0.0443      7.0669     18.2732    139.9900
  1813.8000      7.8888      2.5043      0.0098      8.8288     17.8263    139.5519
  1813.9000      7.8888      2.4902      0.0102      9.6836     17.9943    134.1777
  1814.0000      7.8790      2.4952      0.0297      9.3835     18.8375    124.3749
  1814.1000      7.8790      2.5136      0.0546      8.2646     19.7521    115.3592
  1814.2000      7.8790      2.5407      0.0830      6.6219     19.7781    112.1668
  1814.3000      7.8795      2.5673      0.1137      5.0149     19.0415    112.6772
  1814.4000      7.8795      2.5822      0.0946      4.1075     18.8497    112.3746
  1814.5000      7.8867      2.5817      0.0833      4.1404     19.8857    111.6447
  1814.6000      7.8867      2.5667      0.0616      5.0497     20.8979    113.7017
  1814.7000      7.8867      2.5487      0.0380      6.1368     20.7595    121.9605
  1814.8000      7.8945      2.5493      0.0330      6.1020     19.9994    131.3310
  1814.9000      7.8945      2.5750      0.0639      4.5480     18.9170    133.3918
  1815.0000      7.8881      2.6063      0.1144      2.6509     17.8496    129.4646
  1815.1000      7.8881      2.6198      0.1313      1.8330     17.4909    125.4784
  1815.2000      7.8881      2.6094      0.1142      2.4605     18.1311    126.0676
  1815.3000      7.8734      2.5835      0.0854      4.0326     19.3218    129.0340
  1815.4000      7.8734      2.5613      0.0346      5.3771     19.3350    130.1134
  1815.5000      7.8650      2.5565      0.0819      5.6673     17.4241    127.3557
  1815.6000      7.8650      2.5639      0.0672      5.2189     15.1280    120.3782
  1815.7000      7.8650      2.5770      0.0708      4.4229     13.8308    115.3987
  1815.8000      7.8573      2.5895      0.0966      3.6655     13.2953    116.5007
  1815.9000      7.8573      2.5996      0.0482      3.0553     12.5010    117.0063
  1816.0000      7.8488      2.6103      0.0838      2.4052     11.6724    111.6892
  1816.1000      7.8488      2.6100      0.0885      2.4217     11.8250    105.5406
  1816.2000      7.8488      2.5936      0.0419      3.4169     13.2905    106.9243
  1816.3000      7.8425      2.5856      0.0508      3.9035     15.4044    112.5980
  1816.4000      7.8425      2.6014      0.1013      2.9442     17.1289    113.5023
  1816.5000      7.8338      2.6207      0.1281      1.7751     17.9585    109.7955
  1816.6000      7.8338      2.6237      0.1163      1.5966     18.0267    108.5590
  1816.7000      7.8338      2.6078      0.1473      2.5577     17.8464    116.2142
  1816.8000      7.8302      2.5834      0.0489      4.0336     17.7805    129.4613
  1816.9000      7.8302      2.5721      0.0590      4.7208     17.9630    137.0588
  1817.0000      7.8414      2.5752      0.0413      4.5355     18.3701    136.0911
  1817.1000      7.8414      2.5785      0.0737      4.3332     18.5469    132.2955
  1817.2000      7.8414      2.5784      0.0339      4.3373     18.1551    126.1982
  1817.3000      7.8547      2.5787      0.0052      4.3226     18.1162    117.3099
  1817.4000      7.8547      2.5861      0.0321      3.8719     18.9485    115.2357
  1817.5000      7.8667      2.6097      0.0209      2.4418     19.2325    123.7675
  1817.6000      7.8667      2.6431      0.0929      0.4173     18.4093    130.3091
  1817.7000      7.8667      2.6553      0.1296     -0.3203     18.3474    124.2900
  1817.8000      7.8799      2.6342      0.0701      0.9602     20.2241    110.5539
  1817.9000      7.8799      2.6050      0.0266      2.7259     22.7004     98.3858
  1818.0000      7.8850      2.5877      0.0518      3.7745     23.8613     93.5424
  1818.1000      7.8850      2.5820      0.0500      4.1199     23.3744     95.0390
  1818.2000      7.8850      2.5852      0.0311      3.9254     22.0027     95.2875
  1818.3000      7.8768      2.5950      0.0344      3.3326     19.9625     90.4538
  1818.4000      7.8768      2.6056      0.0578      2.6905     17.0644     87.2377
  1818.5000      7.8683      2.6125      0.0544      2.2756     13.8314     90.2757
  1818.6000      7.8683      2.6168      0.0668      2.0098     11.3363     94.7528
  1818.7000      7.8683      2.6159      0.1047      2.0687     10.5873     97.8263
  1818.8000      7.8657      2.5980      0.0990      3.1537     12.3580    100.9496
  1818.9000      7.8657      2.5745     -0.0224      4.5761     15.9642    106.5013
  1819.0000      7.8554      2.5728      0.0193      4.6804     18.5775    115.2376
  1819.1000      7.8554      2.5834      0.0588      4.0339     19.2527    121.6393
  1819.2000      7.8554      2.5767      0.0619      4.4406     19.0967    119.3420
  1819.3000      7.8336      2.5441      0.0376      6.4172     18.4435    109.9289
  1819.4000      7.8336      2.5016     -0.0269      8.9916     17.3585    101.3061
  1819.5000      7.8037      2.4778     -0.0175     10.4346     16.1276     99.3885
  1819.6000      7.8037      2.4896     -0.0113      9.7226     15.0526    102.5650
  1819.7000      7.8037      2.5218      0.0722      7.7704     14.3965    104.9447
  1819.8000      7.7541      2.5445      0.0682      6.3964     14.1232    102.2926
  1819.9000      7.7541      2.5598      0.0301      5.4655     13.8209     94.8070
  1820.0000      7.6942      2.5832      0.0964      4.0512     13.1239     89.5520
  1820.1000      7.6942      2.5984      0.1114      3.1284     12.1862     87.7750
  1820.2000      7.6942      2.5980      0.0662      3.1524     11.3534     84.2673
  1820.3000      7.6717      2.6043      0.1001      2.7677     10.8964     79.9255
  1820.4000      7.6717      2.6206      0.1025      1.7827     10.9336     76.1983
  1820.5000      7.7060      2.6229      0.1309      1.6432     11.7675     70.8502
  1820.6000      7.7060      2.6072      0.0640      2.5961     13.3730     66.3760
  1820.7000      7.7060      2.5973      0.0701      3.1916     14.8464     68.2058
  1820.8000      7.7592      2.5983      0.0827      3.1306     15.7168     75.2042
  1820.9000      7.7592      2.5965      0.0632      3.2425     15.5662     82.5209
  1821.0000      7.7962      2.5952      0.0547      3.3227     14.5653     87.6712
  1821.1000      7.7962      2.6036      0.0669      2.8096     14.0374     90.0648
