~Version Information
VERS.                      2.0: CWLS Log ASCII Standard - VERSION 2.0
WRAP.                       NO: One line per depth step
~Well Information Block
STRT.FT                 0.5000: 
STOP.FT              2166.0000: 
STEP.FT                 0.2500: 
NULL.                -999.2500: 
COMP.          Pioneer Natural Resources: COMPANY
WELL.          Bear Cub Federal 11-23: WELL
FLD.           Purgatoire River: FIELD
LOC.           1225' FNL & 1268 ' FWL--: LOCATION
CNTY.               Las Animas: COUNTY
SRVC.                Patterson: SERVICE COMPANY
DATE.          Mon Jul 17 10:21:31 2006: LOG DATE
UWI.           05 071 08509 00: UNIQUE WELL ID
STAT.                 Colorado: STATE
~Curve Information Block
DEPT.FT            0 000 00 00: Depth
CCL.                          : Casing Collar Locator
TT3.usec                      : CBL 3' Travel Time
AMP3.mV                       : CBL 3' Amplitude
GR.GAPI                       : Gamma Ray
~Parameter Information Block
~A  Depth       CCL         TT3         AMP3         GR     
# ...
  1441.0000      0.0000    706.9708      3.3579    172.4507
  1441.2500      0.0000    702.6751      3.4071    173.1968
  1441.5000      0.0000    695.2859      3.5152    173.3841
  1441.7500      0.0000    690.8951      3.5968    173.2251
  1442.0000      0.0000    686.6097      3.7019    172.6312
  1442.2500      0.0000    685.4621      3.7459    171.7606
  1442.5000      0.0000    686.2077      3.7645    169.6391
  1442.7500      0.0000    688.8335      3.7513    168.1194
  1443.0000      0.0000    697.8706      3.7133    167.0664
  1443.2500      0.0000    708.0121      3.6864    167.8812
  1443.5000      0.0000    727.6551      3.6480    171.3331
  1443.7500      0.0000    740.8273      3.6183    174.0949
  1444.0000      0.0000    755.1077      3.5548    176.2371
  1444.2500      0.0000    758.6871      3.4962    175.2187
  1444.5000      0.0000    752.5553      3.3881    170.0989
  1444.7500      0.0000    738.7737      3.3108    165.1813
  1445.0000      0.0000    699.3128      3.2057    157.4120
  1445.2500      0.0000    660.3121      3.1531    152.9949
  1445.5000      0.0000    592.2611      3.1095    148.5024
  1445.7500      0.0000    550.9620      3.1032    146.5408
  1446.0000      0.0000    511.5822      3.1209    143.0540
  1446.2500      0.0000    503.8580      3.1470    139.0683
  1446.5000      0.0000    513.7639      3.1974    129.5950
  1446.7500      0.0000    526.9005      3.2251    121.5007
  1447.0000      0.0000    545.3474      3.2313    109.7098
  1447.2500      0.0000    556.0986      3.2087    104.4682
  1447.5000      0.0000    577.7658      3.1600    103.6166
  1447.7500      0.0000    599.7449      3.1358    107.9390
  1448.0000      0.0000    639.6293      3.1191    119.1438
  1448.2500      0.0000    663.2251      3.1120    127.5290
  1448.5000      0.0000    682.5488      3.0962    139.3329
  1448.7500      0.0000    683.1176      3.0855    146.8528
  1449.0000      0.0000    673.2156      3.0810    157.9877
  1449.2500      0.0000    666.9694      3.0876    164.3697
  1449.5000      0.0000    665.9011      3.1062    169.8548
  1449.7500      0.0000    669.4225      3.1224    170.2980
  1450.0000      0.0000    674.2291      3.1534    167.6166
  1450.2500      0.0000    674.9535      3.1791    164.8413
  1450.5000      0.0000    673.3911      3.2233    160.6686
  1450.7500      0.0000    672.0355      3.2550    158.4649
  1451.0000      0.0000    670.4590      3.3017    156.8462
  1451.2500      0.0000    669.0494      3.3287    157.0806
  1451.5000      0.0000    663.4829      3.3591    159.0516
  1451.7500      0.0000    655.2665      3.3732    161.0347
  1452.0000      0.0000    634.7446      3.3893    164.3520
  1452.2500      0.0000    618.6686      3.4007    166.4673
  1452.5000      0.0000    602.4707      3.4271    168.8397
  1452.7500      0.0000    601.9272      3.4523    169.3016
  1453.0000      0.0000    611.0112      3.4914    167.0889
  1453.2500      0.0000    613.4329      3.5081    163.3406
  1453.5000      0.0000    597.8349      3.5124    155.7182
  1453.7500      0.0000    576.1130      3.5081    151.3593
  1454.0000      0.0000    542.6259      3.5003    149.3473
  1454.2500      0.0000    528.1763      3.4881    151.4373
  1454.5000      0.0000    518.3737      3.4483    157.2224
  1454.7500      0.0000    513.1340      3.4170    160.9340
  1455.0000      0.0000    498.9155      3.3920    165.0501
  1455.2500      0.0000    486.7857      3.3919    167.2076
  1455.5000      0.0000    473.9771      3.3934    169.8995
  1455.7500      0.0000    473.7993      3.3879    170.9007
  1456.0000      0.0000    489.4666      3.3840    170.6826
  1456.2500      0.0000    509.1125      3.3925    169.5660
  1456.5000      0.0000    542.6934      3.4158    166.3896
  1456.7500      0.0000    559.5396      3.4314    162.7000
  1457.0000      0.0000    568.7041      3.4584    154.0355
  1457.2500      0.0000    568.3758      3.4847    146.4603
  1457.5000      0.0000    574.6644      3.5402    134.0261
  1457.7500      0.0000    588.8521      3.5909    126.4044
  1458.0000      0.0000    619.1897      3.6911    118.8033
  1458.2500      0.0000    637.4161      3.7605    117.4253
  1458.5000      0.0000    650.7203      3.8184    119.9084
  1458.7500      0.0000    647.0866      3.8081    122.4461
  1459.0000      0.0000    624.1212      3.7387    124.6409
  1459.2500      0.0000    602.7928      3.6802    125.4699
  1459.5000      0.0000    576.5589      3.5926    129.4904
  1459.7500      0.0000    569.2256      3.5334    135.7118
  1460.0000      0.0000    572.8031      3.4500    148.6855
  1460.2500      0.0000    578.3881      3.4056    156.2780
  1460.5000      0.0000    577.6600      3.3531    160.2814
  1460.7500      0.0000    566.7484      3.3184    157.2231
  1461.0000      0.0000    540.2955      3.2699    147.4299
  1461.2500      0.0000    525.1486      3.2541    140.4790
  1461.5000      0.0000    520.2935      3.2594    133.3345
  1461.7500     -2.0000    530.7679      3.2629    131.5395
  1462.0000     -2.0000    560.0145      3.2356    132.3761
  1462.2500     -2.0000    582.9617      3.1976    134.4242
  1462.5000      0.0000    615.7462      3.1431    139.5789
  1462.7500      0.0000    634.0291      3.1247    144.9971
  1463.0000      0.0000    653.6356      3.1244    156.0000
  1463.2500      0.0000    661.5784      3.1283    163.7362
  1463.5000      0.0000    668.3275      3.1184    172.2217
  1463.7500      0.0000    671.0085      3.1039    174.6218
  1464.0000      0.0000    673.6775      3.0903    174.5938
  1464.2500      0.0000    674.7310      3.0880    174.0576
  1464.5000      0.0000    675.3455      3.0714    174.7792
  1464.7500      0.0000    675.2213      3.0429    176.1076
  1465.0000      0.0000    673.9559      2.9956    177.7158
  1465.2500      0.0000    671.4891      2.9864    178.3114
  1465.5000      0.0000    662.0645      3.0279    180.3331
  1465.7500      0.0000    649.8059      3.0803    183.4489
  1466.0000      0.0000    622.9391      3.1539    189.2225
  1466.2500      0.0000    604.4505      3.1847    191.0377
  1466.5000      0.0000    589.6644      3.2087    186.4742
  1466.7500      0.0000    593.4362      3.2193    178.3049
  1467.0000      0.0000    614.9991      3.2257    161.9334
  1467.2500      0.0000    632.1479      3.2126    151.3145
  1467.5000      0.0000    650.9939      3.1622    139.5064
  1467.7500      0.0000    657.3467      3.1262    134.5635
  1468.0000      0.0000    661.0367      3.1139    128.8006
  1468.2500      0.0000    662.1154      3.1425    124.0345
  1468.5000      0.0000    662.0963      3.2029    114.2849
  1468.7500      0.0000    658.2705      3.2184    107.2589
  1469.0000      0.0000    639.4637      3.1721     99.5157
  1469.2500      0.0000    615.1990      3.1080     97.5664
  1469.5000      0.0000    563.7096      3.0146     99.1612
  1469.7500      0.0000    525.8638      2.9739    102.2136
  1470.0000      0.0000    477.8245      2.9389    108.3965
  1470.2500      0.0000    456.9965      2.9202    113.1169
  1470.5000      0.0000    444.0408      2.9035    120.2421
  1470.7500      0.0000    445.5062      2.9194    124.5630
  1471.0000      0.0000    457.7972      2.9984    130.1007
  1471.2500      0.0000    469.3422      3.0637    133.0737
  1471.5000      0.0000    484.3109      3.1058    136.3356
  1471.7500      0.0000    488.3362      3.0715    138.0094
  1472.0000      0.0000    483.3082      2.9587    141.1457
  1472.2500      0.0000    476.4264      2.8895    144.4560
  1472.5000      0.0000    470.6608      2.8510    151.3298
  1472.7500      0.0000    471.9106      2.8618    156.1469
  1473.0000      0.0000    475.4760      2.8781    160.9386
  1473.2500      0.0000    474.0771      2.8693    161.3634
  1473.5000      0.0000    464.4633      2.8496    158.1466
  1473.7500      0.0000    456.5621      2.8625    154.7617
  1474.0000      0.0000    451.4234      2.9413    150.6864
  1474.2500      0.0000    457.0049      3.0110    149.9610
