~Version Information
VERS.                      2.0: CWLS Log ASCII Standard - VERSION 2.0
WRAP.                       NO: One line per depth step
~Well Information Block
STRT.FT                 8.2500: 
STOP.FT              1156.2500: 
STEP.FT                 0.2500: 
NULL.                -999.2500: 
COMP.          Pioneer Natural Resources: COMPANY
WELL.              Davida 34-8: WELL
FLD.           Purgatoire River: FIELD
LOC.           418' FSL & 1923' FEL: LOCATION
CNTY.               Las Animas: COUNTY
SRVC.                Patterson: SERVICE COMPANY
DATE.          Thu Mar 30 09:09:42 2006: LOG DATE
UWI.           05 071 08722 00: UNIQUE WELL ID
STAT.                 Colorado: STATE
~Curve Information Block
DEPT.FT            0 000 00 00: Depth
GR.GAPI                       : Gamma Ray
CCL.                          : Casing Collar Locator
TT3.usec                      : CBL 3' Travel Time
AMP3.mV                       : CBL 3' Amplitude
~Parameter Information Block
~A  Depth        GR         CCL         TT3         AMP3    
# ...
   309.7500     97.3907      0.0000    788.9686      6.5385
   310.0000     81.0886      0.0000    796.8569      6.6090
   310.2500     67.9856      0.0000    799.3705      6.6865
   310.5000     59.4717      0.0000    799.3005      6.7816
   310.7500     55.0055      0.0000    797.4290      6.9024
   311.0000     53.1765      0.0000    793.1820      7.0463
   311.2500     52.3059      0.0000    785.3986      7.1931
   311.5000     50.9466      0.0000    773.0081      7.3085
   311.7500     48.5120      0.0000    755.7800      7.3630
   312.0000     45.5122      0.0000    734.8611      7.3561
   312.2500     43.0003      0.0000    712.3765      7.3209
   312.5000     41.7803      0.0000    690.1840      7.2995
   312.7500     42.2244      0.0000    669.0986      7.3141
   313.0000     44.6013      0.0000    649.3568      7.3604
   313.2500     49.0733      0.0000    631.9535      7.4204
   313.5000     55.1802      0.0000    619.8790      7.4773
   313.7500     61.5277      0.0000    617.4115      7.5179
   314.0000     66.3535      0.0000    626.7112      7.5262
   314.2500     68.7532      0.0000    644.9941      7.4798
   314.5000     69.3574      0.0000    666.1099      7.3629
   314.7500     69.7017      0.0000    684.9255      7.1873
   315.0000     71.1339      0.0000    699.8209      6.9963
   315.2500     74.2842      0.0000    711.8708      6.8410
   315.5000     78.9579      0.0000    722.6050      6.7501
   315.7500     84.2245      0.0000    732.1951      6.7160
   316.0000     89.0434      0.0000    738.8636      6.7070
   316.2500     93.1896      0.0000    739.6607      6.6898
   316.5000     97.4850      0.0000    731.7471      6.6481
   316.7500    102.9026      0.0000    713.7323      6.5869
   317.0000    109.3663      0.0000    687.0656      6.5229
   317.2500    115.4342      0.0000    656.4724      6.4704
   317.5000    119.1350      0.0000    628.3552      6.4334
   317.7500    119.1108      0.0000    608.1572      6.4090
   318.0000    115.2944      0.0000    598.9489      6.3980
   318.2500    109.0154      0.0000    601.8007      6.4082
   318.5000    102.4353      0.0000    616.0754      6.4457
   318.7500     97.4619      0.0000    638.5684      6.5056
   319.0000     94.9951      0.0000    663.5557      6.5759
   319.2500     94.9535      0.0000    685.2813      6.6473
   319.5000     96.5193      0.0000    699.9678      6.7177
   319.7500     98.4929      0.0000    704.8113      6.7871
   320.0000    100.1338      0.0000    697.1102      6.8536
   320.2500    101.8270      0.0000    677.0190      6.9160
   320.5000    104.4648      0.0000    650.7512      6.9760
   320.7500    108.1452      0.0000    629.0563      7.0365
   321.0000    111.9504      0.0000    621.3787      7.0972
   321.2500    115.0510      0.0000    630.4257      7.1560
   321.5000    117.4873      0.0000    650.3215      7.2128
   321.7500    119.6938      0.0000    669.3276      7.2702
   322.0000    121.8271      0.0000    676.8253      7.3292
   322.2500    123.9818      0.0000    670.3855      7.3843
   322.5000    126.5540      0.0000    656.9634      7.4205
   322.7500    129.7641      0.0000    647.4954      7.4163
   323.0000    133.0038      0.0000    649.8828      7.3542
   323.2500    135.2573      0.0000    665.0861      7.2382
   323.5000    136.0640      0.0000    687.6286      7.1024
   323.7500    135.3913      0.0000    709.7108      7.0016
   324.0000    132.6733      0.0000    726.2048      6.9855
   324.2500    126.9373      0.0000    736.8010      7.0690
   324.5000    118.0263      0.0000    744.0997      7.2168
   324.7500    106.9902      0.0000    750.3693      7.3557
   325.0000     95.2917      0.0000    756.1110      7.4193
   325.2500     84.3323      0.0000    760.9147      7.3941
   325.5000     75.6283      0.0000    764.8250      7.3218
   325.7500     70.5614      0.0000    768.7256      7.2588
   326.0000     69.5458      0.0000    773.7000      7.2383
   326.2500     71.7057      0.0000    780.0887      7.2644
   326.5000     75.5659      0.0000    787.0209      7.3236
   326.7500     80.0334      0.0000    792.9048      7.3901
   327.0000     84.7976      0.0000    796.4359      7.4318
   327.2500     90.1912      0.0000    797.2117      7.4306
   327.5000     96.8405      0.0000    795.6756      7.4029
   327.7500    104.9961      0.0000    792.8984      7.3912
   328.0000    113.7123      0.0000    790.3351      7.4250
   328.2500    120.9432      0.0000    789.3103      7.4932
   328.5000    125.0133      0.0000    790.3712      7.5588
   328.7500    126.1141      0.0000    793.0056      7.5968
   329.0000    126.1644      0.0000    795.9927      7.6112
   329.2500    127.1529      0.0000    797.9938      7.6183
   329.5000    129.6007      0.0000    797.6285      7.6255
   329.7500    132.5785      0.0000    792.6841      7.6300
   330.0000    134.9945      0.0000    779.6616      7.6260
   330.2500    136.5051      0.0000    755.7632      7.6071
   330.5000    137.0530      0.0000    723.3956      7.5683
   330.7500    135.9896      0.0000    692.6980      7.5104
   331.0000    132.3090      0.0000    676.8494      7.4415
   331.2500    126.0033      0.0000    682.3541      7.3740
   331.5000    118.8661      0.0000    703.8536      7.3207
   331.7500    113.4939      0.0000    728.8502      7.2908
   332.0000    111.3960      0.0000    746.5559      7.2796
   332.2500    112.1808      0.0000    751.7946      7.2664
   332.5000    114.2249      0.0000    743.0101      7.2335
   332.7500    115.6945      0.0000    720.8505      7.1944
   333.0000    115.2655      0.0000    690.9172      7.1892
   333.2500    112.5881      0.0000    665.6613      7.2270
   333.5000    108.2499      0.0000    658.7692      7.2341
   333.7500    103.1339      0.0000    674.8968      7.0988
   334.0000     97.8438      0.0000    705.8314      6.7906
   334.2500     92.8639      0.0000    737.7825      6.4091
   334.5000     89.0495      0.0000    761.6399      6.0951
   334.7500     87.5633      0.0000    776.0270      5.9130
   335.0000     89.1530      3.0000    783.0378      5.8320
   335.2500     93.5698      0.0000    783.9017      5.7930
   335.5000     99.7181      0.0000    778.8994      5.7779
   335.7500    106.2805      0.0000    769.5936      5.8260
   336.0000    112.2858      0.0000    759.6382      5.9842
   336.2500    117.3825      0.0000    752.6692      6.2297
   336.5000    121.6091      0.0000    749.1544      6.4626
   336.7500    124.6946      0.0000    745.8959      6.6057
   337.0000    125.7149      0.0000    739.4777      6.6884
   337.2500    123.8672      0.0000    729.9922      6.7967
   337.5000    119.6871      0.0000    720.8978      6.9667
   337.7500    115.0842      0.0000    716.0131      7.1637
   338.0000    111.8761      0.0000    717.4001      7.3381
   338.2500    110.4096      0.0000    725.0318      7.4638
   338.5000    109.7298      0.0000    736.7868      7.5363
   338.7500    108.8949      0.0000    748.7062      7.5624
   339.0000    107.9985      0.0000    756.4390      7.5568
   339.2500    108.0347      0.0000    756.8698      7.5355
   339.5000    109.8316      0.0000    748.5034      7.5031
   339.7500    113.1416      0.0000    731.9959      7.4513
   340.0000    116.7907      0.0000    712.1771      7.3750
   340.2500    119.4245      0.0000    698.2045      7.2858
   340.5000    120.0181      0.0000    698.0714      7.2029
   340.7500    118.3330      0.0000    711.7244      7.1376
   341.0000    115.4155      0.0000    731.2627      7.0899
   341.2500    113.2116      0.0000    748.3124      7.0565
   341.5000    113.1192      0.0000    759.8571      7.0374
   341.7500    114.9518      0.0000    767.3871      7.0369
   342.0000    117.3969      0.0000    772.5663      7.0556
   342.2500    119.3432      0.0000    774.8557      7.0798
   342.5000    120.8047      0.0000    773.1095      7.0845
   342.7500    122.7623      0.0000    768.7562      7.0514
   343.0000    126.1023      0.0000    766.1503      6.9828
