~Version Information
VERS.                      2.0: CWLS Log ASCII Standard - VERSION 2.0
WRAP.                       NO: One line per depth step
~Well Information Block
STRT.FT               555.0000: 
STOP.FT              2283.0000: 
STEP.FT                 0.2500: 
NULL.                -999.2500: 
COMP.          Pioneer Natural Resources: COMPANY
WELL.          Roadster 41-33 Kv: WELL
FLD.           Purgatoire River: FIELD
LOC.           903' FNL & 248' FEL: LOCATION
PROV.                 Colorado: PROVINCE
CNTY.               Las Animas: COUNTRY
SRVC.                Patterson: SERVICE COMPANY
DATE.          Wed Dec 14 23:52:42 2005: LOG DATE
UWI.           05 071 08615 00: UNIQUE WELL ID
~Curve Information Block
DEPT.FT            0 000 00 00: Depth
SN.Ohm-m                      : IEL Short Normal
SP.mV                         : IEL Spontaneous Potential
DIR.Ohm-m                     : IEL Induction Resistivity
GR.GAPI                       : Gamma Ray
~Parameter Information Block
~A  Depth        SN          SP         DIR          GR     
# ...
  1124.5000     47.2263     16.2278    661.2619     57.7671
  1124.7500     47.8230     16.1414 100000.0000     57.6870
  1125.0000     48.1760     16.0330 100000.0000     60.1867
  1125.2500     48.3016     15.9109 100000.0000     63.4254
  1125.5000     48.1880     15.7784 100000.0000     69.3938
  1125.7500     47.8313     15.6325 100000.0000     72.9520
  1126.0000     47.2629     15.4673 100000.0000     75.9858
  1126.2500     46.5526     15.2790 100000.0000     76.2183
  1126.5000     45.7967     15.0657 100000.0000     74.5689
  1126.7500     45.0853     14.8249    192.3424     72.6733
  1127.0000     44.4631     14.5511     70.9136     69.1804
  1127.2500     43.9105     14.2363     45.0033     66.7232
  1127.5000     43.3465     13.8717     33.9289     63.9020
  1127.7500     42.6414     13.4489     27.5791     63.3374
  1128.0000     41.6413     12.9612     23.1653     64.9973
  1128.2500     40.2314     12.4047     19.7492     67.5541
  1128.5000     38.4077     11.7788     16.9373     73.2021
  1128.7500     36.2740     11.0835     14.3783     78.4011
  1129.0000     33.9744     10.3145     11.7110     88.9974
  1129.2500     31.6466      9.4577      8.8562     97.7683
  1129.5000     29.4025      8.4857      6.1741    111.7268
  1129.7500     27.2919      7.3565      4.0695    120.1731
  1130.0000     25.3132      6.0160      2.6289    130.2855
  1130.2500     23.4888      4.4006      1.7109    135.6868
  1130.5000     21.8693      2.4393      1.1398    143.1930
  1130.7500     20.4664      0.0566      0.7837    148.1098
  1131.0000     19.2223     -2.8228      0.5589    154.4614
  1131.2500     18.0029     -6.2673      0.4165    157.1082
  1131.5000     16.5850    -10.3279      0.3283    157.4164
  1131.7500     14.7061    -15.0191      0.2781    154.8682
  1132.0000     12.2244    -20.2831      0.2554    147.2392
  1132.2500      9.2832    -25.9354      0.2530    140.0456
  1132.5000      6.3302    -31.6176      0.2651    126.4445
  1132.7500      3.9106    -36.8117      0.2856    115.4407
  1133.0000      2.3369    -40.9593      0.3070     96.5437
  1133.2500      1.5342    -43.6562      0.3212     83.5949
  1133.5000      1.2135    -44.8095      0.3213     66.8568
  1133.7500      1.1273    -44.6468      0.3062     58.8741
  1134.0000      1.1448    -43.5687      0.2816     51.6761
  1134.2500      1.1995    -41.9516      0.2572     49.0601
  1134.5000      1.2562    -40.0113      0.2423     46.9137
  1134.7500      1.3062    -37.7672      0.2432     46.5383
  1135.0000      1.3508    -35.0779      0.2639     48.2418
  1135.2500      1.3837    -31.7111      0.3060     51.3758
  1135.5000      1.3868    -27.4356      0.3678     59.6807
  1135.7500      1.3740    -22.1364      0.4412     67.7707
  1136.0000      1.4471    -15.9252      0.5096     83.1967
  1136.2500      1.8226     -9.1846      0.5543     94.5411
  1136.5000      2.8486     -2.4927      0.5655    109.9591
  1136.7500      4.8732      3.5573      0.5499    117.4366
  1137.0000      7.8832      8.5505      0.5246    123.5191
  1137.2500     11.3224     12.3514      0.5069    124.8411
  1137.5000     14.4419     15.0730      0.5107    124.0801
  1137.7500     16.7880     16.9599      0.5475    121.7300
  1138.0000     18.3295     18.2723      0.6308    114.8183
  1138.2500     19.2967     19.2256      0.7817    108.4185
  1138.5000     19.9965     19.9767      1.0367     98.9937
  1138.7500     20.6658     20.6256      1.4612     94.6667
  1139.0000     21.3578     21.2198      2.1663     92.1905
  1139.2500     21.9284     21.7697      3.3202     92.4385
  1139.5000     22.1714     22.2749      5.1049     93.6679
  1139.7500     22.0371     22.7425      7.5149     94.4942
  1140.0000     21.7305     23.1874     10.0568     95.9587
  1140.2500     21.5187     23.6236     11.9794     97.4435
  1140.5000     21.4451     24.0558     13.0948    100.9657
  1140.7500     21.3343     24.4800     13.8228    104.4844
  1141.0000     21.0312     24.8868     14.5498    111.8708
  1141.2500     20.5206     25.2631     15.3317    117.9501
  1141.5000     19.8584     25.5888     15.9724    127.1691
  1141.7500     19.0783     25.8421     16.2696    132.0471
  1142.0000     18.1947     26.0144     16.2467    135.8865
  1142.2500     17.2590     26.1217     16.1464    136.1078
  1142.5000     16.3537     26.1951     16.2511    134.0587
  1142.7500     15.5536     26.2602     16.7655    131.9411
  1143.0000     14.9397     26.3244     17.8092    129.1566
  1143.2500     14.6213     26.3809     19.4192    128.5798
  1143.5000     14.6954     26.4194     21.4796    130.8770
  1143.7500     15.1902     26.4353     23.5636    134.1682
  1144.0000     16.0218     26.4302     24.8722    138.9989
  1144.2500     16.9723     26.4087     24.6526    140.2568
  1144.5000     17.7771     26.3725     22.9256    138.1254
  1144.7500     18.2830     26.3179     20.4822    135.1796
  1145.0000     18.5149     26.2371     18.1334    131.4472
  1145.2500     18.5944     26.1238     16.2778    130.1440
  1145.5000     18.6104     25.9785     14.9823    129.0760
  1145.7500     18.5808     25.8106     14.1721    128.3281
  1146.0000     18.5145     25.6368     13.7432    127.3528
  1146.2500     18.4637     25.4764     13.6031    127.2619
  1146.5000     18.5033     25.3455     13.6775    127.8881
  1146.7500     18.6851     25.2516     13.9054    128.0273
  1147.0000     19.0195     25.1916     14.2339    126.0815
  1147.2500     19.4660     25.1542     14.6180    122.8775
  1147.5000     19.9208     25.1246     15.0249    116.1699
  1147.7500     20.2662     25.0878     15.4382    111.8519
  1148.0000     20.4637     25.0330     15.8552    108.4056
  1148.2500     20.5836     24.9560     16.2783    109.2780
  1148.5000     20.7417     24.8608     16.7058    115.4217
  1148.7500     20.9862     24.7573     17.1287    121.5608
  1149.0000     21.2420     24.6565     17.5356    130.7555
  1149.2500     21.4090     24.5660     17.9172    135.3255
  1149.5000     21.4858     24.4872     18.2695    138.3786
  1149.7500     21.5458     24.4126     18.5931    137.6920
  1150.0000     21.6550     24.3244     18.8934    133.4408
  1150.2500     21.8478     24.1962     19.1813    129.6392
  1150.5000     22.1385     24.0031     19.4708    124.6502
  1150.7500     22.5295     23.7377     19.7745    122.3710
  1151.0000     23.0104     23.4216     20.1000    120.0325
  1151.2500     23.5675     23.0979     20.4487    118.5587
  1151.5000     24.1705     22.8098     20.8144    115.6551
  1151.7500     24.7402     22.5811     21.1829    113.0531
  1152.0000     25.1746     22.4092     21.5348    108.3540
  1152.2500     25.4301     22.2716     21.8527    105.1709
  1152.5000     25.5695     22.1379     22.1276    101.2719
  1152.7500     25.7122     21.9814     22.3628     99.3525
  1153.0000     25.9218     21.7849     22.5720     96.6367
  1153.2500     26.1561     21.5412     22.7742     94.3784
  1153.5000     26.3385     21.2483     22.9862     90.1781
  1153.7500     26.4526     20.9046     23.2155     87.1419
  1154.0000     26.5577     20.5066     23.4616     82.8703
  1154.2500     26.7419     20.0493     23.7255     80.6164
  1154.5000     27.0827     19.5309     24.0211     78.8809
  1154.7500     27.6020     18.9598     24.3760     78.9904
  1155.0000     28.2353     18.3587     24.8234     80.1928
  1155.2500     28.8771     17.7599     25.3886     80.6016
  1155.5000     29.4745     17.1944     26.0818     78.9053
  1155.7500     30.0696     16.6792     26.8990     75.9755
  1156.0000     30.7536     16.2118     27.8253     70.0140
  1156.2500     31.5644     15.7740     28.8289     66.0780
  1156.5000     32.4276     15.3440     29.8371     61.4496
  1156.7500     33.2327     14.9082     30.7200     59.3578
  1157.0000     33.9361     14.4688     31.3269     57.7389
  1157.2500     34.5626     14.0433     31.5867     57.7957
  1157.5000     35.1673     13.6566     31.5779     59.3219
  1157.7500     35.7887     13.3300     31.4818     60.5590
