~Version Information
VERS.                      2.0: CWLS Log ASCII Standard - VERSION 2.0
WRAP.                       NO: One line per depth step
~Well Information Block
STRT.FT                -8.2500: 
STOP.FT              1118.7500: 
STEP.FT                 0.2500: 
NULL.                -999.2500: 
COMP.          Pioneer Natural Resources: COMPANY
WELL.             Croc 42-9 Tr: WELL
FLD.           Purgatorie River: FIELD
LOC.           --2429' FNL & 315' FEL------: LOCATION
STAT.                       CO: State
CNTY.               Las Animas: COUNTY
CTRY. USA : Country
SECT. 9 : Section
TOWN. 32S : Township
RANG. 66W : Range
SRVC.          Patterson Wireline: SERVICE COMPANY
DATE.          Tue Oct 18 14:14:43 2005: LOG DATE
API.           05 071 08550 00: UNIQUE WELL ID
~Curve Information Block
DEPT.FT            0 000 00 00: Depth
CCL.                          : Casing Collar Locator
TT3.usec                      : CBL 3' Travel Time
AMP3.mV                       : CBL 3' Amplitude
GR.GAPI                       : Gamma Ray
~Parameter Information Block
~A  Depth       CCL         TT3         AMP3         GR     
# ...
   728.7500      0.0000    564.7931     10.5306    143.5729
   729.0000      0.0000    585.6974     10.8371    141.4482
   729.2500      0.0000    569.6561     11.1436    138.9009
   729.5000      0.0000    528.4007     11.3902    137.2025
   729.7500      0.0000    490.2449     11.5318    136.3374
   730.0000      0.0000    478.5621     11.5524    134.7528
   730.2500      0.0000    497.4443     11.4921    131.5022
   730.5000      0.0000    534.1089     11.4421    127.6627
   730.7500      0.0000    571.3699     11.4826    124.9697
   731.0000      0.0000    597.6201     11.6199    123.9183
   731.2500      0.0000    608.9264     11.7974    123.9991
   731.5000      0.0000    605.2700     11.9597    125.1899
   731.7500      0.0000    585.9243     12.0912    128.1539
   732.0000      0.0000    550.9559     12.1948    132.8508
   732.2500      0.0000    509.3562     12.2512    137.6366
   732.5000      0.0000    481.3132     12.2180    140.5298
   732.7500      0.0000    486.5392     12.0778    141.4333
   733.0000      0.0000    529.0464     11.8815    142.2499
   733.2500      0.0000    593.6334     11.7192    144.3879
   733.5000      0.0000    656.6821     11.6366    146.9856
   733.7500      0.0000    700.3085     11.5945    148.1540
   734.0000      0.0000    717.7392     11.5206    147.2158
   734.2500      0.0000    708.9556     11.3859    145.0357
   734.5000      0.0000    676.3849     11.2212    142.7000
   734.7500      0.0000    627.2747     11.0779    140.5531
   735.0000      0.0000    577.3692     10.9950    138.3200
   735.2500      0.0000    546.8845     10.9945    135.8312
   735.5000      0.0000    549.4447     11.0842    133.5244
   735.7500      0.0000    583.5774     11.2431    132.0229
   736.0000      0.0000    634.0703     11.4031    131.4355
   736.2500      0.0000    682.0132     11.4622    131.6193
   736.5000      0.0000    715.5280     11.3410    132.6972
   736.7500      0.0000    733.2692     11.0486    134.3811
   737.0000      0.0000    740.2259     10.6977    135.0761
   737.2500      0.0000    741.9445     10.4403    132.6152
   737.5000      0.0000    741.8539     10.3693    126.1546
   737.7500      0.0000    741.4662     10.4758    117.1806
   738.0000      0.0000    741.2913     10.6906    108.4942
   738.2500      0.0000    741.4636     10.9476    102.1709
   738.5000      0.0000    742.0692     11.1998     98.6711
   738.7500      0.0000    743.3173     11.3986     97.7392
   739.0000      0.0000    745.4794     11.4929     99.4442
   739.2500      0.0000    748.3839     11.4683    104.2111
   739.5000      0.0000    750.6202     11.3800    112.2441
   739.7500      0.0000    749.1651     11.3291    122.9918
   740.0000      0.0000    739.6090     11.3894    135.0297
   740.2500      0.0000    717.1979     11.5596    146.5197
   740.5000      0.0000    679.9030     11.7896    155.7875
   740.7500      0.0000    633.2161     12.0466    161.4619
   741.0000      0.0000    590.5893     12.3388    162.5312
   741.2500      0.0000    564.4620     12.6799    158.9686
   741.5000      0.0000    555.6508     13.0463    152.2829
   741.7500      0.0000    555.0469     13.3718    144.9333
   742.0000      0.0000    556.5544     13.5780    139.1018
   742.2500      0.0000    563.7541     13.6087    136.0136
   742.5000      0.0000    581.7813     13.4517    135.9113
   742.7500      0.0000    607.8635     13.1565    138.2811
   743.0000      0.0000    634.2888     12.8331    142.3285
   743.2500      0.0000    656.7474     12.6160    147.3080
   743.5000      0.0000    674.0257     12.6052    152.2782
   743.7500      0.0000    682.7534     12.8211    155.9839
   744.0000      0.0000    679.8474     13.1925    157.7170
   744.2500      0.0000    670.4064     13.5871    158.3277
   744.5000      0.0000    666.9155     13.8747    159.5549
   744.7500      0.0000    677.6906     13.9869    161.8031
   745.0000      0.0000    698.9323     13.9257    163.0889
   745.2500      0.0000    719.8242     13.7306    160.7957
   745.5000      0.0000    732.1100     13.4576    154.1601
   745.7500      0.0000    732.4766     13.1817    145.0374
   746.0000      0.0000    718.7915     12.9868    136.8846
   746.2500      0.0000    688.7496     12.9269    132.6777
   746.5000      0.0000    644.3274     12.9994    132.7238
   746.7500      0.0000    596.6778     13.1505    134.3015
   747.0000      0.0000    563.8818     13.3051    133.9982
   747.2500      0.0000    560.6401     13.4038    130.6101
   747.5000      0.0000    587.5947     13.4310    125.6782
   747.7500      0.0000    629.6181     13.4089    121.4168
   748.0000      0.0000    665.6429     13.3590    118.6022
   748.2500      0.0000    683.1044     13.2771    116.5394
   748.5000      0.0000    684.9915     13.1437    114.6445
   748.7500      0.0000    683.1876     12.9488    113.5531
   749.0000      0.0000    684.3365     12.7104    114.5733
   749.2500      0.0000    682.7291     12.4791    118.4507
   749.5000      0.0000    667.1932     12.3150    124.8471
   749.7500      0.0000    632.7944     12.2429    132.6044
   750.0000      0.0000    584.4449     12.2377    140.0867
   750.2500      0.0000    532.4434     12.2706    145.5231
   750.5000      0.0000    489.3346     12.3385    147.5061
   750.7500      0.0000    469.6559     12.4100    145.4230
   751.0000      0.0000    485.1341     12.3534    139.4994
   751.2500      0.0000    534.9482     11.9774    130.3942
   751.5000      0.0000    602.4625     11.1879    118.8251
   751.7500      0.0000    665.8871     10.1249    105.8510
   752.0000      0.0000    713.7028      9.1176     93.2905
   752.2500      0.0000    748.3443      8.4714     83.1746
   752.5000      0.0000    776.1028      8.2956     76.4768
   752.7500      0.0000    797.8512      8.5220     72.4934
   753.0000      0.0000    810.3414      9.0212     69.5869
   753.2500      0.0000    812.3330      9.6629     66.7901
   753.5000     -2.0000    805.7220     10.3206     64.9804
   753.7500      0.0000    791.9017     10.8896     66.3815
   754.0000      0.0000    770.1299     11.3033     72.6131
   754.2500      0.0000    740.8038     11.5329     83.2373
   754.5000      0.0000    707.8685     11.6110     96.0379
   754.7500      0.0000    675.6993     11.6683    108.3557
   755.0000      0.0000    644.8837     11.8772    118.1290
   755.2500      0.0000    612.4138     12.2932    124.1385
   755.5000      0.0000    575.0576     12.7674    126.0634
   755.7500      0.0000    533.2035     13.0672    124.9585
   756.0000      0.0000    494.8302     13.0777    123.3877
   756.2500      0.0000    475.4698     12.8644    124.1568
   756.5000      0.0000    489.0856     12.5769    128.4632
   756.7500      0.0000    534.8019     12.3330    135.2925
   757.0000      0.0000    593.5751     12.1801    142.3435
   757.2500      0.0000    641.2999     12.1131    147.4273
   757.5000      0.0000    666.4125     12.1055    149.5487
   757.7500      0.0000    673.4799     12.1359    149.1197
   758.0000      0.0000    670.9057     12.1978    147.0163
   758.2500      0.0000    661.3593     12.2925    143.6197
   758.5000      0.0000    646.7300     12.4115    139.3464
   758.7500      0.0000    635.9612     12.5249    135.8410
   759.0000      0.0000    640.1877     12.5880    135.4624
   759.2500      0.0000    660.8638     12.5673    139.1130
   759.5000      0.0000    687.2368     12.4675    145.1332
   759.7500      0.0000    704.7147     12.3383    150.4909
   760.0000      0.0000    702.7467     12.2527    152.5778
   760.2500      0.0000    677.5051     12.2745    150.0798
   760.5000      0.0000    633.8032     12.4272    143.2347
   760.7500      0.0000    586.4968     12.6789    133.8901
   761.0000      0.0000    555.9859     12.9532    124.9180
   761.2500      0.0000    557.0522     13.1619    118.8778
   761.5000      0.0000    588.6518     13.2381    116.8908
   761.7500      0.0000    632.9318     13.1639    118.5654
   762.0000      0.0000    665.5876     12.9915    122.6997
