~Version Information
VERS.                      2.0: CWLS Log ASCII Standard - VERSION 2.0
WRAP.                       NO: One line per depth step
~Well Information Block
STRT.FT               620.0000: 
STOP.FT              3067.2000: 
STEP.FT                 0.1000: 
NULL.                -999.2500: 
COMP.          Pioneer Natural Resources: COMPANY
WELL.          Interceptor 43-13 Kv: WELL
FLD.           Purgatoire River: FIELD
LOC.           2073' FSL & 519' FEL--: LOCATION
PROV.                 Colorado: PROVINCE
CNTY.               Las Animas: COUNTRY
SRVC.                Patterson: SERVICE COMPANY
DATE.          Sat Jan 14 20:27:27 2006: LOG DATE
UWI.           05 071 08655 00: UNIQUE WELL ID
~Curve Information Block
DEPT.FT            0 000 00 00: Depth
DCAL.in                       : CDL Caliper
RHOB.g/cc                     : CDL Bulk Density
RHOC.g/cc                     : CDL Density Correction
DPOR.pu                       : CDL Density Porosity
NPOR.pu                       : Neutron Porosity
GR.GAPI                       : Gamma Ray
~Parameter Information Block
~A  Depth       DCAL        RHOB        RHOC        DPOR        NPOR         GR     
   620.0000      8.1262      2.4123     -0.1610     14.4036     37.7249     64.6583
   620.1000      8.1262      2.4011     -0.1757     15.0872     38.0783     65.6804
   620.2000      8.1262      2.3892     -0.1483     15.8087     38.0882     68.6918
   620.3000      8.1250      2.3737     -0.1664     16.7438     37.6078     71.5707
   620.4000      8.1250      2.3619     -0.1755     17.4614     36.8946     74.0841
   620.5000      8.1264      2.3671     -0.2122     17.1436     36.4832     76.5366
   620.6000      8.1264      2.3905     -0.2006     15.7290     36.7206     78.1283
   620.7000      8.1264      2.4150     -0.1557     14.2425     37.1950     80.5461
   620.8000      8.1312      2.4209     -0.1388     13.8867     37.2426     84.4723
   620.9000      8.1312      2.4085     -0.1601     14.6355     37.0986     84.5459
   621.0000      8.1379      2.3898     -0.1350     15.7672     37.2732     79.1401
   621.1000      8.1379      2.3743     -0.1915     16.7098     37.3432     73.3468
   621.2000      8.1379      2.3698     -0.1696     16.9805     37.0309     71.1189
   621.3000      8.1440      2.3730     -0.1838     16.7858     36.9118     72.2124
   621.4000      8.1440      2.3683     -0.1503     17.0732     37.2262     74.4959
   621.5000      8.1479      2.3452     -0.2340     18.4726     37.5719     76.3734
   621.6000      8.1479      2.3146     -0.2659     20.3248     37.7339     76.2695
   621.7000      8.1479      2.2908     -0.2130     21.7700     37.7211     73.6943
   621.8000      8.1502      2.2822     -0.2537     22.2903     37.4333     70.6090
   621.9000      8.1502      2.2991     -0.2337     21.2693     36.9201     68.4094
   622.0000      8.1514      2.3332     -0.2047     19.2002     36.4357     66.9087
   622.1000      8.1514      2.3633     -0.2230     17.3784     36.1534     66.0802
   622.2000      8.1514      2.3819     -0.1754     16.2502     35.9719     66.9965
   622.3000      8.1508      2.3871     -0.1678     15.9303     35.7194     69.4030
   622.4000      8.1508      2.3790     -0.1786     16.4232     35.5897     69.6073
   622.5000      8.1501      2.3746     -0.1895     16.6896     35.6433     64.9815
   622.6000      8.1501      2.3866     -0.1480     15.9635     35.7332     58.0448
   622.7000      8.1501      2.4051     -0.1980     14.8439     35.8048     54.8593
   622.8000      8.1511      2.4208     -0.1733     13.8935     35.7654     56.5533
   622.9000      8.1511      2.4249     -0.1373     13.6443     35.4789     56.5536
   623.0000      8.1499      2.4127     -0.1721     14.3810     34.9595     52.2173
   623.1000      8.1499      2.4001     -0.2343     15.1428     34.5331     48.7486
   623.2000      8.1499      2.4008     -0.2420     15.1047     34.4199     51.1081
   623.3000      8.1463      2.4024     -0.1883     15.0054     34.5080     57.3438
   623.4000      8.1463      2.3845     -0.2001     16.0894     34.6038     60.6245
   623.5000      8.1436      2.3539     -0.2533     17.9430     34.5760     59.3070
   623.6000      8.1436      2.3311     -0.2222     19.3260     34.6761     57.7450
   623.7000      8.1436      2.3206     -0.2521     19.9633     35.0931     58.0127
   623.8000      8.1425      2.3251     -0.2379     19.6909     35.3772     57.2113
   623.9000      8.1425      2.3415     -0.1942     18.6965     35.1957     54.3690
   624.0000      8.1408      2.3556     -0.2314     17.8426     34.9860     52.2789
   624.1000      8.1408      2.3610     -0.2427     17.5127     35.0467     52.2544
   624.2000      8.1408      2.3550     -0.1619     17.8799     35.0526     53.2905
   624.3000      8.1384      2.3381     -0.2258     18.9027     34.9001     54.8715
   624.4000      8.1384      2.3265     -0.2449     19.6032     34.8384     54.4296
   624.5000      8.1367      2.3279     -0.2321     19.5210     35.0271     50.7557
   624.6000      8.1367      2.3305     -0.2047     19.3624     35.3556     47.4569
   624.7000      8.1367      2.3295     -0.2274     19.4267     35.4976     47.1077
   624.8000      8.1364      2.3284     -0.2454     19.4924     35.3751     48.5788
   624.9000      8.1364      2.3228     -0.1885     19.8306     35.2084     51.9895
   625.0000      8.1368      2.3176     -0.2643     20.1480     35.1071     57.6725
   625.1000      8.1368      2.3341     -0.2226     19.1479     35.0233     61.8106
   625.2000      8.1368      2.3641     -0.1821     17.3300     34.9084     61.8846
   625.3000      8.1380      2.3822     -0.1723     16.2328     34.8119     59.9028
   625.4000      8.1380      2.3986     -0.2291     15.2361     34.7295     58.0587
   625.5000      8.1397      2.4330     -0.1566     13.1504     34.5003     58.1043
   625.6000      8.1397      2.4716     -0.1528     10.8118     34.2043     62.0896
   625.7000      8.1397      2.4954     -0.1686      9.3705     34.0755     66.8054
   625.8000      8.1403      2.5088     -0.2004      8.5581     34.1202     66.3308
   625.9000      8.1403      2.5109     -0.1325      8.4304     34.2792     62.9556
   626.0000      8.1397      2.4961     -0.2095      9.3292     34.4776     62.8535
   626.1000      8.1397      2.4953     -0.2053      9.3752     34.5066     65.6166
   626.2000      8.1397      2.5305     -0.1512      7.2399     34.4519     66.1991
   626.3000      8.1402      2.5643     -0.1442      5.1943     34.5504     63.9853
   626.4000      8.1402      2.5567     -0.1597      5.6533     34.7812     61.4531
   626.5000      8.1430      2.5235     -0.2016      7.6669     34.9531     58.4860
   626.6000      8.1430      2.4978     -0.1975      9.2254     34.8865     54.0810
   626.7000      8.1430      2.4748     -0.1960     10.6158     34.6674     49.7277
   626.8000      8.1430      2.4464     -0.2944     12.3393     34.5867     48.5323
   626.9000      8.1430      2.4305     -0.2639     13.3013     34.6375     51.0196
   627.0000      8.1393      2.4292     -0.2115     13.3841     34.6945     55.0998
   627.1000      8.1393      2.4264     -0.2033     13.5525     34.9004     57.5336
   627.2000      8.1393      2.4141     -0.2108     14.2993     35.1123     56.2241
   627.3000      8.1373      2.3934     -0.2401     15.5491     35.1431     52.8718
   627.4000      8.1373      2.3782     -0.2550     16.4726     35.1696     51.2408
   627.5000      8.1387      2.3829     -0.2387     16.1882     35.2255     52.0604
   627.6000      8.1387      2.4001     -0.2334     15.1479     35.2047     53.6009
   627.7000      8.1387      2.4066     -0.1635     14.7496     35.0972     56.1282
   627.8000      8.1416      2.4019     -0.2828     15.0345     34.8822     58.1635
   627.9000      8.1416      2.4194     -0.2328     13.9736     34.7418     55.9066
   628.0000      8.1437      2.4830     -0.1602     10.1214     35.0274     50.8364
   628.1000      8.1437      2.5747     -0.1371      4.5642     35.6270     47.5601
   628.2000      8.1437      2.6561     -0.1451     -0.3677     36.1213     48.0662
   628.3000      8.1437      2.7022     -0.1012     -3.1608     36.5453     50.3716
   628.4000      8.1437      2.7045     -0.1223     -3.3048     37.1080     49.4276
   628.5000      8.1407      2.6567     -0.1852     -0.4081     37.7446     43.3653
   628.6000      8.1407      2.5445     -0.1408      6.3916     38.4142     35.8086
   628.7000      8.1407      2.3796     -0.3276     16.3875     39.0730     32.2711
   628.8000      8.1379      2.2263     -0.4445     25.6767     39.4915     34.7788
   628.9000      8.1379      2.1402     -0.5585     30.8957     39.5090     40.1938
   629.0000      8.1377      2.1134     -0.5370     32.5222     39.0016     45.5932
   629.1000      8.1377      2.1085     -0.6945     32.8203     38.0256     50.8153
   629.2000      8.1377      2.1183     -0.7905     32.2267     36.5646     53.9940
   629.3000      8.1382      2.1576     -0.7451     29.8396     34.3111     52.8389
   629.4000      8.1382      2.2024     -0.5035     27.1288     31.1851     49.6434
   629.5000      8.1402      2.2028     -0.4432     27.1057     27.5049     48.0036
