~Version Information
VERS.                      2.0: CWLS Log ASCII Standard - VERSION 2.0
WRAP.                       NO: One line per depth step
~Well Information Block
STRT.FT               370.0000: 
STOP.FT              1282.5000: 
STEP.FT                 0.1000: 
NULL.                -999.2500: 
COMP.          Pioneer Natural Resources: COMPANY
WELL.          Irish Eyes 33-21: WELL
FLD.           Purgatoire River: FIELD
LOC.           1379' FSL & 2544' FEL: LOCATION
PROV.                 Colorado: PROVINCE
CNTY.               Las Animas: COUNTRY
SRVC.                Patterson: SERVICE COMPANY
DATE.          Mon Jan 16 13:31:01 2006: LOG DATE
UWI.           05 071 08658 00: UNIQUE WELL ID
~Curve Information Block
DEPT.FT            0 000 00 00: Depth
DCAL.in                       : CDL Caliper
RHOB.g/cc                     : CDL Bulk Density
RHOC.g/cc                     : CDL Density Correction
DPOR.pu                       : CDL Density Porosity
GR.GAPI                       : Gamma Ray
NPOR.pu                       : Neutron Porosity
~Parameter Information Block
~A  Depth       DCAL        RHOB        RHOC        DPOR         GR         NPOR    
# ...
  1272.4000      7.8154      2.5477      0.0628      6.1995   -999.2500   -999.2500
  1272.5000      7.8403      2.5706      0.0829      4.8102   -999.2500   -999.2500
  1272.6000      7.8403      2.6086      0.1475      2.5112   -999.2500   -999.2500
  1272.7000      7.8403      2.6359      0.1459      0.8547   -999.2500   -999.2500
  1272.8000      7.8215      2.6355      0.1094      0.8805   -999.2500   -999.2500
  1272.9000      7.8215      2.6147      0.1447      2.1416   -999.2500   -999.2500
  1273.0000      7.8015      2.5893      0.0959      3.6798   -999.2500   -999.2500
  1273.1000      7.8015      2.5777      0.0946      4.3790   -999.2500   -999.2500
  1273.2000      7.8015      2.5809      0.1002      4.1883   -999.2500   -999.2500
  1273.3000      7.7388      2.5729      0.1044      4.6756   -999.2500   -999.2500
  1273.4000      7.7388      2.5449      0.0225      6.3704   -999.2500   -999.2500
  1273.5000      7.7220      2.5388     -0.0179      6.7395   -999.2500   -999.2500
  1273.6000      7.7220      2.5839      0.0698      4.0043   -999.2500   -999.2500
  1273.7000      7.7220      2.6410      0.0926      0.5475   -999.2500   -999.2500
  1273.8000      7.8016      2.6634      0.1404     -0.8105   -999.2500   -999.2500
  1273.9000      7.8016      2.6515      0.1136     -0.0884   -999.2500   -999.2500
  1274.0000      7.8237      2.6246      0.1022      1.5378   -999.2500   -999.2500
  1274.1000      7.8237      2.6015      0.0778      2.9388   -999.2500   -999.2500
  1274.2000      7.8237      2.5978      0.0261      3.1652   -999.2500   -999.2500
  1274.3000      7.7195      2.6140      0.0657      2.1820   -999.2500   -999.2500
  1274.4000      7.7195      2.6427      0.0705      0.4398   -999.2500   -999.2500
  1274.5000      7.7141      2.6769      0.1048     -1.6300   -999.2500   -999.2500
  1274.6000      7.7141      2.6999      0.1275     -3.0216   -999.2500   -999.2500
  1274.7000      7.7141      2.6938      0.1403     -2.6565   -999.2500   -999.2500
  1274.8000      7.7517      2.6617      0.0988     -0.7065   -999.2500   -999.2500
  1274.9000      7.7517      2.6346      0.0455      0.9318   -999.2500   -999.2500
  1275.0000      7.7628      2.6441      0.0510      0.3565   -999.2500   -999.2500
  1275.1000      7.7628      2.6738      0.1056     -1.4451   -999.2500   -999.2500
  1275.2000      7.7628      2.6768      0.1328     -1.6232   -999.2500   -999.2500
  1275.3000      7.7475      2.6484      0.0057      0.0997   -999.2500   -999.2500
  1275.4000      7.7475      2.6220     -0.0137      1.6994   -999.2500   -999.2500
  1275.5000      7.7873      2.6035      0.0330      2.8165   -999.2500   -999.2500
  1275.6000      7.7873      2.5813      0.0279      4.1636   -999.2500   -999.2500
  1275.7000      7.7873      2.5666     -0.0161      5.0571   -999.2500   -999.2500
  1275.8000      7.7861      2.5793     -0.0377      4.2866   -999.2500   -999.2500
  1275.9000      7.7861      2.6078      0.0500      2.5558   -999.2500   -999.2500
  1276.0000      7.7856      2.6199      0.0397      1.8213   -999.2500   -999.2500
  1276.1000      7.7856      2.6043      0.0545      2.7683   -999.2500   -999.2500
  1276.2000      7.7856      2.5751     -0.0196      4.5384   -999.2500   -999.2500
  1276.3000      7.7886      2.5600     -0.0184      5.4532   -999.2500   -999.2500
  1276.4000      7.7886      2.5721     -0.0049      4.7234   -999.2500   -999.2500
  1276.5000      7.7868      2.5877      0.0456      3.7741   -999.2500   -999.2500
  1276.6000      7.7868      2.5691      0.0866      4.9002   -999.2500   -999.2500
  1276.7000      7.7868      2.5204      0.0354      7.8525   -999.2500   -999.2500
  1276.8000      7.7729      2.5019      0.0132      8.9744   -999.2500   -999.2500
  1276.9000      7.7729      2.5540      0.0468      5.8203   -999.2500   -999.2500
  1277.0000      7.7364      2.6354      0.1509      0.8877   -999.2500   -999.2500
  1277.1000      7.7364      2.6755      0.2004     -1.5447   -999.2500   -999.2500
  1277.2000      7.7364      2.6689      0.0996     -1.1480   -999.2500   -999.2500
  1277.3000      7.7040      2.6592      0.1363     -0.5606   -999.2500   -999.2500
  1277.4000      7.7040      2.6451      0.2067      0.2989   -999.2500   -999.2500
  1277.5000      7.8105      2.6013      0.1013      2.9486   -999.2500   -999.2500
  1277.6000      7.8105      2.5511      0.0641      5.9919   -999.2500   -999.2500
  1277.7000      7.8105      2.5282      0.0459      7.3814   -999.2500   -999.2500
  1277.8000      7.7650      2.5352      0.0586      6.9576   -999.2500   -999.2500
  1277.9000      7.7650      2.5559      0.0469      5.7022   -999.2500   -999.2500
  1278.0000      7.7328      2.5740      0.0871      4.6072   -999.2500   -999.2500
  1278.1000      7.7328      2.5823      0.0913      4.1058   -999.2500   -999.2500
  1278.2000      7.7328      2.5820      0.1030      4.1184   -999.2500   -999.2500
  1278.3000      7.7624      2.5783      0.1128      4.3466   -999.2500   -999.2500
  1278.4000      7.7624      2.5831      0.0480      4.0550   -999.2500   -999.2500
  1278.5000      7.7963      2.6024      0.1505      2.8839   -999.2500   -999.2500
  1278.6000      7.7963      2.6222      0.0722      1.6865   -999.2500   -999.2500
  1278.7000      7.7963      2.6341      0.0998      0.9642   -999.2500   -999.2500
  1278.8000      7.7901      2.6534      0.1417     -0.2067   -999.2500   -999.2500
  1278.9000      7.7901      2.7250      0.0179     -4.5430   -999.2500   -999.2500
  1279.0000      7.7953      2.7522      0.0683     -6.1920   -999.2500   -999.2500
  1279.1000      7.7953      2.3081      0.5700     20.7207   -999.2500   -999.2500
  1279.2000      7.7953      1.3137      0.0000     80.9889   -999.2500   -999.2500
  1279.3000      7.7884      0.4460      0.0000    133.5732   -999.2500   -999.2500
  1279.4000      7.7884      0.0848   -999.2500    155.4695   -999.2500   -999.2500
  1279.5000      7.2881      0.0087   -999.2500    160.0764   -999.2500   -999.2500
  1279.6000      7.2881      0.0005   -999.2500    160.5773   -999.2500   -999.2500
  1279.7000      7.2881      0.0000   -999.2500    160.6061   -999.2500   -999.2500
  1279.8000      4.6470      0.0000   -999.2500    160.6061   -999.2500   -999.2500
  1279.9000      4.6470   -999.2500   -999.2500   -999.2500   -999.2500   -999.2500
  1280.0000      4.2922   -999.2500   -999.2500   -999.2500   -999.2500   -999.2500
  1280.1000      4.2922   -999.2500   -999.2500   -999.2500   -999.2500   -999.2500
  1280.2000      4.2922   -999.2500   -999.2500   -999.2500   -999.2500   -999.2500
  1280.3000   -999.2500   -999.2500   -999.2500   -999.2500   -999.2500   -999.2500
  1280.4000   -999.2500   -999.2500   -999.2500   -999.2500   -999.2500   -999.2500
  1280.5000   -999.2500   -999.2500   -999.2500   -999.2500   -999.2500   -999.2500
  1280.6000   -999.2500   -999.2500   -999.2500   -999.2500   -999.2500   -999.2500
  1280.7000   -999.2500   -999.2500   -999.2500   -999.2500   -999.2500   -999.2500
  1280.8000   -999.2500   -999.2500   -999.2500   -999.2500   -999.2500   -999.2500
  1280.9000   -999.2500   -999.2500   -999.2500   -999.2500   -999.2500   -999.2500
  1281.0000   -999.2500   -999.2500   -999.2500   -999.2500   -999.2500   -999.2500
  1281.1000   -999.2500   -999.2500   -999.2500   -999.2500   -999.2500   -999.2500
  1281.2000   -999.2500   -999.2500   -999.2500   -999.2500   -999.2500   -999.2500
  1281.3000   -999.2500   -999.2500   -999.2500   -999.2500   -999.2500   -999.2500
  1281.4000   -999.2500   -999.2500   -999.2500   -999.2500   -999.2500   -999.2500
  1281.5000   -999.2500   -999.2500   -999.2500   -999.2500   -999.2500   -999.2500
  1281.6000   -999.2500   -999.2500   -999.2500   -999.2500   -999.2500   -999.2500
  1281.7000   -999.2500   -999.2500   -999.2500   -999.2500   -999.2500   -999.2500
  1281.8000   -999.2500   -999.2500   -999.2500   -999.2500   -999.2500   -999.2500
  1281.9000   -999.2500   -999.2500   -999.2500   -999.2500   -999.2500   -999.2500
