~Version Information
VERS.                      2.0: CWLS Log ASCII Standard - VERSION 2.0
WRAP.                       NO: One line per depth step
~Well Information Block
STRT.FT                10.0000: 
STOP.FT              1350.5000: 
STEP.FT                 0.1000: 
NULL.                -999.2500: 
COMP.          Pioneer Natural Resources: COMPANY
WELL.              Dicks 32-5R: WELL
FLD.           Purgatorie River: FIELD
LOC.           1485' FNL & 1684' FEL: LOCATION
PROV.                 Colorado: PROVINCE
CNTY.               Las Animas: COUNTRY
SRVC.                Patterson: SERVICE COMPANY
DATE.          Fri Dec 09 10:06:15 2005: LOG DATE
UWI.                          : UNIQUE WELL ID
~Curve Information Block
DEPT.FT            0 000 00 00: Depth
DCAL.in                       : CDL Caliper
RHOB.g/cc                     : CDL Bulk Density
RHOC.g/cc                     : CDL Density Correction
DPOR.pu                       : CDL Density Porosity
GR.GAPI                       : Gamma Ray
NPOR.pu                       : Neutron Porosity
~Parameter Information Block
~A  Depth       DCAL        RHOB        RHOC        DPOR         GR         NPOR    
# ...
   893.2000      7.9334      2.6327      0.0568      1.0508     88.7606     25.0484
   893.3000      7.8918      2.6103      0.0803      2.4033     85.3165     25.0414
   893.4000      7.8918      2.5854      0.0633      3.9162     86.7257     25.1593
   893.5000      7.9248      2.5587      0.0731      5.5312     90.9336     25.2839
   893.6000      7.9248      2.5366     -0.0084      6.8731     96.2977     25.5596
   893.7000      7.9248      2.5269      0.0314      7.4588    102.3181     25.7680
   893.8000      7.9082      2.5282      0.0149      7.3799    105.6571     25.6688
   893.9000      7.9082      2.5327      0.0441      7.1095    106.8835     25.6376
   894.0000      7.9798      2.5363      0.0903      6.8911    109.8349     26.0216
   894.1000      7.9798      2.5408      0.1241      6.6184    114.3406     26.5006
   894.2000      7.9798      2.5474      0.1229      6.2157    118.9771     26.7489
   894.3000      8.0177      2.5513      0.1831      5.9802    124.2802     26.8100
   894.4000      8.0177      2.5482      0.1415      6.1691    128.8527     26.8687
   894.5000      7.9314      2.5462      0.1089      6.2880    131.0415     27.1318
   894.6000      7.9314      2.5531      0.1422      5.8752    130.8148     27.4625
   894.7000      7.9314      2.5634      0.1488      5.2465    129.1029     27.4522
   894.8000      7.9424      2.5746      0.1274      4.5726    127.7362     27.1628
   894.9000      7.9424      2.5931      0.1377      3.4502    127.7313     27.1682
   895.0000      7.9995      2.6222      0.1335      1.6862    129.3112     27.6860
   895.1000      7.9995      2.6538      0.1555     -0.2293    131.9998     28.3678
   895.2000      7.9995      2.6744      0.1595     -1.4761    135.3161     28.8289
   895.3000      8.0624      2.6745      0.1797     -1.4845    138.6712     28.8701
   895.4000      8.0624      2.6593      0.1310     -0.5648    139.1212     28.6127
   895.5000      8.0997      2.6430      0.1206      0.4230    135.6738     28.2567
   895.6000      8.0997      2.6248      0.1330      1.5273    131.7099     27.9787
   895.7000      8.0997      2.5940      0.0836      3.3955    127.2553     27.9359
   895.8000      8.0685      2.5584      0.0274      5.5533    121.6784     28.0302
   895.9000      8.0685      2.5359      0.0291      6.9157    118.1198     27.9992
   896.0000      8.0356      2.5276      0.0408      7.4192    117.8456     27.8245
   896.1000      8.0356      2.5234      0.0262      7.6742    121.6857     27.7493
   896.2000      8.0356      2.5180      0.0335      8.0019    127.9250     27.7415
   896.3000      8.0352      2.5111      0.0252      8.4194    132.4672     27.4675
   896.4000      8.0352      2.5074      0.0237      8.6402    136.1314     26.9942
   896.5000      8.0356      2.5064      0.0817      8.7039    139.5179     26.7980
   896.6000      8.0356      2.5012      0.0593      9.0186    139.8292     26.9371
   896.7000      8.0356      2.4966      0.0421      9.2993    137.7516     27.1340
   896.8000      8.0548      2.4953      0.1030      9.3753    137.0280     27.5142
   896.9000      8.0548      2.4868      0.0515      9.8901    139.9579     28.0471
   897.0000      8.0679      2.4725     -0.0253     10.7577    145.4341     28.3126
   897.1000      8.0679      2.4674      0.0238     11.0688    149.9656     28.2873
   897.2000      8.0679      2.4779      0.0154     10.4331    153.6784     28.1723
   897.3000      8.1001      2.5006      0.0328      9.0557    155.9454     28.0326
   897.4000      8.1001      2.5187      0.1072      7.9570    153.0951     27.9735
   897.5000      8.1184      2.5167      0.0407      8.0771    147.8117     28.1659
   897.6000      8.1184      2.5046      0.0516      8.8140    143.6310     28.5765
   897.7000      8.1184      2.4937      0.0177      9.4754    141.3912     28.9879
   897.8000      8.1083      2.4789      0.0761     10.3700    142.2130     29.2498
   897.9000      8.1083      2.4568      0.0508     11.7081    144.7639     29.3499
   898.0000      8.0982      2.4380      0.0074     12.8457    147.4127     29.3794
   898.1000      8.0982      2.4306      0.0039     13.2944    149.8813     29.4833
   898.2000      8.0982      2.4277      0.0185     13.4741    150.1864     29.7383
   898.3000      8.0594      2.4323     -0.0222     13.1941    148.7996     29.8805
   898.4000      8.0594      2.4608      0.0250     11.4657    149.5466     29.7072
   898.5000      8.0832      2.5000      0.1147      9.0931    152.3071     29.4900
   898.6000      8.0832      2.5233      0.0901      7.6783    152.2671     29.4708
   898.7000      8.0832      2.5374      0.0472      6.8257    146.6033     29.5473
   898.8000      8.0936      2.5515      0.1239      5.9673    139.0911     29.5627
   898.9000      8.0936      2.5527      0.1375      5.8965    135.5749     29.5311
   899.0000      8.1259      2.5348      0.0992      6.9845    136.6230     29.4267
   899.1000      8.1259      2.5069      0.1177      8.6704    139.3179     29.1750
   899.2000      8.1259      2.4843      0.0842     10.0398    141.4987     29.0886
   899.3000      8.1551      2.4801      0.0688     10.2978    142.7529     29.4544
   899.4000      8.1551      2.4915      0.0929      9.6072    144.1096     30.0314
   899.5000      8.1338      2.5070      0.0819      8.6685    145.7614     30.5499
   899.6000      8.1338      2.5219      0.0617      7.7615    146.9915     30.7577
   899.7000      8.1338      2.5312      0.1436      7.1992    147.9296     30.4974
   899.8000      8.2131      2.5294      0.1322      7.3113    148.4282     30.1483
   899.9000      8.2131      2.5263      0.0948      7.4987    147.6183     30.0362
   900.0000      8.1366      2.5292      0.1754      7.3201    146.0845     29.9480
   900.1000      8.1366      2.5279      0.1223      7.4012    144.7375     29.7092
   900.2000      8.1366      2.5155      0.1198      8.1496    143.2610     29.5680
   900.3000      8.1410      2.4969      0.0863      9.2795    141.1034     29.7976
   900.4000      8.1410      2.4773      0.1000     10.4657    138.8703     30.1775
   900.5000      8.1612      2.4597      0.0544     11.5354    136.7162     30.2566
   900.6000      8.1612      2.4508      0.0142     12.0737    132.3938     30.1178
   900.7000      8.1612      2.4541      0.0775     11.8718    129.0233     30.1833
   900.8000      8.1954      2.4641      0.0502     11.2691    130.3100     30.4065
   900.9000      8.1954      2.4770      0.0882     10.4870    132.5498     30.4958
   901.0000      8.3203      2.4899      0.1107      9.7011    132.7708     30.5160
   901.1000      8.3203      2.4992      0.1144      9.1421    132.6878     30.6090
   901.2000      8.3203      2.5039      0.1443      8.8532    134.9683     30.5713
   901.3000      8.4350      2.5060      0.1145      8.7277    138.1204     30.1533
   901.4000      8.4350      2.5075      0.1441      8.6392    137.3284     29.5597
   901.5000      8.4260      2.5042      0.2113      8.8391    133.1948     29.3965
   901.6000      8.4260      2.4947      0.1598      9.4132    130.7044     29.8504
   901.7000      8.4260      2.4919      0.1441      9.5806    132.0680     30.3873
   901.8000      8.3029      2.5019      0.1553      8.9744    134.4118     30.4733
   901.9000      8.3029      2.5135      0.1716      8.2714    133.7276     30.1117
   902.0000      8.2461      2.5197      0.1400      7.8965    129.9142     29.7262
   902.1000      8.2461      2.5323      0.1324      7.1307    127.0338     29.6197
   902.2000      8.2461      2.5658      0.1687      5.1023    128.1809     29.6804
   902.3000      8.1706      2.6167      0.1922      2.0172    131.6271     29.7996
   902.4000      8.1706      2.6683      0.2447     -1.1115    133.8679     30.0605
   902.5000      8.2039      2.7012      0.2634     -3.1015    133.6763     30.4358
   902.6000      8.2039      2.7066      0.2054     -3.4298    131.0037     30.7472
   902.7000      8.2039      2.6916      0.2297     -2.5183    126.8445     30.8940
