~Version Information
VERS.                      2.0: CWLS Log ASCII Standard - VERSION 2.0
WRAP.                       NO: One line per depth step
~Well Information Block
STRT.FT                -8.7500: 
STOP.FT              2331.5000: 
STEP.FT                 0.2500: 
NULL.                -999.2500: 
COMP.          Pioneer Natural Resources: COMPANY
WELL.          Sparrowhawk 22-12: WELL
FLD.           Purgatorie River: FIELD
LOC.           2049' FNL & 2060' FWL--: LOCATION
CNTY.               Las Animas: COUNTY
SRVC.          Patterson Wireline: SERVICE COMPANY
DATE.          Wed Apr 12 08:53:41 2006: LOG DATE
UWI.           05 071 08484 00: UNIQUE WELL ID
STAT.                       CO: STATE
~Curve Information Block
DEPT.FT            0 000 00 00: Depth
CCL.                          : Casing Collar Locator
TT3.usec                      : CBL 3' Travel Time
AMP3.mV                       : CBL 3' Amplitude
GR.GAPI                       : Gamma Ray
~Parameter Information Block
MAXAMPL.mV              0.0000: Maximum Amplitude
~A  Depth       CCL         TT3         AMP3         GR     
# ...
   158.7500      0.0000    264.4645     78.3309     54.3636
   159.0000      0.0000    264.4806     78.2681     61.0706
   159.2500      0.0000    264.4968     78.2661     69.8687
   159.5000      0.0000    264.5049     78.3077     79.4327
   159.7500      0.0000    264.5013     78.3657     88.1052
   160.0000      0.0000    264.4903     78.4238     94.2881
   160.2500      0.0000    264.4792     78.4683     96.7304
   160.5000      0.0000    264.4737     78.4816     94.8361
   160.7500      0.0000    264.4762     78.4595     89.3484
   161.0000      0.0000    264.4874     78.4175     82.8512
   161.2500      0.0000    264.5069     78.3658     78.8177
   161.5000      0.0000    264.5321     78.2991     79.3412
   161.7500      0.0000    264.5576     78.2253     83.5245
   162.0000      0.0000    264.5773     78.1838     88.0461
   162.2500      0.0000    264.5876     78.2091     89.5365
   162.5000      0.0000    264.5887     78.2920     86.9973
   162.7500      0.0000    264.5822     78.3929     82.2649
   163.0000      0.0000    264.5697     78.4792     78.0886
   163.2500      0.0000    264.5528     78.5295     75.8260
   163.5000      0.0000    264.5340     78.5223     74.9429
   163.7500      0.0000    264.5172     78.4557     74.1459
   164.0000      0.0000    264.5047     78.3724     72.5864
   164.2500      0.0000    264.4959     78.3352     70.2389
   164.5000      0.0000    264.4879     78.3766     67.5143
   164.7500      0.0000    264.4791     78.4881     64.6947
   165.0000      0.0000    264.4711     78.6497     61.9608
   165.2500      0.0000    264.4680     78.8416     59.8683
   165.5000      0.0000    264.4732     79.0315     59.2419
   165.7500      0.0000    264.4858     79.1777     60.2669
   166.0000      0.0000    264.5010     79.2534     61.8673
   166.2500      0.0000    264.5143     79.2601     62.2932
   166.5000      0.0000    264.5239     79.2198     60.5043
   166.7500      0.0000    264.5292     79.1579     56.9598
   167.0000      0.0000    264.5298     79.0874     53.1312
   167.2500      0.0000    264.5263     79.0042     50.5543
   167.5000      0.0000    264.5213     78.8964     50.3568
   167.7500      0.0000    264.5168     78.7596     53.1082
   168.0000      0.0000    264.5112     78.6142     58.6182
   168.2500      0.0000    264.4987     78.5129     65.8195
   168.5000      0.0000    264.4739     78.5096     73.1663
   168.7500      0.0000    264.4408     78.6048     79.4145
   169.0000      0.0000    264.4129     78.7292     84.1340
   169.2500      0.0000    264.4037     78.7916     87.5715
   169.5000      0.0000    264.4166     78.7427     90.1947
   169.7500      0.0000    264.4443     78.5988     92.3212
   170.0000      0.0000    264.4760     78.4306     93.8805
   170.2500      0.0000    264.5020     78.3335     94.3220
   170.5000      0.0000    264.5157     78.3735     92.8917
   170.7500      0.0000    264.5163     78.5310     89.2899
   171.0000      0.0000    264.5082     78.7077     84.2145
   171.2500      0.0000    264.4994     78.8059     79.1746
   171.5000      0.0000    264.4973     78.7902     75.5549
   171.7500      0.0000    264.5050     78.6742     73.7317
   172.0000      0.0000    264.5215     78.4855     73.0946
   172.2500      0.0000    264.5454     78.2704     72.9272
   172.5000      0.0000    264.5835     78.0888     73.3023
   172.7500      0.0000    264.6924     77.9071     75.0618
   173.0000      0.0000    265.0624     77.4327     78.8133
   173.2500      0.0000    266.0964     76.0616     83.8067
   173.5000      0.0000    268.2797     73.1784     87.8516
   173.7500      0.0000    271.6656     68.7840     88.6787
   174.0000      0.0000    275.3439     63.8482     85.7183
   174.2500      0.0000    277.7574     59.7340     80.5918
   174.5000      0.0000    277.9537     57.1400     75.8381
   174.7500      0.0000    276.4185     55.8003     73.2591
   175.0000      0.0000    274.4685     55.1357     73.3229
   175.2500      0.0000    273.0611     54.8159     75.5329
   175.5000      0.0000    272.3635     54.7165     78.8803
   175.7500     -2.0000    272.1168     54.7514     82.3039
   176.0000      0.0000    272.0479     54.9124     85.3218
   176.2500      0.0000    271.9807     55.3899     88.0669
   176.5000      0.0000    271.7721     56.6010     90.4732
   176.7500      0.0000    271.2669     59.0231     92.0617
   177.0000      0.0000    270.3548     62.7905     92.9570
   177.2500      0.0000    269.0928     67.3756     94.4018
   177.5000      0.0000    267.7291     71.8499     97.7145
   177.7500      0.0000    266.5641     75.4990    103.2999
   178.0000      0.0000    265.7746     78.0920    110.8945
   178.2500      0.0000    265.3570     79.7059    119.8038
   178.5000      0.0000    265.1985     80.5406    128.3435
   178.7500      0.0000    265.1726     80.8599    134.0900
   179.0000      0.0000    265.1905     80.9174    135.5854
   179.2500      0.0000    265.2081     80.8703    133.3605
   179.5000      0.0000    265.2124     80.7723    128.9048
   179.7500      0.0000    265.2062     80.6362    123.2063
   180.0000      0.0000    265.1956     80.4848    116.5905
   180.2500      0.0000    265.1839     80.3630    109.3496
   180.5000      0.0000    265.1705     80.3134    101.8822
   180.7500      0.0000    265.1541     80.3502     94.2095
   181.0000      0.0000    265.1368     80.4507     85.8398
   181.2500      0.0000    265.1245     80.5715     76.6785
   181.5000      0.0000    265.1219     80.6772     68.0192
   181.7500      0.0000    265.1287     80.7496     62.1490
   182.0000      0.0000    265.1417     80.7750     60.8453
   182.2500      0.0000    265.1575     80.7401     64.4211
   182.5000      0.0000    265.1717     80.6563     71.9550
   182.7500      0.0000    265.1783     80.5692     82.1970
   183.0000      0.0000    265.1735     80.5278     94.1793
   183.2500      0.0000    265.1605     80.5448    106.7218
   183.5000      0.0000    265.1474     80.5983    117.6828
   183.7500      0.0000    265.1400     80.6640    124.7440
   184.0000      0.0000    265.1387     80.7332    127.1244
   184.2500      0.0000    265.1418     80.7990    125.6529
   184.5000      0.0000    265.1485     80.8425    121.3380
   184.7500      0.0000    265.1580     80.8466    115.0841
   185.0000      0.0000    265.1681     80.8182    108.7200
   185.2500      0.0000    265.1764     80.7813    104.7325
   185.5000      0.0000    265.1833     80.7464    104.1189
   185.7500      0.0000    265.1898     80.7070    105.0933
   186.0000      0.0000    265.1955     80.6710    104.5438
   186.2500      0.0000    265.2003     80.6703    100.6901
   186.5000      0.0000    265.2067     80.7238     94.1445
   186.7500      0.0000    265.2168     80.8099     86.7815
   187.0000      0.0000    265.2281     80.8909     80.1092
   187.2500      0.0000    265.2354     80.9508     74.6622
   187.5000      0.0000    265.2365     80.9968     70.3824
   187.7500      0.0000    265.2338     81.0388     67.0941
   188.0000      0.0000    265.2303     81.0757     64.6656
   188.2500      0.0000    265.2265     81.1006     62.9656
   188.5000      0.0000    265.2222     81.1099     61.6764
   188.7500      0.0000    265.2180     81.1066     60.1146
   189.0000      0.0000    265.2153     81.0987     57.5697
   189.2500      0.0000    265.2140     81.0938     54.1144
   189.5000      0.0000    265.2122     81.0918     50.8221
   189.7500      0.0000    265.2091     81.0866     48.8628
   190.0000      0.0000    265.2067     81.0803     48.5486
   190.2500      0.0000    265.2080     81.0859     49.2856
   190.5000      0.0000    265.2140     81.1108     50.0544
   190.7500      0.0000    265.2242     81.1449     49.8867
   191.0000      0.0000    265.2376     81.1683     48.3989
   191.2500      0.0000    265.2521     81.1689     46.1821
   191.5000      0.0000    265.2636     81.1556     44.4355
   191.7500      0.0000    265.2685     81.1580     44.0567
   192.0000      0.0000    265.2675     81.2028     45.2090
