~Version Information
 VERS.                                  2.0 : CWLS LAS VERSION
 WRAP.                                   NO : WRAPING MODE
 SWARE .                 MController 2.5.0N : SOFTWARE VERSION
~Well Information
 WELL.                       BaaBaa 34-1 TR : WELL
 COMP.       Pioneer Natural Resources, USA : COMPANY
 FLD.                       Purgatory River : FIELD
 LOC.                 SW/SE Sec1 T33S R67W  : LOCATION
 DATE.                             03/02/06 : DATE(S) LOGGED
 SRVC.      Blanco Geological Services, LLC : SERVICE COMPANY
 STAT.                             Colorado : STATE
 CNTY.                           Las Animas : COUNTY
 CTRY.                                  USA : COUNTRY
 API.                       05-071-08710-00 : API NUMBER
 STRT.FT                             380.00 : START DEPTH
 STOP.FT                            1410.00 : STOP DEPTH
 STEP.FT                               1.00 : DEPTH INCREMENT
 NULL.                                -9999 : NULL VALUE
~Curve information
 DEPTH.FT                                   :
 ROP.MIN/FT                                 :
 GAS.UNITS                                  :
~ASCII Log data
# ...
       780.0         0.75         41.5 
       781.0         0.27         37.5 
       782.0         0.23         34.8 
       783.0         0.23         36.2 
       784.0         1.90         41.4 
       785.0         0.27         33.1 
       786.0         0.23         35.9 
       787.0         0.25         44.2 
       788.0         0.20         47.9 
       789.0         0.23         48.9 
       790.0         0.23         47.3 
       791.0         0.23         45.5 
       792.0         0.20         42.1 
       793.0         0.23         38.2 
       794.0         0.20         36.2 
       795.0         0.20         34.7 
       796.0         0.23         32.6 
       797.0         0.30         31.2 
       798.0         0.23         31.0 
       799.0         0.23         30.9 
       800.0         0.23         31.7 
       801.0         3.02         76.0 
       802.0         0.23        145.9 
       803.0         0.20        145.9 
       804.0         0.25        130.1 
       805.0         0.20        104.4 
       806.0         0.20         81.8 
       807.0         0.20         68.6 
       808.0         0.23         52.0 
       809.0         0.23         49.7 
       810.0         0.23         58.2 
       811.0         0.23         71.8 
       812.0         0.27         79.9 
       813.0         0.23         80.6 
       814.0         0.30         79.9 
       815.0         0.33         75.5 
       816.0         0.30         71.8 
       817.0         0.42         71.5 
       818.0         0.30         68.2 
       819.0         0.23         62.8 
       820.0         0.23         56.9 
       821.0         0.27         58.8 
       822.0         2.42         69.6 
       823.0         0.27         57.0 
       824.0         0.43         57.5 
       825.0         0.33         62.5 
       826.0         0.33         70.7 
       827.0         0.30         71.1 
       828.0         0.33         69.6 
       829.0         0.37         64.9 
       830.0         0.37         58.6 
       831.0         4.83        129.3 
       832.0         0.30         79.6 
       833.0         0.27         81.3 
       834.0         0.27         81.8 
       835.0         0.27         78.1 
       836.0         0.27         70.9 
       837.0         0.33         63.1 
       838.0         0.27         57.2 
       839.0         0.28         53.6 
       840.0         0.23         50.4 
       841.0         0.20         49.7 
       842.0         0.23         48.8 
       843.0         0.37         47.7 
       844.0         0.43         48.8 
       845.0         0.50         53.0 
       846.0         0.47         51.5 
       847.0         0.43         47.9 
       848.0         0.23         45.5 
       849.0         0.28         45.9 
       850.0         0.20         45.0 
       851.0         0.23         44.4 
       852.0         0.23         44.2 
       853.0         0.27         43.7 
       854.0         0.23         43.1 
       855.0         0.30         43.7 
       856.0         0.30         43.6 
       857.0         0.30         44.2 
       858.0         0.23         45.2 
       859.0         0.30         45.6 
       860.0         0.40         45.9 
       861.0         2.12         73.9 
       862.0         0.30        124.9 
       863.0         0.33        126.7 
       864.0         0.47        105.7 
       865.0         0.42         85.8 
       866.0         0.47         64.7 
       867.0         0.53         56.0 
       868.0         0.43         49.6 
       869.0         0.43         46.3 
       870.0         0.33         43.4 
       871.0         0.37         41.6 
       872.0         0.30         39.2 
       873.0         0.25         39.5 
       874.0         0.23         40.7 
       875.0         0.27         44.2 
       876.0         0.23         48.4 
       877.0         0.23         53.4 
       878.0         0.27         58.8 
       879.0         0.23         59.5 
       880.0         0.27         58.5 
       881.0         0.37         58.4 
       882.0         0.33         61.5 
       883.0         0.40         62.3 
       884.0         0.37         58.9 
       885.0         0.32         54.4 
       886.0         0.37         49.9 
       887.0         0.40         45.8 
       888.0         0.33         42.8 
       889.0         0.40         42.7 
       890.0         0.53         42.1 
       891.0         3.02        106.7 
       892.0         0.60        101.8 
       893.0         0.57         65.2 
       894.0         0.62         63.2 
       895.0         0.40         52.3 
       896.0         0.37         46.8 
       897.0         0.43         44.8 
       898.0         0.43         42.1 
       899.0         0.47         40.1 
       900.0         0.47         39.4 
       901.0         0.40         39.5 
       902.0         0.32         39.2 
       903.0         0.27         37.5 
       904.0         0.30         36.5 
       905.0         0.30         35.9 
       906.0         0.23         35.4 
       907.0         0.23         36.3 
       908.0         0.27         37.0 
       909.0         0.23         37.4 
       910.0         0.23         38.1 
       911.0         0.23         38.6 
       912.0         0.27         37.8 
       913.0         0.27         37.8 
       914.0         0.32         37.6 
       915.0         0.27         37.4 
       916.0         0.23         37.8 
       917.0         0.27         37.1 
       918.0         0.23         37.1 
       919.0         0.23         36.5 
       920.0         0.23         36.3 
       921.0         2.65        113.6 
       922.0         0.27        120.5 
       923.0         0.27        105.9 
       924.0         0.30         89.1 
       925.0         0.33         81.2 
       926.0         0.33         79.9 
       927.0         0.23         67.1 
       928.0         0.20         62.8 
       929.0         0.20         61.7 
       930.0         0.23         59.2 
       931.0         0.28         54.3 
       932.0         0.23         50.0 
       933.0         0.20         49.4 
       934.0         0.23         48.8 
       935.0         0.30         48.8 
       936.0         0.30         48.5 
       937.0         0.27         47.5 
       938.0         0.23         47.6 
       939.0         0.30         46.8 
       940.0         0.30         44.6 
       941.0         0.23         42.5 
       942.0         0.27         41.7 
       943.0         0.27         41.4 
       944.0         0.35         41.0 
       945.0         0.30         40.8 
       946.0         0.37         41.0 
       947.0         0.37         41.5 
       948.0         0.33         42.2 
       949.0         0.27         41.4 
       950.0         0.27         41.1 
       951.0         3.05        116.3 
       952.0         0.23        114.0 
       953.0         0.30         95.1 
       954.0         0.30         69.7 
       955.0         0.23         53.1 
       956.0         0.23         55.8 
       957.0         0.25         58.2 
       958.0         0.23         59.5 
       959.0         0.23         58.7 
       960.0         0.20         56.9 
       961.0         0.30         53.8 
       962.0         0.30         47.7 
       963.0         0.33         44.2 
       964.0         0.23         42.8 
       965.0         0.30         42.5 
       966.0         0.30         41.2 
       967.0         0.30         39.2 
       968.0         0.30         37.2 
       969.0         0.35         37.1 
       970.0         0.30         37.1 
       971.0         0.30         36.7 
       972.0         0.30         37.1 
       973.0         0.30         37.0 
       974.0         0.27         36.8 
       975.0         0.30         37.0 
       976.0         0.33         38.3 
       977.0         0.30         38.9 
       978.0         0.33         38.8 
       979.0         0.37         37.7 
