~Version Information
VERS.                      2.0: CWLS Log ASCII Standard - VERSION 2.0
WRAP.                       NO: One line per depth step
~Well Information Block
STRT.FT               440.0000: 
STOP.FT              1702.7000: 
STEP.FT                 0.1000: 
NULL.                -999.2500: 
COMP.          Pioneer Natural Resources: COMPANY
WELL.          Culver 14-12 Tr: WELL
FLD.           Purgatoire River: FIELD
LOC.           915' FSL & 1048' FWL--: LOCATION
STAT.                 Colorado: State
CNTY.               Las Animas: COUNTY
CTRY. USA : Country
SECT. 12 : Section
TOWN. 32S : Township
RANG. 66W : Range
SRVC.                Patterson: SERVICE COMPANY
DATE.          Wed Sep 28 10:00:59 2005: LOG DATE
API.           05 071 08520 00: UNIQUE WELL ID
~Curve Information Block
DEPT.FT            0 000 00 00: Depth
DCAL.in                       : CDL Caliper
RHOB.g/cc                     : CDL Bulk Density
RHOC.g/cc                     : CDL Density Correction
DPOR.pu                       : CDL Density Porosity
NPOR.pu                       : Neutron Porosity
GR.GAPI                       : Gamma Ray
~Parameter Information Block
~A  Depth       DCAL        RHOB        RHOC        DPOR        NPOR         GR     
# ...
   929.6000      7.8572      2.5876      0.1037      3.7795     20.4893    121.2845
   929.7000      7.8572      2.5546      0.0770      5.7826     22.1578    125.9266
   929.8000      7.8546      2.5233     -0.0313      7.6785     23.2128    133.7864
   929.9000      7.8546      2.5256     -0.0184      7.5399     23.8732    136.2230
   930.0000      7.8560      2.5536      0.0282      5.8415     24.4720    132.9473
   930.1000      7.8560      2.5771      0.0353      4.4179     25.1393    130.6889
   930.2000      7.8560      2.5853      0.0692      3.9191     25.4710    132.1882
   930.3000      7.8571      2.5837      0.0406      4.0202     24.9984    132.4092
   930.4000      7.8571      2.5835      0.0524      4.0312     24.0016    128.9047
   930.5000      7.8571      2.5918      0.0506      3.5287     23.3423    126.6248
   930.6000      7.8571      2.6003      0.0515      3.0147     23.5170    128.4209
   930.7000      7.8571      2.5981      0.0619      3.1455     23.9664    130.9525
   930.8000      7.8553      2.5990      0.0266      3.0939     24.1793    130.7937
   930.9000      7.8553      2.6308      0.0237      1.1662     24.5466    128.7040
   931.0000      7.8521      2.6955      0.0888     -2.7592     25.1860    125.9111
   931.1000      7.8521      2.7707      0.0954     -7.3135     25.9030    120.1815
   931.2000      7.8521      2.8418      0.0942    -11.6232     26.9324    111.0862
   931.3000      7.8490      2.8977      0.1153    -15.0148     28.1377    102.8088
   931.4000      7.8490      2.9151      0.1960    -16.0639     29.2540     97.6919
   931.5000      7.8479      2.8910      0.0780    -14.6057     30.5012     93.1852
   931.6000      7.8479      2.8575      0.0450    -12.5732     31.9098     88.0221
   931.7000      7.8479      2.8347      0.0171    -11.1931     33.0389     86.8917
   931.8000      7.8492      2.8142     -0.0008     -9.9508     33.3412     92.7783
   931.9000      7.8492      2.7854     -0.0238     -8.2073     32.7475    100.1490
   932.0000      7.8510      2.7500     -0.0429     -6.0578     31.7193    102.8025
   932.1000      7.8510      2.7089     -0.0363     -3.5689     30.6688    102.2039
   932.2000      7.8510      2.6671     -0.0694     -1.0356     29.7406    104.5965
   932.3000      7.8518      2.6350     -0.0148      0.9098     28.8629    112.7313
   932.4000      7.8518      2.6072      0.0315      2.5966     27.8481    121.0992
   932.5000      7.8484      2.5740      0.0152      4.6055     26.6123    121.9661
   932.6000      7.8484      2.5445      0.0080      6.3932     25.5211    118.0415
   932.7000      7.8484      2.5337      0.0353      7.0484     24.9298    119.5224
   932.8000      7.8439      2.5376      0.0576      6.8147     24.7732    126.1246
   932.9000      7.8439      2.5360      0.0572      6.9073     24.9203    131.4274
   933.0000      7.8438      2.5254      0.0125      7.5531     24.9895    135.6439
   933.1000      7.8438      2.5200      0.0245      7.8770     24.8141    139.4806
   933.2000      7.8438      2.5223      0.0558      7.7385     24.5483    139.8929
   933.3000      7.8469      2.5200      0.0622      7.8784     24.1408    135.3909
   933.4000      7.8469      2.5081     -0.0118      8.5980     23.7012    129.2681
   933.5000      7.8481      2.5001      0.0078      9.0859     23.4729    128.3539
   933.6000      7.8481      2.5108     -0.0200      8.4364     23.7764    131.8614
   933.7000      7.8481      2.5372      0.0301      6.8361     24.4292    131.6135
   933.8000      7.8496      2.5603      0.0379      5.4392     24.7064    127.4377
   933.9000      7.8496      2.5742      0.0061      4.5968     24.6671    125.3753
   934.0000      7.8532      2.5946     -0.0090      3.3561     24.9467    126.2318
   934.1000      7.8532      2.6298      0.0052      1.2227     25.4634    127.4087
   934.2000      7.8532      2.6634      0.0814     -0.8140     25.7495    127.2178
   934.3000      7.8545      2.6720      0.0646     -1.3324     25.8976    121.9465
   934.4000      7.8545      2.6561      0.0538     -0.3689     26.4629    110.8034
   934.5000      7.8521      2.6390      0.0386      0.6640     27.4119    101.0028
   934.6000      7.8521      2.6335      0.0338      1.0006     28.2790     98.8417
   934.7000      7.8521      2.6304      0.0416      1.1885     28.9641    103.0653
   934.8000      7.8513      2.6276      0.0250      1.3549     29.4465    107.5475
   934.9000      7.8513      2.6359      0.0214      0.8536     29.5807    110.3365
   935.0000      7.8579      2.6466      0.0343      0.2075     29.2624    116.2035
   935.1000      7.8579      2.6344     -0.0030      0.9465     28.5134    126.2393
   935.2000      7.8579      2.5963     -0.0448      3.2543     27.4749    134.1843
   935.3000      7.8675      2.5527     -0.0494      5.8954     26.5268    137.1312
   935.4000      7.8675      2.5192     -0.0160      7.9279     26.2359    136.2636
   935.5000      7.8729      2.4967     -0.0250      9.2902     26.4096    132.8783
   935.6000      7.8729      2.4818     -0.0050     10.1950     26.1470    134.8917
   935.7000      7.8729      2.4697      0.0401     10.9297     25.2252    148.3909
   935.8000      7.8714      2.4556     -0.0163     11.7815     24.0701    167.0199
   935.9000      7.8714      2.4410      0.0259     12.6675     23.2654    179.9055
   936.0000      7.8633      2.4375     -0.0469     12.8790     22.8134    180.3439
   936.1000      7.8633      2.4517      0.0295     12.0206     22.3032    166.8558
   936.2000      7.8633      2.4654      0.0528     11.1883     21.6282    146.6909
   936.3000      7.8549      2.4660      0.0350     11.1500     20.7722    132.2590
   936.4000      7.8549      2.4684      0.0465     11.0044     19.8436    128.1933
   936.5000      7.8512      2.4868      0.0613      9.8891     19.2054    130.7986
   936.6000      7.8512      2.5183      0.0574      7.9798     18.9232    132.7236
   936.7000      7.8512      2.5537      0.0989      5.8347     18.7873    128.9016
   936.8000      7.8510      2.5903      0.0765      3.6188     19.0276    122.8120
   936.9000      7.8510      2.6255      0.1154      1.4852     19.5883    119.4566
   937.0000      7.8512      2.6399      0.1200      0.6092     19.8437    115.7427
   937.1000      7.8512      2.6220      0.0820      1.6965     19.7562    111.4059
   937.2000      7.8512      2.5875      0.0261      3.7849     19.7205    110.3573
   937.3000      7.8522      2.5555      0.0222      5.7302     19.8292    108.0383
   937.4000      7.8522      2.5373     -0.0392      6.8327     20.0337    103.0690
   937.5000      7.8526      2.5384     -0.0028      6.7658     20.4064    100.2740
   937.6000      7.8526      2.5471      0.0305      6.2384     20.8884     97.0159
   937.7000      7.8526      2.5488      0.0109      6.1330     21.1594     89.0891
   937.8000      7.8514      2.5464     -0.0277      6.2786     21.1427     79.5141
   937.9000      7.8514      2.5486      0.0006      6.1451     21.0956     71.8667
   938.0000      7.8491      2.5576      0.0151      5.6011     20.9537     68.3968
   938.1000      7.8491      2.5730      0.0398      4.6691     20.6201     69.0113
   938.2000      7.8491      2.5859      0.0547      3.8837     20.5972     70.1814
   938.3000      7.8481      2.5826      0.0808      4.0855     21.1991     70.2579
   938.4000      7.8481      2.5601      0.0683      5.4499     21.9471     70.1185
   938.5000      7.8478      2.5304      0.0152      7.2508     22.4065     71.6402
   938.6000      7.8478      2.5004      0.0435      9.0691     22.6679     74.0972
   938.7000      7.8478      2.4539      0.0596     11.8864     22.6053     76.4245
   938.8000      7.8504      2.3739     -0.0008     16.7311     22.0698     79.3797
   938.9000      7.8504      2.2615     -0.0341     23.5429     21.6664     83.1436
   939.0000      7.8613      2.1278     -0.0705     31.6476     21.6155     87.2829
   939.1000      7.8613      1.9948     -0.1295     39.7084     21.2488     90.8497
