~Version Information
VERS.                      2.0: CWLS Log ASCII Standard - VERSION 2.0
WRAP.                       NO: One line per depth step
~Well Information Block
STRT.FT               240.0000: 
STOP.FT              1252.5000: 
STEP.FT                 0.2500: 
NULL.                -999.2500: 
COMP.          Pioneer Natural Resources: COMPANY
WELL.             Margaux 11-1: WELL
FLD.           Purgatoire River: FIELD
LOC.           1154' FNL & 472' FWL: LOCATION
PROV.                 Colorado: PROVINCE
CNTY.               Las Animas: COUNTRY
SRVC.                Patterson: SERVICE COMPANY
DATE.          Mon Dec 19 04:21:59 2005: LOG DATE
UWI.           05 071 08639 00: UNIQUE WELL ID
~Curve Information Block
DEPT.FT            0 000 00 00: Depth
SN.Ohm-m                      : IEL Short Normal
SP.mV                         : IEL Spontaneous Potential
DIR.Ohm-m                     : IEL Induction Resistivity
GR.GAPI                       : Gamma Ray
~Parameter Information Block
~A  Depth        SN          SP         DIR          GR     
# ...
  1144.5000     18.8783     31.7294     19.1688     88.5957
  1144.7500     18.7427     31.6796     18.9332     85.5840
  1145.0000     18.7922     31.6064     18.7498     80.5565
  1145.2500     18.9439     31.5252     18.6255     77.1291
  1145.5000     19.0637     31.4595     18.5528     72.6381
  1145.7500     19.0970     31.4308     18.5181     70.4357
  1146.0000     19.0975     31.4479     18.5111     68.2770
  1146.2500     19.1805     31.5042     18.5317     67.2922
  1146.5000     19.4274     31.5842     18.5899     66.2732
  1146.7500     19.7959     31.6729     18.6979     66.1506
  1147.0000     20.1777     31.7601     18.8601     67.1703
  1147.2500     20.5068     31.8396     19.0627     68.3208
  1147.5000     20.7377     31.9088     19.2712     69.5265
  1147.7500     20.8289     31.9723     19.4400     69.5937
  1148.0000     20.8007     32.0426     19.5306     69.0674
  1148.2500     20.7081     32.1372     19.5269     68.7892
  1148.5000     20.6225     32.2719     19.4364     68.6480
  1148.7500     20.6422     32.4527     19.2779     68.4537
  1149.0000     20.7635     32.6684     19.0671     67.6298
  1149.2500     20.8611     32.8903     18.8121     66.8670
  1149.5000     20.8647     33.0826     18.5174     66.1874
  1149.7500     20.7337     33.2201     18.1935     66.4952
  1150.0000     20.3870     33.3019     17.8636     68.2530
  1150.2500     19.8768     33.3498     17.5630     70.0396
  1150.5000     19.3829     33.3935     17.3268     73.2978
  1150.7500     18.9552     33.4545     17.1745     75.9115
  1151.0000     18.5031     33.5390     17.1001     80.5313
  1151.2500     17.9690     33.6421     17.0745     83.6535
  1151.5000     17.3710     33.7553     17.0590     86.8100
  1151.7500     16.8120     33.8727     17.0217     86.9082
  1152.0000     16.4641     33.9923     16.9478     83.5256
  1152.2500     16.4237     34.1161     16.8394     79.7205
  1152.5000     16.6416     34.2471     16.7087     74.3922
  1152.7500     17.0312     34.3829     16.5722     72.5031
  1153.0000     17.5461     34.5108     16.4532     72.9189
  1153.2500     18.1091     34.6101     16.3843     74.8626
  1153.5000     18.5814     34.6610     16.3991     78.8539
  1153.7500     18.8762     34.6563     16.5152     81.5531
  1154.0000     19.0085     34.6081     16.7192     84.9568
  1154.2500     19.0284     34.5451     16.9671     86.5264
  1154.5000     18.9958     34.5020     17.1993     87.4621
  1154.7500     18.9854     34.5043     17.3590     87.0699
  1155.0000     19.0261     34.5578     17.3987     85.2540
  1155.2500     19.0738     34.6465     17.2760     83.5724
  1155.5000     19.0815     34.7437     16.9579     80.9902
  1155.7500     19.0431     34.8275     16.4396     79.6027
  1156.0000     18.9491     34.8938     15.7631     78.6705
  1156.2500     18.7455     34.9581     15.0083     79.0899
  1156.5000     18.3488     35.0470     14.2600     81.3663
  1156.7500     17.6709     35.1867     13.5777     83.9030
  1157.0000     16.6834     35.3938     12.9872     89.2271
  1157.2500     15.5036     35.6696     12.4900     93.7865
  1157.5000     14.3594     35.9980     12.0768    101.5149
  1157.7500     13.4532     36.3494     11.7361    106.3895
  1158.0000     12.8759     36.6892     11.4575    111.6044
  1158.2500     12.5842     36.9885     11.2310    113.1979
  1158.5000     12.4145     37.2318     11.0475    113.2752
  1158.7500     12.2102     37.4217     10.8990    112.4846
  1159.0000     11.9602     37.5783     10.7791    110.6774
  1159.2500     11.7515     37.7292     10.6828    108.8532
  1159.5000     11.6576     37.8960     10.6051    104.6330
  1159.7500     11.7265     38.0836     10.5396    100.8969
  1160.0000     11.9760     38.2832     10.4783     94.6587
  1160.2500     12.3589     38.4849     10.4132     90.5382
  1160.5000     12.7860     38.6879     10.3375     85.1398
  1160.7500     13.1590     38.9006     10.2467     82.7262
  1161.0000     13.3721     39.1280     10.1388     82.4950
  1161.2500     13.4241     39.3592     10.0163     85.2354
  1161.5000     13.4916     39.5691      9.8868     92.9627
  1161.7500     13.6741     39.7361      9.7607     99.0651
  1162.0000     13.7695     39.8571      9.6461    106.9164
  1162.2500     13.5143     39.9457      9.5454    110.4330
  1162.5000     12.9330     40.0203      9.4554    113.3257
  1162.7500     12.2724     40.0957      9.3717    114.4196
  1163.0000     11.6583     40.1811      9.2923    116.3153
  1163.2500     11.0149     40.2821      9.2195    118.1618
  1163.5000     10.3605     40.4004      9.1583    120.9020
  1163.7500      9.9614     40.5316      9.1141    121.4950
  1164.0000     10.0383     40.6628      9.0911    118.9336
  1164.2500     10.4792     40.7765      9.0937    114.8935
  1164.5000     10.9713     40.8600      9.1283    106.4886
  1164.7500     11.2985     40.9130      9.2054    100.2174
  1165.0000     11.4590     40.9472      9.3398     91.3369
  1165.2500     11.6076     40.9818      9.5459     86.7160
  1165.5000     11.9476     41.0380      9.8333     83.2440
  1165.7500     12.5918     41.1324     10.2029     83.5322
  1166.0000     13.4449     41.2718     10.6482     86.3935
  1166.2500     14.2704     41.4498     11.1578     88.0970
  1166.5000     14.9161     41.6499     11.7165     87.5209
  1166.7500     15.4162     41.8515     12.3015     84.6110
  1167.0000     15.8542     42.0364     12.8773     77.9228
  1167.2500     16.2627     42.1943     13.3972     73.2920
  1167.5000     16.6920     42.3255     13.8164     67.8647
  1167.7500     17.2253     42.4415     14.1109     65.6970
  1168.0000     17.8684     42.5601     14.2874     64.5642
  1168.2500     18.4894     42.6972     14.3762     64.8469
  1168.5000     18.8648     42.8578     14.4120     65.9508
  1168.7500     18.7819     43.0346     14.4151     66.8906
  1169.0000     18.1559     43.2140     14.3831     69.1032
  1169.2500     17.1533     43.3846     14.2936     71.6212
  1169.5000     16.1968     43.5443     14.1180     77.0321
  1169.7500     15.6266     43.6976     13.8377     81.0477
  1170.0000     15.3574     43.8460     13.4555     86.1304
  1170.2500     15.0843     43.9791     12.9962     88.4805
  1170.5000     14.6809     44.0766     12.5001     90.9573
  1170.7500     14.1917     44.1169     12.0139     92.4060
  1171.0000     13.7200     44.0848     11.5814     94.6541
  1171.2500     13.4477     43.9756     11.2356     96.3188
  1171.5000     13.4296     43.7980     10.9919     99.6198
  1171.7500     13.4048     43.5763     10.8452    102.7079
  1172.0000     13.0928     43.3473     10.7722    108.4307
  1172.2500     12.5537     43.1489     10.7385    112.0659
  1172.5000     12.0569     43.0055     10.7098    114.9230
  1172.7500     11.7521     42.9206     10.6636    114.1921
  1173.0000     11.6226     42.8804     10.5949    109.9183
  1173.2500     11.6144     42.8678     10.5139    106.6416
  1173.5000     11.7097     42.8780     10.4392    104.0847
  1173.7500     11.9116     42.9231     10.3893    104.7228
  1174.0000     12.2201     43.0208     10.3769    108.4889
  1174.2500     12.6133     43.1772     10.4063    111.8245
  1174.5000     12.9790     43.3803     10.4716    116.4568
  1174.7500     13.1634     43.6045     10.5567    118.8119
  1175.0000     13.1510     43.8201     10.6356    120.9982
  1175.2500     13.0645     44.0007     10.6783    121.5102
  1175.5000     13.0037     44.1285     10.6617    120.9641
  1175.7500     12.9585     44.1979     10.5824    120.1083
  1176.0000     12.8566     44.2176     10.4614    119.2733
  1176.2500     12.6737     44.2077     10.3348    119.6489
  1176.5000     12.4406     44.1905     10.2364    121.8929
  1176.7500     12.1828     44.1809     10.1852    124.1418
  1177.0000     11.9070     44.1814     10.1810    127.4869
  1177.2500     11.6471     44.1831     10.2096    128.9137
  1177.5000     11.4894     44.1713     10.2493    128.5832
  1177.7500     11.4646     44.1364     10.2784    126.2781
