~Version Information
VERS.                      2.0: CWLS Log ASCII Standard - VERSION 2.0
WRAP.                       NO: One line per depth step
~Well Information Block
STRT.FT               525.0000: 
STOP.FT              2377.2000: 
STEP.FT                 0.1000: 
NULL.                -999.2500: 
COMP.          Pioneer Natural Resources: COMPANY
WELL.          Sparrowhawk 22-12: WELL
FLD.           Purgatoire River: FIELD
LOC.           2049' FNL & 2060' FWL--: LOCATION
CNTY.               Las Animas: COUNTY
SRVC.                Patterson: SERVICE COMPANY
DATE.          Thu Mar 23 13:24:48 2006: LOG DATE
UWI.           05 071 08484 00: UNIQUE WELL ID
STAT.                 Colorado: STATE
~Curve Information Block
DEPT.FT            0 000 00 00: Depth
DCAL.in                       : CDL Caliper
RHOB.g/cc                     : CDL Bulk Density
RHOC.g/cc                     : CDL Density Correction
DPOR.pu                       : CDL Density Porosity
NPOR.pu                       : Neutron Porosity
GR.GAPI                       : Gamma Ray
~Parameter Information Block
~A  Depth       DCAL        RHOB        RHOC        DPOR        NPOR         GR     
# ...
  1014.6000      8.0907      2.0349     -0.0600     37.2761     21.3232    108.1423
  1014.7000      8.0907      2.0108     -0.1001     38.7396     20.4134    113.1126
  1014.8000      8.1081      2.0278     -0.0864     37.7076     19.2450    113.8729
  1014.9000      8.1081      2.0934      0.0076     33.7304     17.9570    114.2190
  1015.0000      8.1116      2.1846      0.1456     28.2088     16.7049    118.7460
  1015.1000      8.1116      2.2630      0.2447     23.4556     15.8580    124.1634
  1015.2000      8.1116      2.3124      0.2383     20.4596     15.6431    124.4653
  1015.3000      8.0990      2.3519      0.2016     18.0643     15.5507    120.8427
  1015.4000      8.0990      2.4117      0.2007     14.4410     15.3072    119.1116
  1015.5000      8.0729      2.4883      0.2475      9.8022     15.3669    122.2982
  1015.6000      8.0729      2.5444      0.2707      6.3991     15.6089    127.0899
  1015.7000      8.0729      2.5685      0.1564      4.9404     15.7112    128.0434
  1015.8000      8.0499      2.5812      0.1661      4.1727     16.1686    124.8919
  1015.9000      8.0499      2.5875      0.1524      3.7909     17.3378    119.8112
  1016.0000      8.0354      2.5851      0.1303      3.9325     18.8156    114.2181
  1016.1000      8.0354      2.5838      0.1024      4.0128     20.1673    108.9436
  1016.2000      8.0354      2.5962      0.0564      3.2627     20.9958    105.6981
  1016.3000      8.0261      2.6355      0.0542      0.8788     21.2296    105.9296
  1016.4000      8.0261      2.7036      0.1246     -3.2504     21.4569    106.7796
  1016.5000      8.0203      2.7795      0.1555     -7.8495     22.0371    105.6532
  1016.6000      8.0203      2.8329      0.1863    -11.0847     22.8543    105.6285
  1016.7000      8.0203      2.8541      0.1385    -12.3676     23.8543    108.3288
  1016.8000      8.0192      2.8596      0.1585    -12.7055     24.9258    108.8609
  1016.9000      8.0192      2.8556      0.1411    -12.4578     25.7481    101.8959
  1017.0000      8.0232      2.8299      0.1010    -10.9034     26.2299     92.0098
  1017.1000      8.0232      2.7798      0.0710     -7.8642     26.4560     86.9181
  1017.2000      8.0232      2.7240     -0.0242     -4.4834     26.3906     83.5384
  1017.3000      8.0311      2.6846     -0.0377     -2.0982     25.9926     79.0282
  1017.4000      8.0311      2.6581     -0.0411     -0.4910     25.3651     78.8949
  1017.5000      8.0426      2.6331     -0.0009      1.0235     24.6381     85.0881
  1017.6000      8.0426      2.6209     -0.0544      1.7656     23.9599     91.9656
  1017.7000      8.0426      2.6370      0.0082      0.7905     23.5570     95.5944
  1017.8000      8.0515      2.6766      0.0401     -1.6140     23.5583     96.9828
  1017.9000      8.0515      2.7301      0.0743     -4.8564     23.8571     95.9956
  1018.0000      8.0510      2.7853      0.0952     -8.2027     24.1469     94.1243
  1018.1000      8.0510      2.8182      0.1107    -10.1969     24.1654     95.9025
  1018.2000      8.0510      2.8169      0.0688    -10.1146     24.0387     98.5593
  1018.3000      8.0496      2.7918      0.1126     -8.5910     24.0136     95.4726
  1018.4000      8.0496      2.7491      0.0951     -6.0066     24.0609     88.8904
  1018.5000      8.0507      2.6980      0.0465     -2.9078     24.1481     86.9002
  1018.6000      8.0507      2.6658     -0.0393     -0.9546     24.3511     90.6732
  1018.7000      8.0507      2.6633      0.0341     -0.8067     24.5630     92.7652
  1018.8000      8.0504      2.6636      0.0361     -0.8259     24.7417     90.2332
  1018.9000      8.0504      2.6431     -0.0051      0.4186     24.8214     86.9936
  1019.0000      8.0501      2.6074     -0.0363      2.5832     24.6776     86.8517
  1019.1000      8.0501      2.5777     -0.0409      4.3843     24.7017     90.2543
  1019.2000      8.0501      2.5631      0.0261      5.2676     24.9077     93.2847
  1019.3000      8.0544      2.5544      0.0138      5.7937     24.6748     93.2085
  1019.4000      8.0544      2.5580     -0.0375      5.5772     24.0781     90.2955
  1019.5000      8.0608      2.5807      0.0757      4.1987     23.5960     85.6603
  1019.6000      8.0608      2.6073      0.0279      2.5877     23.5696     83.5586
  1019.7000      8.0608      2.6382      0.0136      0.7165     23.9687     87.6069
  1019.8000      8.0636      2.6792      0.1064     -1.7698     24.5194     94.3657
  1019.9000      8.0636      2.7097      0.1216     -3.6159     25.1863     97.8499
  1020.0000      8.0667      2.7120      0.1208     -3.7549     25.8307     95.2670
  1020.1000      8.0667      2.6919      0.0945     -2.5377     26.1531     91.2707
  1020.2000      8.0667      2.6650      0.0326     -0.9102     26.2336     92.4061
  1020.3000      8.0704      2.6430      0.0406      0.4258     26.1789     97.0423
  1020.4000      8.0704      2.6248      0.0185      1.5292     25.7304     99.5598
  1020.5000      8.0733      2.6012      0.0234      2.9585     25.0135     98.2024
  1020.6000      8.0733      2.5647     -0.0114      5.1682     24.4748     96.9092
  1020.7000      8.0733      2.5268      0.0002      7.4643     24.2061     99.7973
  1020.8000      8.0797      2.5177     -0.0842      8.0184     24.0095    104.6932
  1020.9000      8.0797      2.5483     -0.0083      6.1625     23.5491    107.4570
  1021.0000      8.0891      2.5831      0.0880      4.0542     22.9006    106.6891
  1021.1000      8.0891      2.5919      0.0717      3.5234     22.5131    105.3265
  1021.2000      8.0891      2.5908      0.0193      3.5903     22.5054    107.7648
  1021.3000      8.0939      2.5974      0.0597      3.1902     22.7508    112.5248
  1021.4000      8.0939      2.5990      0.0652      3.0883     22.9176    116.7882
  1021.5000      8.0940      2.5873      0.0496      3.8013     22.7708    120.3934
  1021.6000      8.0940      2.5766      0.0270      4.4501     22.7085    122.3916
  1021.7000      8.0940      2.5746      0.0429      4.5670     22.8933    120.7662
  1021.8000      8.0939      2.5760      0.0554      4.4859     22.9749    114.8104
  1021.9000      8.0939      2.5844      0.0105      3.9778     22.9224    107.4942
  1022.0000      8.0953      2.5979      0.0781      3.1598     23.0465    103.0096
  1022.1000      8.0953      2.5985      0.0388      3.1195     23.5276    102.1249
  1022.2000      8.0953      2.5867      0.0443      3.8369     24.0409    101.8228
  1022.3000      8.0977      2.5826      0.0189      4.0833     24.0082    100.8786
  1022.4000      8.0977      2.5879      0.0606      3.7642     23.4868    104.4133
  1022.5000      8.0996      2.5839      0.0139      4.0038     22.9965    115.7823
  1022.6000      8.0996      2.5711      0.0173      4.7826     22.7886    124.9239
  1022.7000      8.0996      2.5603      0.0390      5.4350     22.7905    123.2793
  1022.8000      8.0989      2.5575     -0.0181      5.6045     22.7787    116.6514
  1022.9000      8.0989      2.5703      0.0225      4.8318     22.7446    111.0445
  1023.0000      8.0973      2.5932      0.0819      3.4395     22.8747    106.9708
  1023.1000      8.0973      2.6156      0.0634      2.0831     23.1957    105.0303
  1023.2000      8.0973      2.6295      0.0712      1.2431     23.5165    103.8972
  1023.3000      8.0962      2.6239      0.0797      1.5834     23.6342    103.5523
  1023.4000      8.0962      2.6031      0.0325      2.8430     23.6947    106.5007
  1023.5000      8.0974      2.5832      0.0868      4.0464     23.9883    110.7353
  1023.6000      8.0974      2.5737      0.0146      4.6254     24.3942    113.9654
  1023.7000      8.0974      2.5844      0.0316      3.9743     24.5371    115.8030
  1023.8000      8.1013      2.6112      0.0699      2.3521     24.4101    115.3921
  1023.9000      8.1013      2.6301      0.0937      1.2058     24.1708    112.4083
  1024.0000      8.1069      2.6262      0.0869      1.4402     23.7737    107.8235
  1024.1000      8.1069      2.6080     -0.0152      2.5483     23.3847    105.5251
