~Version Information
VERS.                      2.0: CWLS Log ASCII Standard - VERSION 2.0
WRAP.                       NO: One line per depth step
~Well Information Block
STRT.FT               400.0000: 
STOP.FT              1577.5000: 
STEP.FT                 0.1000: 
NULL.                -999.2500: 
COMP.          Pioneer Natural Resources: COMPANY
WELL.          Lorencito 10-36-33-67: WELL
FLD.           Purgatoire River: FIELD
LOC.           2130' FSL & 2362' FEL: LOCATION
STAT.                 Colorado: State
CNTY.               Las Animas: COUNTY
CTRY. USA : Country
SECT. 36 : Section
TOWN. 33S : Township
RANG. 67W : Range
SRVC.                Patterson: SERVICE COMPANY
DATE.          Mon Aug 29 07:03:31 2005: LOG DATE
API.           05 071 08501 00: UNIQUE WELL ID
~Curve Information Block
DEPT.FT            0 000 00 00: Depth
DCAL.in                       : CDL Caliper
RHOB.g/cc                     : CDL Bulk Density
RHOC.g/cc                     : CDL Density Correction
DPOR.pu                       : CDL Density Porosity
GR.GAPI                       : Gamma Ray
NPOR.pu                       : Neutron Porosity
~Parameter Information Block
~A  Depth       DCAL        RHOB        RHOC        DPOR         GR         NPOR    
# ...
   553.6000      8.2516      2.4194     -0.0061     13.9755     67.1033     18.6219
   553.7000      8.2516      2.4247      0.0212     13.6574     67.9301     17.8527
   553.8000      8.2713      2.4237     -0.0013     13.7167     70.3971     17.1692
   553.9000      8.2713      2.4200     -0.0025     13.9423     69.4253     17.1315
   554.0000      8.3264      2.4250      0.0199     13.6362     63.1601     17.5747
   554.1000      8.3264      2.4422      0.0293     12.5959     57.5846     17.8398
   554.2000      8.3264      2.4544      0.0030     11.8558     59.5366     17.6235
   554.3000      8.2948      2.4427      0.0130     12.5609     67.5966     17.1142
   554.4000      8.2948      2.4149     -0.0125     14.2457     73.7092     16.7440
   554.5000      8.2578      2.4032     -0.0559     14.9595     73.4794     16.8055
   554.6000      8.2578      2.4250     -0.0405     13.6356     71.0341     17.0349
   554.7000      8.2578      2.4552      0.0700     11.8037     69.1930     17.1121
   554.8000      8.2559      2.4622      0.0028     11.3805     67.4942     17.0674
   554.9000      8.2559      2.4527      0.0493     11.9559     67.3619     17.0287
   555.0000      8.2685      2.4435      0.0334     12.5180     69.4073     17.0422
   555.1000      8.2685      2.4328     -0.0011     13.1623     72.5853     17.1484
   555.2000      8.2685      2.4178     -0.0113     14.0741     73.9647     17.4658
   555.3000      8.2751      2.4090     -0.0225     14.6039     70.3901     17.6892
   555.4000      8.2751      2.4178      0.0029     14.0755     63.0906     17.5481
   555.5000      8.2693      2.4391     -0.0035     12.7848     56.9581     17.4399
   555.6000      8.2693      2.4631     -0.0033     11.3293     56.3280     17.5861
   555.7000      8.2693      2.4818      0.0122     10.1960     60.5501     17.8452
   555.8000      8.2553      2.4819      0.0378     10.1898     64.2701     18.1314
   555.9000      8.2553      2.4541      0.0326     11.8699     65.8200     18.4086
   556.0000      8.2544      2.4126     -0.0229     14.3870     65.8482     18.7595
   556.1000      8.2544      2.3888      0.0105     15.8312     63.7769     19.1391
   556.2000      8.2544      2.3990     -0.0190     15.2124     61.5711     19.3833
   556.3000      8.2514      2.4291      0.0087     13.3889     62.6453     19.4689
   556.4000      8.2514      2.4518      0.0402     12.0112     66.5833     19.4773
   556.5000      8.2551      2.4583      0.0351     11.6176     70.4603     19.4404
   556.6000      8.2551      2.4621     -0.0041     11.3903     73.2976     19.2523
   556.7000      8.2551      2.4632      0.0466     11.3200     75.3991     19.0463
   556.8000      8.2562      2.4451      0.0006     12.4167     77.8180     19.1071
   556.9000      8.2562      2.4184     -0.0737     14.0338     80.3539     19.3389
   557.0000      8.2508      2.4032     -0.0017     14.9586     81.2300     19.3384
   557.1000      8.2508      2.3943     -0.0197     15.4983     80.8183     19.0608
   557.2000      8.2508      2.3910     -0.0192     15.6979     82.4576     18.9045
   557.3000      8.2020      2.3963      0.0023     15.3780     89.6277     18.9826
   557.4000      8.2020      2.4009      0.0125     15.0981    100.5666     19.0245
   557.5000      8.1602      2.4030      0.0004     14.9685    107.6085     18.7040
   557.6000      8.1602      2.4097     -0.0010     14.5647    108.1015     18.2015
   557.7000      8.1602      2.4195      0.0352     13.9702    107.8267     18.1054
   557.8000      8.1484      2.4250      0.0971     13.6359    109.6803     18.4591
   557.9000      8.1484      2.4280      0.0787     13.4551    110.9340     18.7008
   558.0000      8.1198      2.4403      0.0260     12.7108    111.0033     18.6571
   558.1000      8.1198      2.4611      0.0856     11.4509    113.2085     18.5514
   558.2000      8.1198      2.4722      0.0963     10.7754    120.9209     18.4232
   558.3000      8.0740      2.4719      0.0569     10.7953    131.3057     18.5577
   558.4000      8.0740      2.4752      0.0997     10.5938    136.9473     19.1807
   558.5000      8.1241      2.4839      0.0645     10.0689    137.5884     19.9674
   558.6000      8.1241      2.4975      0.0653      9.2450    140.5130     20.4314
   558.7000      8.1241      2.5215      0.0591      7.7853    146.0955     20.4086
   558.8000      8.1345      2.5440      0.1133      6.4233    151.2263     20.2258
   558.9000      8.1345      2.5449      0.1022      6.3723    152.6973     20.3316
   559.0000      8.1463      2.5366     -0.0075      6.8706    147.4736     20.8446
   559.1000      8.1463      2.5439      0.0648      6.4305    141.6160     21.5739
   559.2000      8.1463      2.5588      0.0354      5.5279    141.4012     22.2810
   559.3000      8.1573      2.5686      0.0380      4.9337    145.2297     22.9511
   559.4000      8.1573      2.5673      0.0771      5.0113    148.6265     23.7065
   559.5000      8.1374      2.5475      0.0385      6.2117    147.4252     24.5229
   559.6000      8.1374      2.5276     -0.0695      7.4154    141.7065     25.2983
   559.7000      8.1374      2.5322     -0.0054      7.1423    134.2265     25.6889
   559.8000      8.1387      2.5528     -0.0072      5.8909    128.9005     25.6559
   559.9000      8.1387      2.5742      0.0192      4.5915    128.5080     25.6586
   560.0000      8.1739      2.5919      0.0636      3.5193    132.3446     25.5467
   560.1000      8.1739      2.5979      0.0369      3.1579    138.8682     24.9952
   560.2000      8.1739      2.5889      0.0202      3.7010    142.1469     24.3549
   560.3000      8.1872      2.5767     -0.0350      4.4444    136.1590     24.0174
   560.4000      8.1872      2.5712     -0.0374      4.7740    123.5897     24.2428
   560.5000      8.1933      2.5657      0.0113      5.1121    115.2100     24.8305
   560.6000      8.1933      2.5556     -0.0147      5.7201    118.5070     25.1731
   560.7000      8.1933      2.5470     -0.0062      6.2432    128.6993     25.2993
   560.8000      8.1914      2.5424     -0.0166      6.5194    136.8643     25.6051
   560.9000      8.1914      2.5478     -0.0281      6.1960    142.9016     26.0570
   561.0000      8.1545      2.5716     -0.0167      4.7495    146.6871     26.2252
   561.1000      8.1545      2.6061      0.0283      2.6606    144.2392     25.8440
   561.2000      8.1545      2.6241      0.0397      1.5705    139.4068     25.1805
   561.3000      8.1406      2.6174      0.0062      1.9733    137.8193     24.8849
   561.4000      8.1406      2.6097     -0.0483      2.4435    136.9800     25.1068
   561.5000      8.1331      2.6145      0.0498      2.1517    134.1806     25.4408
   561.6000      8.1331      2.6255      0.0207      1.4829    131.1235     25.6775
   561.7000      8.1331      2.6348      0.0879      0.9230    129.2877     25.7623
   561.8000      8.1399      2.6351      0.0057      0.9035    126.6176     25.5764
   561.9000      8.1399      2.6318      0.0232      1.1018    120.6527     25.2404
   562.0000      8.1424      2.6203      0.0358      1.7997    113.0862     25.1915
   562.1000      8.1424      2.5832     -0.0126      4.0463    107.7824     25.5867
   562.2000      8.1424      2.5364     -0.0359      6.8825    105.2382     25.9359
   562.3000      8.1642      2.5206     -0.0426      7.8401    107.7870     25.8684
   562.4000      8.1642      2.5383     -0.0104      6.7694    120.3638     25.6382
   562.5000      8.1666      2.5493     -0.0259      6.1055    138.4567     25.3758
   562.6000      8.1666      2.5316     -0.0302      7.1733    152.9820     24.9370
   562.7000      8.1666      2.4957      0.0137      9.3500    160.8485     24.3931
   562.8000      8.1458      2.4628     -0.0265     11.3464    167.0244     24.0184
   562.9000      8.1458      2.4529     -0.0016     11.9484    174.8230     23.7077
   563.0000      8.1386      2.4625      0.0061     11.3609    176.6781     23.0057
   563.1000      8.1386      2.4633     -0.0052     11.3134    167.2134     21.8600
