~Version Information
VERS.                      2.0: CWLS Log ASCII Standard - VERSION 2.0
WRAP.                       NO: One line per depth step
~Well Information Block
STRT.FT               525.0000: 
STOP.FT              2377.2500: 
STEP.FT                 0.2500: 
NULL.                -999.2500: 
COMP.          Pioneer Natural Resources: COMPANY
WELL.          Sparrowhawk 22-12: WELL
FLD.           Purgatoire River: FIELD
LOC.           2049' FNL & 2060' FWL--: LOCATION
CNTY.               Las Animas: COUNTY
SRVC.                Patterson: SERVICE COMPANY
DATE.          Thu Mar 23 10:52:44 2006: LOG DATE
UWI.           05 071 08484 00: UNIQUE WELL ID
STAT.                 Colorado: STATE
~Curve Information Block
DEPT.FT            0 000 00 00: Depth
SN.Ohm-m                      : IEL Short Normal
SP.mV                         : IEL Spontaneous Potential
DIR.Ohm-m                     : IEL Induction Resistivity
GR.GAPI                       : Gamma Ray
~Parameter Information Block
~A  Depth        SN          SP         DIR          GR     
# ...
  1496.5000     10.8315     55.5616      8.3700     92.3781
  1496.7500      9.6760     55.5412      7.7732     94.7153
  1497.0000      8.8206     55.5287      7.3118     97.1361
  1497.2500      8.1990     55.5123      6.9610     98.7536
  1497.5000      7.7348     55.4832      6.7010    101.1034
  1497.7500      7.3752     55.4371      6.5160    102.1777
  1498.0000      7.1063     55.3743      6.3930    102.7096
  1498.2500      6.9447     55.2995      6.3213    102.4630
  1498.5000      6.9117     55.2209      6.2916    101.6150
  1498.7500      7.0054     55.1484      6.2948    101.1134
  1499.0000      7.1880     55.0925      6.3217    101.3358
  1499.2500      7.3979     55.0633      6.3625    102.5046
  1499.5000      7.5779     55.0689      6.4082    105.5540
  1499.7500      7.6975     55.1140      6.4520    107.7800
  1500.0000      7.7543     55.1992      6.4902    110.0617
  1500.2500      7.7606     55.3204      6.5216    110.5382
  1500.5000      7.7311     55.4692      6.5481    110.2025
  1500.7500      7.6823     55.6346      6.5743    109.8194
  1501.0000      7.6347     55.8053      6.6078    109.5183
  1501.2500      7.6078     55.9718      6.6571    109.5983
  1501.5000      7.6110     56.1280      6.7292    110.4184
  1501.7500      7.6387     56.2719      6.8268    111.5791
  1502.0000      7.6745     56.4047      6.9458    113.9989
  1502.2500      7.6996     56.5296      7.0756    115.7290
  1502.5000      7.7025     56.6497      7.2009    118.2180
  1502.7500      7.6835     56.7669      7.3069    119.8442
  1503.0000      7.6526     56.8804      7.3847    121.9311
  1503.2500      7.6215     56.9869      7.4346    122.5513
  1503.5000      7.5970     57.0811      7.4642    121.6538
  1503.7500      7.5808     57.1552      7.4830    120.0905
  1504.0000      7.5720     57.2004      7.4968    117.4659
  1504.2500      7.5662     57.2072      7.5053    115.9667
  1504.5000      7.5542     57.1663      7.5035    113.9388
  1504.7500      7.5267     57.0707      7.4852    112.5552
  1505.0000      7.4816     56.9180      7.4477    110.7191
  1505.2500      7.4273     56.7143      7.3936    109.8852
  1505.5000      7.3763     56.4771      7.3298    108.9108
  1505.7500      7.3336     56.2380      7.2629    108.1048
  1506.0000      7.2920     56.0424      7.1960    106.9140
  1506.2500      7.2387     55.9455      7.1267    106.7556
  1506.5000      7.1656     56.0059      7.0479    108.2246
  1506.7500      7.0725     56.2756      6.9507    110.2379
  1507.0000      6.9642     56.7893      6.8287    114.1083
  1507.2500      6.8468     57.5544      6.6808    116.8599
  1507.5000      6.7258     58.5442      6.5111    120.7366
  1507.7500      6.6049     59.6961      6.3280    122.9082
  1508.0000      6.4853     60.9155      6.1414    125.3839
  1508.2500      6.3672     62.0873      5.9603    126.6784
  1508.5000      6.2510     63.0927      5.7919    128.5949
  1508.7500      6.1397     63.8298      5.6408    130.0011
  1509.0000      6.0394     64.2322      5.5086    132.1625
  1509.2500      5.9583     64.2819      5.3949    133.4452
  1509.5000      5.9038     64.0110      5.2977    134.5229
  1509.7500      5.8777     63.4933      5.2148    134.1574
  1510.0000      5.8735     62.8258      5.1450    131.5009
  1510.2500      5.8786     62.1082      5.0876    128.6395
  1510.5000      5.8804     61.4244      5.0427    124.0504
  1510.7500      5.8702     60.8312      5.0105    121.5870
  1511.0000      5.8420     60.3556      4.9914    119.5443
  1511.2500      5.7887     59.9997      4.9853    119.2816
  1511.5000      5.7029     59.7493      4.9923    120.0578
  1511.7500      5.5840     59.5834      5.0120    121.0916
  1512.0000      5.4431     59.4823      5.0449    123.1784
  1512.2500      5.2998     59.4317      5.0910    124.7584
  1512.5000      5.1742     59.4238      5.1495    126.7872
  1512.7500      5.0777     59.4559      5.2175    127.4842
  1513.0000      5.0106     59.5267      5.2898    127.2334
  1513.2500      4.9650     59.6336      5.3605    126.3537
  1513.5000      4.9360     59.7703      5.4253    124.4933
  1513.7500      4.9354     59.9267      5.4836    123.2231
  1514.0000      4.9989     60.0908      5.5389    121.8019
  1514.2500      5.1767     60.2512      5.5986    121.2806
  1514.5000      5.5108     60.3995      5.6716    120.6345
  1514.7500      6.0094     60.5314      5.7677    119.7754
  1515.0000      6.6330     60.6472      5.8961    117.2456
  1515.2500      7.3047     60.7501      6.0656    114.7058
  1515.5000      7.9409     60.8446      6.2835    110.0098
  1515.7500      8.4820     60.9357      6.5542    106.6438
  1516.0000      8.9041     61.0281      6.8761    101.7330
  1516.2500      9.2090     61.1260      7.2400     98.5609
  1516.5000      9.4095     61.2331      7.6283     93.3812
  1516.7500      9.5284     61.3533      8.0182     89.1943
  1517.0000      9.6089     61.4896      8.3873     81.7263
  1517.2500      9.7175     61.6439      8.7203     76.6529
  1517.5000      9.9236     61.8162      9.0117     71.0819
  1517.7500     10.2627     62.0044      9.2644     69.9933
  1518.0000     10.7079     62.2040      9.4841     73.2137
  1518.2500     11.1716     62.4090      9.6733     78.0704
  1518.5000     11.5431     62.6127      9.8284     87.2679
  1518.7500     11.7412     62.8097      9.9418     93.3631
  1519.0000     11.7467     62.9964     10.0085    100.8697
  1519.2500     11.5943     63.1724     10.0297    104.3057
  1519.5000     11.3363     63.3396     10.0126    107.0687
  1519.7500     11.0076     63.5016      9.9636    107.7331
  1520.0000     10.6175     63.6622      9.8819    108.0688
  1520.2500     10.1697     63.8238      9.7590    108.4266
  1520.5000      9.6867     63.9874      9.5849    109.5405
  1520.7500      9.2146     64.1524      9.3567    110.4854
  1521.0000      8.8057     64.3183      9.0831    111.7403
  1521.2500      8.4959     64.4852      8.7811    112.4978
  1521.5000      8.2960     64.6543      8.4692    114.2261
  1521.7500      8.1952     64.8277      8.1626    116.2885
  1522.0000      8.1686     65.0062      7.8737    120.9898
  1522.2500      8.1813     65.1883      7.6153    124.6289
  1522.5000      8.2005     65.3688      7.4023    128.9180
  1522.7500      8.2098     65.5391      7.2508    129.9600
  1523.0000      8.2126     65.6889      7.1748    128.2009
  1523.2500      8.2169     65.8086      7.1825    125.1262
  1523.5000      8.2169     65.8921      7.2735    118.6410
  1523.7500      8.1895     65.9393      7.4385    113.6284
  1524.0000      8.1112     65.9556      7.6605    105.8725
  1524.2500      7.9850     65.9517      7.9182    100.9618
  1524.5000      7.8538     65.9405      8.1890     94.8674
  1524.7500      7.7825     65.9346      8.4509     92.3018
  1525.0000      7.8207     65.9437      8.6835     91.4974
  1525.2500      7.9762     65.9732      8.8682     92.8704
  1525.5000      8.2192     66.0241      8.9885     96.5718
  1525.7500      8.5053     66.0950      9.0307     99.3234
  1526.0000      8.7937     66.1829      8.9852    103.0991
  1526.2500      9.0475     66.2856      8.8501    105.1994
  1526.5000      9.2306     66.4017      8.6356    107.3935
  1526.7500      9.3144     66.5307      8.3645    108.1506
  1527.0000      9.2919     66.6723      8.0676    108.9328
  1527.2500      9.1830     66.8257      7.7753    109.8841
  1527.5000      9.0232     66.9891      7.5092    112.2800
  1527.7500      8.8450     67.1598      7.2789    113.9696
  1528.0000      8.6646     67.3353      7.0819    115.2965
  1528.2500      8.4830     67.5139      6.9084    114.9771
  1528.5000      8.2968     67.6944      6.7465    113.1167
  1528.7500      8.1070     67.8761      6.5871    111.6669
  1529.0000      7.9167     68.0572      6.4270    110.2404
  1529.2500      7.7231     68.2338      6.2679    109.8582
  1529.5000      7.5151     68.3996      6.1143    109.5955
  1529.7500      7.2785     68.5466      5.9711    109.5271
