~Version Information
 VERS.                                  2.0 : CWLS LAS VERSION
 WRAP.                                   NO : WRAPING MODE
 SWARE .                 MController 2.5.0J : SOFTWARE VERSION
~Well Information
 WELL.                        DUDE 43-34 TR : WELL
 COMP.    PIONEER NATURAL RESOURCES USA INC : COMPANY
 FLD.                      PURGATOIRE RIVER : FIELD
 LOC.                NE/SE SEC 34 T32S R67W : LOCATION
 DATE.                          01/25-26/06 : DATE(S) LOGGED
 SRVC.       BLANCO GEOLOGICAL SERVICES LLC : SERVICE COMPANY
 STAT.                             COLORADO : STATE
 CNTY.                           LAS ANIMAS : COUNTY
 CTRY.                                  USA : COUNTRY
 API.                       05-071-08676-00 : API NUMBER
 STRT.FT                             485.00 : START DEPTH
 STOP.FT                            1765.00 : STOP DEPTH
 STEP.FT                               1.00 : DEPTH INCREMENT
 NULL.                                -9999 : NULL VALUE
~Curve information
 DEPTH.FT                                   :
 ROP.MIN/FT                                 :
 GAS.UNITS                                  :
~ASCII Log data
# ...
      1085.0         0.27         42.1 
      1086.0         0.20         44.9 
      1087.0         0.20         47.6 
      1088.0         0.17         47.9 
      1089.0         0.17         47.7 
      1090.0         0.13         46.7 
      1091.0         0.13         45.5 
      1092.0         0.20         44.9 
      1093.0         0.30         43.3 
      1094.0         0.27         43.6 
      1095.0         0.30         40.5 
      1096.0         0.28         37.3 
      1097.0         0.27         35.2 
      1098.0         0.23         30.8 
      1099.0         0.17         28.0 
      1100.0         0.17         26.0 
      1101.0         0.20         24.8 
      1102.0         0.23         24.2 
      1103.0         0.20         24.1 
      1104.0         0.23         27.0 
      1105.0         0.30         38.1 
      1106.0         3.98        180.4 
      1107.0         0.33         41.2 
      1108.0         0.17         41.5 
      1109.0         0.28         40.9 
      1110.0         0.40         38.2 
      1111.0         0.23         35.8 
      1112.0         0.17         32.2 
      1113.0         0.17         31.0 
      1114.0         0.27         33.7 
      1115.0         0.27         41.1 
      1116.0         0.20         46.7 
      1117.0         0.27         50.2 
      1118.0         0.20         51.0 
      1119.0         0.23         51.0 
      1120.0         0.20         49.5 
      1121.0         0.20         50.8 
      1122.0         0.17         46.7 
      1123.0         0.15         44.0 
      1124.0         0.13         41.2 
      1125.0         0.13         39.9 
      1126.0         0.17         39.8 
      1127.0         0.20         38.1 
      1128.0         0.17         33.2 
      1129.0         0.13         30.3 
      1130.0         0.20         28.2 
      1131.0         0.30         26.4 
      1132.0         0.20         25.1 
      1133.0         0.20         24.8 
      1134.0         0.20         27.1 
      1135.0         0.27         36.6 
      1136.0         3.82        162.8 
      1137.0         0.37         47.9 
      1138.0         0.35         44.0 
      1139.0         0.30         37.1 
      1140.0         0.27         30.9 
      1141.0         0.33         28.6 
      1142.0         0.33         26.4 
      1143.0         0.30         25.7 
      1144.0         0.30         24.2 
      1145.0         0.23         24.3 
      1146.0         0.27         23.7 
      1147.0         0.27         25.2 
      1148.0         0.33         25.2 
      1149.0         0.28         24.9 
      1150.0         0.20         25.2 
      1151.0         0.27         24.7 
      1152.0         0.27         26.8 
      1153.0         0.23         27.4 
      1154.0         0.27         24.4 
      1155.0         0.23         24.2 
      1156.0         0.20         23.8 
      1157.0         0.20         22.3 
      1158.0         0.20         19.5 
      1159.0         0.17         18.4 
      1160.0         0.20         16.4 
      1161.0         0.23         17.0 
      1162.0         0.17         15.3 
      1163.0         0.13         15.7 
      1164.0         0.20         15.5 
      1165.0         0.32         16.4 
      1166.0         4.25        137.1 
      1167.0         0.33         31.1 
      1168.0         0.30         29.4 
      1169.0         0.20         28.9 
      1170.0         0.20         28.2 
      1171.0         0.13         29.2 
      1172.0         0.23         28.3 
      1173.0         0.40         28.0 
      1174.0         0.37         26.5 
      1175.0         0.15         25.4 
      1176.0         0.13         25.3 
      1177.0         0.13         24.8 
      1178.0         0.27         25.0 
      1179.0         0.20         25.0 
      1180.0         0.13         24.8 
      1181.0         0.33         25.1 
      1182.0         0.23         25.3 
      1183.0         0.13         23.0 
      1184.0         0.13         22.3 
      1185.0         0.13         21.2 
      1186.0         0.20         21.1 
      1187.0         0.20         19.2 
      1188.0         0.23         17.4 
      1189.0         0.20         16.8 
      1190.0         0.20         15.2 
      1191.0         0.23         15.2 
      1192.0         0.18         15.2 
      1193.0         0.17         14.7 
      1194.0         0.20         13.9 
      1195.0         0.30         16.5 
      1196.0         4.35        125.3 
      1197.0         0.33         23.1 
      1198.0         0.33         21.2 
      1199.0         0.30         18.9 
      1200.0         0.27         18.5 
      1201.0         0.27         18.3 
      1202.0         0.32         17.0 
      1203.0         0.27         17.5 
      1204.0         0.37         17.4 
      1205.0         0.30         17.3 
      1206.0         0.27         17.4 
      1207.0         0.27         16.5 
      1208.0         0.40         16.4 
      1209.0         0.33         16.5 
      1210.0         0.40         17.6 
      1211.0         0.47         19.2 
      1212.0         0.32         20.6 
      1213.0         0.23         20.2 
      1214.0         0.27         20.0 
      1215.0         0.30         19.4 
      1216.0         0.20         21.1 
      1217.0         0.23         24.2 
      1218.0         0.33         28.9 
      1219.0         0.27         30.8 
      1220.0         0.30         32.6 
      1221.0         0.23         32.0 
      1222.0         0.20         31.2 
      1223.0         0.13         30.3 
      1224.0         0.10         30.0 
      1225.0         0.27         30.7 
      1226.0         4.30        204.2 
      1227.0         0.13         58.1 
      1228.0         0.10         56.7 
      1229.0         0.13         54.8 
      1230.0         0.27         53.0 
      1231.0         0.37         50.3 
      1232.0         0.33         45.7 
      1233.0         0.23         43.2 
      1234.0         0.30         41.0 
      1235.0         0.27         39.7 
      1236.0         0.30         38.3 
      1237.0         0.35         43.7 
      1238.0         0.20         47.0 
      1239.0         0.17         51.8 
      1240.0         0.27         57.6 
      1241.0         0.23         60.7 
      1242.0         0.20         58.2 
      1243.0         0.20         52.4 
      1244.0         0.17         50.1 
      1245.0         0.17         50.6 
      1246.0         0.10         51.1 
      1247.0         0.13         51.3 
      1248.0         0.17         50.7 
      1249.0         0.20         49.9 
      1250.0         0.20         48.9 
      1251.0         0.33         48.3 
      1252.0         0.20         46.2 
      1253.0         0.22         45.6 
      1254.0         0.13         44.9 
      1255.0         0.13         45.7 
      1256.0         4.48        311.1 
      1257.0         0.33         59.5 
      1258.0         0.37         55.4 
      1259.0         0.30         51.5 
      1260.0         0.30         49.1 
      1261.0         0.27         46.3 
      1262.0         0.35         45.6 
      1263.0         0.23         44.4 
      1264.0         0.17         42.7 
      1265.0         0.17         42.9 
      1266.0         0.30         42.4 
      1267.0         0.27         41.8 
      1268.0         0.23         42.0 
      1269.0         0.20         42.9 
      1270.0         0.20         44.1 
      1271.0         0.20         41.6 
      1272.0         0.20         46.2 
      1273.0         0.20         59.5 
      1274.0         0.20         83.4 
      1275.0         0.23        111.4 
      1276.0         0.23        119.8 
      1277.0         0.25        119.8 
      1278.0         0.23        110.1 
      1279.0         0.20         99.9 
      1280.0         0.17         94.8 
      1281.0         0.20         90.4 
      1282.0         0.13         84.9 
      1283.0         0.13         79.0 
      1284.0         0.17         76.3 
