~Version Information
VERS.                      2.0: CWLS Log ASCII Standard - VERSION 2.0
WRAP.                       NO: One line per depth step
~Well Information Block
STRT.FT                -7.5000: 
STOP.FT              1572.0000: 
STEP.FT                 0.2500: 
NULL.                -999.2500: 
COMP.          Pioneer Natural Resources: COMPANY
WELL.          Galloway 32-13 Tr: WELL
FLD.           Purgatoire River: FIELD
LOC.           --1910' FNL & 2002' FEL----: LOCATION
PROV.                       CO: PROVINCE
CNTY.               Las Animas: COUNTRY
SRVC.          Patterson Wireline: SERVICE COMPANY
DATE.          Thu Nov 17 12:46:45 2005: LOG DATE
UWI.           05 071 08608 00: UNIQUE WELL ID
~Curve Information Block
DEPT.FT            0 000 00 00: Depth
CCL.                          : Casing Collar Locator
TT3.usec                      : CBL 3' Travel Time
AMP3.mV                       : CBL 3' Amplitude
GR.GAPI                       : Gamma Ray
~Parameter Information Block
~A  Depth       CCL         TT3         AMP3         GR     
# ...
   930.5000      0.0000    285.0981     42.6372    101.4963
   930.7500      0.0000    285.0360     42.7770     97.5877
   931.0000      0.0000    284.9206     43.0917     95.8737
   931.2500      0.0000    284.8024     43.4400     96.8475
   931.5000      0.0000    284.7860     43.6151     99.9697
   931.7500      0.0000    285.0980     43.4199    104.2220
   932.0000      0.0000    286.2040     42.7478    108.7363
   932.2500      0.0000    288.8255     41.6060    113.1204
   932.5000      0.0000    293.5971     40.0771    116.8976
   932.7500      0.0000    300.3979     38.2603    118.8624
   933.0000      0.0000    308.0027     36.2429    117.8545
   933.2500      0.0000    314.6761     34.1129    114.2827
   933.5000      0.0000    319.2829     31.9860    110.1304
   933.7500      0.0000    321.8077     29.9924    107.3090
   934.0000      0.0000    322.9462     28.2174    106.4331
   934.2500      0.0000    323.4309     26.6719    107.0093
   934.5000      0.0000    323.7007     25.3513    108.1499
   934.7500      0.0000    323.9105     24.3405    109.0252
   935.0000      0.0000    324.0373     23.8522    109.2099
   935.2500      0.0000    323.9511     24.1465    109.0625
   935.5000      0.0000    323.4159     25.3878    109.6568
   935.7500      0.0000    322.0062     27.5563    111.8901
   936.0000      0.0000    319.0588     30.4786    115.2924
   936.2500      0.0000    313.9503     33.9398    117.9466
   936.5000      0.0000    306.7566     37.7628    118.0343
   936.7500      0.0000    298.6728     41.8002    115.4591
   937.0000      0.0000    291.4787     45.9032    111.8296
   937.2500      0.0000    286.4005     49.9488    109.0414
   937.5000      0.0000    283.5222     53.8798    107.9545
   937.7500      0.0000    282.1741     57.6599    108.1376
   938.0000      0.0000    281.6263     61.1792    108.6334
   938.2500      0.0000    281.4253     64.2506    109.1212
   938.5000      0.0000    281.3620     66.7169    110.4216
   938.7500      0.0000    281.3498     68.5458    113.5856
   939.0000      0.0000    281.3524     69.8256    118.3166
   939.2500      0.0000    281.3564     70.7025    122.6348
   939.5000      0.0000    281.3589     71.3207    124.3460
   939.7500      0.0000    281.3598     71.7809    122.5218
   940.0000      0.0000    281.3578     72.1235    117.3865
   940.2500      0.0000    281.3523     72.3476    109.4017
   940.5000      0.0000    281.3444     72.4502     99.1127
   940.7500      0.0000    281.3365     72.4482     87.7329
   941.0000      0.0000    281.3313     72.3694     77.1185
   941.2500      0.0000    281.3299     72.2351     68.7576
   941.5000      0.0000    281.3315     72.0556     62.9792
   941.7500      0.0000    281.3333     71.8429     59.3102
   942.0000      0.0000    281.3319     71.6218     57.3956
   942.2500      0.0000    281.3258     71.4215     57.2987
   942.5000      0.0000    281.3167     71.2491     58.9926
   942.7500      0.0000    281.3081     71.0775     62.0621
   943.0000      0.0000    281.3031     70.8673     66.2890
   943.2500      0.0000    281.3028     70.6057     72.3113
   943.5000      0.0000    281.3074     70.3207     80.9533
   943.7500      0.0000    281.3174     70.0559     91.4119
   944.0000      0.0000    281.3338     69.8309    100.3960
   944.2500      0.0000    281.3573     69.6281    103.7438
   944.5000      0.0000    281.3867     69.4177     99.3248
   944.7500      0.0000    281.4185     69.1909     88.5430
   945.0000      0.0000    281.4488     68.9703     75.2376
   945.2500      0.0000    281.4744     68.7936     63.2506
   945.5000      0.0000    281.4936     68.6941     54.6292
   945.7500      0.0000    281.5047     68.6896     49.3826
   946.0000      0.0000    281.5068     68.7756     46.4400
   946.2500      0.0000    281.5005     68.9250     44.8711
   946.5000      0.0000    281.4876     69.0996     44.4443
   946.7500      0.0000    281.4702     69.2727     45.1868
   947.0000      0.0000    281.4506     69.4480     46.6127
   947.2500      0.0000    281.4313     69.6593     47.6260
   947.5000      0.0000    281.4149     69.9474     47.3162
   947.7500      0.0000    281.4023     70.3312     45.9729
   948.0000      0.0000    281.3922     70.7962     45.2936
   948.2500      0.0000    281.3809     71.3078     47.3184
   948.5000      0.0000    281.3649     71.8307     52.9160
   948.7500      0.0000    281.3428     72.3357     61.2702
   949.0000      0.0000    281.3157     72.7978     70.6848
   949.2500      0.0000    281.2861     73.1921     79.7053
   949.5000      0.0000    281.2560     73.4963     87.6049
   949.7500      0.0000    281.2262     73.7000     94.2165
   950.0000      0.0000    281.1981     73.8190     99.6526
   950.2500      0.0000    281.1748     73.8966    104.2767
   950.5000      0.0000    281.1593     73.9808    108.7434
   950.7500      0.0000    281.1523     74.0948    113.6694
   951.0000      0.0000    281.1517     74.2294    118.9767
   951.2500      0.0000    281.1535     74.3612    123.7886
   951.5000      0.0000    281.1541     74.4733    127.2957
   951.7500      0.0000    281.1519     74.5590    129.4345
   952.0000      0.0000    281.1473     74.6131    130.2092
   952.2500      0.0000    281.1419     74.6274    128.6668
   952.5000      0.0000    281.1374     74.5923    123.3416
   952.7500      0.0000    281.1353     74.4995    113.8909
   953.0000      0.0000    281.1370     74.3395    101.8557
   953.2500      0.0000    281.1438     74.1041     89.7014
   953.5000      0.0000    281.1573     73.7975     79.3252
   953.7500      0.0000    281.1790     73.4499     71.3656
   954.0000      0.0000    281.2089     73.1256     65.5090
   954.2500      0.0000    281.2447     72.9106     61.3117
   954.5000      0.0000    281.2812     72.8777     58.8110
   954.7500      0.0000    281.3122     73.0516     58.3132
   955.0000      0.0000    281.3324     73.3978     59.6694
   955.2500      0.0000    281.3388     73.8418     62.1546
   955.5000      0.0000    281.3306     74.2993     65.2386
   955.7500      0.0000    281.3087     74.7009     69.2334
   956.0000      0.0000    281.2753     75.0038     74.9553
   956.2500      0.0000    281.2355     75.1901     82.7870
   956.5000      0.0000    281.1964     75.2593     92.2214
   956.7500      0.0000    281.1653     75.2234    102.2027
   957.0000      0.0000    281.1471     75.1087    111.4458
   957.2500      0.0000    281.1426     74.9502    118.4440
   957.5000      0.0000    281.1490     74.7789    122.0143
   957.7500      0.0000    281.1612     74.6079    122.4261
   958.0000      0.0000    281.1743     74.4304    121.5024
   958.2500      0.0000    281.1850     74.2290    120.9755
   958.5000      0.0000    281.1919     73.9894    120.8172
   958.7500      0.0000    281.1953     73.7086    119.5269
   959.0000      0.0000    281.1990     73.3953    116.1606
   959.2500      0.0000    281.2168     73.0483    111.8413
   959.5000      0.0000    281.3053     72.5901    109.0311
   959.7500      0.0000    281.6306     71.7643    109.4054
   960.0000      0.0000    282.5312     70.0903    112.6450
   960.2500      0.0000    284.4126     67.1179    117.1112
   960.5000      0.0000    287.3378     62.9986    121.2501
   960.7500      0.0000    290.6007     58.7679    124.2106
   961.0000      0.0000    292.9601     55.6914    125.5155
   961.2500      0.0000    293.6013     54.2329    124.5915
   961.5000      0.0000    292.7951     53.8984    120.8877
   961.7500      0.0000    291.4851     53.9890    114.6140
   962.0000      0.0000    290.4265     54.1495    107.1987
   962.2500      0.0000    289.8642     54.2752    100.7453
   962.5000      0.0000    289.7973     54.2839     96.9937
   962.7500      2.0000    290.3061     54.0728     96.5478
   963.0000      0.0000    291.5514     53.6233     98.5366
   963.2500      0.0000    293.3736     53.1827    101.0522
   963.5000      0.0000    294.8884     53.3523    102.6529
   963.7500      0.0000    294.8177     54.7755    103.8033
