~Version Information
VERS.                      2.0: CWLS Log ASCII Standard - VERSION 2.0
WRAP.                       NO: One line per depth step
~Well Information Block
STRT.FT               310.0000: 
STOP.FT              2298.0000: 
STEP.FT                 0.2500: 
NULL.                -999.2500: 
COMP.          Pioneer Natural Resources: COMPANY
WELL.               Relay 12-7: WELL
FLD.           Purgatoire River: FIELD
LOC.           1999' FNL & 848' FWL: LOCATION
PROV.                 Colorado: PROVINCE
CNTY.               Las Animas: COUNTRY
SRVC.                Patterson: SERVICE COMPANY
DATE.          Fri Dec 16 17:39:57 2005: LOG DATE
UWI.           05 071 08453 00: UNIQUE WELL ID
~Curve Information Block
DEPT.FT            0 000 00 00: Depth
SN.Ohm-m                      : IEL Short Normal
SP.mV                         : IEL Spontaneous Potential
DIR.Ohm-m                     : IEL Induction Resistivity
GR.GAPI                       : Gamma Ray
~Parameter Information Block
~A  Depth        SN          SP         DIR          GR     
# ...
  1616.5000     17.5980     56.4059     16.1784    118.6771
  1616.7500     18.3803     55.9002     17.3554    116.0138
  1617.0000     19.4292     55.4071     18.5195    109.4299
  1617.2500     20.5612     54.9436     19.6086    104.1170
  1617.5000     21.7356     54.5346     20.5830     96.6364
  1617.7500     23.0353     54.2075     21.4461     93.1008
  1618.0000     24.5659     53.9850     22.2407     91.4153
  1618.2500     26.2237     53.8771     23.0239     92.7690
  1618.5000     27.6245     53.8782     23.8457     96.8460
  1618.7500     28.5199     53.9680     24.7364     99.4669
  1619.0000     29.0921     54.1163     25.6933    101.6964
  1619.2500     29.6263     54.2871     26.6570    102.0597
  1619.5000     30.1697     54.4432     27.4932    101.5135
  1619.7500     30.6317     54.5548     28.0148    100.5029
  1620.0000     30.9274     54.6120     28.0673     97.9691
  1620.2500     31.0104     54.6318     27.6291     96.0038
  1620.5000     30.9789     54.6482     26.8277     94.0315
  1620.7500     31.0482     54.6916     25.8501     93.9433
  1621.0000     31.2158     54.7720     24.8398     95.4873
  1621.2500     31.0641     54.8777     23.8591     97.1669
  1621.5000     30.1235     54.9868     22.9132    100.2746
  1621.7500     28.3639     55.0805     21.9875    103.0017
  1622.0000     26.2213     55.1487     21.0703    108.8571
  1622.2500     24.2360     55.1889     20.1603    113.9850
  1622.5000     22.6178     55.2011     19.2676    122.4132
  1622.7500     21.1045     55.1816     18.4053    127.6649
  1623.0000     19.4649     55.1203     17.5791    134.2394
  1623.2500     17.9369     55.0025     16.7816    137.6721
  1623.5000     16.8414     54.8177     15.9995    141.1198
  1623.7500     16.1479     54.5716     15.2261    142.0489
  1624.0000     15.6160     54.2891     14.4675    141.5506
  1624.2500     15.0670     54.0073     13.7385    140.4911
  1624.5000     14.4996     53.7600     13.0541    138.9170
  1624.7500     14.0047     53.5648     12.4233    138.3083
  1625.0000     13.6070     53.4201     11.8469    138.4221
  1625.2500     13.2750     53.3072     11.3195    139.3569
  1625.5000     12.9744     53.1991     10.8348    142.3586
  1625.7500     12.6788     53.0706     10.3904    145.3737
  1626.0000     12.3960     52.9101      9.9883    150.4895
  1626.2500     12.1375     52.7248      9.6314    153.4393
  1626.5000     11.8883     52.5367      9.3184    156.1126
  1626.7500     11.6874     52.3713      9.0432    156.6165
  1627.0000     11.6691     52.2470      8.7989    155.7118
  1627.2500     11.9004     52.1691      8.5817    154.2153
  1627.5000     12.1898     52.1302      8.3928    151.4820
  1627.7500     12.2728     52.1167      8.2366    150.3013
  1628.0000     12.1451     52.1176      8.1183    151.3068
  1628.2500     11.9512     52.1288      8.0417    154.2505
  1628.5000     11.6781     52.1544      8.0079    160.7809
  1628.7500     11.2094     52.2045      8.0136    164.7651
  1629.0000     10.5866     52.2881      8.0515    166.9579
  1629.2500      9.9808     52.4064      8.1107    164.9458
  1629.5000      9.5486     52.5504      8.1792    157.3404
  1629.7500      9.4553     52.7051      8.2478    150.3803
  1630.0000      9.7699     52.8571      8.3129    139.2347
  1630.2500     10.3458     53.0012      8.3775    132.5082
  1630.5000     11.0513     53.1403      8.4508    125.5501
  1630.7500     11.9487     53.2827      8.5459    123.9405
  1631.0000     13.0272     53.4364      8.6774    126.1119
  1631.2500     14.0063     53.6049      8.8595    129.5744
  1631.5000     14.5535     53.7841      9.1042    135.2534
  1631.7500     14.5367     53.9646      9.4189    138.1484
  1632.0000     14.0887     54.1368      9.8038    139.8580
  1632.2500     13.4654     54.2987     10.2506    138.7400
  1632.5000     12.8471     54.4632     10.7426    133.1884
  1632.7500     12.3586     54.6584     11.2580    127.1093
  1633.0000     12.1508     54.9226     11.7760    115.9391
  1633.2500     12.2896     55.2945     12.2859    108.4172
  1633.5000     12.7208     55.8035     12.7941     98.8341
  1633.7500     13.4210     56.4577     13.3261     94.0233
  1634.0000     14.4733     57.2346     13.9186     89.1159
  1634.2500     15.9745     58.0809     14.6082     87.1982
  1634.5000     17.9832     58.9252     15.4220     86.0218
  1634.7500     20.5933     59.7002     16.3760     86.1456
  1635.0000     23.8016     60.3618     17.4782     87.3435
  1635.2500     27.2152     60.8998     18.7310     88.7311
  1635.5000     30.1577     61.3314     20.1249     91.5382
  1635.7500     32.1942     61.6837     21.6218     93.5231
  1636.0000     33.4031     61.9755     23.1414     95.7617
  1636.2500     34.0830     62.2087     24.5701     96.6415
  1636.5000     34.4327     62.3723     25.8014     97.7825
  1636.7500     34.6061     62.4571     26.7807     98.6903
  1637.0000     34.7867     62.4699     27.5181     99.5092
  1637.2500     35.1000     62.4387     28.0692     99.0984
  1637.5000     35.5734     62.3999     28.5101     97.2379
  1637.7500     36.1829     62.3776     28.9209     95.8555
  1638.0000     36.8662     62.3717     29.3705     94.2958
  1638.2500     37.5062     62.3677     29.8953     93.4003
  1638.5000     38.0511     62.3528     30.4806     91.4626
  1638.7500     38.6093     62.3212     31.0567     89.4710
  1639.0000     39.2948     62.2704     31.5233     85.4944
  1639.2500     39.9968     62.2002     31.8004     82.5707
  1639.5000     40.3700     62.1149     31.8755     79.0839
  1639.7500     40.1743     62.0209     31.8040     78.2829
  1640.0000     39.5769     61.9211     31.6617     80.1759
  1640.2500     38.9614     61.8122     31.4976     83.0362
  1640.5000     38.5447     61.6903     31.3259     87.6198
  1640.7500     38.2958     61.5590     31.1473     89.6779
  1641.0000     38.1265     61.4320     30.9669     90.7803
  1641.2500     37.9980     61.3291     30.7887     90.9271
  1641.5000     37.8064     61.2690     30.6000     91.9112
  1641.7500     37.3234     61.2608     30.3660     93.4197
  1642.0000     36.4144     61.2977     30.0479     96.3279
  1642.2500     35.1908     61.3559     29.6309     98.2258
  1642.5000     33.8432     61.4044     29.1442    100.8107
  1642.7500     32.5184     61.4222     28.6525    102.4331
  1643.0000     31.4093     61.4094     28.2277    104.6710
  1643.2500     30.7372     61.3860     27.9208    105.9538
  1643.5000     30.5488     61.3796     27.7529    107.4259
  1643.7500     30.6357     61.4122     27.7194    107.8392
  1644.0000     30.7534     61.4914     27.7969    106.7978
  1644.2500     30.8678     61.6092     27.9444    104.7591
  1644.5000     31.0961     61.7463     28.1038    100.4896
  1644.7500     31.5455     61.8782     28.2093     97.8098
  1645.0000     32.2883     61.9818     28.2032     95.1479
  1645.2500     33.2682     62.0416     28.0520     94.0451
  1645.5000     34.2104     62.0550     27.7524     92.1653
  1645.7500     34.8086     62.0342     27.3233     90.4532
  1646.0000     34.9475     62.0037     26.7886     88.0780
  1646.2500     34.5847     61.9910     26.1611     87.4448
  1646.5000     33.6891     62.0142     25.4375     88.4378
  1646.7500     32.4483     62.0733     24.6064     89.8021
  1647.0000     31.1449     62.1516     23.6621     90.9500
  1647.2500     29.8032     62.2256     22.6140     90.3657
  1647.5000     28.2042     62.2763     21.4890     88.4033
  1647.7500     26.1893     62.2933     20.3246     88.0628
  1648.0000     23.9332     62.2730     19.1616     91.6840
  1648.2500     21.9311     62.2138     18.0380     97.1396
  1648.5000     20.5894     62.1142     16.9876    107.8243
  1648.7500     19.8553     61.9750     16.0403    114.6870
  1649.0000     19.3382     61.8044     15.2218    122.1367
  1649.2500     18.6255     61.6213     14.5515    125.0560
  1649.5000     17.5349     61.4521     14.0359    128.0912
  1649.7500     16.2794     61.3214     13.6604    130.5027
