~Version Information
VERS.                      2.0: CWLS Log ASCII Standard - VERSION 2.0
WRAP.                       NO: One line per depth step
~Well Information Block
STRT.FT                10.0000: 
STOP.FT              1360.0000: 
STEP.FT                 0.1000: 
NULL.                -999.2500: 
COMP.          Pioneer Natural Resources: COMPANY
WELL.              Geyser 41-2: WELL
FLD.           Purgatorie River: FIELD
LOC.           506' FNL & 1127' FEL: LOCATION
PROV.                 Colorado: PROVINCE
CNTY.               Las Animas: COUNTRY
SRVC.                Patterson: SERVICE COMPANY
DATE.          Thu Dec 01 07:38:14 2005: LOG DATE
UWI.                          : UNIQUE WELL ID
~Curve Information Block
DEPT.FT            0 000 00 00: Depth
DCAL.in                       : CDL Caliper
RHOB.g/cc                     : CDL Bulk Density
RHOC.g/cc                     : CDL Density Correction
DPOR.pu                       : CDL Density Porosity
GR.GAPI                       : Gamma Ray
NPOR.pu                       : Neutron Porosity
~Parameter Information Block
~A  Depth       DCAL        RHOB        RHOC        DPOR         GR         NPOR    
# ...
  1162.0000      7.8337      2.5329      0.0301      7.0947     74.4039     23.3232
  1162.1000      7.8337      2.5148      0.0381      8.1956     80.3432     22.8157
  1162.2000      7.8337      2.5072      0.0451      8.6555     84.5212     22.1084
  1162.3000      7.8077      2.5175      0.0045      8.0299     84.6437     21.5151
  1162.4000      7.8077      2.5420      0.1100      6.5449     84.9891     21.0099
  1162.5000      7.8025      2.5624      0.0858      5.3088     87.7944     20.4886
  1162.6000      7.8025      2.5711      0.1304      4.7826     90.9826     20.0982
  1162.7000      7.8025      2.5677      0.1304      4.9863     92.2974     20.1200
  1162.8000      7.8009      2.5563      0.0984      5.6783     92.9279     20.3187
  1162.9000      7.8009      2.5507      0.0883      6.0166     94.4018     20.3269
  1163.0000      7.8015      2.5557      0.0997      5.7170     96.0850     20.3725
  1163.1000      7.8015      2.5582      0.0971      5.5643     96.9155     20.5514
  1163.2000      7.8015      2.5512      0.0843      5.9909     96.6965     20.6519
  1163.3000      7.8268      2.5460      0.0392      6.3038     96.7204     20.8185
  1163.4000      7.8268      2.5509      0.0620      6.0031     96.9894     21.1824
  1163.5000      7.8673      2.5531      0.0995      5.8722     97.3886     21.5341
  1163.6000      7.8673      2.5389      0.0713      6.7350     99.8411     21.7881
  1163.7000      7.8673      2.5150      0.0568      8.1814    102.9120     22.0957
  1163.8000      7.8864      2.4991      0.0270      9.1469    103.5835     22.4127
  1163.9000      7.8864      2.4982      0.0757      9.1970    103.0618     22.6293
  1164.0000      7.9176      2.5018      0.0186      8.9793    103.2255     22.9754
  1164.1000      7.9176      2.4972      0.0196      9.2593    103.8615     23.5513
  1164.2000      7.9176      2.4823      0.0044     10.1638    104.6160     24.1996
  1164.3000      7.9279      2.4694      0.0051     10.9470    104.6362     24.8646
  1164.4000      7.9279      2.4695      0.0180     10.9386    104.7729     25.3460
  1164.5000      7.9313      2.4754      0.0271     10.5833    107.6705     25.4049
  1164.6000      7.9313      2.4733      0.0089     10.7100    111.6492     25.0185
  1164.7000      7.9313      2.4471      0.0078     12.2984    113.1157     24.2436
  1164.8000      7.9408      2.3739      0.0058     16.7349    111.9337     23.0771
  1164.9000      7.9408      2.2590     -0.0722     23.6980    108.0646     21.6568
  1165.0000      7.9272      2.1355     -0.1147     31.1796    101.3988     20.1052
  1165.1000      7.9272      2.0084     -0.1063     38.8831     93.5198     18.3590
  1165.2000      7.9272      1.8668     -0.1299     47.4691     84.7809     16.5324
  1165.3000      7.9295      1.7235     -0.1844     56.1521     75.2461     14.9961
  1165.4000      7.9295      1.5822     -0.1278     64.7132     67.6193     14.0631
  1165.5000      7.9361      1.4355     -0.1626     73.6077     63.0638     13.5949
  1165.6000      7.9361      1.3162     -0.2085     80.8385     60.5235     13.2755
  1165.7000      7.9361      1.2604     -0.0980     84.2204     59.4922     12.9976
  1165.8000      7.9111      1.2492     -0.0450     84.8980     58.3972     12.7486
  1165.9000      7.9111      1.2462      0.0123     85.0783     55.1936     12.6771
  1166.0000      7.8856      1.2440     -0.0028     85.2112     51.2778     12.7870
  1166.1000      7.8856      1.2552      0.0316     84.5304     49.6763     12.9023
  1166.2000      7.8856      1.2793      0.1052     83.0733     50.2950     12.9829
  1166.3000      7.9285      1.2972      0.1244     81.9870     50.7534     13.0536
  1166.4000      7.9285      1.2946      0.1391     82.1466     49.5026     13.1186
  1166.5000      8.0976      1.2748      0.0806     83.3460     48.0990     13.3055
  1166.6000      8.0976      1.2543      0.0640     84.5902     48.5890     13.6752
  1166.7000      8.0976      1.2494      0.0629     84.8851     50.7383     13.9704
  1166.8000      8.1670      1.2738      0.0657     83.4034     52.9516     14.0732
  1166.9000      8.1670      1.3445      0.0434     79.1197     54.6222     14.3697
  1167.0000      8.1784      1.4656      0.1166     71.7821     57.8522     15.2025
  1167.1000      8.1784      1.6096      0.1886     63.0550     63.1702     16.4790
  1167.2000      8.1784      1.7540      0.1978     54.3047     68.1586     18.0050
  1167.3000      8.1951      1.9045      0.2963     45.1798     71.9289     19.6275
  1167.4000      8.1951      2.0550      0.3481     36.0577     75.9697     21.0418
  1167.5000      8.1418      2.1783      0.3818     28.5898     81.6841     22.1388
  1167.6000      8.1418      2.2608      0.3381     23.5902     88.6425     23.0635
  1167.7000      8.1418      2.3131      0.2209     20.4173     94.3428     23.7432
  1167.8000      7.9491      2.3451      0.1639     18.4815     97.3030     24.0591
  1167.9000      7.9491      2.3595      0.0802     17.6057     98.2646     24.2837
  1168.0000      7.8966      2.3646      0.0739     17.2966     99.6967     24.6810
  1168.1000      7.8966      2.3697      0.0309     16.9855    104.7270     25.0420
  1168.2000      7.8966      2.3851      0.0330     16.0571    112.0406     25.1346
  1168.3000      7.8740      2.4170      0.0637     14.1208    117.6018     25.1025
  1168.4000      7.8740      2.4578      0.1265     11.6482    120.6594     25.1172
  1168.5000      7.8658      2.4924      0.1264      9.5537    121.1400     25.2075
  1168.6000      7.8658      2.5165      0.1434      8.0885    118.0357     25.3360
  1168.7000      7.8658      2.5342      0.1792      7.0181    114.3310     25.4916
  1168.8000      7.8524      2.5485      0.1249      6.1528    112.1345     25.6947
  1168.9000      7.8524      2.5567      0.1588      5.6564    111.1943     25.8454
  1169.0000      7.8428      2.5520      0.1213      5.9389    112.9023     25.8997
  1169.1000      7.8428      2.5383      0.1035      6.7672    115.5335     25.9602
  1169.2000      7.8428      2.5328      0.0670      7.1011    116.7045     26.0548
  1169.3000      7.8641      2.5435      0.1118      6.4555    116.9088     26.0473
  1169.4000      7.8641      2.5513      0.0896      5.9816    116.3654     25.9377
  1169.5000      7.8569      2.5502      0.0641      6.0487    114.9066     25.8893
  1169.6000      7.8569      2.5580      0.0510      5.5765    112.8459     25.8541
  1169.7000      7.8569      2.5611      0.1344      5.3900    111.2319     25.5303
  1169.8000      7.8859      2.5226      0.0516      7.7238    108.8366     24.9600
  1169.9000      7.8859      2.4440     -0.0154     12.4864    104.3627     24.4459
  1170.0000      7.9063      2.3433      0.0010     18.5884    100.5034     23.7019
  1170.1000      7.9063      2.2175     -0.0387     26.2111     98.9324     22.2708
  1170.2000      7.9063      2.0687     -0.0700     35.2315     97.1988     20.2238
  1170.3000      7.9226      1.9150     -0.1312     44.5445     92.7790     17.9393
  1170.4000      7.9226      1.7667     -0.1677     53.5333     86.8366     16.0436
  1170.5000      7.9270      1.6277     -0.2223     61.9599     83.0752     15.0394
  1170.6000      7.9270      1.5222     -0.2088     68.3532     82.3490     14.7936
  1170.7000      7.9270      1.4906     -0.2161     70.2677     82.2633     14.9584
  1170.8000      7.9571      1.5544     -0.0800     66.4015     81.9702     15.3751
  1170.9000      7.9571      1.6916      0.1475     58.0866     83.0112     15.9784
  1171.0000      8.0122      1.8542      0.2692     48.2286     86.0061     16.7245
  1171.1000      8.0122      2.0038      0.3830     39.1656     90.6932     17.5994
  1171.2000      8.0122      2.1280      0.4195     31.6383     96.6212     18.4573
  1171.3000      8.1376      2.2318      0.3915     25.3454    101.8393     19.3154
  1171.4000      8.1376      2.3103      0.3853     20.5870    103.5916     20.6232
  1171.5000      7.9762      2.3494      0.2447     18.2160    103.7899     22.3694
