~Version Information
VERS.                      2.0: CWLS Log ASCII Standard - VERSION 2.0
WRAP.                       NO: One line per depth step
~Well Information Block
STRT.FT               490.0000: 
STOP.FT              2303.5000: 
STEP.FT                 0.1000: 
NULL.                -999.2500: 
COMP.          Pioneer Natural Resources: COMPANY
WELL.             Baa Baa 34-1: WELL
FLD.           Purgatoire River: FIELD
LOC.           617' FSL & 2289' FEL: LOCATION
STAT.                 Colorado: State
CNTY.               Las Animas: COUNTY
CTRY. USA : Country
SECT. 1 : Section
TOWN. 33S : Township
RANG. 67W : Range
SRVC.                Patterson: SERVICE COMPANY
DATE.          Thu Sep 08 09:44:32 2005: LOG DATE
API.           05 071 08502 00: UNIQUE WELL ID
~Curve Information Block
DEPT.FT            0 000 00 00: Depth
DCAL.in                       : CDL Caliper
RHOB.g/cc                     : CDL Bulk Density
RHOC.g/cc                     : CDL Density Correction
DPOR.pu                       : CDL Density Porosity
GR.GAPI                       : Gamma Ray
NPOR.pu                       : Neutron Porosity
~Parameter Information Block
~A  Depth       DCAL        RHOB        RHOC        DPOR         GR         NPOR    
# ...
  1450.0000      7.9203      2.6063      0.0775      2.6481     99.3532     21.5052
  1450.1000      7.9203      2.5729      0.0749      4.6753     99.1365     21.9182
  1450.2000      7.9203      2.5240     -0.0024      7.6364     95.7164     21.9992
  1450.3000      7.9201      2.4917     -0.0545      9.5948     91.4746     21.9116
  1450.4000      7.9201      2.4927     -0.0410      9.5309     88.3829     21.9905
  1450.5000      7.9219      2.5063      0.0510      8.7082     90.3376     22.0068
  1450.6000      7.9219      2.5186     -0.0462      7.9656     95.7360     21.9489
  1450.7000      7.9219      2.5478      0.0144      6.1925     97.7732     22.2667
  1450.8000      7.9257      2.5965      0.0451      3.2437     95.2397     22.8158
  1450.9000      7.9257      2.6378      0.0793      0.7365     91.0886     22.9120
  1451.0000      7.9238      2.6520      0.1188     -0.1224     90.1789     22.5149
  1451.1000      7.9238      2.6433      0.0441      0.4040     94.9611     22.0201
  1451.2000      7.9238      2.6326     -0.0063      1.0561    101.0021     21.7550
  1451.3000      7.9170      2.6334      0.0221      1.0042    104.8572     21.7336
  1451.4000      7.9170      2.6367      0.0412      0.8072    107.9289     21.6952
  1451.5000      7.9189      2.6244      0.0328      1.5541    110.2050     21.7089
  1451.6000      7.9189      2.6019     -0.0330      2.9167    112.0021     21.9050
  1451.7000      7.9189      2.5892      0.0273      3.6832    115.2183     22.0817
  1451.8000      7.9150      2.5953     -0.0047      3.3173    118.7836     22.0629
  1451.9000      7.9150      2.6179      0.0549      1.9482    121.1197     21.9181
  1452.0000      7.9110      2.6373      0.0667      0.7707    126.5236     21.7886
  1452.1000      7.9110      2.6351      0.0430      0.9034    137.8973     21.6925
  1452.2000      7.9110      2.6192      0.0156      1.8653    146.0013     21.7019
  1452.3000      7.9119      2.6030      0.0513      2.8487    143.4111     22.1087
  1452.4000      7.9119      2.5884      0.0385      3.7310    138.9354     22.7506
  1452.5000      7.9120      2.5793      0.0033      4.2827    137.9889     22.8993
  1452.6000      7.9120      2.5829      0.0092      4.0684    134.7272     22.3838
  1452.7000      7.9120      2.5962      0.0161      3.2622    128.9634     21.7167
  1452.8000      7.9131      2.6102      0.0448      2.4151    122.5085     21.2830
  1452.9000      7.9131      2.6234     -0.0113      1.6142    114.1978     21.1116
  1453.0000      7.9244      2.6268      0.0431      1.4068    106.3455     20.8827
  1453.1000      7.9244      2.5997      0.0608      3.0489    102.0140     20.3722
  1453.2000      7.9244      2.5528     -0.0000      5.8912    103.1870     19.6231
  1453.3000      7.9231      2.5229     -0.0075      7.7020    107.6238     18.9208
  1453.4000      7.9231      2.5126      0.0194      8.3295    108.1328     18.6574
  1453.5000      7.9222      2.4971      0.0149      9.2673    101.7173     18.7658
  1453.6000      7.9222      2.4759     -0.0181     10.5516     92.9198     18.7489
  1453.7000      7.9222      2.4652     -0.0317     11.2016     87.4289     18.3108
  1453.8000      7.9184      2.4654     -0.0303     11.1860     88.6363     17.6066
  1453.9000      7.9184      2.4704     -0.0322     10.8839     94.8445     17.0064
  1454.0000      7.8976      2.4777     -0.0172     10.4424     99.0604     16.6232
  1454.1000      7.8976      2.4745      0.0405     10.6359     99.0403     16.2444
  1454.2000      7.8976      2.4434     -0.0078     12.5218     99.1401     15.8631
  1454.3000      7.9209      2.3891     -0.0120     15.8140    102.5479     15.4524
  1454.4000      7.9209      2.3374     -0.0330     18.9439    103.8965     14.9290
  1454.5000      7.9471      2.3145     -0.0421     20.3336     98.8020     14.7944
  1454.6000      7.9471      2.3178      0.0173     20.1322     93.5567     15.5092
  1454.7000      7.9471      2.3227      0.0278     19.8362     92.3659     16.6867
  1454.8000      7.9533      2.3190      0.0547     20.0591     92.5801     17.9690
  1454.9000      7.9533      2.3112      0.0572     20.5309     93.3957     19.4947
  1455.0000      7.9494      2.3011      0.0726     21.1460     96.1318     20.9738
  1455.1000      7.9494      2.2950      0.0518     21.5137     98.6383     21.8749
  1455.2000      7.9494      2.3152      0.0171     20.2895     97.6676     22.1610
  1455.3000      7.9551      2.3733      0.1340     16.7687     93.2419     22.2216
  1455.4000      7.9551      2.4531      0.0558     11.9350     87.4714     22.5436
  1455.5000      8.0071      2.5253      0.0554      7.5605     80.6795     23.1094
  1455.6000      8.0071      2.5553      0.0943      5.7387     71.5307     23.4791
  1455.7000      8.0071      2.5391      0.0556      6.7201     63.1889     23.6773
  1455.8000      7.9535      2.5275     -0.0148      7.4233     61.0086     23.8289
  1455.9000      7.9535      2.5539      0.0647      5.8229     64.5525     23.5128
  1456.0000      7.9385      2.5861      0.0834      3.8724     70.1092     22.7943
  1456.1000      7.9385      2.5863      0.0511      3.8584     77.2382     22.4740
  1456.2000      7.9385      2.5590      0.0072      5.5167     85.8010     22.6662
  1456.3000      7.9269      2.5359     -0.0307      6.9144     91.4115     22.6563
  1456.4000      7.9269      2.5344      0.0117      7.0090     93.6598     22.1230
  1456.5000      7.9125      2.5386      0.0073      6.7515     98.4197     21.4261
  1456.6000      7.9125      2.5278      0.0486      7.4063    107.4478     20.9088
  1456.7000      7.9125      2.5008      0.0018      9.0397    115.2137     20.6837
  1456.8000      7.9168      2.4847     -0.0669     10.0173    120.0624     20.7942
  1456.9000      7.9168      2.5020      0.0352      8.9695    125.0882     21.1366
  1457.0000      7.9144      2.5362      0.0882      6.8960    131.3041     21.6216
  1457.1000      7.9144      2.5637      0.0521      5.2281    136.6774     22.2593
  1457.2000      7.9144      2.5785      0.0888      4.3332    137.7229     23.0078
  1457.3000      7.9111      2.5790      0.0840      4.3010    134.1498     23.4733
  1457.4000      7.9111      2.5676      0.0833      4.9930    125.4280     23.5387
  1457.5000      7.9113      2.5560      0.0285      5.6949    112.1564     23.5845
  1457.6000      7.9113      2.5602      0.0162      5.4430     97.4609     23.4999
  1457.7000      7.9113      2.5786      0.0447      4.3283     83.6078     23.1400
  1457.8000      7.9308      2.5889      0.0463      3.7040     72.6714     22.8514
  1457.9000      7.9308      2.5767      0.0218      4.4409     65.1202     22.6962
  1458.0000      7.9681      2.5535      0.0057      5.8482     61.2345     22.5609
  1458.1000      7.9681      2.5402     -0.0179      6.6556     63.4725     22.5185
  1458.2000      7.9681      2.5441      0.0097      6.4187     71.0012     22.4606
  1458.3000      7.9716      2.5566      0.0387      5.6631     78.8117     22.2474
  1458.4000      7.9716      2.5740     -0.0364      4.6080     85.6128     21.9768
  1458.5000      7.9358      2.5926      0.0661      3.4795     92.8220     21.7719
  1458.6000      7.9358      2.6017      0.0055      2.9287     99.0984     21.7705
  1458.7000      7.9358      2.6046     -0.0622      2.7502    101.6186     22.0537
  1458.8000      7.9315      2.6020      0.0421      2.9079    103.4803     22.4411
  1458.9000      7.9315      2.5837      0.0085      4.0196    113.0672     22.5361
  1459.0000      7.9226      2.5648     -0.0466      5.1630    128.8159     22.4186
  1459.1000      7.9226      2.5641      0.0107      5.2083    141.5535     22.6405
  1459.2000      7.9226      2.5659     -0.0087      5.0985    148.7433     23.0836
  1459.3000      7.9189      2.5540     -0.0085      5.8189    154.8752     23.3941
  1459.4000      7.9189      2.5349     -0.0049      6.9786    162.3991     23.8347
  1459.5000      7.9114      2.5229      0.0095      7.7047    166.7638     24.4081
