~Version Information
VERS.                      2.0: CWLS Log ASCII Standard - VERSION 2.0
WRAP.                       NO: One line per depth step
~Well Information Block
STRT.FT               530.7500: 
STOP.FT              1325.2500: 
STEP.FT                 0.2500: 
NULL.                -999.2500: 
COMP.          Pioneer Natural Resources: COMPANY
WELL.            Erin 21-15 Tr: WELL
FLD.           Purgatoire River: FIELD
LOC.           1217' FNL & 2284' FWL--: LOCATION
CNTY.               Las Animas: COUNTY
SRVC.                Patterson: SERVICE COMPANY
DATE.          Fri Mar 03 23:07:06 2006: LOG DATE
UWI.           05 071 08712 00: UNIQUE WELL ID
STAT.                 Colorado: STATE
~Curve Information Block
DEPT.FT            0 000 00 00: Depth
SN.Ohm-m                      : IEL Short Normal
SP.mV                         : IEL Spontaneous Potential
DIR.Ohm-m                     : IEL Induction Resistivity
GR.GAPI                       : Gamma Ray
~Parameter Information Block
~A  Depth        SN          SP         DIR          GR     
# ...
  1066.7500     12.1934    152.4138      9.6447    117.9820
  1067.0000     12.0082    152.4446      9.4850    120.7364
  1067.2500     11.7709    152.4677      9.3028    123.4565
  1067.5000     11.4877    152.4878      9.1244    128.0634
  1067.7500     11.2035    152.5192      8.9749    130.5033
  1068.0000     10.9866    152.5828      8.8756    131.7170
  1068.2500     10.8991    152.7005      8.8417    130.7900
  1068.5000     10.9638    152.8887      8.8801    127.9029
  1068.7500     11.1396    153.1541      8.9870    125.4947
  1069.0000     11.3205    153.4899      9.1447    120.4337
  1069.2500     11.3758    153.8775      9.3223    115.1794
  1069.5000     11.2260    154.2893      9.4822    104.3320
  1069.7500     10.9088    154.6933      9.5925     96.4247
  1070.0000     10.5676    155.0586      9.6378     87.0017
  1070.2500     10.3572    155.3611      9.6221     84.0790
  1070.5000     10.3364    155.5886      9.5607     86.1342
  1070.7500     10.4332    155.7468      9.4685     91.5531
  1071.0000     10.5097    155.8619      9.3517    103.7058
  1071.2500     10.4723    155.9796      9.2073    112.7439
  1071.5000     10.3350    156.1590      9.0306    124.8928
  1071.7500     10.1880    156.4620      8.8233    131.0242
  1072.0000     10.1184    156.9397      8.5997    136.8879
  1072.2500     10.1639    157.6201      8.3852    139.0106
  1072.5000     10.3154    158.4997      8.2082    140.5594
  1072.7500     10.5376    159.5414      8.0919    140.7658
  1073.0000     10.7824    160.6780      8.0484    139.5682
  1073.2500     11.0040    161.8214      8.0778    137.6579
  1073.5000     11.1771    162.8739      8.1713    133.7350
  1073.7500     11.3072    163.7424      8.3165    131.1062
  1074.0000     11.4238    164.3523      8.5034    128.1591
  1074.2500     11.5603    164.6601      8.7270    127.1349
  1074.5000     11.7358    164.6608      8.9856    127.0354
  1074.7500     11.9476    164.3891      9.2776    127.7566
  1075.0000     12.1771    163.9110      9.5976    129.3552
  1075.2500     12.4042    163.3097      9.9373    130.1477
  1075.5000     12.6246    162.6670     10.2902    129.7864
  1075.7500     12.8591    162.0474     10.6559    128.0052
  1076.0000     13.1510    161.4878     11.0435    122.8387
  1076.2500     13.5526    160.9943     11.4715    118.2765
  1076.5000     14.1054    160.5468     11.9648    111.7366
  1076.7500     14.8237    160.1070     12.5480    108.6973
  1077.0000     15.6883    159.6292     13.2375    106.5067
  1077.2500     16.6540    159.0698     14.0339    105.8553
  1077.5000     17.6740    158.3950     14.9193    104.2968
  1077.7500     18.7412    157.5863     15.8639    102.2127
  1078.0000     19.9289    156.6440     16.8420     97.3722
  1078.2500     21.3883    155.5885     17.8535     93.3681
  1078.5000     23.2674    154.4598     18.9343     87.4040
  1078.7500     25.5771    153.3152     20.1436     84.2766
  1079.0000     28.0974    152.2248     21.5250     81.6620
  1079.2500     30.4119    151.2662     23.0526     81.0656
  1079.5000     32.0696    150.5167     24.5886     80.3908
  1079.7500     32.7725    150.0445     25.8876     79.0928
  1080.0000     32.4710    149.8995     26.6750     75.2472
  1080.2500     31.3355    150.1042     26.7696     72.1113
  1080.5000     29.6548    150.6477     26.1633     69.0640
  1080.7500     27.7296    151.4851     25.0079     69.4674
  1081.0000     25.7963    152.5416     23.5344     74.2689
  1081.2500     23.9905    153.7229     21.9663     79.5642
  1081.5000     22.3543    154.9306     20.4646     88.9609
  1081.7500     20.8728    156.0783     19.1108     95.4818
  1082.0000     19.5148    157.1070     17.9227    104.5813
  1082.2500     18.2584    157.9947     16.8822    109.2462
  1082.5000     17.1035    158.7572     15.9627    112.3649
  1082.7500     16.0736    159.4401     15.1459    111.5413
  1083.0000     15.2032    160.1015     14.4249    107.3600
  1083.2500     14.5127    160.7921     13.8000    104.0783
  1083.5000     13.9871    161.5375     13.2709    100.5622
  1083.7500     13.5774    162.3291     12.8314     99.7341
  1084.0000     13.2240    163.1273     12.4661    100.5939
  1084.2500     12.8822    163.8748     12.1515    102.1358
  1084.5000     12.5361    164.5155     11.8611    105.4379
  1084.7500     12.1956    165.0122     11.5746    108.3736
  1085.0000     11.8816    165.3557     11.2838    113.9960
  1085.2500     11.6081    165.5658     10.9918    118.1436
  1085.5000     11.3727    165.6827     10.7064    123.5461
  1085.7500     11.1612    165.7555     10.4340    126.0349
  1086.0000     10.9581    165.8309     10.1781    128.3571
  1086.2500     10.7546    165.9452      9.9404    129.4418
  1086.5000     10.5504    166.1205      9.7238    130.6103
  1086.7500     10.3501    166.3641      9.5336    130.8998
  1087.0000     10.1594    166.6711      9.3766    130.6425
  1087.2500      9.9810    167.0272      9.2591    130.3969
  1087.5000      9.8150    167.4126      9.1845    130.3736
  1087.7500      9.6632    167.8056      9.1532    130.3376
  1088.0000      9.5392    168.1849      9.1645    129.2896
  1088.2500      9.4798    168.5318      9.2197    127.5555
  1088.5000      9.5464    168.8302      9.3238    123.7345
  1088.7500      9.8080    169.0654      9.4841    121.2145
  1089.0000     10.3069    169.2227      9.7086    119.3528
  1089.2500     11.0262    169.2855     10.0028    119.8994
  1089.5000     11.8891    169.2350     10.3683    122.2228
  1089.7500     12.8021    169.0510     10.8036    123.3406
  1090.0000     13.7150    168.7148     11.3084    122.5689
  1090.2500     14.6478    168.2137     11.8881    120.3314
  1090.5000     15.6680    167.5478     12.5569    115.3621
  1090.7500     16.8444    166.7352     13.3372    111.5760
  1091.0000     18.2093    165.8166     14.2530    105.6008
  1091.2500     19.7325    164.8565     15.3185    101.3185
  1091.5000     21.3070    163.9384     16.5220     94.1260
  1091.7500     22.7640    163.1566     17.8102     88.8313
  1092.0000     23.9277    162.6026     19.0800     80.8234
  1092.2500     24.6860    162.3508     20.1894     76.2143
  1092.5000     25.0283    162.4459     20.9937     72.0332
  1092.7500     25.0214    162.8944     21.3951     71.9164
  1093.0000     24.7465    163.6630     21.3794     76.4069
  1093.2500     24.2538    164.6844     21.0148     82.2723
  1093.5000     23.5658    165.8678     20.4161     94.1674
  1093.7500     22.7099    167.1137     19.6996    103.2443
  1094.0000     21.7392    168.3272     18.9525    116.7918
  1094.2500     20.7301    169.4294     18.2231    124.5469
  1094.5000     19.7631    170.3642     17.5309    132.2472
  1094.7500     18.9046    171.0997     16.8842    134.2392
  1095.0000     18.1970    171.6257     16.2967    133.3389
  1095.2500     17.6602    171.9482     15.7929    131.1066
  1095.5000     17.2976    172.0833     15.4015    126.2905
  1095.7500     17.1021    172.0519     15.1448    122.1843
  1096.0000     17.0623    171.8763     15.0340    115.1947
  1096.2500     17.1672    171.5806     15.0704    110.9285
  1096.5000     17.4057    171.1913     15.2526    106.9094
  1096.7500     17.7582    170.7403     15.5777    106.0302
  1097.0000     18.1863    170.2657     16.0340    105.9985
  1097.2500     18.6245    169.8107     16.5841    105.7709
  1097.5000     18.9825    169.4201     17.1497    104.2917
  1097.7500     19.1667    169.1337     17.6195    102.6057
  1098.0000     19.1243    168.9801     17.8890     99.3911
  1098.2500     18.8838    168.9698     17.9145     97.1490
  1098.5000     18.5535    169.0923     17.7372     94.6987
  1098.7500     18.2696    169.3153     17.4561     94.3601
  1099.0000     18.1353    169.5893     17.1791     96.6516
  1099.2500     18.1895    169.8548     16.9863    100.3543
  1099.5000     18.4109    170.0521     16.9193    108.9969
  1099.7500     18.7378    170.1318     16.9841    115.7853
  1100.0000     19.0907    170.0639     17.1599    123.9949
