~Version Information
VERS.                      2.0: CWLS Log ASCII Standard - VERSION 2.0
WRAP.                       NO: One line per depth step
~Well Information Block
STRT.FT               575.0000: 
STOP.FT              1558.5000: 
STEP.FT                 0.2500: 
NULL.                -999.2500: 
COMP.          Pioneer Natural Resources: COMPANY
WELL.          McClaren 13-34 Tr: WELL
FLD.           Purgatoire River: FIELD
LOC.           1934' FSL & 826' FWL: LOCATION
PROV.                 Colorado: PROVINCE
CNTY.               Las Animas: COUNTRY
SRVC.                Patterson: SERVICE COMPANY
DATE.          Mon Jul 11 20:01:13 2005: LOG DATE
UWI.           05 071 08437 00: UNIQUE WELL ID
~Curve Information Block
DEPT.FT            0 000 00 00: Depth
SN.Ohm-m                      : IEL Short Normal
SP.mV                         : IEL Spontaneous Potential
DIR.Ohm-m                     : IEL Induction Resistivity
GR.GAPI                       : Gamma Ray
~Parameter Information Block
~A  Depth        SN          SP         DIR          GR     
# ...
   876.5000   2000.0000   2000.0000     18.5569    150.7239
   876.7500   2000.0000   2000.0000     18.3229    151.0730
   877.0000   2000.0000   2000.0000     18.0408    152.3612
   877.2500   2000.0000   2000.0000     17.7232    153.9035
   877.5000   2000.0000   2000.0000     17.3843    156.2671
   877.7500   2000.0000   2000.0000     17.0355    157.2341
   878.0000   2000.0000   2000.0000     16.6839    157.2289
   878.2500   2000.0000   2000.0000     16.3364    156.2444
   878.5000   2000.0000   2000.0000     16.0060    153.7368
   878.7500   2000.0000   2000.0000     15.7126    151.8931
   879.0000   2000.0000   2000.0000     15.4729    149.7339
   879.2500   2000.0000   2000.0000     15.2911    148.8783
   879.5000   2000.0000   2000.0000     15.1599    148.2605
   879.7500   2000.0000   2000.0000     15.0697    148.1368
   880.0000   2000.0000   2000.0000     15.0142    148.3912
   880.2500   2000.0000   2000.0000     14.9860    149.0343
   880.5000   2000.0000   2000.0000     14.9714    151.1037
   880.7500   2000.0000   2000.0000     14.9543    153.2671
   881.0000   2000.0000   2000.0000     14.9265    157.0620
   881.2500   2000.0000   2000.0000     14.8928    159.2122
   881.5000   2000.0000   2000.0000     14.8652    160.6610
   881.7500   2000.0000   2000.0000     14.8543    160.3627
   882.0000   2000.0000   2000.0000     14.8629    159.3424
   882.2500   2000.0000   2000.0000     14.8838    159.3822
   882.5000   2000.0000   2000.0000     14.9026    161.3972
   882.7500   2000.0000   2000.0000     14.9030    163.6579
   883.0000   2000.0000   2000.0000     14.8747    167.1574
   883.2500   2000.0000   2000.0000     14.8176    169.0975
   883.5000   2000.0000   2000.0000     14.7401    171.2381
   883.7500   2000.0000   2000.0000     14.6530    172.1861
   884.0000   2000.0000   2000.0000     14.5645    173.0983
   884.2500   2000.0000   2000.0000     14.4800    173.5555
   884.5000   2000.0000   2000.0000     14.4060    174.1531
   884.7500   2000.0000   2000.0000     14.3537    174.3710
   885.0000   2000.0000   2000.0000     14.3378    174.0438
   885.2500   2000.0000   2000.0000     14.3709    173.2439
   885.5000   2000.0000   2000.0000     14.4549    171.2328
   885.7500   2000.0000   2000.0000     14.5765    169.4552
   886.0000   2000.0000   2000.0000     14.7094    166.1069
   886.2500   2000.0000   2000.0000     14.8287    163.3410
   886.5000   2000.0000   2000.0000     14.9281    158.7564
   886.7500   2000.0000   2000.0000     15.0274    156.0956
   887.0000   2000.0000   2000.0000     15.1606    154.0015
   887.2500   2000.0000   2000.0000     15.3542    153.9947
   887.5000   2000.0000   2000.0000     15.6115    154.8647
   887.7500   2000.0000   2000.0000     15.9160    155.1888
   888.0000   2000.0000   2000.0000     16.2477    154.8431
   888.2500   2000.0000   2000.0000     16.5993    154.2657
   888.5000   2000.0000   2000.0000     16.9792    153.1022
   888.7500   2000.0000   2000.0000     17.4016    151.9470
   889.0000   2000.0000   2000.0000     17.8783    149.0432
   889.2500   2000.0000   2000.0000     18.4188    146.0901
   889.5000   2000.0000   2000.0000     19.0324    140.4629
   889.7500   2000.0000   2000.0000     19.7229    136.5671
   890.0000   2000.0000   2000.0000     20.4765    131.7249
   890.2500   2000.0000   2000.0000     21.2628    129.4603
   890.5000   2000.0000   2000.0000     22.0569    127.0725
   890.7500   2000.0000   2000.0000     22.8632    125.6180
   891.0000   2000.0000   2000.0000     23.7106    122.8997
   891.2500   2000.0000   2000.0000     24.6225    120.5892
   891.5000   2000.0000   2000.0000     25.5949    116.5445
   891.7500   2000.0000   2000.0000     26.6047    113.6754
   892.0000   2000.0000   2000.0000     27.6277    109.6020
   892.2500   2000.0000   2000.0000     28.6381    107.3804
   892.5000   2000.0000   2000.0000     29.5882    105.2470
   892.7500   2000.0000   2000.0000     30.4057    104.7485
   893.0000   2000.0000   2000.0000     31.0291    105.5653
   893.2500   2000.0000   2000.0000     31.4524    107.3602
   893.5000   2000.0000   2000.0000     31.7357    112.1668
   893.7500   2000.0000   2000.0000     31.9776    116.4716
   894.0000   2000.0000   2000.0000     32.2772    123.0484
   894.2500   2000.0000   2000.0000     32.7022    126.4405
   894.5000   2000.0000   2000.0000     33.2702    129.0491
   894.7500   2000.0000   2000.0000     33.9504    129.2879
   895.0000   2000.0000   2000.0000     34.6868    128.2551
   895.2500   2000.0000   2000.0000     35.4294    126.9900
   895.5000   2000.0000   2000.0000     36.1492    124.3275
   895.7500   2000.0000   2000.0000     36.8442    122.0077
   896.0000   2000.0000   2000.0000     37.5518    117.6693
   896.2500   2000.0000   2000.0000     38.3557    114.0660
   896.5000   2000.0000   2000.0000     39.3546    107.0651
   896.7500   2000.0000   2000.0000     40.5853    101.0384
   897.0000   2000.0000   2000.0000     41.9506     90.1122
   897.2500   2000.0000   2000.0000     43.2354     82.2846
   897.5000   2000.0000   2000.0000     44.2464     71.5987
   897.7500   2000.0000   2000.0000     44.9718     65.9692
   898.0000   2000.0000   2000.0000     45.5937     59.8681
   898.2500   2000.0000   2000.0000     46.3419     56.9534
   898.5000   2000.0000   2000.0000     47.3463     53.6133
   898.7500   2000.0000   2000.0000     48.6041     51.7997
   899.0000   2000.0000   2000.0000     50.0370     49.3825
   899.2500   2000.0000   2000.0000     51.5446     47.9132
   899.5000   2000.0000   2000.0000     53.0051     46.1278
   899.7500   2000.0000   2000.0000     54.2425     45.4241
   900.0000   2000.0000   2000.0000     55.0514     45.2516
   900.2500   2000.0000   2000.0000     55.3145     45.6238
   900.5000   2000.0000   2000.0000     55.1061     46.6485
   900.7500   2000.0000   2000.0000     54.6586     47.5382
   901.0000   2000.0000   2000.0000     54.2186     49.0305
   901.2500   2000.0000   2000.0000     53.9529     50.0643
   901.5000   2000.0000   2000.0000     53.9608     51.7813
   901.7500   2000.0000   2000.0000     54.3215     53.2276
   902.0000   2000.0000   2000.0000     55.0877     56.1289
   902.2500   2000.0000   2000.0000     56.2134     58.6144
   902.5000   2000.0000   2000.0000     57.4700     63.2625
   902.7500   2000.0000   2000.0000     58.4423     67.0845
   903.0000   2000.0000   2000.0000     58.6907     73.8989
   903.2500   2000.0000   2000.0000     58.0385     78.7092
   903.5000   2000.0000   2000.0000     56.7394     84.5414
   903.7500   2000.0000   2000.0000     55.3377     86.3222
   904.0000   2000.0000   2000.0000     54.3638     84.9488
   904.2500   2000.0000   2000.0000     54.1117     81.8251
   904.5000   2000.0000   2000.0000     54.5611     75.5697
   904.7500   2000.0000   2000.0000     55.3905     71.2575
   905.0000   2000.0000   2000.0000     56.1053     65.5385
   905.2500   2000.0000   2000.0000     56.2946     62.5569
   905.5000   2000.0000   2000.0000     55.8851     59.5577
   905.7500   2000.0000   2000.0000     55.1557     58.4006
   906.0000   2000.0000   2000.0000     54.5156     57.3382
   906.2500   2000.0000   2000.0000     54.2636     56.7567
   906.5000   2000.0000   2000.0000     54.4569     55.9009
   906.7500   2000.0000   2000.0000     54.8860     55.4258
   907.0000   2000.0000   2000.0000     55.1735     55.0268
   907.2500   2000.0000   2000.0000     54.9913     54.9996
   907.5000   2000.0000   2000.0000     54.2542     55.3147
   907.7500   2000.0000   2000.0000     53.0980     55.7952
   908.0000   2000.0000   2000.0000     51.7029     57.0744
   908.2500   2000.0000   2000.0000     50.1901     58.3849
   908.5000   2000.0000   2000.0000     48.6545     61.0681
   908.7500   2000.0000   2000.0000     47.2063     63.2833
   909.0000   2000.0000   2000.0000     45.9413     66.8791
   909.2500   2000.0000   2000.0000     44.8852     68.9198
   909.5000   2000.0000   2000.0000     43.9852     70.2870
   909.7500   2000.0000   2000.0000     43.1463     69.8211
