~Version Information
VERS.                      2.0: CWLS Log ASCII Standard - VERSION 2.0
WRAP.                       NO: One line per depth step
~Well Information Block
STRT.FT               240.0000: 
STOP.FT              1677.0000: 
STEP.FT                 0.1000: 
NULL.                -999.2500: 
COMP.          Pioneer Natural Resources: COMPANY
WELL.          Lorencito 8-1-34-67: WELL
FLD.           Purgatoire River: FIELD
LOC.           1567' FNL & 500' FEL: LOCATION
STAT.                 Colorado: State
CTRY. USA : Country 
CNTY.               Las Animas: COUNTY
SECT. 1 : Section 
TOWN. 34S : Township
RANG. 67W : Range
SRVC.                Patterson: SERVICE COMPANY
DATE.          Fri Aug 26 09:30:14 2005: LOG DATE
API.           05 071 08506 00: UNIQUE WELL ID
~Curve Information Block
DEPT.FT            0 000 00 00: Depth
DCAL.in                       : CDL Caliper
RHOB.g/cc                     : CDL Bulk Density
RHOC.g/cc                     : CDL Density Correction
DPOR.pu                       : CDL Density Porosity
GR.GAPI                       : Gamma Ray
NPOR.pu                       : Neutron Porosity
~Parameter Information Block
~A  Depth       DCAL        RHOB        RHOC        DPOR         GR         NPOR    
# ...
   336.0000      8.3989      2.3510      0.0461     18.1189    159.2692     23.3070
   336.1000      8.3989      2.3270     -0.0012     19.5759    164.1261     24.2247
   336.2000      8.3989      2.3028      0.0165     21.0420    163.0559     24.4238
   336.3000      8.3964      2.2892      0.0173     21.8644    148.9004     23.6946
   336.4000      8.3964      2.2714      0.0845     22.9460    131.7478     22.1808
   336.5000      8.3866      2.2178      0.1337     26.1942    122.5446     19.9019
   336.6000      8.3866      2.1058      0.0561     32.9843    120.5823     17.4556
   336.7000      8.3866      1.9565     -0.0722     42.0277    119.5888     15.6159
   336.8000      8.3761      1.8175     -0.0680     50.4519    115.7023     14.2223
   336.9000      8.3761      1.7131     -0.1001     56.7823    108.3112     12.9570
   337.0000      8.3697      1.6421     -0.0026     61.0853     99.9607     11.7704
   337.1000      8.3697      1.5982      0.0426     63.7429     93.1088     10.6159
   337.2000      8.3697      1.5771      0.1630     65.0251     89.3744      9.5269
   337.3000      8.5032      1.5587      0.3113     66.1383     89.0198      8.5810
   337.4000      8.5032      1.5101      0.3632     69.0830     89.5457      7.7336
   337.5000      8.7828      1.4253      0.2542     74.2236     89.0522      7.0101
   337.6000      8.7828      1.3317      0.1910     79.8951     86.6621      6.6274
   337.7000      8.7828      1.2505      0.1139     84.8168     81.6437      6.6471
   337.8000      9.2672      1.1841      0.0694     88.8407     75.7225      6.8772
   337.9000      9.2672      1.1431     -0.0244     91.3255     71.5976      7.2681
   338.0000      9.8678      1.1528     -0.0137     90.7420     69.7349      7.9133
   338.1000      9.8678      1.2184      0.0633     86.7629     71.2938      8.7232
   338.2000      9.8678      1.3117      0.1453     81.1090     73.8211      9.3932
   338.3000     10.3827      1.3949      0.2317     76.0695     71.9459      9.8479
   338.4000     10.3827      1.4450      0.2510     73.0295     67.5593     10.4238
   338.5000     10.0840      1.4653      0.2752     71.8014     66.5816     11.2897
   338.6000     10.0840      1.4733      0.2580     71.3138     71.2824     12.2484
   338.7000     10.0840      1.4806      0.2678     70.8722     78.7085     13.1600
   338.8000      9.5660      1.4935      0.1782     70.0892     82.2163     14.1396
   338.9000      9.5660      1.5288      0.1106     67.9543     81.2324     15.3650
   339.0000      9.3403      1.6008      0.1297     63.5852     79.8562     16.6837
   339.1000      9.3403      1.7025      0.1811     57.4244     79.0368     17.6050
   339.2000      9.3403      1.8127      0.1912     50.7455     79.5666     18.1102
   339.3000      9.2982      1.9115      0.2611     44.7593     81.2415     18.6786
   339.4000      9.2982      1.9876      0.2636     40.1448     85.0744     19.3134
   339.5000      9.2231      2.0366      0.2909     37.1750     92.8063     19.4723
   339.6000      9.2231      2.0531      0.2103     36.1758    103.7594     19.1210
   339.7000      9.2231      2.0377      0.1156     37.1064    115.1462     18.7060
   339.8000      9.0906      1.9993      0.0407     39.4352    120.1221     18.2584
   339.9000      9.0906      1.9445      0.0111     42.7566    117.3929     17.6714
   340.0000      9.0400      1.8756     -0.0101     46.9340    114.2202     17.3221
   340.1000      9.0400      1.7962     -0.0054     51.7431    115.9896     17.4801
   340.2000      9.0400      1.7122     -0.0453     56.8392    121.2936     17.7988
   340.3000      9.0927      1.6341     -0.0293     61.5710    125.6974     17.7962
   340.4000      9.0927      1.5773     -0.0220     65.0111    126.8962     17.4128
   340.5000      9.1467      1.5605     -0.0325     66.0296    125.6405     16.9127
   340.6000      9.1467      1.6006     -0.0164     63.6026    123.8432     16.3935
   340.7000      9.1467      1.6959      0.0789     57.8262    122.6190     15.8706
   340.8000      9.2425      1.8278      0.1797     49.8292    123.4838     15.5390
   340.9000      9.2425      1.9740      0.3434     40.9700    128.9955     15.5773
   341.0000      9.1639      2.1019      0.5083     33.2157    136.7542     15.9805
   341.1000      9.1639      2.1755      0.5707     28.7578    140.6280     16.5941
   341.2000      9.1639      2.1842      0.4585     28.2294    137.7161     17.1405
   341.3000      9.0493      2.1499      0.3575     30.3110    128.2856     17.5067
   341.4000      9.0493      2.1112      0.1555     32.6525    118.5527     18.0495
   341.5000      8.9481      2.1037      0.1136     33.1116    117.1222     19.0207
   341.6000      8.9481      2.1309      0.1240     31.4602    121.7922     19.9162
   341.7000      8.9481      2.1762      0.1333     28.7124    128.8374     20.1404
   341.8000      9.0177      2.2267      0.1864     25.6554    137.9930     19.9721
   341.9000      9.0177      2.2739      0.1966     22.7933    144.9650     19.9978
   342.0000      8.9644      2.3169      0.2128     20.1854    147.3960     20.1414
   342.1000      8.9644      2.3552      0.2336     17.8682    143.9658     20.2024
   342.2000      8.9644      2.3848      0.2021     16.0705    138.9194     20.2312
   342.3000      8.9102      2.3987      0.2119     15.2322    138.8936     20.4644
   342.4000      8.9102      2.3843      0.1524     16.1013    141.7834     21.0081
   342.5000      8.8673      2.3437      0.1180     18.5657    143.0855     21.3499
   342.6000      8.8673      2.3014      0.0947     21.1277    139.5145     21.1907
   342.7000      8.8673      2.2806      0.1152     22.3872    133.0871     20.9699
   342.8000      8.8538      2.2781      0.1862     22.5366    130.9208     21.1484
   342.9000      8.8538      2.2800      0.1064     22.4270    133.4839     21.6292
   343.0000      8.8644      2.2894      0.0664     21.8530    137.2467     21.9567
   343.1000      8.8644      2.3111      0.1083     20.5388    142.2396     21.9398
   343.2000      8.8644      2.3400      0.1120     18.7870    148.9873     22.0105
   343.3000      8.7607      2.3751      0.0939     16.6583    154.1209     22.4489
   343.4000      8.7607      2.4043      0.1907     14.8894    151.2343     22.8406
   343.5000      8.7343      2.4114      0.1620     14.4594    140.3418     22.8928
   343.6000      8.7343      2.3981      0.2092     15.2692    130.5829     22.8720
   343.7000      8.7343      2.3671      0.1852     17.1427    130.2540     22.8673
   343.8000      8.6732      2.3294      0.0975     19.4287    138.0591     22.6625
   343.9000      8.6732      2.3084      0.0872     20.7058    146.5498     22.4100
   344.0000      8.7433      2.3111      0.1111     20.5424    150.8452     22.4356
   344.1000      8.7433      2.3320      0.0803     19.2709    149.6712     22.7396
   344.2000      8.7433      2.3776      0.0640     16.5064    145.8452     23.0739
   344.3000      8.7390      2.4500      0.1818     12.1219    141.8017     23.2474
   344.4000      8.7390      2.5270      0.2267      7.4564    137.1296     23.3096
   344.5000      8.5499      2.5824      0.2884      4.0992    134.2289     23.3645
   344.6000      8.5499      2.6016      0.3304      2.9316    136.6577     23.3029
   344.7000      8.5499      2.5849      0.2814      3.9452    143.5277     23.1133
   344.8000      8.5106      2.5489      0.1896      6.1264    147.7528     23.1823
   344.9000      8.5106      2.5176      0.1419      8.0216    145.0019     23.7104
   345.0000      8.4278      2.5049      0.1096      8.7933    141.0613     24.2493
   345.1000      8.4278      2.5015      0.1190      8.9993    138.6786     24.3183
   345.2000      8.4278      2.4893      0.0381      9.7366    134.4957     23.9490
   345.3000      8.3477      2.4668      0.0657     11.1034    131.5578     23.5655
   345.4000      8.3477      2.4432      0.0380     12.5347    132.6923     23.5256
   345.5000      8.3382      2.4264     -0.0012     13.5507    133.9941     23.8684
