~Version Information
VERS.                      2.0: CWLS Log ASCII Standard - VERSION 2.0
WRAP.                       NO: One line per depth step
~Well Information Block
STRT.FT                 0.0000: 
STOP.FT               787.2500: 
STEP.FT                 0.2500: 
NULL.                -999.2500: 
COMP.          Pioneer Natural Resources: COMPANY
WELL.             Veedol 34-28: WELL
FLD.           Purgatorie River: FIELD
LOC.           357' FSL & 2520' FEL: LOCATION
PROV.                 Colorado: PROVINCE
CNTY.               Las Animas: COUNTRY
SRVC.                Patterson: SERVICE COMPANY
DATE.          Wed Dec 28 10:10:37 2005: LOG DATE
UWI.                          : UNIQUE WELL ID
~Curve Information Block
DEPT.FT            0 000 00 00: Depth
CCL.                          : Casing Collar Locator
TT3.usec                      : CBL 3' Travel Time
AMP3.mV                       : CBL 3' Amplitude
GR.GAPI                       : Gamma Ray
~Parameter Information Block
~A  Depth       CCL         TT3         AMP3         GR     
# ...
   636.5000      0.0000    703.5777     10.9356     69.4837
   636.7500      0.0000    710.3923     10.7902     69.3115
   637.0000      0.0000    715.1098     10.5916     70.1033
   637.2500      0.0000    716.7849     10.3641     71.0957
   637.5000      0.0000    716.8136     10.1487     71.3747
   637.7500      0.0000    715.3516     10.0000     70.7711
   638.0000      0.0000    710.7357      9.9470     69.8317
   638.2500      0.0000    701.7138      9.9533     68.9438
   638.5000      0.0000    690.4882      9.9505     67.7871
   638.7500      0.0000    681.5088      9.9113     65.8394
   639.0000      0.0000    677.0310      9.8802     63.1664
   639.2500      0.0000    676.7765      9.9198     60.4449
   639.5000      0.0000    680.7423     10.0359     58.3810
   639.7500      0.0000    688.3751     10.1912     57.2667
   640.0000      0.0000    695.1799     10.3467     57.0080
   640.2500      0.0000    695.2196     10.4655     57.4947
   640.5000      0.0000    688.7385     10.5452     58.7855
   640.7500      0.0000    682.3594     10.6374     60.6959
   641.0000      0.0000    681.2542     10.7651     62.3747
   641.2500      0.0000    684.6030     10.8856     62.7481
   641.5000      0.0000    687.8568     10.9813     61.5252
   641.7500      0.0000    688.7120     11.0865     59.6388
   642.0000      0.0000    688.7156     11.1934     58.5452
   642.2500      0.0000    687.7955     11.2255     58.8215
   642.5000      0.0000    684.0991     11.1381     59.3949
   642.7500      0.0000    679.0154     10.9710     58.4741
   643.0000      0.0000    675.5189     10.7788     55.4274
   643.2500      0.0000    674.2460     10.5862     51.5194
   643.5000      0.0000    674.1282     10.4204     48.7092
   643.7500      0.0000    674.2128     10.3291     48.0044
   644.0000      0.0000    674.1649     10.3448     49.0550
   644.2500      0.0000    674.0480     10.4452     50.9234
   644.5000      0.0000    673.9637     10.5654     52.8423
   644.7500      0.0000    673.8960     10.6499     54.2913
   645.0000      0.0000    673.8117     10.6960     54.8150
   645.2500      0.0000    673.7465     10.7313     54.2414
   645.5000      0.0000    673.7316     10.7589     53.1079
   645.7500      0.0000    673.7507     10.7657     52.4386
   646.0000      0.0000    673.7756     10.7561     52.7191
   646.2500      0.0000    673.7883     10.7357     53.2051
   646.5000      0.0000    673.7845     10.6955     52.6054
   646.7500      0.0000    673.5936     10.6306     50.4502
   647.0000      0.0000    672.4393     10.5589     47.5511
   647.2500      0.0000    669.1497     10.5237     45.1474
   647.5000      0.0000    664.3269     10.5510     43.8380
   647.7500      0.0000    661.7062     10.6028     43.3105
   648.0000      0.0000    663.9428     10.6164     42.8472
   648.2500      0.0000    668.6141     10.5775     42.0552
   648.5000      0.0000    671.9931     10.5208     41.3011
   648.7500      0.0000    673.3289     10.4815     41.4041
   649.0000      0.0000    673.6570     10.4687     42.7079
   649.2500      0.0000    673.6994     10.4701     44.5614
   649.5000      0.0000    673.6478     10.4545     45.9091
   649.7500      0.0000    673.5593     10.3828     46.2120
   650.0000      0.0000    673.4299     10.2521     45.6533
   650.2500      0.0000    672.9949     10.1023     44.7538
   650.5000      0.0000    671.3051      9.9645     43.9695
   650.7500      0.0000    666.4138      9.8397     43.3673
   651.0000      0.0000    656.8637      9.7302     42.5069
   651.2500      0.0000    644.6737      9.6599     40.8194
   651.5000      0.0000    634.5877      9.6430     38.2824
   651.7500      0.0000    629.1946      9.6591     35.6857
   652.0000      0.0000    627.3640      9.6935     34.1580
   652.2500      0.0000    627.0600      9.7637     34.4153
   652.5000      0.0000    627.3042      9.8656     36.4015
   652.7500      0.0000    628.0851      9.9477     39.5129
   653.0000      0.0000    630.1335      9.9842     43.0885
   653.2500      0.0000    634.9669     10.0204     46.6936
   653.5000      0.0000    642.9871     10.1012     49.9569
   653.7500      0.0000    650.1282     10.2039     52.2935
   654.0000      0.0000    650.3589     10.2917     53.1145
   654.2500      0.0000    643.7836     10.3855     52.4040
   654.5000      0.0000    637.4070     10.5158     50.7716
   654.7500      0.0000    637.5988     10.6579     48.8307
   655.0000      0.0000    645.4621     10.7807     46.7827
   655.2500      0.0000    657.0089     10.8957     44.6446
   655.5000      0.0000    666.5074     11.0107     42.5464
   655.7500      0.0000    671.4301     11.0956     40.6268
   656.0000      0.0000    673.2824     11.1123     38.8182
   656.2500      0.0000    674.8130     11.0380     36.8937
   656.5000      0.0000    678.1226     10.8918     34.7241
   656.7500      0.0000    683.0700     10.7816     32.5144
   657.0000      0.0000    686.8284     10.8668     30.7789
   657.2500      0.0000    687.9166     11.2011     29.9943
   657.5000      0.0000    688.2371     11.6391     30.2818
   657.7500      0.0000    688.7993     11.9767     31.6104
   658.0000      0.0000    689.9862     12.1650     34.2505
   658.2500      0.0000    694.5494     12.3158     38.6175
   658.5000      0.0000    702.9587     12.5236     44.4133
   658.7500      0.0000    711.0236     12.7663     50.3164
   659.0000      0.0000    715.6238     12.9688     55.0728
   659.2500      0.0000    717.3816     13.1139     58.8763
   659.5000      0.0000    717.9345     13.3321     63.1990
   659.7500      0.0000    718.1232     13.8168     69.1350
   660.0000      0.0000    718.2237     14.5577     76.1736
   660.2500      0.0000    718.3198     15.3124     82.5822
   660.5000      0.0000    718.3740     15.8821     86.7371
   660.7500      0.0000    718.3067     16.2542     88.1524
   661.0000      0.0000    718.0427     16.5212     87.5146
   661.2500      0.0000    717.3347     16.7781     85.9935
   661.5000      0.0000    714.3740     17.0808     84.6194
   661.7500      0.0000    701.4815     17.4448     83.9509
   662.0000      0.0000    661.7380     17.8645     83.6264
   662.2500      0.0000    581.3497     18.3610     82.2656
   662.5000      0.0000    475.1363     18.9756     78.6099
   662.7500      0.0000    382.8304     19.6649     73.1009
   663.0000      0.0000    329.5588     20.2576     67.8892
   663.2500      0.0000    308.9478     20.5743     64.9440
   663.5000      0.0000    303.6050     20.5692     64.3665
   663.7500      0.0000    302.8122     20.3221     64.7542
   664.0000      0.0000    303.4201     19.9131     64.8643
   664.2500      0.0000    306.6445     19.3453     64.4638
   664.5000      0.0000    317.4745     18.5873     63.7661
   664.7500      0.0000    344.6862     17.6479     62.6467
   665.0000      0.0000    398.4641     16.5823     60.6621
   665.2500      0.0000    481.7212     15.4542     57.5922
   665.5000      0.0000    577.2501     14.3062     53.6911
   665.7500      0.0000    654.0883     13.1530     49.3932
   666.0000      0.0000    696.1072     12.0121     44.9132
   666.2500      0.0000    711.5699     10.9583     40.2815
   666.5000      0.0000    715.3914     10.1299     35.6811
   666.7500      0.0000    716.0560      9.6566     31.5790
   667.0000      0.0000    716.4623      9.5890     28.6444
   667.2500      0.0000    717.9404      9.8790     27.6991
   667.5000      0.0000    721.8178     10.4195     29.5176
   667.7500      0.0000    728.1227     11.1092     34.4813
   668.0000      0.0000    734.2383     11.8668     42.5290
   668.2500      0.0000    737.1610     12.6314     53.2748
   668.5000      0.0000    736.2100     13.3587     65.8074
   668.7500      0.0000    732.5615     13.9515     78.5396
   669.0000      0.0000    725.7451     14.2702     89.7777
   669.2500      0.0000    708.9448     14.3540     98.4694
   669.5000      0.0000    674.9695     14.5061    104.0901
   669.7500      0.0000    637.8433     14.7627    106.0477
