~Version Information
VERS.                      2.0: CWLS Log ASCII Standard - VERSION 2.0
WRAP.                       NO: One line per depth step
~Well Information Block
STRT.FT               840.0000: 
STOP.FT              1913.5000: 
STEP.FT                 0.2500: 
NULL.                -999.2500: 
COMP.          Petrogulf Corporation: COMPANY
WELL.             Kraft 17-23R: WELL
FLD.           Purgatorie River: FIELD
LOC.           1509' FSL & 1673' FWL: LOCATION
PROV.                 Colorado: PROVINCE
CNTY.               Las Animas: COUNTRY
SRVC.                Patterson: SERVICE COMPANY
DATE.          Tue Oct 11 13:03:25 2005: LOG DATE
UWI.                          : UNIQUE WELL ID
~Curve Information Block
DEPT.FT            0 000 00 00: Depth
SP.mV                         : DIL Spontaneous Potential
RILD.Ohm-m                    : DIL Deep Resistivity
RILM.Ohm-m                    : DIL Medium Resistivity
RLL3.Ohm-m                    : DIL Shallow Resistivity
GR.GAPI                       : Gamma Ray
~Parameter Information Block
~A  Depth        SP         RILD        RILM        RLL3         GR     
# ...
  1260.0000    184.5712     10.4335     10.7435     13.1166     91.2976
  1260.2500    184.7659     10.5335     10.8180     13.3362     89.8240
  1260.5000    184.9936     10.6635     10.9171     13.4009     90.4807
  1260.7500    185.2346     10.8250     11.0465     13.3738     93.1757
  1261.0000    185.4592     11.0206     11.2131     13.4291     98.5353
  1261.2500    185.6355     11.2544     11.4246     13.7223    101.1676
  1261.5000    185.7401     11.5327     11.6899     14.2825    101.9448
  1261.7500    185.7654     11.8637     12.0191     15.0356    100.7938
  1262.0000    185.7185     12.2557     12.4237     15.9143     99.0460
  1262.2500    185.6158     12.7156     12.9171     16.9312     99.1907
  1262.5000    185.4779     13.2469     13.5145     18.1880    101.7724
  1262.7500    185.3270     13.8489     14.2329     19.8831    104.1637
  1263.0000    185.1850     14.5183     15.0905     22.3070    106.6065
  1263.2500    185.0716     15.2499     16.1062     25.7072    106.7520
  1263.5000    185.0042     16.0382     17.2980     30.0350    105.0070
  1263.7500    184.9968     16.8765     18.6803     34.8453    103.2267
  1264.0000    185.0602     17.7535     20.2606     39.5484    100.8678
  1264.2500    185.2009     18.6463     22.0335     43.8096     99.9692
  1264.5000    185.4227     19.5136     23.9712     47.7764     99.7162
  1264.7500    185.7262     20.2922     26.0090     52.0772     99.9076
  1265.0000    186.1053     20.9034     28.0268     57.5675     99.6770
  1265.2500    186.5428     21.2669     29.8339     64.6083     98.5515
  1265.5000    187.0103     21.3188     31.1742     72.0588     94.8497
  1265.7500    187.4747     21.0281     31.7728     77.0710     91.2457
  1266.0000    187.9040     20.4049     31.4273     76.7036     85.2089
  1266.2500    188.2717     19.5000     30.1055     70.5117     81.4350
  1266.5000    188.5604     18.3938     27.9782     61.4908     76.8461
  1266.7500    188.7667     17.1793     25.3562     53.8320     74.5759
  1267.0000    188.9034     15.9443     22.5743     49.3856     71.9384
  1267.2500    188.9984     14.7557     19.8977     46.4223     70.3586
  1267.5000    189.0880     13.6520     17.4869     41.8754     68.4550
  1267.7500    189.2048     12.6455     15.4089     34.5123     68.4069
  1268.0000    189.3668     11.7322     13.6675     25.8308     72.5252
  1268.2500    189.5744     10.9031     12.2308     18.3435     79.0576
  1268.5000    189.8203     10.1512     11.0529     13.5297     93.9956
  1268.7500    190.1053      9.4733     10.0852     11.2721    105.5759
  1269.0000    190.4435      8.8673      9.2839     10.5662    121.2539
  1269.2500    190.8528      8.3309      8.6129     10.3914    128.9262
  1269.5000    191.3388      7.8611      8.0450     10.1440    136.1897
  1269.7500    191.8865      7.4551      7.5610      9.6615    139.3044
  1270.0000    192.4641      7.1107      7.1484      9.0486    143.1024
  1270.2500    193.0319      6.8251      6.7992      8.4763    145.2205
  1270.5000    193.5520      6.5936      6.5079      8.0574    146.9976
  1270.7500    193.9957      6.4097      6.2697      7.8137    146.7754
  1271.0000    194.3473      6.2661      6.0799      7.7041    144.0288
  1271.2500    194.6047      6.1568      5.9338      7.6754    140.6243
  1271.5000    194.7740      6.0774      5.8267      7.7002    133.5934
  1271.7500    194.8615      6.0260      5.7543      7.7729    128.2949
  1272.0000    194.8703      6.0019      5.7132      7.8801    121.2301
  1272.2500    194.8035      6.0059      5.7015      7.9881    118.0552
  1272.5000    194.6713      6.0389      5.7182      8.0670    116.1923
  1272.7500    194.4934      6.1026      5.7637      8.1213    116.5731
  1273.0000    194.2949      6.1978      5.8391      8.1901    118.2855
  1273.2500    194.1000      6.3245      5.9459      8.3217    119.2337
  1273.5000    193.9263      6.4811      6.0857      8.5511    119.1046
  1273.7500    193.7830      6.6647      6.2597      8.8953    117.9118
  1274.0000    193.6689      6.8718      6.4684      9.3517    115.4545
  1274.2500    193.5733      7.0984      6.7112      9.8942    114.0570
  1274.5000    193.4772      7.3411      6.9861     10.4784    112.8570
  1274.7500    193.3562      7.5970      7.2900     11.0569    112.6566
  1275.0000    193.1874      7.8648      7.6184     11.5900    112.9699
  1275.2500    192.9583      8.1454      7.9664     12.0474    113.1990
  1275.5000    192.6721      8.4419      8.3294     12.4087    112.7268
  1275.7500    192.3430      8.7584      8.7042     12.6683    111.6874
  1276.0000    191.9856      9.0991      9.0893     12.8379    109.6628
  1276.2500    191.6093      9.4663      9.4854     12.9415    108.6485
  1276.5000    191.2200      9.8576      9.8949     13.0158    108.3771
  1276.7500    190.8253     10.2632     10.3209     13.1199    108.9537
  1277.0000    190.4338     10.6656     10.7654     13.3434    110.1022
  1277.2500    190.0519     11.0410     11.2273     13.7944    110.6306
  1277.5000    189.6826     11.3646     11.6999     14.5629    111.1497
  1277.7500    189.3302     11.6144     12.1683     15.6721    111.6292
  1278.0000    189.0042     11.7741     12.6067     17.0540    112.6780
  1278.2500    188.7164     11.8349     12.9786     18.5832    113.3035
  1278.5000    188.4765     11.7979     13.2398     20.1356    113.3690
  1278.7500    188.2874     11.6778     13.3481     21.5762    112.4883
  1279.0000    188.1445     11.5035     13.2768     22.6521    110.0152
  1279.2500    188.0321     11.3142     13.0278     22.9436    108.3702
  1279.5000    187.9214     11.1494     12.6359     22.0462    107.3997
  1279.7500    187.7753     11.0396     12.1618     19.8991    107.8581
  1280.0000    187.5598     11.0014     11.6754     16.9520    108.7031
  1280.2500    187.2544     11.0368     11.2405     13.9889    108.2019
  1280.5000    186.8558     11.1361     10.9056     11.7645    104.9050
  1280.7500    186.3772     11.2820     10.7014     10.7613    101.4764
  1281.0000    185.8466     11.4539     10.6438     11.1846     96.7469
  1281.2500    185.3031     11.6320     10.7369     13.0540     95.3452
  1281.5000    184.7893     11.8029     10.9764     16.2309     96.8959
  1281.7500    184.3419     11.9651     11.3513     20.4065     99.6613
  1282.0000    183.9877     12.1342     11.8458     25.1245    104.0079
  1282.2500    183.7444     12.3431     12.4421     29.7556    105.8854
  1282.5000    183.6236     12.6368     13.1249     33.4029    106.5324
  1282.7500    183.6333     13.0629     13.8857     35.0716    105.8941
  1283.0000    183.7757     13.6614     14.7271     34.3331    104.7388
  1283.2500    184.0410     14.4571     15.6639     31.9457    104.6377
  1283.5000    184.4011     15.4533     16.7190     29.6122    106.0333
  1283.7500    184.8112     16.6285     17.9176     28.9327    107.6582
  1284.0000    185.2188     17.9363     19.2771     30.4950    109.6692
  1284.2500    185.5770     19.3074     20.7977     33.7630    109.7259
  1284.5000    185.8566     20.6561     22.4529     37.5664    106.9695
  1284.7500    186.0509     21.8919     24.1858     40.6882    103.5299
  1285.0000    186.1725     22.9374     25.9118     42.3235     97.3756
  1285.2500    186.2418     23.7475     27.5322     42.3558     93.3574
  1285.5000    186.2784     24.3191     28.9530     41.3259     88.2987
  1285.7500    186.2968     24.6819     30.1023     40.0708     85.9632
  1286.0000    186.3073     24.8765     30.9376     39.2777     84.2528
  1286.2500    186.3179     24.9309     31.4414     39.2209     83.9156
  1286.5000    186.3378     24.8519     31.6117     39.7221     83.5442
  1286.7500    186.3810     24.6323     31.4537     40.2553     83.1511
  1287.0000    186.4681     24.2639     30.9774     40.1646     82.9460
  1287.2500    186.6187     23.7450     30.1998     38.9770     83.5945
  1287.5000    186.8419     23.0821     29.1489     36.7061     85.8714
  1287.7500    187.1329     22.2899     27.8647     33.9048     87.6818
