~Version Information
 VERS.                                  2.0 : CWLS LAS VERSION
 WRAP.                                   NO : WRAPING MODE
 SWARE .                 MController 2.5.0N : SOFTWARE VERSION
~Well Information
 WELL.                     Irish Eyes 33-21 : WELL
 COMP.    Pioneer Natural Resources USA Inc : COMPANY
 FLD.                      Purgatoire River : FIELD
 LOC.                  NWSE Sec21 T34S R65W : LOCATION
 DATE.                             01/15/06 : DATE(S) LOGGED
 SRVC.       Blanco Geological Services LLC : SERVICE COMPANY
 STAT.                             Colorado : STATE
 CNTY.                           Las Animas : COUNTY
 CTRY.                                  USA : COUNTRY
 API.                       05-071-08658-00 : API NUMBER
 STRT.FT                             296.00 : START DEPTH
 STOP.FT                            1285.00 : STOP DEPTH
 STEP.FT                               1.00 : DEPTH INCREMENT
 NULL.                                -9999 : NULL VALUE
~Curve information
 DEPTH.FT                                   :
 ROP.MIN/FT                                 :
 GAS.UNITS                                  :
~ASCII Log data
# ...
       896.0         3.45        270.9 
       897.0         0.67         97.4 
       898.0         0.43         93.3 
       899.0         0.33         83.1 
       900.0         0.40         77.4 
       901.0         0.43         72.9 
       902.0         0.47         66.7 
       903.0         0.55         61.8 
       904.0         0.53         58.2 
       905.0         0.57         57.6 
       906.0         0.50         57.9 
       907.0         0.43         56.0 
       908.0         0.40         54.4 
       909.0         0.33         53.4 
       910.0         0.35         52.2 
       911.0         0.30         50.1 
       912.0         0.23         48.9 
       913.0         0.23         48.4 
       914.0         0.23         48.7 
       915.0         0.27         50.6 
       916.0         0.20         52.2 
       917.0         0.20         52.2 
       918.0         0.23         58.3 
       919.0         0.20         58.8 
       920.0         0.23         59.7 
       921.0         0.37         59.5 
       922.0         0.40         58.3 
       923.0         0.42         55.5 
       924.0         0.40         52.9 
       925.0         0.37         51.5 
       926.0         3.88        200.3 
       927.0         0.37         93.2 
       928.0         0.40         84.6 
       929.0         0.37         75.3 
       930.0         0.40         67.2 
       931.0         0.75         60.1 
       932.0         0.60         52.3 
       933.0         0.57         49.8 
       934.0         0.57         48.6 
       935.0         0.57         48.7 
       936.0         0.58         49.5 
       937.0         0.53         49.4 
       938.0         0.57         48.5 
       939.0         0.53         48.4 
       940.0         0.53         48.4 
       941.0         0.53         49.2 
       942.0         0.53         49.4 
       943.0         0.55         48.9 
       944.0         0.50         48.9 
       945.0         0.50         53.7 
       946.0         0.40         56.4 
       947.0         0.27         56.3 
       948.0         0.27         54.5 
       949.0         0.27         54.2 
       950.0         0.27         53.1 
       951.0         0.30         52.8 
       952.0         0.28         56.1 
       953.0         0.33         56.8 
       954.0         0.37         56.0 
       955.0         0.37         50.0 
       956.0         5.42        254.0 
       957.0         0.48         69.9 
       958.0         0.47         62.5 
       959.0         0.47         56.0 
       960.0         0.53         58.6 
       961.0         0.30         56.5 
       962.0         0.33         53.5 
       963.0         0.33         50.5 
       964.0         0.30         49.3 
       965.0         0.32         49.0 
       966.0         0.33         48.5 
       967.0         0.33         48.1 
       968.0         0.33         48.0 
       969.0         0.33         48.3 
       970.0         0.37         48.3 
       971.0         0.37         47.6 
       972.0         0.33         47.4 
       973.0         0.33         46.7 
       974.0         0.37         46.9 
       975.0         0.38         47.1 
       976.0         0.37         46.9 
       977.0         0.37         46.5 
       978.0         0.37         47.2 
       979.0         0.37         47.0 
       980.0         0.33         50.9 
       981.0         0.30         59.8 
       982.0         0.27         73.0 
       983.0         0.27         77.1 
       984.0         0.27         78.6 
       985.0         0.28         72.8 
       986.0         5.22        391.0 
       987.0         0.40        115.4 
       988.0         0.27        113.1 
       989.0         0.33        103.8 
       990.0         0.30         91.1 
       991.0         0.42         90.8 
       992.0         0.37         81.1 
       993.0         0.33         78.0 
       994.0         0.43         75.8 
       995.0         0.40         75.7 
       996.0         0.40         75.6 
       997.0         0.47         72.7 
       998.0         0.37         70.2 
       999.0         0.35         72.2 
      1000.0         0.40         72.7 
      1001.0         0.37         71.8 
      1002.0         0.40         73.4 
      1003.0         0.40         73.2 
      1004.0         0.43         71.4 
      1005.0         0.40         71.4 
      1006.0         0.40         71.8 
      1007.0         0.40         71.6 
      1008.0         0.35         70.4 
      1009.0         0.37         71.2 
      1010.0         0.33         80.9 
      1011.0         0.33         97.6 
      1012.0         0.33         98.9 
      1013.0         0.37         97.9 
      1014.0         0.37         96.4 
      1015.0         0.43         80.5 
      1016.0         3.42        241.7 
      1017.0         0.62        146.5 
      1018.0         0.47        132.8 
      1019.0         0.47        121.6 
      1020.0         0.47        100.5 
      1021.0         0.50         79.5 
      1022.0         0.40         76.1 
      1023.0         0.43         76.4 
      1024.0         0.45         76.2 
      1025.0         0.47         75.8 
      1026.0         0.47         75.1 
      1027.0         0.47         75.4 
      1028.0         0.50         75.0 
      1029.0         0.43         84.5 
      1030.0         0.37         85.8 
      1031.0         0.37         93.1 
      1032.0         0.42        127.6 
      1033.0         0.47        127.8 
      1034.0         0.43        114.3 
      1035.0         0.47        103.2 
      1036.0         0.53         91.6 
      1037.0         0.57         84.2 
      1038.0         0.57         79.2 
      1039.0         0.52         76.4 
      1040.0         0.53         74.7 
      1041.0         0.53         74.1 
      1042.0         0.57         73.2 
      1043.0         0.63         71.9 
      1044.0         0.63         71.0 
      1045.0         0.55         71.7 
      1046.0         2.92        241.9 
      1047.0         0.60        134.5 
      1048.0         0.50        132.6 
      1049.0         0.27        126.6 
      1050.0         0.33        113.7 
      1051.0         0.30        123.5 
      1052.0         0.27        179.0 
      1053.0         0.23        204.3 
      1054.0         0.27        204.8 
      1055.0         0.30        186.3 
      1056.0         0.28        171.1 
      1057.0         0.33        163.5 
      1058.0         0.30        137.1 
      1059.0         0.37        130.8 
      1060.0         0.30        121.0 
      1061.0         0.30        121.3 
      1062.0         0.37        119.6 
      1063.0         0.33        110.7 
      1064.0         0.33        110.1 
      1065.0         0.40        109.7 
      1066.0         0.42        133.0 
      1067.0         0.37        296.8 
      1068.0         0.37        875.5 
      1069.0         0.33        936.4 
      1070.0         0.37        939.9 
      1071.0         0.40        927.5 
      1072.0         0.37        902.2 
      1073.0         0.43        879.3 
      1074.0         0.40        846.3 
      1075.0         0.42        812.7 
      1076.0         3.58       1746.1 
      1077.0         0.37       1133.5 
      1078.0         0.30       1125.9 
      1079.0         0.30       1075.4 
      1080.0         0.27       1062.4 
      1081.0         0.30        883.7 
      1082.0         0.27        867.2 
      1083.0         0.27        789.8 
      1084.0         0.30        785.4 
      1085.0         0.27        759.3 
      1086.0         0.28        745.7 
      1087.0         0.27        729.8 
      1088.0         0.30        709.2 
      1089.0         0.27        700.9 
      1090.0         0.23        698.7 
      1091.0         0.27        723.5 
      1092.0         0.27        728.5 
      1093.0         0.27        712.4 
      1094.0         0.30        704.4 
      1095.0         0.30        686.0 
