~Version Information
VERS.                      2.0: CWLS Log ASCII Standard - VERSION 2.0
WRAP.                       NO: One line per depth step
~Well Information Block
STRT.FT               860.0000: 
STOP.FT              2360.5000: 
STEP.FT                 0.1000: 
NULL.                -999.2500: 
COMP.          Pioneer Natural Resources: COMPANY
WELL.            Cayenne 23-23: WELL
FLD.           Purgatoire River: FIELD
LOC.           2555' FSL & 2386' FWL: LOCATION
PROV.                 Colorado: PROVINCE
CNTY.               Las Animas: COUNTRY
SRVC.                Patterson: SERVICE COMPANY
DATE.          Wed Aug 17 08:28:25 2005: LOG DATE
UWI.           05 071 08476 00: UNIQUE WELL ID
~Curve Information Block
DEPT.FT            0 000 00 00: Depth
DCAL.in                       : CDL Caliper
RHOB.g/cc                     : CDL Bulk Density
RHOC.g/cc                     : CDL Density Correction
DPOR.pu                       : CDL Density Porosity
GR.GAPI                       : Gamma Ray
NPOR.pu                       : Neutron Porosity
~Parameter Information Block
~A  Depth       DCAL        RHOB        RHOC        DPOR         GR         NPOR    
# ...
  1061.6000      8.2610      2.4509     -0.0254     12.0670    118.7539     28.0535
  1061.7000      8.2610      2.4464     -0.0100     12.3420    114.2086     28.0991
  1061.8000      8.2368      2.4507     -0.0031     12.0804    119.5285     28.3850
  1061.9000      8.2368      2.4633     -0.0045     11.3127    129.7669     28.0804
  1062.0000      8.2193      2.4798      0.0531     10.3163    136.6528     27.4658
  1062.1000      8.2193      2.4921      0.0441      9.5719    140.0591     26.6924
  1062.2000      8.2193      2.4925      0.0587      9.5482    142.9745     26.3183
  1062.3000      8.2374      2.4754      0.0260     10.5797    143.6571     27.1100
  1062.4000      8.2374      2.4391     -0.0097     12.7826    143.2385     28.4056
  1062.5000      8.2542      2.3754     -0.0271     16.6417    145.9805     28.6220
  1062.6000      8.2542      2.2753     -0.0416     22.7069    147.1252     27.7583
  1062.7000      8.2542      2.1482     -0.0907     30.4129    140.2730     27.1048
  1062.8000      8.2458      2.0109     -0.0663     38.7353    132.2296     27.4085
  1062.9000      8.2458      1.8700     -0.0931     47.2708    131.8599     28.7178
  1063.0000      8.2339      1.7460     -0.2305     54.7873    135.2504     30.3579
  1063.1000      8.2339      1.6627     -0.1607     59.8371    135.4440     31.0774
  1063.2000      8.2339      1.6188     -0.1587     62.4953    132.7450     30.6181
  1063.3000      8.2680      1.6208     -0.1158     62.3753    129.3287     30.1173
  1063.4000      8.2680      1.6856      0.0115     58.4459    128.0853     30.2505
  1063.5000      8.3111      1.7972      0.1407     51.6820    129.3957     30.7088
  1063.6000      8.3111      1.9112      0.1773     44.7728    129.8866     31.0634
  1063.7000      8.3111      2.0067      0.1678     38.9880    131.7455     31.2222
  1063.8000      8.4078      2.0900      0.2367     33.9411    138.6263     31.7417
  1063.9000      8.4078      2.1628      0.1874     29.5269    144.9591     32.6662
  1064.0000      8.8619      2.2228      0.1506     25.8911    141.9571     33.4042
  1064.1000      8.8619      2.2601      0.2570     23.6325    134.1235     33.8655
  1064.2000      8.8619      2.2548      0.2830     23.9493    131.4875     34.0052
  1064.3000      8.9463      2.2096      0.2356     26.6911    133.7536     33.6541
  1064.4000      8.9463      2.1554      0.1932     29.9737    136.3891     33.0766
  1064.5000      8.4626      2.1304      0.0852     31.4924    140.2924     32.8472
  1064.6000      8.4626      2.1627      0.0099     29.5343    147.3622     32.6605
  1064.7000      8.4626      2.2365      0.0996     25.0636    157.0388     31.8019
  1064.8000      8.4208      2.3105      0.0614     20.5759    165.0546     30.6879
  1064.9000      8.4208      2.3746      0.1431     16.6901    166.0893     29.9686
  1065.0000      8.4215      2.4358      0.1718     12.9810    157.5420     29.7019
  1065.1000      8.4215      2.4969      0.1720      9.2782    147.0655     29.6023
  1065.2000      8.4215      2.5398      0.2786      6.6793    145.1060     29.3959
  1065.3000      8.4888      2.5384      0.1286      6.7607    150.1156     29.4247
  1065.4000      8.4888      2.5146      0.0730      8.2063    156.6409     29.3936
  1065.5000      8.4023      2.5023      0.0272      8.9539    162.8884     28.3066
  1065.6000      8.4023      2.4916      0.0547      9.5992    163.8570     26.4529
  1065.7000      8.4023      2.4716      0.0126     10.8143    158.6698     24.9991
  1065.8000      8.4373      2.4645     -0.0475     11.2444    154.3014     23.6932
  1065.9000      8.4373      2.4788      0.0096     10.3737    151.9708     22.0707
  1066.0000      8.3325      2.4927      0.0177      9.5341    148.9214     20.9556
  1066.1000      8.3325      2.4924      0.0154      9.5519    144.1217     20.8446
  1066.2000      8.3325      2.4872     -0.0081      9.8637    136.5801     21.3364
  1066.3000      8.3065      2.4986     -0.0210      9.1740    126.8563     21.9529
  1066.4000      8.3065      2.5295      0.0142      7.3008    121.9055     22.2372
  1066.5000      8.2524      2.5551      0.0911      5.7512    124.4929     22.4169
  1066.6000      8.2524      2.5604      0.0049      5.4329    126.7200     23.7278
  1066.7000      8.2524      2.5592      0.0337      5.5013    126.3862     25.6997
  1066.8000      8.2260      2.5671      0.0091      5.0248    126.0486     26.5110
  1066.9000      8.2260      2.5808      0.0486      4.1942    123.2545     26.6051
  1067.0000      8.2098      2.5824      0.0248      4.0966    118.1754     26.8829
  1067.1000      8.2098      2.5622      0.0019      5.3237    117.0421     26.5319
  1067.2000      8.2098      2.5342     -0.0262      7.0180    122.6244     25.6366
  1067.3000      8.1947      2.5166     -0.0483      8.0837    128.9336     24.9835
  1067.4000      8.1947      2.5175     -0.0921      8.0283    131.8697     24.9547
  1067.5000      8.1810      2.5323      0.0033      7.1351    131.4974     25.5860
  1067.6000      8.1810      2.5406      0.0241      6.6275    127.7619     25.5924
  1067.7000      8.1810      2.5290      0.0502      7.3335    123.2678     24.4240
  1067.8000      8.2108      2.5024      0.0169      8.9466    121.7970     23.4946
  1067.9000      8.2108      2.4790     -0.0226     10.3611    124.5081     23.6821
  1068.0000      8.1940      2.4653     -0.0022     11.1927    127.9177     24.2905
  1068.1000      8.1940      2.4485     -0.0093     12.2136    129.0268     24.2503
  1068.2000      8.1940      2.4350     -0.0666     13.0300    129.2614     23.5152
  1068.3000      8.1993      2.4499     -0.0310     12.1244    129.7872     22.7186
  1068.4000      8.1993      2.4879     -0.0037      9.8258    130.5727     21.9208
  1068.5000      8.2174      2.5149      0.0917      8.1851    133.2421     21.4224
  1068.6000      8.2174      2.5164      0.0161      8.0950    137.1044     21.9755
  1068.7000      8.2174      2.5139     -0.0201      8.2493    138.3606     23.2699
  1068.8000      8.2459      2.5241     -0.0010      7.6303    139.0855     24.0559
  1068.9000      8.2459      2.5368      0.0277      6.8588    141.3421     23.7062
  1069.0000      8.2257      2.5473     -0.0054      6.2243    138.9925     22.7129
  1069.1000      8.2257      2.5587      0.0488      5.5331    131.2225     21.8448
  1069.2000      8.2257      2.5682      0.0082      4.9560    126.8229     21.6800
  1069.3000      8.2193      2.5837     -0.0155      4.0158    129.4983     22.0696
  1069.4000      8.2193      2.6040      0.0331      2.7895    134.2305     22.0850
  1069.5000      8.1857      2.6044      0.0615      2.7611    133.5894     21.3796
  1069.6000      8.1857      2.5777      0.0228      4.3791    126.7338     20.7325
  1069.7000      8.1857      2.5418      0.0119      6.5588    120.4208     20.7920
  1069.8000      8.1758      2.5053      0.0418      8.7704    119.7502     21.4765
  1069.9000      8.1758      2.4701     -0.0194     10.9036    123.6390     22.6005
  1070.0000      8.1622      2.4514     -0.0955     12.0371    125.2114     23.9424
  1070.1000      8.1622      2.4613     -0.0331     11.4337    120.2227     24.9902
  1070.2000      8.1622      2.4890      0.0041      9.7559    116.4749     25.1177
  1070.3000      8.1543      2.5099      0.0410      8.4908    121.7254     24.4897
  1070.4000      8.1543      2.5102      0.0015      8.4739    129.3458     23.9348
  1070.5000      8.1569      2.4995      0.0214      9.1231    129.3478     23.7750
  1070.6000      8.1569      2.4888      0.0157      9.7674    122.3139     24.0518
  1070.7000      8.1569      2.4752     -0.0246     10.5936    114.5104     24.6159
  1070.8000      8.1617      2.4607     -0.0179     11.4748    111.1573     24.4799
  1070.9000      8.1617      2.4594     -0.0023     11.5543    112.8971     23.1978
  1071.0000      8.1550      2.4786      0.0358     10.3886    118.4411     21.9140
  1071.1000      8.1550      2.5073      0.0553      8.6479    125.8343     21.7005
