~Version Information
VERS.                      2.0: CWLS Log ASCII Standard - VERSION 2.0
WRAP.                       NO: One line per depth step
~Well Information Block
STRT.FT               555.0000: 
STOP.FT              2286.5000: 
STEP.FT                 0.1000: 
NULL.                -999.2500: 
COMP.          Pioneer Natural Resources: COMPANY
WELL.          Roadster 41-33 Kv: WELL
FLD.           Purgatoire River: FIELD
LOC.           903' FNL & 248' FEL: LOCATION
PROV.                 Colorado: PROVINCE
CNTY.               Las Animas: COUNTRY
SRVC.                Patterson: SERVICE COMPANY
DATE.          Thu Dec 15 10:28:25 2005: LOG DATE
UWI.           05 071 08615 00: UNIQUE WELL ID
~Curve Information Block
DEPT.FT            0 000 00 00: Depth
DCAL.in                       : CDL Caliper
RHOB.g/cc                     : CDL Bulk Density
RHOC.g/cc                     : CDL Density Correction
DPOR.pu                       : CDL Density Porosity
GR.GAPI                       : Gamma Ray
NPOR.pu                       : Neutron Porosity
~Parameter Information Block
~A  Depth       DCAL        RHOB        RHOC        DPOR         GR         NPOR    
# ...
   900.6000      8.0261      2.5252     -0.0072      7.5658    132.1245     23.2575
   900.7000      8.0261      2.5131     -0.0179      8.2982    134.2517     22.6524
   900.8000      8.0230      2.5184     -0.0177      7.9742    139.5105     22.7763
   900.9000      8.0230      2.5471      0.0211      6.2380    143.2528     23.7683
   901.0000      8.0237      2.5825      0.0278      4.0920    141.9561     24.7049
   901.1000      8.0237      2.5985      0.1090      3.1192    135.2488     24.7702
   901.2000      8.0237      2.5910      0.0610      3.5749    127.9116     24.1162
   901.3000      8.0240      2.5826      0.0527      4.0865    124.8574     23.1205
   901.4000      8.0240      2.5810      0.0680      4.1828    125.3643     22.3683
   901.5000      8.0248      2.5722      0.0779      4.7133    124.0723     22.4437
   901.6000      8.0248      2.5569      0.0505      5.6444    121.8243     23.1164
   901.7000      8.0248      2.5483      0.0863      6.1628    123.3582     23.6016
   901.8000      8.0238      2.5608      0.0349      5.4089    125.6339     23.4876
   901.9000      8.0238      2.6106      0.0775      2.3900    126.9019     23.2724
   902.0000      8.0241      2.6880      0.1146     -2.3001    130.1424     22.9530
   902.1000      8.0241      2.7616      0.1183     -6.7651    133.9048     22.2452
   902.2000      8.0241      2.8164      0.1134    -10.0850    137.0312     22.2372
   902.3000      8.0233      2.8452      0.1985    -11.8308    137.6178     23.4576
   902.4000      8.0233      2.8356      0.2105    -11.2515    130.3301     24.1599
   902.5000      8.0215      2.7929      0.1244     -8.6633    118.8861     22.9490
   902.6000      8.0215      2.7367      0.0560     -5.2548    115.5608     20.8150
   902.7000      8.0215      2.6765      0.0032     -1.6053    124.5752     19.1047
   902.8000      8.0219      2.6214     -0.0872      1.7351    137.6077     18.4589
   902.9000      8.0219      2.5814     -0.0520      4.1599    147.0785     19.4088
   903.0000      8.0222      2.5560     -0.1060      5.6941    150.7935     21.8455
   903.1000      8.0222      2.5457     -0.0402      6.3205    149.8132     24.2582
   903.2000      8.0222      2.5510      0.0296      6.0013    148.3512     24.6642
   903.3000      8.0218      2.5664      0.0119      5.0697    148.3927     23.4026
   903.4000      8.0218      2.5810      0.0371      4.1832    144.7587     22.5910
   903.5000      8.0207      2.5880      0.0282      3.7546    137.3167     23.3812
   903.6000      8.0207      2.5960     -0.0064      3.2705    133.1798     24.9402
   903.7000      8.0207      2.6062      0.0635      2.6568    132.2325     25.4525
   903.8000      8.0217      2.6012      0.0697      2.9575    131.5258     24.5830
   903.9000      8.0217      2.5824      0.0357      4.0977    132.6965     23.2712
   904.0000      8.0217      2.5678      0.0627      4.9839    134.6527     22.2781
   904.1000      8.0217      2.5605      0.0385      5.4213    134.6564     22.0108
   904.2000      8.0217      2.5523      0.0561      5.9240    134.2140     22.1025
   904.3000      8.0225      2.5390      0.0030      6.7277    135.2982     22.1548
   904.4000      8.0225      2.5310      0.0145      7.2118    136.0710     22.7423
   904.5000      8.0217      2.5359      0.0279      6.9163    137.0493     23.7843
   904.6000      8.0217      2.5442      0.0343      6.4106    138.5447     24.0141
   904.7000      8.0217      2.5471      0.0437      6.2372    137.5401     23.6381
   904.8000      8.0216      2.5537      0.0179      5.8353    134.4120     24.1870
   904.9000      8.0216      2.5727      0.0825      4.6850    132.2612     25.3117
   905.0000      8.0198      2.5944      0.0625      3.3672    132.9340     25.4418
   905.1000      8.0198      2.6053      0.0961      2.7071    132.9992     24.9292
   905.2000      8.0198      2.6002      0.0960      3.0194    129.7011     24.4734
   905.3000      8.0218      2.5856      0.0917      3.9026    126.6218     23.8273
   905.4000      8.0218      2.5674      0.1196      5.0090    122.9125     23.6216
   905.5000      8.0209      2.5470      0.0559      6.2408    116.8486     24.6248
   905.6000      8.0209      2.5360      0.0421      6.9065    113.2707     25.9215
   905.7000      8.0209      2.5447      0.0474      6.3801    114.1623     25.8274
   905.8000      8.0219      2.5692      0.0581      4.8997    114.0973     24.3234
   905.9000      8.0219      2.5992      0.0580      3.0790    109.5964     22.9552
   906.0000      8.0147      2.6213      0.1117      1.7420    106.9163     22.9456
   906.1000      8.0147      2.6181      0.0980      1.9312    108.6929     24.4130
   906.2000      8.0147      2.5934      0.0496      3.4330    107.7372     26.1994
   906.3000      8.0113      2.5745     -0.0074      4.5729    100.4248     26.7792
   906.4000      8.0113      2.5714      0.0487      4.7643     93.2447     26.2537
   906.5000      8.0126      2.5677      0.0256      4.9873     90.5480     25.5896
   906.6000      8.0126      2.5584     -0.0023      5.5521     90.5093     25.0413
   906.7000      8.0126      2.5470      0.0234      6.2453     90.2955     24.7101
   906.8000      8.0040      2.5334     -0.0184      7.0690     85.8964     24.7167
   906.9000      8.0040      2.5267     -0.0131      7.4744     77.5797     25.5430
   907.0000      7.9778      2.5390     -0.0102      6.7286     71.9153     27.0401
   907.1000      7.9778      2.5651      0.0676      5.1426     73.0778     27.7726
   907.2000      7.9778      2.5802      0.0876      4.2288     77.0997     27.3732
   907.3000      7.9731      2.5720      0.0831      4.7292     78.4564     26.6545
   907.4000      7.9731      2.5567      0.0295      5.6559     79.1582     26.2025
   907.5000      7.9733      2.5504      0.0546      6.0370     83.4621     26.3294
   907.6000      7.9733      2.5523      0.0480      5.9195     89.1136     26.4489
   907.7000      7.9733      2.5622      0.0494      5.3219     91.3069     26.0389
   907.8000      7.9814      2.5756      0.0794      4.5068     90.6414     26.0274
   907.9000      7.9814      2.5813      0.0268      4.1645     89.9839     26.6978
   908.0000      8.0084      2.5749      0.0594      4.5513     90.8946     26.9439
   908.1000      8.0084      2.5668      0.0238      5.0403     93.4614     26.3458
   908.2000      8.0084      2.5769      0.0363      4.4324     94.4359     25.8553
   908.3000      8.0168      2.5990      0.0537      3.0936     92.9203     26.6558
   908.4000      8.0168      2.5959      0.0945      3.2818     92.1881     28.3563
   908.5000      8.0211      2.5582      0.0132      5.5665     92.2032     29.5054
   908.6000      8.0211      2.5243     -0.0332      7.6194     90.5895     29.6108
   908.7000      8.0211      2.5199     -0.0405      7.8858     87.8526     29.2640
   908.8000      8.0199      2.5301      0.0025      7.2681     84.2332     28.5785
   908.9000      8.0199      2.5362      0.0010      6.8942     78.3511     27.2113
   909.0000      8.0199      2.5347      0.0165      6.9856     73.6450     26.0872
   909.1000      8.0199      2.5261     -0.0160      7.5071     73.7432     26.5910
   909.2000      8.0199      2.5144     -0.0345      8.2193     75.6567     28.1705
   909.3000      8.0195      2.4988      0.0042      9.1640     76.4665     28.9130
   909.4000      8.0195      2.4702      0.0199     10.8985     75.8817     28.3173
   909.5000      8.0212      2.4378     -0.0581     12.8584     74.0110     27.4990
   909.6000      8.0212      2.4308     -0.0743     13.2822     71.2744     26.9952
   909.7000      8.0212      2.4477      0.0074     12.2604     70.0741     26.4589
   909.8000      8.0203      2.4635     -0.0034     11.3024     72.5233     25.9894
   909.9000      8.0203      2.4764      0.0276     10.5227     74.9878     26.0659
   910.0000      8.0188      2.4878      0.0223      9.8314     73.5369     26.4117
   910.1000      8.0188      2.4900      0.0438      9.6982     69.5903     26.6108
