~Version Information
VERS.                      2.0: CWLS Log ASCII Standard - VERSION 2.0
WRAP.                       NO: One line per depth step
~Well Information Block
STRT.FT                -7.7500: 
STOP.FT              1420.5000: 
STEP.FT                 0.2500: 
NULL.                -999.2500: 
COMP.          Pioneer Natural Resources: COMPANY
WELL.          Parklane 43-34 Tr: WELL
FLD.           Purgatorie River: FIELD
LOC.           1643' FSL & 966' FEL--: LOCATION
PROV.                       CO: PROVINCE
CNTY.               Las Animas: COUNTRY
SRVC.          Patterson Wireline: SERVICE COMPANY
DATE.          Tue Aug 02 11:35:27 2005: LOG DATE
UWI.           05 071 08452 00: UNIQUE WELL ID
~Curve Information Block
DEPT.FT            0 000 00 00: Depth
CCL.                          : Casing Collar Locator
TT3.usec                      : CBL 3' Travel Time
AMP3.mV                       : CBL 3' Amplitude
GR.GAPI                       : Gamma Ray
~Parameter Information Block
~A  Depth       CCL         TT3         AMP3         GR     
# ...
   930.2500      0.0000    789.1828     11.4237    123.0396
   930.5000      0.0000    775.1490     11.5310    123.0312
   930.7500      0.0000    772.0065     11.5258    123.9865
   931.0000      0.0000    778.1122     11.3879    125.8486
   931.2500      0.0000    789.7492     11.1565    128.4853
   931.5000      0.0000    803.4306     10.8874    131.4643
   931.7500      0.0000    816.6844     10.6209    134.2594
   932.0000      0.0000    827.7214     10.3785    136.5087
   932.2500      0.0000    835.4305     10.1658    137.8145
   932.5000      0.0000    839.8241      9.9770    137.4037
   932.7500      0.0000    841.8226      9.7992    134.4147
   933.0000      0.0000    842.4748      9.6200    128.9462
   933.2500      0.0000    842.4760      9.4369    122.7431
   933.5000      0.0000    842.1999      9.2599    118.2377
   933.7500      0.0000    841.8490      9.1066    116.5456
   934.0000      0.0000    841.5046      8.9908    116.6606
   934.2500      0.0000    841.1882      8.9173    116.8089
   934.5000      0.0000    840.9341      8.8818    116.1372
   934.7500      0.0000    840.8171      8.8743    114.7696
   935.0000      0.0000    840.9008      8.8860    112.8485
   935.2500      0.0000    841.1894      8.9141    110.3652
   935.5000      0.0000    841.6251      8.9605    107.8365
   935.7500      0.0000    842.1147      9.0247    106.4530
   936.0000      0.0000    842.5676      9.1002    107.2969
   936.2500      0.0000    842.9237      9.1787    110.4875
   936.5000      0.0000    843.1380      9.2555    114.9860
   936.7500      0.0000    843.1565      9.3335    119.1035
   937.0000      0.0000    842.8704      9.4233    121.5405
   937.2500      0.0000    841.9996      9.5410    122.2689
   937.5000      0.0000    839.8380      9.6989    122.2332
   937.7500      0.0000    835.1571      9.8937    122.1237
   938.0000      0.0000    826.7560     10.1038    121.6515
   938.2500      0.0000    814.4733     10.2985    119.8896
   938.5000      0.0000    799.7649     10.4529    115.8566
   938.7500      0.0000    785.3237     10.5528    108.7884
   939.0000      0.0000    774.0151     10.5934     98.4633
   939.2500      0.0000    767.7152     10.5790     85.8728
   939.5000      0.0000    766.9758     10.5256     73.4328
   939.7500      0.0000    771.7805     10.4615     63.9992
   940.0000      0.0000    781.4224     10.4210     59.5542
   940.2500      0.0000    792.9518     10.4264     60.8253
   940.5000      0.0000    801.6959     10.4720     67.6377
   940.7500      0.0000    804.9158     10.5281     78.9377
   941.0000      0.0000    803.7861     10.5653     92.4720
   941.2500      0.0000    801.2502     10.5771    104.9406
   941.5000      0.0000    799.7781     10.5791    113.0235
   941.7500      0.0000    801.4980     10.5871    114.8415
   942.0000      0.0000    807.7827     10.6021    111.0333
   942.2500      0.0000    817.4894     10.6171    104.6402
   942.5000      0.0000    827.1213     10.6300     99.5231
   942.7500      0.0000    833.3724     10.6425     98.1389
   943.0000      0.0000    834.6779     10.6477    100.3228
   943.2500      0.0000    830.7013     10.6255    104.0865
   943.5000      0.0000    821.8790     10.5540    107.7158
   943.7500      0.0000    810.0845     10.4273    111.2207
   944.0000      0.0000    798.6697     10.2660    115.5903
   944.2500      0.0000    790.5850     10.1091    120.6397
   944.5000      0.0000    786.2254      9.9884    124.2594
   944.7500      0.0000    783.5280      9.9076    124.4558
   945.0000      0.0000    780.2426      9.8476    121.7598
   945.2500      0.0000    775.6385      9.7884    118.8225
   945.5000      0.0000    770.2030      9.7273    117.6485
   945.7500      0.0000    765.0895      9.6815    117.8209
   946.0000      0.0000    762.3892      9.6742    117.5249
   946.2500      0.0000    764.1128      9.7130    115.7276
   946.5000      0.0000    769.8495      9.7821    113.1394
   946.7500      0.0000    776.8840      9.8580    111.4602
   947.0000      0.0000    783.3444      9.9290    111.9966
   947.2500      0.0000    789.7574      9.9979    114.8164
   947.5000      0.0000    796.7194     10.0699    118.9339
   947.7500      0.0000    802.5748     10.1397    123.2269
   948.0000      0.0000    804.4715     10.1911    127.1198
   948.2500      0.0000    801.1276     10.2115    130.3232
   948.5000      0.0000    794.2629     10.2047    132.2887
   948.7500      0.0000    787.9943     10.1853    132.3948
   949.0000      0.0000    786.7886     10.1637    130.4864
   949.2500      0.0000    792.7698     10.1397    127.0895
   949.5000      0.0000    804.1421     10.1080    123.5119
   949.7500      0.0000    816.2442     10.0645    121.6372
   950.0000      0.0000    824.4036     10.0074    122.5369
   950.2500      0.0000    826.2578      9.9401    124.8811
   950.5000      0.0000    822.3694      9.8703    125.8343
   950.7500      0.0000    815.3499      9.8068    124.2355
   951.0000      0.0000    808.2228      9.7551    121.9545
   951.2500      0.0000    802.9273      9.7165    121.5212
   951.5000      0.0000    799.7721      9.6911    123.3428
   951.7500      0.0000    797.8173      9.6803    125.7046
   952.0000      0.0000    795.3728      9.6866    126.6011
   952.2500      0.0000    790.3340      9.7099    125.1056
   952.5000      0.0000    780.9998      9.7471    121.5464
   952.7500      0.0000    767.6963      9.7963    116.9184
   953.0000      0.0000    753.8859      9.8591    112.1540
   953.2500      0.0000    744.9479      9.9357    107.6130
   953.5000      0.0000    744.9197     10.0193    102.9215
   953.7500      0.0000    753.6917     10.0960     97.4088
   954.0000      0.0000    766.9259     10.1495     91.2248
   954.2500      0.0000    778.6542     10.1681     86.1039
   954.5000      0.0000    784.5525     10.1485     84.4342
   954.7500      0.0000    783.7280     10.0938     87.1158
   955.0000      0.0000    778.5066     10.0124     92.4197
   955.2500      0.0000    772.9203      9.9192     97.2470
   955.5000      0.0000    770.6483      9.8329     99.5716
   955.7500      0.0000    773.2429      9.7681     99.6567
   956.0000      0.0000    779.4855      9.7283     99.1590
   956.2500      0.0000    786.2560      9.7068     99.4067
   956.5000      0.0000    790.3716      9.6922    100.7078
   956.7500      0.0000    790.2027      9.6742    103.1531
   957.0000      0.0000    786.5288      9.6513    107.3565
   957.2500      0.0000    782.6782      9.6320    113.6808
   957.5000      0.0000    783.1617      9.6298    120.9803
   957.7500      0.0000    790.2719      9.6559    126.7993
   958.0000      0.0000    801.4657      9.7152    128.9787
   958.2500      0.0000    811.1588      9.7987    127.0978
   958.5000      0.0000    815.5063      9.8798    122.7633
   958.7500      0.0000    814.7545      9.9260    118.5479
   959.0000      0.0000    811.3789      9.9209    116.3137
   959.2500      0.0000    807.4304      9.8753    116.3631
   959.5000      0.0000    803.8940      9.8187    117.9516
   959.7500      0.0000    801.2244      9.7852    120.0542
   960.0000      0.0000    799.5886      9.8020    121.4584
   960.2500      0.0000    798.8765      9.8794    120.9243
   960.5000      0.0000    798.8699     10.0047    118.1221
   960.7500      0.0000    799.4769     10.1456    114.2783
   961.0000      0.0000    800.9138     10.2657    111.4043
   961.2500      0.0000    803.6719     10.3438    110.9268
   961.5000      0.0000    807.9246     10.3853    113.1142
   961.7500      0.0000    812.3835     10.4125    117.2210
   962.0000      0.0000    813.8385     10.4396    121.7296
   962.2500      0.0000    808.9712     10.4604    124.9899
   962.5000      0.0000    797.6063     10.4620    126.1811
   962.7500      0.0000    783.5886     10.4468    125.5625
   963.0000      0.0000    771.4732     10.4393    123.8734
   963.2500      0.0000    762.9150     10.4685    121.7830
   963.5000      0.0000    757.0537     10.5457    119.6377
