~Version Information
VERS.                      2.0: CWLS Log ASCII Standard - VERSION 2.0
WRAP.                       NO: One line per depth step
~Well Information Block
STRT.FT                -7.0000: 
STOP.FT              1239.2500: 
STEP.FT                 0.2500: 
NULL.                -999.2500: 
COMP.          Pioneer Natural Resources: COMPANY
WELL.              Julie 11-30: WELL
FLD.           Purgatorie River: FIELD
LOC.           672' FNL & 1052' FWL--: LOCATION
CNTY.               Las Animas: COUNTY
SRVC.          Patterson Wireline: SERVICE COMPANY
DATE.          Tue Apr 18 11:12:35 2006: LOG DATE
UWI.           05 071 08724 00: UNIQUE WELL ID
STAT.                       CO: STATE
~Curve Information Block
DEPT.FT            0 000 00 00: Depth
CCL.                          : Casing Collar Locator
TT3.usec                      : CBL 3' Travel Time
AMP3.mV                       : CBL 3' Amplitude
GR.GAPI                       : Gamma Ray
~Parameter Information Block
~A  Depth       CCL         TT3         AMP3         GR     
# ...
   395.0000      0.0000    674.9830     10.0847    113.6952
   395.2500      0.0000    652.8362     10.0506    116.1515
   395.5000      0.0000    672.4189      9.9362    121.7508
   395.7500      0.0000    723.8693      9.7239    129.0583
   396.0000      0.0000    781.0989      9.4254    136.8448
   396.2500      0.0000    823.2046      9.0830    144.4941
   396.5000      0.0000    844.7595      8.7458    150.9301
   396.7500      0.0000    850.7775      8.4380    154.1443
   397.0000      0.0000    848.5937      8.1533    152.3848
   397.2500      0.0000    844.3359      7.8747    145.4855
   397.5000      0.0000    841.5948      7.5958    134.9215
   397.7500      0.0000    840.6071      7.3245    123.1937
   398.0000      0.0000    839.4932      7.0722    113.2994
   398.2500      0.0000    836.6793      6.8428    107.6478
   398.5000      0.0000    831.4864      6.6329    106.4568
   398.7500      0.0000    823.2831      6.4396    107.6130
   399.0000      0.0000    811.9791      6.2677    108.8950
   399.2500      0.0000    799.4979      6.1277    110.2292
   399.5000      0.0000    789.2009      6.0307    113.3027
   399.7500      0.0000    783.2872      5.9815    119.1462
   400.0000      0.0000    781.5438      5.9724    126.8932
   400.2500      0.0000    782.1495      5.9818    135.0015
   400.5000      0.0000    782.0898      5.9850    142.8155
   400.7500      0.0000    777.9736      5.9718    150.4618
   401.0000      0.0000    769.5547      5.9506    157.8982
   401.2500      0.0000    762.3286      5.9333    164.5802
   401.5000      0.0000    763.5852      5.9159    169.6984
   401.7500      0.0000    775.0615      5.8792    172.6231
   402.0000      0.0000    791.2360      5.8066    173.5452
   402.2500      0.0000    804.9696      5.7004    173.5907
   402.5000      0.0000    812.9370      5.5787    173.8477
   402.7500      0.0000    815.6671      5.4580    174.3768
   403.0000      0.0000    814.5703      5.3415    174.5595
   403.2500      0.0000    810.2982      5.2238    174.5545
   403.5000      0.0000    803.6523      5.1057    176.0299
   403.7500      0.0000    797.1001      5.0026    180.5349
   404.0000      0.0000    794.2044      4.9383    186.8359
   404.2500      0.0000    796.7734      4.9243    190.8264
   404.5000      0.0000    803.1041      4.9421    188.8343
   404.7500      0.0000    809.7399      4.9532    180.4787
   405.0000      0.0000    814.4593      4.9330    168.0062
   405.2500      0.0000    817.1369      4.8927    153.8038
   405.5000      0.0000    818.3974      4.8673    139.2147
   405.7500      0.0000    817.9811      4.8897    125.2357
   406.0000      0.0000    814.1545      4.9819    113.5023
   406.2500      0.0000    805.0277      5.1619    105.8759
   406.5000      0.0000    791.3107      5.4463    102.7805
   406.7500      0.0000    777.2830      5.8367    102.4932
   407.0000      0.0000    767.2952      6.2907    102.7300
   407.2500      0.0000    761.2042      6.7044    102.7599
   407.5000      0.0000    755.0419      6.9494    103.5910
   407.7500      0.0000    746.9039      6.9619    106.5286
   408.0000      0.0000    742.1141      6.7963    111.7692
   408.2500      0.0000    752.4707      6.5737    117.7049
   408.5000      0.0000    787.9827      6.3925    121.3944
   408.7500      0.0000    845.6113      6.3086    120.6329
   409.0000      0.0000    906.8383      6.3615    116.0985
   409.2500      0.0000    950.7873      6.5567    111.0271
   409.5000      0.0000    970.6591      6.8334    108.5747
   409.7500      2.0000    973.8626      7.0951    109.7932
   410.0000      0.0000    966.4869      7.2830    113.8516
   410.2500      0.0000    943.0977      7.4251    119.3326
   410.5000      0.0000    895.0717      7.6304    124.9689
   410.7500      0.0000    827.2694      8.0098    129.5422
   411.0000      0.0000    762.7939      8.5642    131.6690
   411.2500      0.0000    727.6872      9.1660    130.2572
   411.5000      0.0000    729.4302      9.6833    125.5462
   411.7500      0.0000    751.6987     10.0928    119.5147
   412.0000      0.0000    770.3523     10.4458    114.6916
   412.2500      0.0000    772.4094     10.7732    112.2817
   412.5000      0.0000    760.6061     11.0616    111.4366
   412.7500      0.0000    744.9564     11.2875    110.3428
   413.0000      0.0000    733.3781     11.4388    107.8574
   413.2500      0.0000    728.7295     11.5118    104.1769
   413.5000      0.0000    730.6268     11.5010    100.4461
   413.7500      0.0000    737.0317     11.3970     98.0820
   414.0000      0.0000    744.2677     11.1954     98.0779
   414.2500      0.0000    748.1841     10.9095    100.3822
   414.5000      0.0000    747.7952     10.5727    103.8987
   414.7500      0.0000    747.4543     10.2278    107.3227
   415.0000      0.0000    753.8367      9.9083    109.8717
   415.2500      0.0000    770.0777      9.6265    111.1533
   415.5000      0.0000    792.6434      9.3770    110.8547
   415.7500      0.0000    813.4696      9.1484    109.0972
   416.0000      0.0000    825.0560      8.9370    106.6750
   416.2500      0.0000    824.5184      8.7517    104.2317
   416.5000      0.0000    814.5500      8.6070    101.2783
   416.7500      0.0000    801.5917      8.5105     96.6481
   417.0000      0.0000    792.0982      8.4547     90.0780
   417.2500      0.0000    788.7943      8.4192     83.0287
   417.5000      0.0000    789.8412      8.3785     77.7231
   417.7500      0.0000    791.5617      8.3131     75.6525
   418.0000      0.0000    791.6616      8.2151     77.2890
   418.2500      0.0000    790.2136      8.0879     82.7099
   418.5000      0.0000    788.6187      7.9411     91.5592
   418.7500      0.0000    788.0399      7.7849    102.4308
   419.0000      0.0000    788.7936      7.6271    113.1272
   419.2500      0.0000    790.6417      7.4715    121.7568
   419.5000      0.0000    792.7662      7.3188    127.1591
   419.7500      0.0000    793.9310      7.1675    128.3655
   420.0000      0.0000    793.5599      7.0183    124.4432
   420.2500      0.0000    791.8008      6.8793    115.5591
   420.5000      0.0000    788.1619      6.7701    103.9706
   420.7500      0.0000    782.2831      6.7153     93.3516
   421.0000      0.0000    776.5391      6.7293     86.9524
   421.2500      0.0000    774.8790      6.8079     86.3818
   421.5000      0.0000    778.2994      6.9324     91.4910
   421.7500      0.0000    784.2098      7.0819    100.5678
   422.0000      0.0000    790.3480      7.2423    110.6457
   422.2500      0.0000    796.5297      7.4081    118.4482
   422.5000      0.0000    802.7173      7.5778    121.7567
   422.7500      0.0000    807.9046      7.7465    120.3361
   423.0000      0.0000    811.2535      7.9000    116.0205
   423.2500      0.0000    812.9486      8.0166    112.1322
   423.5000      0.0000    813.7551      8.0789    112.3090
   423.7500      0.0000    814.3121      8.0855    118.8495
   424.0000      0.0000    814.8587      8.0482    131.1940
   424.2500      0.0000    815.1804      7.9803    145.5955
   424.5000      0.0000    814.4997      7.8934    156.6306
   424.7500      0.0000    811.2331      7.8034    160.2007
   425.0000      0.0000    803.0641      7.7295    156.1037
   425.2500      0.0000    788.2546      7.6861    147.7483
   425.5000      0.0000    768.1526      7.6793    138.9878
   425.7500      0.0000    748.4803      7.7105    131.4541
   426.0000      0.0000    736.5898      7.7771    125.1043
   426.2500      0.0000    736.0355      7.8727    120.4523
   426.5000      0.0000    743.6391      7.9934    119.2654
   426.7500      0.0000    751.9789      8.1430    123.2344
   427.0000      0.0000    754.7949      8.3261    132.3706
   427.2500      0.0000    750.8934      8.5354    144.3083
   427.5000      0.0000    744.0027      8.7476    155.0778
   427.7500      0.0000    738.9913      8.9306    161.4456
   428.0000      0.0000    737.9405      9.0538    162.9942
   428.2500      0.0000    739.8074      9.0997    161.7585
