~Version Information
 VERS.                                  2.0 : CWLS LAS VERSION
 WRAP.                                   NO : WRAPING MODE
 SWARE .                 MController 2.5.0N : SOFTWARE VERSION
~Well Information
 WELL.                LORENCITO 10-36-33-67 : WELL
 COMP.    PIONEER NATURAL RESOURCES USA INC : COMPANY
 FLD.                      PURGATIORE RIVER : FIELD
 LOC.                NW/SE SEC 36 T33S R67W : LOCATION
 DATE.                             08/27/05 : DATE(S) LOGGED
 SRVC.       BLANCO GEOLOGICAL SERVICES LLC : SERVICE COMPANY
 STAT.                             COLORADO : STATE
 CNTY.                           LAS ANIMAS : COUNTY
 CTRY.                                  USA : COUNTRY
 API.                       05-071-08501-00 : API NUMBER
 STRT.FT                             321.00 : START DEPTH
 STOP.FT                            1570.00 : STOP DEPTH
 STEP.FT                               1.00 : DEPTH INCREMENT
 NULL.                                -9999 : NULL VALUE
~Curve information
 DEPTH.FT                                   :
 ROP.MIN/FT                                 :
 GAS.UNITS                                  :
~ASCII Log data
# ...
      1121.0         0.23        545.8 
      1122.0         0.27        532.2 
      1123.0         0.30        523.5 
      1124.0         0.33        515.8 
      1125.0         0.27        509.3 
      1126.0         0.27        506.1 
      1127.0         0.25        499.7 
      1128.0         0.20        493.9 
      1129.0         0.20        491.0 
      1130.0         0.23        488.7 
      1131.0         0.23        487.1 
      1132.0         4.92        485.5 
      1133.0         0.27        281.7 
      1134.0         0.27        395.6 
      1135.0         0.38        413.3 
      1136.0         0.30        366.0 
      1137.0         0.30        321.9 
      1138.0         0.30        294.9 
      1139.0         0.23        265.3 
      1140.0         0.20        239.4 
      1141.0         0.23        220.1 
      1142.0         0.27        204.6 
      1143.0         0.27        187.0 
      1144.0         0.27        173.8 
      1145.0         0.43        168.5 
      1146.0         0.30        165.9 
      1147.0         0.32        164.2 
      1148.0         0.30        160.1 
      1149.0         0.33        154.0 
      1150.0         0.30        147.4 
      1151.0         0.40        144.4 
      1152.0         0.30        142.4 
      1153.0         0.23        143.0 
      1154.0         0.30        143.2 
      1155.0         0.30        142.7 
      1156.0         0.27        140.4 
      1157.0         0.30        142.1 
      1158.0         0.28        145.7 
      1159.0         0.23        148.9 
      1160.0         0.23        152.3 
      1161.0         0.40        154.7 
      1162.0         5.35       1239.3 
      1163.0         0.45        597.0 
      1164.0         0.37        600.2 
      1165.0         0.37        593.1 
      1166.0         0.37        572.8 
      1167.0         0.33        536.1 
      1168.0         0.30        521.6 
      1169.0         0.27        513.8 
      1170.0         0.27        512.9 
      1171.0         0.27        509.0 
      1172.0         0.30        500.0 
      1173.0         0.30        497.7 
      1174.0         0.35        502.9 
      1175.0         0.27        501.6 
      1176.0         0.20        493.5 
      1177.0         0.20        488.1 
      1178.0         0.23        489.4 
      1179.0         0.30        491.9 
      1180.0         0.20        483.9 
      1181.0         0.23        477.8 
      1182.0         0.17        469.4 
      1183.0         0.33        482.3 
      1184.0         0.50        499.3 
      1185.0         0.45        495.8 
      1186.0         0.40        494.8 
      1187.0         0.30        497.4 
      1188.0         0.20        496.4 
      1189.0         0.30        496.1 
      1190.0         0.33        498.1 
      1191.0         0.33        497.1 
      1192.0         3.45        490.0 
      1193.0         0.37        348.5 
      1194.0         0.37        329.4 
      1195.0         0.27        266.4 
      1196.0         0.27        230.3 
      1197.0         0.28        215.0 
      1198.0         0.30        245.3 
      1199.0         0.27        273.7 
      1200.0         0.30        290.0 
      1201.0         0.30        290.1 
      1202.0         0.33        279.2 
      1203.0         0.33        259.5 
      1204.0         0.33        240.7 
      1205.0         0.37        228.2 
      1206.0         0.37        219.0 
      1207.0         0.38        210.7 
      1208.0         0.33        199.1 
      1209.0         0.33        198.3 
      1210.0         0.30        199.3 
      1211.0         0.30        199.3 
      1212.0         0.33        197.9 
      1213.0         0.33        195.8 
      1214.0         0.33        193.5 
      1215.0         0.33        191.2 
      1216.0         0.33        189.5 
      1217.0         0.35        187.8 
      1218.0         0.37        186.5 
      1219.0         0.37        185.5 
      1220.0         0.20        184.8 
      1221.0         0.20        184.4 
      1222.0         2.98        193.7 
      1223.0         0.40        281.4 
      1224.0         0.40        333.3 
      1225.0         0.43        334.5 
      1226.0         0.33        289.5 
      1227.0         0.33        279.7 
      1228.0         0.33        282.5 
      1229.0         0.32        275.2 
      1230.0         0.30        251.5 
      1231.0         0.30        224.1 
      1232.0         0.27        208.8 
      1233.0         0.23        204.6 
      1234.0         0.20        202.9 
      1235.0         0.20        201.6 
      1236.0         0.20        196.8 
      1237.0         0.17        193.5 
      1238.0         0.13        192.0 
      1239.0         0.23        192.3 
      1240.0         0.27        194.9 
      1241.0         0.20        194.3 
      1242.0         0.27        191.6 
      1243.0         0.32        186.3 
      1244.0         0.27        176.9 
      1245.0         0.30        180.6 
      1246.0         0.23        183.6 
      1247.0         0.27        184.6 
      1248.0         0.23        184.0 
      1249.0         0.23        182.2 
      1250.0         0.30        180.2 
      1251.0         0.27        177.5 
      1252.0         0.27        176.1 
      1253.0         4.17        390.5 
      1254.0         0.37        390.0 
      1255.0         0.40        334.1 
      1256.0         0.33        285.2 
      1257.0         0.37        277.5 
      1258.0         0.43        266.5 
      1259.0         0.37        238.3 
      1260.0         0.37        220.7 
      1261.0         0.33        207.1 
      1262.0         0.28        196.0 
      1263.0         0.30        186.3 
      1264.0         0.33        175.9 
      1265.0         0.37        166.6 
      1266.0         0.37        160.6 
      1267.0         0.37        157.9 
      1268.0         0.37        161.2 
      1269.0         0.27        165.3 
      1270.0         0.23        167.2 
      1271.0         0.27        167.4 
      1272.0         0.40        165.3 
      1273.0         0.42        168.5 
      1274.0         0.37        176.1 
      1275.0         0.37        177.0 
      1276.0         0.37        173.7 
      1277.0         0.37        163.6 
      1278.0         0.33        161.0 
      1279.0         0.37        161.7 
      1280.0         0.33        161.0 
      1281.0         0.33        159.5 
      1282.0         4.33        348.9 
      1283.0         0.43        334.8 
      1284.0         0.40        262.1 
      1285.0         0.47        232.6 
      1286.0         0.67        233.8 
      1287.0         0.33        211.7 
      1288.0         0.32        199.3 
      1289.0         0.33        190.7 
      1290.0         0.30        183.7 
      1291.0         0.33        178.4 
      1292.0         0.30        174.0 
      1293.0         0.27        170.6 
      1294.0         0.17        168.6 
      1295.0         0.27        167.8 
      1296.0         0.27        166.7 
      1297.0         0.27        164.0 
      1298.0         0.30        159.5 
      1299.0         0.17        155.9 
      1300.0         0.25        159.1 
      1301.0         0.20        164.0 
      1302.0         0.27        169.5 
      1303.0         0.30        171.5 
      1304.0         0.30        171.2 
      1305.0         0.23        169.4 
      1306.0         0.23        167.4 
      1307.0         0.27        166.6 
      1308.0         0.27        165.9 
      1309.0         0.30        164.0 
      1310.0         0.27        158.6 
      1311.0         0.27        153.4 
      1312.0         3.77        313.5 
      1313.0         0.50        357.3 
      1314.0         0.47        334.0 
      1315.0         0.40        256.2 
      1316.0         0.33        242.2 
      1317.0         0.37        241.3 
      1318.0         0.17        229.1 
      1319.0         0.20        219.7 
      1320.0         0.27        212.7 
