~Version Information
VERS.                      2.0: CWLS Log ASCII Standard - VERSION 2.0
WRAP.                       NO: One line per depth step
~Well Information Block
STRT.FT               452.0000: 
STOP.FT              1726.5000: 
STEP.FT                 0.1000: 
NULL.                -999.2500: 
COMP.          Pioneer Natural Resources: COMPANY
WELL.          Parrothead 31-31 Tr: WELL
FLD.           Purgatoire River: FIELD
LOC.           496' FNL & 1546' FEL: LOCATION
PROV.                 Colorado: PROVINCE
CNTY.               Las Animas: COUNTRY
SRVC.                Patterson: SERVICE COMPANY
DATE.          Thu Nov 10 07:29:36 2005: LOG DATE
UWI.           05 071 08610 00: UNIQUE WELL ID
~Curve Information Block
DEPT.FT            0 000 00 00: Depth
DCAL.in                       : CDL Caliper
RHOB.g/cc                     : CDL Bulk Density
RHOC.g/cc                     : CDL Density Correction
DPOR.pu                       : CDL Density Porosity
GR.GAPI                       : Gamma Ray
NPOR.pu                       : Neutron Porosity
~Parameter Information Block
~A  Depth       DCAL        RHOB        RHOC        DPOR         GR         NPOR    
# ...
   788.0000      7.9575      2.5494      0.0568      6.0988     64.9279     19.8270
   788.1000      7.9575      2.5530      0.0482      5.8816     60.7251     19.4163
   788.2000      7.9575      2.5560      0.0723      5.6977     53.9282     19.4178
   788.3000      7.9590      2.5495      0.0476      6.0933     51.1151     19.5249
   788.4000      7.9590      2.5369     -0.0087      6.8534     55.1212     19.2562
   788.5000      7.9427      2.5379      0.0393      6.7959     61.8980     18.8207
   788.6000      7.9427      2.5550      0.0353      5.7580     64.1963     18.7538
   788.7000      7.9427      2.5737      0.0747      4.6229     60.4332     19.0758
   788.8000      7.9366      2.5846      0.0315      3.9623     54.7601     19.2948
   788.9000      7.9366      2.5927      0.0213      3.4746     50.6671     19.3137
   789.0000      7.9592      2.6010      0.0531      2.9684     50.3186     19.6282
   789.1000      7.9592      2.6058      0.0407      2.6794     52.6533     20.2156
   789.2000      7.9592      2.6031      0.0187      2.8447     51.6953     20.4343
   789.3000      7.9605      2.5942      0.0176      3.3798     47.2328     20.2292
   789.4000      7.9605      2.5852      0.0493      3.9280     44.7526     20.0616
   789.5000      7.9632      2.5780      0.0049      4.3636     45.4787     20.0367
   789.6000      7.9632      2.5753      0.0306      4.5284     48.0354     20.0657
   789.7000      7.9632      2.5824     -0.0010      4.0966     50.8953     20.1967
   789.8000      7.9614      2.5900      0.0326      3.6369     53.4532     20.3840
   789.9000      7.9614      2.5781      0.0590      4.3600     56.1991     20.3879
   790.0000      7.9621      2.5641     -0.0241      5.2044     58.3031     20.1287
   790.1000      7.9621      2.5839      0.0335      4.0073     57.1779     19.6425
   790.2000      7.9621      2.6268      0.0854      1.4072     51.9715     19.0149
   790.3000      7.9559      2.6590      0.0785     -0.5459     47.8667     18.5896
   790.4000      7.9559      2.6671      0.0802     -1.0355     48.6386     18.5532
   790.5000      7.9331      2.6538      0.0587     -0.2306     51.3503     18.4994
   790.6000      7.9331      2.6291      0.0428      1.2639     52.2909     18.1707
   790.7000      7.9331      2.6033      0.0474      2.8299     50.9881     17.8408
   790.8000      7.9293      2.5781      0.0242      4.3561     50.3987     17.6502
   790.9000      7.9293      2.5459      0.0658      6.3109     54.4382     17.5266
   791.0000      7.9205      2.5028     -0.0145      8.9228     61.0828     17.5074
   791.1000      7.9205      2.4671     -0.0635     11.0835     65.1550     17.6416
   791.2000      7.9205      2.4608     -0.0411     11.4675     66.0376     17.6962
   791.3000      7.9240      2.4761     -0.0057     10.5380     65.0154     17.4629
   791.4000      7.9240      2.4861      0.0050      9.9345     65.0776     17.3001
   791.5000      7.9482      2.4856      0.0010      9.9612     68.7949     17.5355
   791.6000      7.9482      2.4947     -0.0078      9.4146     72.7064     18.1168
   791.7000      7.9482      2.5148      0.0413      8.1937     71.8805     18.6438
   791.8000      7.9539      2.5239      0.0363      7.6446     66.1827     18.5039
   791.9000      7.9539      2.5145      0.0141      8.2092     60.3792     17.9285
   792.0000      7.9581      2.4988      0.0132      9.1609     58.6822     17.7394
   792.1000      7.9581      2.4824      0.0144     10.1559     59.1950     18.0472
   792.2000      7.9581      2.4601      0.0147     11.5113     60.2674     18.3814
   792.3000      7.9577      2.4283      0.0139     13.4349     65.2951     18.6962
   792.4000      7.9577      2.3956      0.0132     15.4173     72.1260     19.1837
   792.5000      7.9413      2.3780      0.0245     16.4847     73.9918     19.6449
   792.6000      7.9413      2.3842     -0.0403     16.1065     71.5542     19.9098
   792.7000      7.9413      2.4045      0.0252     14.8765     71.0058     20.0921
   792.8000      7.9171      2.4174      0.0204     14.0956     75.3228     20.1614
   792.9000      7.9171      2.4208      0.0529     13.8886     81.8073     19.9500
   793.0000      7.9266      2.4317      0.1024     13.2292     87.6367     19.6102
   793.1000      7.9266      2.4585      0.1410     11.6083     94.6293     19.6931
   793.2000      7.9266      2.4948      0.2389      9.4080    104.8130     20.4135
   793.3000      7.9391      2.5317      0.2187      7.1691    117.4370     21.2685
   793.4000      7.9391      2.5593      0.2533      5.4960    128.6356     21.6258
   793.5000      7.8994      2.5746      0.1779      4.5704    133.5773     21.6860
   793.6000      7.8994      2.5970      0.1763      3.2091    134.7528     22.1625
   793.7000      7.8994      2.6352      0.2333      0.8971    134.7142     22.8333
   793.8000      7.8921      2.6665      0.2390     -1.0018    133.0479     23.1563
   793.9000      7.8921      2.6714      0.2015     -1.2987    131.2675     23.3413
   794.0000      7.9108      2.6461      0.2274      0.2377    131.3483     23.7068
   794.1000      7.9108      2.6013      0.1246      2.9531    134.9530     24.0447
   794.2000      7.9108      2.5655      0.1118      5.1239    138.2776     23.9502
   794.3000      7.9671      2.5547      0.1099      5.7741    134.5886     23.2612
   794.4000      7.9671      2.5576      0.1030      5.6014    125.7016     22.2607
   794.5000      7.9852      2.5524      0.0878      5.9136    119.3525     21.5663
   794.6000      7.9852      2.5300      0.0749      7.2717    120.3273     21.3667
   794.7000      7.9852      2.4996      0.0726      9.1167    126.0381     21.3482
   794.8000      7.9935      2.4654      0.0762     11.1888    130.3796     21.4502
   794.9000      7.9935      2.4258      0.0438     13.5904    134.7979     21.8764
   795.0000      7.9981      2.3891      0.0577     15.8126    141.4059     22.5295
   795.1000      7.9981      2.3637      0.0293     17.3523    144.6811     23.0010
   795.2000      7.9981      2.3550      0.0170     17.8759    141.1618     23.1187
   795.3000      7.9859      2.3664      0.0375     17.1854    133.5888     22.9338
   795.4000      7.9859      2.3893      0.0795     15.8017    128.4112     22.6620
   795.5000      7.9660      2.4052      0.1391     14.8353    127.5981     22.4306
   795.6000      7.9660      2.4086      0.1151     14.6328    127.9970     22.3144
   795.7000      7.9660      2.4145      0.1061     14.2710    128.1650     22.6673
   795.8000      7.9629      2.4264      0.1300     13.5531    128.8059     23.4877
   795.9000      7.9629      2.4293      0.1221     13.3736    129.6606     24.2339
   796.0000      7.9777      2.4244      0.0860     13.6722    127.8029     24.6985
   796.1000      7.9777      2.4238      0.1033     13.7116    125.6864     25.0340
   796.2000      7.9777      2.4215      0.1438     13.8496    128.3333     25.4841
   796.3000      7.9741      2.4081      0.0900     14.6620    131.9946     26.4284
   796.4000      7.9741      2.4012      0.0571     15.0760    133.1912     27.7070
   796.5000      7.9892      2.4213      0.0683     13.8595    136.5860     28.5109
   796.6000      7.9892      2.4529      0.1192     11.9447    144.8640     28.7359
   796.7000      7.9892      2.4787      0.0443     10.3810    153.4184     28.9104
   796.8000      8.0071      2.5061      0.0680      8.7200    157.9055     28.9738
   796.9000      8.0071      2.5287      0.1133      7.3513    155.8021     28.6469
   797.0000      7.9997      2.5347      0.0465      6.9856    151.5782     28.2090
   797.1000      7.9997      2.5335      0.0405      7.0632    154.1653     27.8136
   797.2000      7.9997      2.5306      0.0516      7.2368    160.5757     27.1444
   797.3000      7.9895      2.5188      0.0730      7.9511    162.6161     26.1566
   797.4000      7.9895      2.4997      0.0350      9.1115    159.5573     25.1360
   797.5000      7.9849      2.4821      0.0340     10.1782    156.9503     24.3254
