~Version Information
VERS.                      2.0: CWLS Log ASCII Standard - VERSION 2.0
WRAP.                       NO: One line per depth step
~Well Information Block
STRT.FT               -10.0000: 
STOP.FT              2073.0000: 
STEP.FT                 0.2500: 
NULL.                -999.2500: 
COMP.          Pioneer Natural Resources: COMPANY
WELL.              Joplin 44-5: WELL
FLD.           Purgatorie River: FIELD
LOC.           262' FSL & 418' FEL--: LOCATION
PROV.                       CO: PROVINCE
CNTY.               Las Animas: COUNTRY
SRVC.          Patterson Wireline: SERVICE COMPANY
DATE.          Mon Dec 19 09:21:33 2005: LOG DATE
UWI.           05 071 08623 00: UNIQUE WELL ID
~Curve Information Block
DEPT.FT            0 000 00 00: Depth
CCL.                          : Casing Collar Locator
TT3.usec                      : CBL 3' Travel Time
AMP3.mV                       : CBL 3' Amplitude
GR.GAPI                       : Gamma Ray
~Parameter Information Block
~A  Depth       CCL         TT3         AMP3         GR     
# ...
   794.0000      0.0000    805.0522      7.1390     93.7935
   794.2500      0.0000    802.3198      7.1899    100.7171
   794.5000      0.0000    795.3317      7.2145    105.7136
   794.7500      0.0000    787.3214      7.2194    109.8680
   795.0000      0.0000    781.7328      7.2197    113.6298
   795.2500      0.0000    780.6025      7.2265    116.3722
   795.5000      0.0000    783.8163      7.2398    117.4610
   795.7500      0.0000    789.7886      7.2536    117.0009
   796.0000      0.0000    796.6634      7.2647    115.4914
   796.2500      0.0000    802.9476      7.2768    113.4666
   796.5000      0.0000    807.4885      7.2946    111.7061
   796.7500      0.0000    809.4548      7.3140    111.3531
   797.0000      0.0000    808.8115      7.3169    113.3973
   797.2500      0.0000    806.6124      7.2803    117.8604
   797.5000      0.0000    804.3414      7.1954    123.5058
   797.7500      0.0000    802.9144      7.0774    128.5307
   798.0000      0.0000    802.4056      6.9598    131.8243
   798.2500      0.0000    802.4747      6.8745    133.7922
   798.5000      0.0000    802.7876      6.8338    135.9366
   798.7500      0.0000    803.1482      6.8252    139.4120
   799.0000      0.0000    803.4737      6.8218    143.8315
   799.2500      0.0000    803.7612      6.7999    147.5450
   799.5000      0.0000    804.0616      6.7524    149.1164
   799.7500      0.0000    804.4489      6.6908    148.3617
   800.0000      0.0000    804.9677      6.6307    146.1224
   800.2500      0.0000    805.5790      6.5769    143.5937
   800.5000      0.0000    806.1497      6.5263    141.8190
   800.7500      0.0000    806.5251      6.4837    141.1715
   801.0000      0.0000    806.6342      6.4707    141.1322
   801.2500      0.0000    806.5200      6.5143    140.8097
   801.5000      0.0000    806.2762      6.6233    139.7752
   801.7500      0.0000    805.9864      6.7735    138.3330
   802.0000      0.0000    805.7145      6.9173    137.1563
   802.2500      0.0000    805.5065      7.0112    137.0234
   802.5000      0.0000    805.3785      7.0372    139.0796
   802.7500      0.0000    805.3200      7.0034    144.6883
   803.0000      0.0000    805.3287      6.9325    153.8529
   803.2500      0.0000    805.4333      6.8503    163.9475
   803.5000      0.0000    805.6683      6.7774    171.4478
   803.7500      0.0000    806.0312      6.7265    175.1480
   804.0000      0.0000    806.4797      6.7044    176.4240
   804.2500      0.0000    806.9635      6.7154    176.4326
   804.5000      0.0000    807.4333      6.7597    174.6808
   804.7500      0.0000    807.8292      6.8289    170.4208
   805.0000      0.0000    808.0859      6.9079    163.8748
   805.2500      0.0000    808.1492      6.9813    155.9639
   805.5000      0.0000    807.8734      7.0373    148.1107
   805.7500      0.0000    806.7966      7.0675    142.3918
   806.0000      0.0000    804.0052      7.0710    140.6385
   806.2500      0.0000    798.7833      7.0589    142.6170
   806.5000      0.0000    792.4777      7.0420    145.4682
   806.7500      0.0000    790.0264      7.0045    145.5309
   807.0000      0.0000    797.6979      6.9118    140.7570
   807.2500      0.0000    817.0591      6.7649    131.3567
   807.5000      0.0000    841.9651      6.6301    118.9014
   807.7500      0.0000    863.8204      6.5827    105.6805
   808.0000      0.0000    878.8304      6.6353     94.4932
   808.2500     -2.0000    887.5120      6.7439     87.6437
   808.5000      2.0000    888.3914      6.8618     85.2453
   808.7500      0.0000    876.2356      6.9705     84.7490
   809.0000      0.0000    847.4794      7.0759     82.7591
   809.2500      0.0000    806.0248      7.1877     77.6075
   809.5000      0.0000    763.5683      7.2916     70.2970
   809.7500      0.0000    733.8768      7.3462     63.2447
   810.0000      0.0000    724.5223      7.3294     58.2025
   810.2500      0.0000    732.7927      7.2685     55.1478
   810.5000      0.0000    749.4581      7.2017     52.9127
   810.7500      0.0000    765.9764      7.1399     50.7353
   811.0000      0.0000    778.4543      7.0853     49.0615
   811.2500      0.0000    787.0030      7.0561     49.0041
   811.5000      0.0000    793.1345      7.0717     51.5029
   811.7500      0.0000    797.8159      7.1361     57.0840
   812.0000      0.0000    801.1693      7.2514     65.7916
   812.2500      0.0000    803.1724      7.4392     76.7864
   812.5000      0.0000    804.0323      7.7384     88.0628
   812.7500      0.0000    803.9929      8.1805     97.1920
   813.0000      0.0000    802.9877      8.7657    103.0096
   813.2500      0.0000    800.5429      9.4651    106.6739
   813.5000      0.0000    796.0049     10.2393    110.8019
   813.7500      0.0000    789.0656     11.0447    117.2540
   814.0000      0.0000    780.2539     11.8233    125.3382
   814.2500      0.0000    771.0389     12.4943    131.9090
   814.5000      0.0000    763.3618     12.9660    133.6890
   814.7500      0.0000    758.6217     13.1675    130.3136
   815.0000      0.0000    756.8428     13.0829    125.1228
   815.2500      0.0000    756.9637     12.7578    122.4834
   815.5000      0.0000    757.9984     12.2705    124.3744
   815.7500      0.0000    759.7442     11.6962    129.5775
   816.0000      0.0000    762.4022     11.0917    135.4610
   816.2500      0.0000    765.8281     10.4970    140.0395
   816.5000      0.0000    769.4489      9.9389    142.5717
   816.7500      0.0000    772.7504      9.4328    142.8673
   817.0000      0.0000    775.1800      8.9855    140.8568
   817.2500      0.0000    775.4627      8.5954    137.2058
   817.5000      0.0000    771.8024      8.2533    133.7162
   817.7500      0.0000    763.3132      7.9469    132.2075
   818.0000      0.0000    751.2094      7.6692    132.7207
   818.2500      0.0000    738.8661      7.4219    133.2678
   818.5000      0.0000    730.7109      7.2100    131.8185
   818.7500      0.0000    729.8823      7.0375    128.4188
   819.0000      0.0000    736.0456      6.9095    125.0550
   819.2500      0.0000    745.8785      6.8318    123.7785
   819.5000      0.0000    755.9950      6.8039    125.3965
   819.7500      0.0000    764.9128      6.8120    129.5970
   820.0000      0.0000    772.3427      6.8326    135.6687
   820.2500      0.0000    777.6783      6.8436    143.0606
   820.5000      0.0000    779.8925      6.8354    151.3442
   820.7500      0.0000    778.4664      6.8131    159.4951
   821.0000      0.0000    773.7515      6.7859    165.5294
   821.2500      0.0000    766.4301      6.7525    167.4021
   821.5000      0.0000    756.9066      6.7016    164.2854
   821.7500      0.0000    745.4142      6.6293    156.7583
   822.0000      0.0000    732.8246      6.5554    146.1028
   822.2500      0.0000    720.9382      6.5196    133.9148
   822.5000      0.0000    711.2256      6.5587    122.2152
   822.7500      0.0000    703.5192      6.6803    113.2040
   823.0000      0.0000    696.8520      6.8522    108.3836
   823.2500      0.0000    691.4128      7.0222    107.9298
   823.5000      0.0000    688.9963      7.1539    110.9531
   823.7500      0.0000    691.8500      7.2413    116.1873
   824.0000      0.0000    701.3259      7.2850    122.4414
   824.2500      0.0000    716.6848      7.2690    128.7962
   824.5000      0.0000    734.6183      7.1774    134.7042
   824.7500      0.0000    750.8005      7.0317    139.9972
   825.0000      0.0000    762.6067      6.8905    144.6745
   825.2500      0.0000    770.0463      6.8067    148.5444
   825.5000      0.0000    774.4293      6.7906    151.1290
   825.7500      0.0000    777.2719      6.8166    152.0271
   826.0000      0.0000    780.1171      6.8521    151.3643
   826.2500      0.0000    783.7440      6.8763    149.8662
   826.5000      0.0000    787.2400      6.8803    148.5155
   826.7500      0.0000    788.7993      6.8607    147.9462
   827.0000      0.0000    787.4215      6.8149    147.9506
   827.2500      0.0000    783.1776      6.7463    147.6582
