~Version Information
VERS.                      2.0: CWLS Log ASCII Standard - VERSION 2.0
WRAP.                       NO: One line per depth step
~Well Information Block
STRT.FT               390.0000: 
STOP.FT              1434.5000: 
STEP.FT                 0.1000: 
NULL.                -999.2500: 
COMP.          Pioneer Natural Resources: COMPANY
WELL.             John K 12-28: WELL
FLD.           Purgatoire River: FIELD
LOC.           1476' FNL & 465' FWL: LOCATION
CNTY.               Las Animas: COUNTY
SRVC.                Patterson: SERVICE COMPANY
DATE.          Mon Apr 10 06:53:47 2006: LOG DATE
UWI.           05 071 08723 00: UNIQUE WELL ID
STAT.                 Colorado: STATE
~Curve Information Block
DEPT.FT            0 000 00 00: Depth
DCAL.in                       : CDL Caliper
RHOB.g/cc                     : CDL Bulk Density
RHOC.g/cc                     : CDL Density Correction
DPOR.pu                       : CDL Density Porosity
GR.GAPI                       : Gamma Ray
NPOR.pu                       : Neutron Porosity
~Parameter Information Block
~A  Depth       DCAL        RHOB        RHOC        DPOR         GR         NPOR    
# ...
  1359.6000      7.8930      2.3886     -0.0045     15.8417     65.7842     19.4022
  1359.7000      7.8930      2.4021      0.0430     15.0221     71.1124     19.1924
  1359.8000      7.8932      2.4137      0.0414     14.3190     74.6705     19.0907
  1359.9000      7.8932      2.4242      0.0303     13.6868     72.2370     19.7018
  1360.0000      7.8923      2.4357      0.0459     12.9873     66.5648     20.5353
  1360.1000      7.8923      2.4446      0.0469     12.4497     63.9556     20.9228
  1360.2000      7.8923      2.4503      0.0178     12.1033     65.9028     20.8236
  1360.3000      7.8915      2.4525      0.0539     11.9673     67.7904     20.5123
  1360.4000      7.8915      2.4393      0.0772     12.7699     68.3795     20.3779
  1360.5000      7.8920      2.4064      0.0053     14.7648     70.7209     20.4520
  1360.6000      7.8920      2.3768     -0.0175     16.5557     73.4959     20.1451
  1360.7000      7.8920      2.3758     -0.0005     16.6166     73.6116     19.4033
  1360.8000      7.8930      2.4039      0.0093     14.9165     74.5780     19.1585
  1360.9000      7.8930      2.4404      0.0743     12.7044     78.7608     19.4874
  1361.0000      7.8931      2.4650      0.0535     11.2123     82.0927     19.4570
  1361.1000      7.8931      2.4715      0.0696     10.8207     84.6851     18.9461
  1361.2000      7.8931      2.4641      0.0516     11.2671     90.4123     18.6955
  1361.3000      7.8916      2.4528      0.0205     11.9524     97.0735     18.8081
  1361.4000      7.8916      2.4402      0.0577     12.7177     99.5483     19.2451
  1361.5000      7.8903      2.4179      0.0253     14.0651     95.2375     20.3535
  1361.6000      7.8903      2.3860      0.0021     15.9979     85.2990     21.8977
  1361.7000      7.8903      2.3540     -0.0057     17.9412     75.0769     22.8525
  1361.8000      7.8901      2.3290     -0.0085     19.4559     69.5689     22.2336
  1361.9000      7.8901      2.3161     -0.0101     20.2343     68.8283     20.4852
  1362.0000      7.8902      2.3196      0.0111     20.0250     68.4137     19.0858
  1362.1000      7.8902      2.3326      0.0387     19.2364     65.7519     18.6942
  1362.2000      7.8902      2.3430      0.0600     18.6082     63.2454     19.2896
  1362.3000      7.8909      2.3476      0.0227     18.3275     65.5715     20.4493
  1362.4000      7.8909      2.3449      0.0412     18.4918     72.1810     21.3889
  1362.5000      7.8920      2.3322      0.0273     19.2582     76.6309     21.6553
  1362.6000      7.8920      2.3172      0.0067     20.1677     78.4238     21.2401
  1362.7000      7.8920      2.3104      0.0169     20.5795     81.3425     20.6844
  1362.8000      7.8928      2.3156      0.0056     20.2695     82.3030     20.3232
  1362.9000      7.8928      2.3267      0.0386     19.5942     77.5777     20.0108
  1363.0000      7.8932      2.3319      0.0190     19.2806     72.2309     20.1982
  1363.1000      7.8932      2.3244      0.0609     19.7331     69.3789     21.3018
  1363.2000      7.8932      2.3088     -0.0037     20.6772     64.6019     22.4618
  1363.3000      7.8932      2.2993     -0.0000     21.2554     58.4549     22.7388
  1363.4000      7.8932      2.3038     -0.0012     20.9803     57.9607     22.0870
  1363.5000      7.8928      2.3199      0.0045     20.0042     63.9841     21.1155
  1363.6000      7.8928      2.3418      0.0468     18.6790     69.6653     20.9978
  1363.7000      7.8928      2.3613      0.0668     17.4955     73.4921     21.8474
  1363.8000      7.8927      2.3687      0.0654     17.0479     78.1870     22.4350
  1363.9000      7.8927      2.3633      0.0334     17.3730     81.9757     22.3696
  1364.0000      7.8936      2.3631      0.0028     17.3892     83.3072     22.2185
  1364.1000      7.8936      2.3786      0.0486     16.4472     84.1184     22.1536
  1364.2000      7.8936      2.3937      0.0487     15.5330     85.1487     22.0035
  1364.3000      7.8957      2.3919      0.0464     15.6451     86.4247     21.9894
  1364.4000      7.8957      2.3811      0.0341     16.2950     87.9952     22.4504
  1364.5000      7.8979      2.3717      0.0569     16.8685     87.3735     22.8396
  1364.6000      7.8979      2.3565      0.0190     17.7884     81.6198     22.7398
  1364.7000      7.8979      2.3349     -0.0121     19.0998     72.3487     23.2417
  1364.8000      7.8977      2.3187     -0.0054     20.0780     66.6039     24.3950
  1364.9000      7.8977      2.3171     -0.0301     20.1764     67.6277     24.7276
  1365.0000      7.8957      2.3266     -0.0073     19.5977     71.3012     24.1482
  1365.1000      7.8957      2.3336      0.0308     19.1776     73.5060     23.3577
  1365.2000      7.8957      2.3352      0.0253     19.0800     74.4212     22.6623
  1365.3000      7.8933      2.3392      0.0370     18.8354     75.0912     22.2243
  1365.4000      7.8933      2.3454      0.0470     18.4577     75.0055     21.9624
  1365.5000      7.8911      2.3492      0.0352     18.2330     76.0189     21.9901
  1365.6000      7.8911      2.3467      0.0397     18.3790     78.3325     22.6961
  1365.7000      7.8911      2.3382      0.0227     18.8989     80.8408     23.7952
  1365.8000      7.8898      2.3309      0.0327     19.3399     83.3920     24.5721
  1365.9000      7.8898      2.3346      0.0266     19.1138     84.6430     24.7880
  1366.0000      7.8894      2.3507      0.0483     18.1421     84.6680     24.5789
  1366.1000      7.8894      2.3675      0.0618     17.1209     83.5844     24.1538
  1366.2000      7.8894      2.3724      0.0747     16.8272     80.6655     23.7522
  1366.3000      7.8882      2.3648      0.0541     17.2825     75.0724     23.7153
  1366.4000      7.8882      2.3543      0.0451     17.9237     67.5622     23.7996
  1366.5000      7.8845      2.3477      0.0364     18.3200     63.2576     23.3347
  1366.6000      7.8845      2.3474      0.0255     18.3390     64.8319     22.6136
  1366.7000      7.8845      2.3491      0.0458     18.2359     65.2829     22.2783
  1366.8000      7.8829      2.3456      0.0660     18.4500     59.8565     22.0868
  1366.9000      7.8829      2.3391      0.0414     18.8395     56.2694     22.0299
  1367.0000      7.8862      2.3399      0.0565     18.7925     60.7299     22.4215
  1367.1000      7.8862      2.3455      0.0662     18.4561     67.9683     22.8584
  1367.2000      7.8862      2.3426      0.0392     18.6295     71.6367     22.9430
  1367.3000      7.8884      2.3353      0.0137     19.0736     72.6285     22.6335
  1367.4000      7.8884      2.3428      0.0011     18.6192     73.7293     22.0606
  1367.5000      7.8880      2.3677      0.0446     17.1116     73.4352     21.6279
  1367.6000      7.8880      2.3892      0.0558     15.8070     71.6685     22.1016
  1367.7000      7.8880      2.3919      0.0574     15.6436     72.8518     23.4625
  1367.8000      7.8878      2.3860      0.0244     16.0027     75.9375     24.4884
  1367.9000      7.8878      2.3870      0.0534     15.9370     74.3456     24.6547
  1368.0000      7.8887      2.3846      0.0674     16.0851     69.9837     24.2294
  1368.1000      7.8887      2.3637      0.0551     17.3533     72.9809     23.4850
  1368.2000      7.8887      2.3398     -0.0145     18.8003     83.0344     22.7049
  1368.3000      7.8898      2.3361      0.0097     19.0263     91.3196     22.0931
  1368.4000      7.8898      2.3447      0.0410     18.5048     95.9583     22.0551
  1368.5000      7.8905      2.3458      0.0294     18.4341     97.7410     22.5326
  1368.6000      7.8905      2.3433      0.0138     18.5892     97.1574     23.3539
  1368.7000      7.8905      2.3551      0.0103     17.8735     98.8056     24.2763
  1368.8000      7.8908      2.3819      0.0381     16.2463    105.0090     24.5226
  1368.9000      7.8908      2.3999      0.0385     15.1572    108.5485     24.1475
  1369.0000      7.8914      2.3936      0.0255     15.5415    103.2020     23.7958
  1369.1000      7.8914      2.3747      0.0212     16.6833     95.9506     23.2403
