~Version Information
VERS.                      2.0: CWLS Log ASCII Standard - VERSION 2.0
WRAP.                       NO: One line per depth step
~Well Information Block
STRT.FT                 0.0000: 
STOP.FT              2072.7500: 
STEP.FT                 0.2500: 
NULL.                -999.2500: 
COMP.          Pioneer Natural Resources: COMPANY
WELL.          Greenwood 43-29 Tr: WELL
FLD.           Purgatorie River: FIELD
LOC.           1478' FSL & 744' FEL: LOCATION
STAT.                 Colorado: State
CNTY.               Las Animas: COUNTY
CTRY. USA : Country
SECT. 29 : Section
TOWN. 32S : Township
RANG. 67W : Range
SRVC.                Patterson: SERVICE COMPANY
DATE.          Tue Sep 06 12:54:40 2005: LOG DATE
API. 05-071-08478                          : UNIQUE WELL ID
~Curve Information Block
DEPT.FT            0 000 00 00: Depth
GR.GAPI                       : Gamma Ray
CCL.                          : Casing Collar Locator
TT3.usec                      : CBL 3' Travel Time
AMP3.mV                       : CBL 3' Amplitude
~Parameter Information Block
~A  Depth        GR         CCL         TT3         AMP3    
# ...
   268.0000     58.6211      0.0000    891.2943     10.8257
   268.2500     56.3216      0.0000    886.9667     10.6577
   268.5000     55.1303      0.0000    885.5816     10.4600
   268.7500     54.5410      0.0000    885.2386     10.3355
   269.0000     54.0472      0.0000    885.1857     10.3034
   269.2500     53.2962      0.0000    885.3449     10.2821
   269.5000     52.1920      0.0000    885.5265     10.2090
   269.7500     51.0634      0.0000    885.4288     10.0922
   270.0000     50.5385      0.0000    885.0397      9.9635
   270.2500     50.9502      0.0000    884.6488      9.8496
   270.5000     51.9683      0.0000    884.4805      9.7642
   270.7500     53.0346      0.0000    884.5353      9.6955
   271.0000     53.9146      0.0000    884.6949      9.6150
   271.2500     54.5236      0.0000    884.8209      9.5050
   271.5000     54.5443      0.0000    884.8687      9.3734
   271.7500     53.6532      0.0000    884.9166      9.2386
   272.0000     51.9771      0.0000    885.0030      9.1175
   272.2500     49.9998      0.0000    885.0434      9.0291
   272.5000     48.0920      0.0000    884.9714      8.9827
   272.7500     46.3903      0.0000    884.8376      8.9607
   273.0000     45.1773      0.0000    884.6973      8.9332
   273.2500     45.0718      0.0000    884.4008      8.8888
   273.5000     46.5710      0.0000    883.3671      8.8419
   273.7500     49.4515      0.0000    880.7724      8.8129
   274.0000     52.6728      0.0000    877.1223      8.8093
   274.2500     54.7839      0.0000    875.3159      8.8219
   274.5000     54.6393      0.0000    877.3969      8.8350
   274.7500     52.2366      0.0000    881.4072      8.8475
   275.0000     48.9259      0.0000    884.3677      8.8744
   275.2500     46.3467      0.0000    885.6397      8.9229
   275.5000     45.0087      0.0000    886.0090      8.9892
   275.7500     44.2634      0.0000    886.0869      9.0681
   276.0000     43.6226      0.0000    886.0982      9.1453
   276.2500     43.4730      0.0000    886.1223      9.1993
   276.5000     44.3764      0.0000    886.2087      9.2217
   276.7500     46.3478      0.0000    886.3861      9.2212
   277.0000     49.1615      0.0000    886.6489      9.2089
   277.2500     52.8923      0.0000    886.9716      9.1867
   277.5000     57.7192      0.0000    887.3363      9.1534
   277.7500     63.2912      0.0000    887.7081      9.1199
   278.0000     68.5572      0.0000    888.0093      9.1019
   278.2500     72.2911      0.0000    888.1607      9.0978
   278.5000     73.7634      0.0000    888.1154      9.0917
   278.7500     73.0431      0.0000    887.7233      9.0767
   279.0000     70.7384      0.0000    886.4163      9.0550
   279.2500     67.3929      0.0000    883.3668      9.0325
   279.5000     63.2851      0.0000    879.1538      9.0193
   279.7500     58.9830      0.0000    876.8240      9.0179
   280.0000     55.6272      0.0000    878.4465      9.0231
   280.2500     54.1012      0.0000    881.9426      9.0314
   280.5000     54.0688      0.0000    884.4281      9.0378
   280.7500     54.2165      0.0000    886.0752      9.0381
   281.0000     53.4665      0.0000    890.7709      9.0463
   281.2500     51.8663      0.0000    907.7979      9.1032
   281.5000     50.3467      0.0000    949.9788      9.2380
   281.7500     49.7141      0.0000   1018.4905      9.3100
   282.0000     49.8551      0.0000   1089.9680      8.9645
   282.2500     49.8045      0.0000   1137.0309      8.1020
   282.5000     48.5436      0.0000   1159.4789      7.2051
   282.7500     45.8455      0.0000   1174.2922      6.7624
   283.0000     42.4036      0.0000   1187.4410      6.7475
   283.2500     39.1515     -1.0000   1194.3657      6.8901
   283.5000     36.6191     -1.0000   1189.2828      7.0448
   283.7500     34.9781      0.0000   1159.1256      7.1823
   284.0000     34.3577      0.0000   1085.0833      7.3063
   284.2500     34.7851      0.0000    976.0118      7.5375
   284.5000     35.9423      0.0000    886.2186      8.0310
   284.7500     37.3045      0.0000    850.9784      8.6379
   285.0000     38.6179      0.0000    833.3058      9.1219
   285.2500     40.0860      0.0000    796.5943      9.6122
   285.5000     41.9184      0.0000    774.2679     10.2129
   285.7500     43.7330      0.0000    805.1899     10.6842
   286.0000     44.6645      0.0000    863.4821     10.8570
   286.2500     44.2962      0.0000    904.6232     10.8236
   286.5000     43.3186      0.0000    920.3989     10.7145
   286.7500     43.0460      0.0000    923.8780     10.5825
   287.0000     44.3200      0.0000    924.2195     10.4453
   287.2500     46.9335      0.0000    924.1895     10.3142
   287.5000     49.9793      0.0000    924.2800     10.1966
   287.7500     52.5945      0.0000    924.3095     10.1052
   288.0000     54.4384      0.0000    923.2719     10.0466
   288.2500     55.6759      0.0000    919.2456     10.0033
   288.5000     56.5564      0.0000    910.9879      9.9582
   288.7500     56.9134      0.0000    900.5168      9.9268
   289.0000     56.1250      0.0000    892.0338      9.9357
   289.2500     53.7564      0.0000    887.5752      9.9869
   289.5000     50.3678      0.0000    886.0462     10.0580
   289.7500     47.4176      0.0000    885.7413     10.1167
   290.0000     45.9965      0.0000    885.7365     10.1405
   290.2500     45.8009      0.0000    885.7837     10.1420
   290.5000     45.7374      0.0000    886.1722     10.1540
   290.7500     45.3567      0.0000    887.8340     10.1878
   291.0000     45.2318      0.0000    892.3748     10.2249
   291.2500     46.0556      0.0000    900.7666     10.2418
   291.5000     47.9672      0.0000    911.0060     10.2409
   291.7500     50.8822      0.0000    918.9060     10.2548
   292.0000     54.8739      0.0000    921.7654     10.3065
   292.2500     59.7715      0.0000    919.0315     10.3727
   292.5000     64.6950      0.0000    911.2539     10.4122
   292.7500     68.4183      0.0000    901.2025     10.4217
   293.0000     70.1699      0.0000    893.1041     10.4335
   293.2500     69.9403      0.0000    888.8659     10.4779
   293.5000     68.1368      0.0000    887.3391     10.5736
   293.7500     65.1602      0.0000    886.8643     10.7142
   294.0000     61.3960      0.0000    886.7842     10.8502
   294.2500     57.4829      0.0000    887.4691     10.9322
   294.5000     54.2340      0.0000    889.7839     10.9691
   294.7500     51.9432      0.0000    893.2466     11.0098
   295.0000     49.8624      0.0000    894.7980     11.0817
   295.2500     46.9215      0.0000    892.3495     11.1707
   295.5000     43.2125      0.0000    888.1629     11.2515
   295.7500     40.3020      0.0000    885.4459     11.3256
   296.0000     39.7404      0.0000    884.8057     11.4194
   296.2500     41.5917      0.0000    885.7935     11.5423
   296.5000     44.6932      0.0000    888.8224     11.6718
   296.7500     47.9407      0.0000    894.0748     11.7789
   297.0000     50.8921      0.0000    900.2177     11.8473
   297.2500     53.4070      0.0000    906.1410     11.8781
   297.5000     55.2716      0.0000    911.4075     11.8879
   297.7500     56.2564      0.0000    914.1511     11.8943
   298.0000     56.3008      0.0000    913.5346     11.9065
   298.2500     55.5527      0.0000    912.9140     11.9293
   298.5000     54.2136      0.0000    915.4636     11.9608
   298.7500     52.2873      0.0000    919.6407     11.9927
   299.0000     49.5285      0.0000    922.4881     12.0223
   299.2500     45.8061      0.0000    923.4910     12.0539
   299.5000     41.5441      0.0000    923.5641     12.0909
   299.7500     37.6766      0.0000    923.0792     12.1362
   300.0000     35.0909      0.0000    920.2360     12.1961
   300.2500     34.1063      0.0000    908.1592     12.2733
   300.5000     34.3793      0.0000    876.6631     12.3630
   300.7500     35.1507      0.0000    829.3444     12.4572
   301.0000     35.6165      0.0000    790.2623     12.5420
   301.2500     35.3061      0.0000    761.8954     12.6094
