~Version Information
VERS.                      2.0: CWLS Log ASCII Standard - VERSION 2.0
WRAP.                       NO: One line per depth step
~Well Information Block
STRT.FT                -8.0000: 
STOP.FT              1060.7500: 
STEP.FT                 0.2500: 
NULL.                -999.2500: 
COMP.          Pioneer Natural Resources: COMPANY
WELL.          Pavillion 44-25: WELL
FLD.           Purgatorie River: FIELD
LOC.           719' FSL & 650' FEL--: LOCATION
PROV.                       CO: PROVINCE
CNTY.               Las Animas: COUNTRY
SRVC.          Patterson Wireline: SERVICE COMPANY
DATE.          Mon Dec 19 11:59:26 2005: LOG DATE
UWI.           05 071 08624 00: UNIQUE WELL ID
~Curve Information Block
DEPT.FT            0 000 00 00: Depth
CCL.                          : Casing Collar Locator
TT3.usec                      : CBL 3' Travel Time
AMP3.mV                       : CBL 3' Amplitude
GR.GAPI                       : Gamma Ray
~Parameter Information Block
~A  Depth       CCL         TT3         AMP3         GR     
# ...
   394.0000      0.0000    705.2115      6.0371     79.0148
   394.2500      0.0000    706.0317      6.0611     79.5457
   394.5000      0.0000    704.0951      6.0814     79.7222
   394.7500      0.0000    699.7736      6.0974     79.5022
   395.0000      0.0000    694.6667      6.1163     78.6335
   395.2500      0.0000    690.7396      6.1472     77.1064
   395.5000      0.0000    689.0798      6.1947     75.6896
   395.7500      0.0000    689.2748      6.2574     75.5306
   396.0000      0.0000    690.1488      6.3312     77.0819
   396.2500      0.0000    691.1927      6.4111     79.5667
   396.5000      0.0000    693.0522      6.4912     81.4803
   396.7500      0.0000    696.4757      6.5646     81.6373
   397.0000      0.0000    701.0995      6.6264     80.0024
   397.2500      0.0000    705.5945      6.6758     77.6178
   397.5000      0.0000    708.8181      6.7162     75.6299
   397.7500      0.0000    710.5313      6.7522     74.4113
   398.0000      0.0000    711.1577      6.7851     73.7354
   398.2500      0.0000    711.2243      6.8099     73.6285
   398.5000      0.0000    711.0809      6.8185     74.5622
   398.7500      0.0000    710.9034      6.8074     76.6878
   399.0000      0.0000    710.7780      6.7827     79.3455
   399.2500      0.0000    710.7496      6.7575     81.5868
   399.5000      0.0000    710.8276      6.7429     82.9014
   399.7500      0.0000    710.9732      6.7414     83.2680
   400.0000      0.0000    711.1102      6.7467     82.8390
   400.2500      0.0000    711.1808      6.7501     81.8422
   400.5000      0.0000    711.2103      6.7477     80.6702
   400.7500      0.0000    711.3023      6.7420     79.8298
   401.0000      0.0000    711.5215      6.7377     79.6848
   401.2500      0.0000    711.7400      6.7375     80.2456
   401.5000      0.0000    711.6247      6.7388     81.3689
   401.7500      0.0000    710.8446      6.7322     83.2073
   402.0000      0.0000    709.4088      6.7029     86.3677
   402.2500      0.0000    707.6985      6.6365     91.6422
   402.5000      0.0000    705.8234      6.5263     99.4130
   402.7500      0.0000    703.3139      6.3778    108.9345
   403.0000      0.0000    700.6955      6.2092    118.2821
   403.2500      0.0000    702.0131      6.0459    125.3312
   403.5000      0.0000    713.8344      5.9164    128.3953
   403.7500      0.0000    738.5768      5.8496    126.0157
   404.0000      0.0000    768.1984      5.8627    117.6401
   404.2500      0.0000    787.5751      5.9452    105.1520
   404.5000      0.0000    786.7841      6.0648     92.5863
   404.7500     -2.0000    768.3508      6.1893     83.5246
   405.0000      0.0000    741.2780      6.2935     79.1524
   405.2500      0.0000    712.2498      6.3613     78.8843
   405.5000      0.0000    685.7059      6.4092     82.0613
   405.7500      0.0000    667.6686      6.4975     88.4761
   406.0000      0.0000    663.3981      6.6828     97.5777
   406.2500      0.0000    671.8595      6.9567    107.9071
   406.5000      0.0000    686.0313      7.2633    117.7288
   406.7500      0.0000    698.7604      7.5594    126.1161
   407.0000      0.0000    706.9042      7.8223    133.1563
   407.2500      0.0000    710.9112      8.0201    139.1522
   407.5000      0.0000    712.4431      8.1157    143.9515
   407.7500      0.0000    712.8428      8.0998    147.2310
   408.0000      0.0000    712.8419      8.0007    149.1632
   408.2500      0.0000    712.7665      7.8623    150.4817
   408.5000      0.0000    712.7534      7.7192    152.0405
   408.7500      0.0000    712.8185      7.5912    154.5146
   409.0000      0.0000    712.9197      7.4885    158.1287
   409.2500      0.0000    713.0098      7.4154    162.3633
   409.5000      0.0000    713.0621      7.3678    166.4732
   409.7500      0.0000    713.0671      7.3304    170.5464
   410.0000      0.0000    713.0381      7.2840    175.3120
   410.2500      0.0000    712.9968      7.2165    180.4678
   410.5000      0.0000    712.9294      7.1291    183.8074
   410.7500      0.0000    712.7788      7.0302    182.5536
   411.0000      0.0000    712.5002      6.9287    175.4613
   411.2500      0.0000    712.1073      6.8353    163.7564
   411.5000      0.0000    711.6475      6.7664    150.4205
   411.7500      0.0000    711.1504      6.7419    138.1853
   412.0000      0.0000    710.6295      6.7730    127.6230
   412.2500      0.0000    710.1413      6.8515    117.4481
   412.5000      0.0000    709.7961      6.9511    106.9860
   412.7500      0.0000    709.6628      7.0406     97.7532
   413.0000      0.0000    709.6860      7.1004     92.2090
   413.2500      0.0000    709.7467      7.1284     91.7495
   413.5000      0.0000    709.7859      7.1332     96.6634
   413.7500      0.0000    709.8224      7.1219    107.1305
   414.0000      0.0000    709.8840      7.0974    122.7200
   414.2500      0.0000    709.9825      7.0618    140.7997
   414.5000      0.0000    710.1591      7.0215    156.8098
   414.7500      0.0000    710.4974      6.9862    167.0676
   415.0000      0.0000    711.2281      6.9631    171.0329
   415.2500      0.0000    713.0268      6.9524    170.4692
   415.5000      0.0000    717.3810      6.9456    167.1284
   415.7500      0.0000    726.0762      6.9316    162.0032
   416.0000      0.0000    738.9527      6.9039    156.1137
   416.2500      0.0000    751.6166      6.8627    150.8132
   416.5000      0.0000    757.1284      6.8112    147.2324
   416.7500      0.0000    751.9304      6.7533    145.9004
   417.0000      0.0000    739.4611      6.6913    146.8324
   417.2500      0.0000    726.8062      6.6253    149.8559
   417.5000      0.0000    718.9777      6.5546    154.9886
   417.7500      0.0000    717.3950      6.4817    162.2780
   418.0000      0.0000    722.1047      6.4114    170.9428
   418.2500      0.0000    733.0971      6.3498    178.8320
   418.5000      0.0000    748.9751      6.3007    183.2838
   418.7500      0.0000    765.3708      6.2637    182.8872
   419.0000      0.0000    776.0942      6.2339    178.5443
   419.2500      0.0000    776.8878      6.2076    172.8495
   419.5000      0.0000    768.7809      6.1876    168.4182
   419.7500      0.0000    757.9735      6.1780    166.5659
   420.0000      0.0000    751.7269      6.1747    167.1723
   420.2500      0.0000    753.2163      6.1686    169.4368
   420.5000      0.0000    760.0200      6.1593    172.4877
   420.7500      0.0000    767.4731      6.1602    175.2445
   421.0000      0.0000    772.3357      6.1867    176.0941
   421.2500      0.0000    772.6462      6.2411    173.2753
   421.5000      0.0000    766.3359      6.3091    165.6460
   421.7500      0.0000    753.0903      6.3672    153.0037
   422.0000      0.0000    737.3464      6.3958    136.1570
   422.2500      0.0000    726.5905      6.3894    117.3219
   422.5000      0.0000    725.2173      6.3567    100.2349
   422.7500      0.0000    730.9831      6.3133     88.8820
   423.0000      0.0000    738.0733      6.2745     85.2529
   423.2500      0.0000    742.4866      6.2531     88.2526
   423.5000      0.0000    743.5889      6.2574     95.1768
   423.7500      0.0000    741.6964      6.2875    104.1436
   424.0000      0.0000    736.2749      6.3310    114.6598
   424.2500      0.0000    727.3077      6.3675    126.3134
   424.5000      0.0000    717.1420      6.3800    138.0302
   424.7500      0.0000    709.3099      6.3655    148.6320
   425.0000      0.0000    705.4033      6.3363    157.1241
   425.2500      0.0000    704.3109      6.3113    162.3410
   425.5000      0.0000    704.8408      6.3041    163.3992
   425.7500      0.0000    707.5287      6.3138    161.0254
   426.0000      0.0000    712.7941      6.3296    157.6544
   426.2500      0.0000    718.5457      6.3407    155.5542
   426.5000      0.0000    721.1791      6.3423    155.3370
   426.7500      0.0000    718.6209      6.3328    156.6938
   427.0000      0.0000    711.5831      6.3114    159.5877
   427.2500      0.0000    702.4977      6.2842    163.9062
