~Version Information
VERS.                      2.0: CWLS Log ASCII Standard - VERSION 2.0
WRAP.                       NO: One line per depth step
~Well Information Block
STRT.FT                10.0000: 
STOP.FT               959.2500: 
STEP.FT                 0.2500: 
NULL.                -999.2500: 
COMP.          XTO Energy Inc.: COMPANY
WELL.          Golden Eagle 20-04: WELL
FLD.           Purgatrorie River: FIELD
LOC.           702' FNL & 487' FWL--: LOCATION
STAT.                       CO: State
CNTY.               Las Animas: COUNTY
CTRY. USA : Country
SECT. 20 : Section
TOWN. 33S : Township
RANG. 67W : Range
SRVC.          Patterson Wireline: SERVICE COMPANY
DATE.          Mon Dec 05 08:42:44 2005: LOG DATE
API.           05 071 08599 00: UNIQUE WELL ID
~Curve Information Block
DEPT.FT            0 000 00 00: Depth
TEMP.degF                     : Downhole Temperature
DTMP.degF                     : Delta Temperature
~Parameter Information Block
~A  Depth       TEMP        DTMP    
# ...
   790.5000     70.2170      0.0729
   790.7500     70.2366      0.0742
   791.0000     70.2567      0.0727
   791.2500     70.2718      0.0763
   791.5000     70.2922      0.0775
   791.7500     70.3131      0.0788
   792.0000     70.3289      0.0771
   792.2500     70.3503      0.0810
   792.5000     70.3720      0.0825
   792.7500     70.3941      0.0810
   793.0000     70.4110      0.0852
   793.2500     70.4338      0.0867
   793.5000     70.4573      0.0852
   793.7500     70.4750      0.0868
   794.0000     70.4992      0.0914
   794.2500     70.5237      0.0931
   794.5000     70.5424      0.0947
   794.7500     70.5678      0.0995
   795.0000     70.5937      0.0978
   795.2500     70.6200      0.0995
   795.5000     70.6468      0.1007
   795.7500     70.6740      0.1023
   796.0000     70.6948      0.1037
   796.2500     70.7227      0.1014
   796.5000     70.7438      0.1027
   796.7500     70.7723      0.1037
   797.0000     70.8010      0.1081
   797.2500     70.8228      0.1054
   797.5000     70.8521      0.1100
   797.7500     70.8815      0.1110
   798.0000     70.9110      0.1083
   798.2500     70.9335      0.1130
   798.5000     70.9638      0.1141
   798.7500     70.9943      0.1114
   799.0000     71.0175      0.1127
   799.2500     71.0489      0.1176
   799.5000     71.0804      0.1188
   799.7500     71.1042      0.1158
   800.0000     71.1364      0.1206
   800.2500     71.1687      0.1214
   800.5000     71.2013      0.1221
   800.7500     71.2260      0.1226
   801.0000     71.2587      0.1230
   801.2500     71.2916      0.1233
   801.5000     71.3246      0.1192
   801.7500     71.3495      0.1233
   802.0000     71.3824      0.1232
   802.2500     71.4153      0.1228
   802.5000     71.4397      0.1184
   802.7500     71.4726      0.1219
   803.0000     71.5051      0.1212
   803.2500     71.5373      0.1166
   803.5000     71.5615      0.1198
   803.7500     71.5933      0.1186
   804.0000     71.6248      0.1138
   804.2500     71.6484      0.1125
   804.5000     71.6793      0.1151
   804.7500     71.7098      0.1136
   805.0000     71.7326      0.1086
   805.2500     71.7624      0.1108
   805.5000     71.7917      0.1090
   805.7500     71.8205      0.1039
   806.0000     71.8420      0.1057
   806.2500     71.8699      0.1037
   806.5000     71.8972      0.0986
   806.7500     71.9175      0.0966
   807.0000     71.9439      0.0980
   807.2500     71.9697      0.0959
   807.5000     71.9889      0.0909
   807.7500     72.0137      0.0921
   808.0000     72.0379      0.0900
   808.2500     72.0616      0.0852
   808.5000     72.0791      0.0861
   808.7500     72.1018      0.0840
   809.0000     72.1239      0.0794
   809.2500     72.1400      0.0773
   809.5000     72.1611      0.0780
   809.7500     72.1817      0.0760
   810.0000     72.1968      0.0717
   810.2500     72.2163      0.0725
   810.5000     72.2352      0.0704
   810.7500     72.2537      0.0684
   811.0000     72.2673      0.0668
   811.2500     72.2849      0.0649
   811.5000     72.3019      0.0630
   811.7500     72.3184      0.0593
   812.0000     72.3305      0.0596
   812.2500     72.3461      0.0577
   812.5000     72.3613      0.0559
   812.7500     72.3723      0.0524
   813.0000     72.3866      0.0527
   813.2500     72.4004      0.0509
   813.5000     72.4136      0.0478
   813.7500     72.4233      0.0479
   814.0000     72.4359      0.0463
   814.2500     72.4480      0.0434
   814.5000     72.4568      0.0419
   814.7500     72.4682      0.0420
   815.0000     72.4791      0.0405
   815.2500     72.4871      0.0378
   815.5000     72.4974      0.0379
   815.7500     72.5073      0.0365
   816.0000     72.5168      0.0351
   816.2500     72.5237      0.0341
   816.5000     72.5326      0.0328
   816.7500     72.5412      0.0316
   817.0000     72.5494      0.0296
   817.2500     72.5554      0.0296
   817.5000     72.5631      0.0285
   817.7500     72.5705      0.0267
   818.0000     72.5760      0.0257
   818.2500     72.5829      0.0256
   818.5000     72.5897      0.0246
   818.7500     72.5945      0.0229
   819.0000     72.6007      0.0227
   819.2500     72.6066      0.0211
   819.5000     72.6122      0.0201
   819.7500     72.6163      0.0198
   820.0000     72.6215      0.0188
   820.2500     72.6252      0.0173
   820.5000     72.6298      0.0164
   820.7500     72.6342      0.0161
   821.0000     72.6383      0.0152
   821.2500     72.6413      0.0148
   821.5000     72.6450      0.0136
   821.7500     72.6485      0.0127
   822.0000     72.6518      0.0119
   822.2500     72.6548      0.0112
   822.5000     72.6570      0.0104
   822.7500     72.6596      0.0096
   823.0000     72.6621      0.0087
   823.2500     72.6638      0.0079
   823.5000     72.6659      0.0075
   823.7500     72.6678      0.0066
   824.0000     72.6691      0.0059
   824.2500     72.6707      0.0054
   824.5000     72.6720      0.0046
   824.7500     72.6729      0.0039
   825.0000     72.6738      0.0033
   825.2500     72.6746      0.0025
   825.5000     72.6752      0.0018
   825.7500     72.6755      0.0012
   826.0000     72.6757      0.0004
   826.2500     72.6757     -0.0005
   826.5000     72.6756     -0.0013
   826.7500     72.6752     -0.0020
   827.0000     72.6746     -0.0030
   827.2500     72.6737     -0.0040
   827.5000     72.6725     -0.0051
   827.7500     72.6715     -0.0058
   828.0000     72.6698     -0.0070
   828.2500     72.6678     -0.0081
   828.5000     72.6654     -0.0088
   828.7500     72.6635     -0.0101
   829.0000     72.6607     -0.0113
   829.2500     72.6575     -0.0124
   829.5000     72.6550     -0.0130
   829.7500     72.6513     -0.0145
   830.0000     72.6472     -0.0157
   830.2500     72.6429     -0.0170
   830.5000     72.6394     -0.0186
   830.7500     72.6345     -0.0191
   831.0000     72.6292     -0.0203
   831.2500     72.6236     -0.0214
   831.5000     72.6177     -0.0223
   831.7500     72.6131     -0.0234
   832.0000     72.6067     -0.0245
   832.2500     72.6000     -0.0255
   832.5000     72.5948     -0.0254
   832.7500     72.5876     -0.0271
   833.0000     72.5803     -0.0269
   833.2500     72.5727     -0.0277
   833.5000     72.5669     -0.0293
   833.7500     72.5589     -0.0289
   834.0000     72.5529     -0.0296
   834.2500     72.5446     -0.0303
   834.5000     72.5362     -0.0319
   834.7500     72.5298     -0.0314
   835.0000     72.5210     -0.0331
   835.2500     72.5122     -0.0337
   835.5000     72.5030     -0.0344
   835.7500     72.4962     -0.0349
   836.0000     72.4867     -0.0355
   836.2500     72.4772     -0.0361
   836.5000     72.4675     -0.0354
   836.7500     72.4601     -0.0371
   837.0000     72.4501     -0.0376
   837.2500     72.4400     -0.0381
   837.5000     72.4323     -0.0372
   837.7500     72.4220     -0.0389
   838.0000     72.4116     -0.0393
   838.2500     72.4010     -0.0384
   838.5000     72.3931     -0.0401
   838.7500     72.3823     -0.0391
   839.0000     72.3714     -0.0395
   839.2500     72.3631     -0.0398
   839.5000     72.3521     -0.0414
   839.7500     72.3438     -0.0416
   840.0000     72.3326     -0.0405
   840.2500     72.3214     -0.0419
   840.5000     72.3102     -0.0421
   840.7500     72.2990     -0.0436
   841.0000     72.2905     -0.0422
   841.2500     72.2793     -0.0423
   841.5000     72.2680     -0.0423
   841.7500     72.2566     -0.0409
   842.0000     72.2482     -0.0422
   842.2500     72.2369     -0.0407
   842.5000     72.2257     -0.0406
   842.7500     72.2173     -0.0405
   843.0000     72.2061     -0.0417
   843.2500     72.1978     -0.0415
   843.5000     72.1867     -0.0399
   843.7500     72.1757     -0.0410
   844.0000     72.1648     -0.0408
   844.2500     72.1540     -0.0418
   844.5000     72.1459     -0.0402
   844.7500     72.1352     -0.0399
   845.0000     72.1246     -0.0395
   845.2500     72.1141     -0.0379
   845.5000     72.1063     -0.0389
   845.7500     72.0960     -0.0385
   846.0000     72.0858     -0.0380
