~Version Information
VERS.                      2.0: CWLS Log ASCII Standard - VERSION 2.0
WRAP.                       NO: One line per depth step
~Well Information Block
STRT.FT               795.0000: 
STOP.FT              2276.0000: 
STEP.FT                 0.1000: 
NULL.                -999.2500: 
COMP.          Pioneer Natural Resources: COMPANY
WELL.            Wildcard 31-5: WELL
FLD.           Purgatoire River: FIELD
LOC.           624' FNL & 1852' FEL--: LOCATION
CNTY.               Las Animas: COUNTY
SRVC.                Patterson: SERVICE COMPANY
DATE.          Tue Mar 07 07:04:10 2006: LOG DATE
UWI.           05 071 08707 00: UNIQUE WELL ID
STAT.                 Colorado: STATE
~Curve Information Block
DEPT.FT            0 000 00 00: Depth
DCAL.in                       : CDL Caliper
DPOR.pu                       : CDL Density Porosity
NPOR.pu                       : Neutron Porosity
RHOB.g/cc                     : CDL Bulk Density
RHOC.g/cc                     : CDL Density Correction
GR.GAPI                       : Gamma Ray
~Parameter Information Block
~A  Depth       DCAL        DPOR        NPOR        RHOB        RHOC         GR     
# ...
  1966.2000      7.9292     15.2782     28.0087      2.3979      0.0409    131.6249
  1966.3000      7.9214     15.0294     27.9002      2.4020      0.0053    127.7479
  1966.4000      7.9214     13.8189     27.5314      2.4220      0.0381    122.6558
  1966.5000      7.9147     12.6704     27.0023      2.4409      0.0809    122.1502
  1966.6000      7.9147     12.5375     26.5662      2.4431      0.0551    128.6297
  1966.7000      7.9147     13.0111     26.4393      2.4353      0.0507    130.7056
  1966.8000      7.9111     13.0882     26.5084      2.4340     -0.0021    127.6568
  1966.9000      7.9111     12.3176     26.5339      2.4468      0.0421    126.7213
  1967.0000      7.9138     11.4622     26.4255      2.4609      0.0518    128.1600
  1967.1000      7.9138     10.8960     26.2833      2.4702     -0.0038    135.2205
  1967.2000      7.9138     10.1354     26.3371      2.4828      0.0479    149.9001
  1967.3000      7.9234      9.3257     26.6792      2.4961      0.0355    159.2346
  1967.4000      7.9234      8.7764     27.2318      2.5052      0.0536    150.8169
  1967.5000      7.9352      8.3319     27.7670      2.5125      0.0620    133.5243
  1967.6000      7.9352      7.7842     28.0487      2.5216      0.0234    121.0584
  1967.7000      7.9352      7.9138     28.1983      2.5194      0.1110    116.5080
  1967.8000      7.9437      9.7952     28.5000      2.4884      0.0595    122.7589
  1967.9000      7.9437     12.1833     28.5618      2.4490     -0.0028    131.8890
  1968.0000      7.9468     13.0413     27.8934      2.4348      0.0164    128.7370
  1968.1000      7.9468     12.8442     27.0576      2.4381      0.0755    121.3073
  1968.2000      7.9468     13.1758     26.8712      2.4326      0.0587    121.1940
  1968.3000      7.9481     13.6789     27.5040      2.4243      0.0476    122.2621
  1968.4000      7.9481     13.2417     28.4495      2.4315      0.0435    131.3168
  1968.5000      7.9491     12.8301     29.0261      2.4383      0.1143    156.5759
  1968.6000      7.9491     13.7463     29.1473      2.4232      0.0570    178.6444
  1968.7000      7.9491     15.1077     29.1270      2.4007      0.0161    177.1940
  1968.8000      7.9484     16.1446     29.2270      2.3836      0.0341    155.2880
  1968.9000      7.9484     17.6077     29.3910      2.3595      0.0434    139.4860
  1969.0000      7.9456     19.7292     29.5057      2.3245      0.0129    149.4439
  1969.1000      7.9456     21.6389     29.6015      2.2930      0.0046    168.7396
  1969.2000      7.9456     23.0296     29.5510      2.2700      0.0335    175.9959
  1969.3000      7.9407     24.5918     29.4297      2.2442      0.0501    173.4950
  1969.4000      7.9407     26.4437     29.5064      2.2137      0.0100    167.6139
  1969.5000      7.9357     27.8294     29.8016      2.1908      0.0190    160.1922
  1969.6000      7.9357     28.7286     30.1738      2.1760      0.0529    160.7996
  1969.7000      7.9357     30.0055     30.3499      2.1549      0.0365    166.4058
  1969.8000      7.9330     31.9605     30.1293      2.1227      0.0339    160.5357
  1969.9000      7.9330     34.3083     29.7743      2.0839      0.0066    149.7736
  1970.0000      7.9353     37.3648     29.6298      2.0335      0.0450    155.9472
  1970.1000      7.9353     41.5994     29.5108      1.9636      0.0081    168.1475
  1970.2000      7.9353     45.6971     29.2767      1.8960     -0.0857    156.1421
  1970.3000      7.9451     47.6681     29.2881      1.8635     -0.0312    131.3228
  1970.4000      7.9451     47.6810     29.7229      1.8633     -0.0034    116.1426
  1970.5000      7.9611     46.8802     30.1389      1.8765      0.0069    109.8721
  1970.6000      7.9611     45.2959     30.0672      1.9026      0.0194    111.8574
  1970.7000      7.9611     42.5728     29.6105      1.9475      0.0898    120.8547
  1970.8000      7.9767     39.1097     28.9592      2.0047      0.1638    131.7231
  1970.9000      7.9767     35.1820     28.0089      2.0695      0.1739    132.8406
  1971.0000      7.9842     30.3417     26.9017      2.1494      0.2100    118.1321
  1971.1000      7.9842     24.7621     26.2794      2.2414      0.2134    105.2992
  1971.2000      7.9842     19.5237     26.4218      2.3279      0.2051    107.7636
  1971.3000      7.9760     15.2228     27.0532      2.3988      0.1346    112.9985
  1971.4000      7.9760     12.2422     27.8992      2.4480      0.1836    110.0828
  1971.5000      7.9544     11.4322     28.6046      2.4614      0.1551    107.9612
  1971.6000      7.9544     11.9041     28.7208      2.4536      0.0628    114.2120
  1971.7000      7.9544     11.6880     28.0988      2.4571      0.0877    124.5292
  1971.8000      7.9391     10.7268     27.3462      2.4730      0.0496    132.4070
  1971.9000      7.9391     10.0647     27.4283      2.4839      0.0836    138.5800
  1972.0000      7.9347     10.3204     28.2345      2.4797      0.0812    146.3586
  1972.1000      7.9347     11.2152     28.6191      2.4649      0.0158    154.8543
  1972.2000      7.9347     11.8267     28.1940      2.4549      0.0282    160.6143
  1972.3000      7.9358     12.0212     27.3525      2.4517      0.0565    158.1713
  1972.4000      7.9358     12.1502     26.4398      2.4495      0.0484    143.0022
  1972.5000      7.9401     12.0698     25.9696      2.4508      0.0692    125.1772
  1972.6000      7.9401     11.5996     26.2519      2.4586      0.0642    125.5004
  1972.7000      7.9401     11.2594     26.7201      2.4642      0.1113    140.0434
  1972.8000      7.9419     11.9688     26.7419      2.4525      0.0900    144.7948
  1972.9000      7.9419     13.5419     26.7041      2.4266      0.0438    141.4816
  1973.0000      7.9389     14.9583     27.0515      2.4032      0.0638    141.5713
  1973.1000      7.9389     15.6430     27.3833      2.3919      0.0105    136.4291
  1973.2000      7.9389     15.5797     27.6283      2.3929      0.0477    122.7928
  1973.3000      7.9344     15.4373     28.0568      2.3953      0.0780    114.1486
  1973.4000      7.9344     15.8046     28.4307      2.3892      0.0505    120.0068
  1973.5000      7.9291     16.0771     28.5489      2.3847      0.0138    134.5564
  1973.6000      7.9291     15.3665     28.3762      2.3965      0.0222    140.5077
  1973.7000      7.9291     13.7522     27.8632      2.4231      0.0831    138.2265
  1973.8000      7.9196     11.7024     27.3087      2.4569      0.1015    136.6843
  1973.9000      7.9196      9.4485     26.9732      2.4941      0.1146    131.3426
  1974.0000      7.9060      7.6046     26.6677      2.5245      0.1353    124.3321
  1974.1000      7.9060      7.0897     26.2218      2.5330      0.1288    118.2878
  1974.2000      7.9060      7.9582     25.6213      2.5187      0.0988    109.7220
  1974.3000      7.8919      9.6147     25.1953      2.4914      0.0867    102.4357
  1974.4000      7.8919     11.3868     25.1188      2.4621      0.0608     99.3479
  1974.5000      7.8829     12.2344     25.0679      2.4481      0.0266     96.9822
  1974.6000      7.8829     11.6789     25.0756      2.4573      0.0480     91.4923
  1974.7000      7.8829     10.3747     25.2424      2.4788      0.0219     80.5077
  1974.8000      7.8799      9.1197     25.2199      2.4995      0.0450     70.7732
  1974.9000      7.8799      8.7125     24.8146      2.5062      0.0851     79.0645
  1975.0000      7.8820      9.2220     24.0697      2.4978      0.0231    106.8383
  1975.1000      7.8820      9.4464     23.4834      2.4941      0.0354    128.2349
  1975.2000      7.8820      8.6402     23.6009      2.5074      0.0774    125.2325
  1975.3000      7.8896      7.2857     24.1577      2.5298      0.0850    115.2496
  1975.4000      7.8896      5.7682     24.5205      2.5548      0.0604    121.1671
  1975.5000      7.8984      4.4291     24.3175      2.5769      0.1199    136.3189
  1975.6000      7.8984      4.1324     23.4532      2.5818      0.1253    139.4589
  1975.7000      7.8984      4.6563     22.3093      2.5732      0.0452    129.4623
