~Version Information
VERS.                      2.0: CWLS Log ASCII Standard - VERSION 2.0
WRAP.                       NO: One line per depth step
~Well Information Block
STRT.FT               575.0000: 
STOP.FT              1557.5000: 
STEP.FT                 0.1000: 
NULL.                -999.2500: 
COMP.          Pioneer Natural Resources: COMPANY
WELL.          McClaren 13-34 Tr: WELL
FLD.           Purgatoire River: FIELD
LOC.           1934' FSL & 826' FWL: LOCATION
PROV.                 Colorado: PROVINCE
CNTY.               Las Animas: COUNTRY
SRVC.                Patterson: SERVICE COMPANY
DATE.          Tue Jul 12 07:15:27 2005: LOG DATE
UWI.           05 071 08437 00: UNIQUE WELL ID
~Curve Information Block
DEPT.FT            0 000 00 00: Depth
DCAL.in                       : CDL Caliper
RHOB.g/cc                     : CDL Bulk Density
RHOC.g/cc                     : CDL Density Correction
DPOR.pu                       : CDL Density Porosity
GR.GAPI                       : Gamma Ray
NPOR.pu                       : Neutron Porosity
~Parameter Information Block
~A  Depth       DCAL        RHOB        RHOC        DPOR         GR         NPOR    
# ...
  1160.6000      7.9599      2.6266      0.0331      1.4159    140.2633     27.0060
  1160.7000      7.9599      2.6640      0.0565     -0.8490    132.9559     27.0500
  1160.8000      7.9596      2.7008      0.1003     -3.0796    128.6044     27.3277
  1160.9000      7.9596      2.7200      0.1104     -4.2434    129.9218     27.0374
  1161.0000      7.9598      2.7178      0.1145     -4.1068    133.3677     26.2343
  1161.1000      7.9598      2.7026      0.0842     -3.1862    132.2643     25.6476
  1161.2000      7.9598      2.6796      0.0458     -1.7942    125.8339     25.6601
  1161.3000      7.9600      2.6488     -0.0058      0.0757    119.6520     26.2180
  1161.4000      7.9600      2.6074      0.0003      2.5827    119.1421     26.9217
  1161.5000      7.9598      2.5637     -0.0751      5.2276    124.4123     27.4909
  1161.6000      7.9598      2.5397     -0.0833      6.6876    129.0220     27.6215
  1161.7000      7.9598      2.5375     -0.0433      6.8188    128.3213     27.2147
  1161.8000      7.9592      2.5449      0.0066      6.3696    124.8149     26.6383
  1161.9000      7.9592      2.5616      0.0196      5.3548    124.0264     25.9663
  1162.0000      7.9576      2.5858      0.0999      3.8894    129.1315     25.2414
  1162.1000      7.9576      2.6062      0.0605      2.6522    136.5948     24.8577
  1162.2000      7.9576      2.6180      0.0997      1.9409    138.8459     24.6938
  1162.3000      7.9564      2.6193      0.0993      1.8578    134.5955     24.6441
  1162.4000      7.9564      2.6155      0.0665      2.0910    133.1481     24.9151
  1162.5000      7.9576      2.6157      0.0759      2.0813    136.4876     25.3327
  1162.6000      7.9576      2.6177      0.0337      1.9549    133.7729     25.4152
  1162.7000      7.9576      2.6173      0.0696      1.9795    121.1758     24.8392
  1162.8000      7.9587      2.6156      0.0639      2.0841    104.9955     24.0826
  1162.9000      7.9587      2.6145      0.0755      2.1495     90.8128     23.8357
  1163.0000      7.9594      2.6174      0.0306      1.9774     78.7149     23.9798
  1163.1000      7.9594      2.6291      0.0082      1.2659     70.5710     23.4702
  1163.2000      7.9594      2.6368      0.0839      0.7977     69.5093     21.6248
  1163.3000      7.9599      2.6229      0.0417      1.6413     71.3403     19.2290
  1163.4000      7.9599      2.5999      0.0297      3.0350     72.5258     18.0225
  1163.5000      7.9603      2.5866      0.0465      3.8414     75.9344     18.6634
  1163.6000      7.9603      2.5787      0.0543      4.3204     80.6907     19.6277
  1163.7000      7.9603      2.5647      0.0229      5.1676     81.0068     19.5658
  1163.8000      7.9620      2.5428      0.0210      6.4991     74.0445     19.5666
  1163.9000      7.9620      2.5178      0.0158      8.0150     64.0546     20.4196
  1164.0000      7.9644      2.4993     -0.0027      9.1323     58.5633     20.8388
  1164.1000      7.9644      2.4973     -0.0092      9.2570     59.2953     20.3172
  1164.2000      7.9644      2.5102      0.0294      8.4699     61.2018     19.6764
  1164.3000      7.9635      2.5293      0.0195      7.3143     60.2449     19.1351
  1164.4000      7.9635      2.5496      0.0454      6.0878     56.7535     18.6836
  1164.5000      7.9611      2.5678      0.0230      4.9836     53.7477     18.5297
  1164.6000      7.9611      2.5778      0.1129      4.3751     51.9999     18.4822
  1164.7000      7.9611      2.5745      0.0647      4.5767     49.7288     18.0892
  1164.8000      7.9596      2.5630      0.0609      5.2750     48.0227     17.5639
  1164.9000      7.9596      2.5543      0.0473      5.8021     48.0560     17.2336
  1165.0000      7.9596      2.5538      0.0782      5.8298     46.8763     17.1714
  1165.1000      7.9596      2.5522      0.0814      5.9257     41.9279     17.2728
  1165.2000      7.9596      2.5423      0.0686      6.5270     36.8552     17.0710
  1165.3000      7.9606      2.5345      0.0676      7.0011     35.8614     16.7337
  1165.4000      7.9606      2.5371      0.0701      6.8407     38.2701     16.7601
  1165.5000      7.9613      2.5446      0.0584      6.3854     41.5920     16.8876
  1165.6000      7.9613      2.5532      0.0907      5.8681     43.1525     17.0725
  1165.7000      7.9613      2.5693      0.0495      4.8924     41.7380     17.5948
  1165.8000      7.9614      2.5934      0.0684      3.4318     38.3654     17.9319
  1165.9000      7.9614      2.6120      0.1030      2.3045     35.2339     17.8113
  1166.0000      7.9611      2.6197      0.0528      1.8383     35.7770     17.3344
  1166.1000      7.9611      2.6286      0.0356      1.2966     40.9339     16.3365
  1166.2000      7.9611      2.6376      0.0773      0.7512     47.6001     15.2146
  1166.3000      7.9603      2.6261      0.1153      1.4506     52.0702     14.5982
  1166.4000      7.9603      2.5907      0.0399      3.5955     51.6443     14.5806
  1166.5000      7.9598      2.5589      0.0198      5.5193     47.4261     14.5406
  1166.6000      7.9598      2.5501      0.0400      6.0527     42.2306     14.0971
  1166.7000      7.9598      2.5512      0.0091      5.9875     38.0876     14.1368
  1166.8000      7.9603      2.5496      0.0023      6.0860     36.4255     15.0603
  1166.9000      7.9603      2.5480      0.0142      6.1841     36.6976     16.0466
  1167.0000      7.9610      2.5449      0.0195      6.3685     37.7724     16.4542
  1167.1000      7.9610      2.5383      0.0109      6.7673     38.9056     16.8080
  1167.2000      7.9610      2.5338      0.0668      7.0434     38.9171     17.5794
  1167.3000      7.9610      2.5280      0.0745      7.3914     38.2968     18.5399
  1167.4000      7.9610      2.5138      0.0225      8.2543     37.8880     19.1019
  1167.5000      7.9608      2.4952      0.0196      9.3818     37.5830     18.8498
  1167.6000      7.9608      2.4852     -0.0107      9.9879     39.1483     18.3686
  1167.7000      7.9608      2.4913      0.0247      9.6206     43.6978     18.3360
  1167.8000      7.9602      2.5047      0.0116      8.8043     49.0176     18.6716
  1167.9000      7.9602      2.5162      0.0427      8.1091     54.6400     19.0525
  1168.0000      7.9587      2.5243      0.0623      7.6200     60.2896     19.5724
  1168.1000      7.9587      2.5288      0.0463      7.3444     62.3908     20.3657
  1168.2000      7.9587      2.5307      0.0372      7.2316     60.8822     21.2210
  1168.3000      7.9575      2.5303      0.0719      7.2519     59.8700     21.6044
  1168.4000      7.9575      2.5251      0.0830      7.5724     62.4397     21.4374
  1168.5000      7.9586      2.5158      0.0451      8.1334     68.4344     21.4152
  1168.6000      7.9586      2.4982      0.0529      9.2016     73.7831     21.5502
  1168.7000      7.9586      2.4511      0.0480     12.0556     76.2536     21.9269
  1168.8000      7.9602      2.3648      0.0052     17.2846     79.9511     23.1762
  1168.9000      7.9602      2.2593     -0.0260     23.6799     88.9018     24.8611
  1169.0000      7.9611      2.1609     -0.0683     29.6395     99.2462     26.1897
  1169.1000      7.9611      2.0884     -0.0655     34.0369    103.9010     27.4018
  1169.2000      7.9611      2.0575     -0.0774     35.9109    103.4852     28.7861
  1169.3000      7.9617      2.0737     -0.0615     34.9246    105.0606     29.7428
  1169.4000      7.9617      2.1223      0.0338     31.9841    108.1900     30.2407
  1169.5000      7.9623      2.1879      0.0712     28.0041    110.3397     30.7248
  1169.6000      7.9623      2.2737      0.1708     22.8077    113.5843     30.9329
  1169.7000      7.9623      2.3820      0.2136     16.2440    115.5576     31.1014
  1169.8000      7.9621      2.4875      0.3094      9.8512    114.8963     31.5938
  1169.9000      7.9621      2.5433      0.3029      6.4673    113.5233     31.7824
  1170.0000      7.9622      2.5457      0.1505      6.3182    112.2779     31.2858
  1170.1000      7.9622      2.5456      0.0190      6.3280    113.6697     30.0598
