~Version Information
VERS.                      2.0: CWLS Log ASCII Standard - VERSION 2.0
WRAP.                       NO: One line per depth step
~Well Information Block
STRT.FT               240.0000: 
STOP.FT               902.0000: 
STEP.FT                 0.1000: 
NULL.                -999.2500: 
COMP.          Pioneer Natural Resources: COMPANY
WELL.          Bienville 31-28: WELL
FLD.           Purgatoire River: FIELD
LOC.           1212' FNL & 2271' FEL: LOCATION
PROV.                 Colorado: PROVINCE
CNTY.               Las Animas: COUNTRY
SRVC.                Patterson: SERVICE COMPANY
DATE.          Mon Jan 16 13:39:21 2006: LOG DATE
UWI.           05 071 08666 00: UNIQUE WELL ID
~Curve Information Block
DEPT.FT            0 000 00 00: Depth
DCAL.in                       : CDL Caliper
RHOB.g/cc                     : CDL Bulk Density
RHOC.g/cc                     : CDL Density Correction
DPOR.pu                       : CDL Density Porosity
GR.GAPI                       : Gamma Ray
NPOR.pu                       : Neutron Porosity
~Parameter Information Block
~A  Depth       DCAL        RHOB        RHOC        DPOR         GR         NPOR    
# ...
   364.8000      7.8508      2.5626      0.0511      5.2941    131.4846     26.7100
   364.9000      7.8508      2.5576      0.0362      5.5999    129.1532     27.2817
   365.0000      7.8790      2.5620      0.0520      5.3308    133.5733     27.2721
   365.1000      7.8790      2.5803      0.0766      4.2264    138.5789     27.0557
   365.2000      7.8790      2.6001      0.1185      3.0259    140.6102     27.0380
   365.3000      7.8995      2.6144      0.1343      2.1597    142.4085     27.2315
   365.4000      7.8995      2.6343      0.0958      0.9503    143.8368     27.5261
   365.5000      7.8935      2.6680      0.1440     -1.0885    144.1801     27.5770
   365.6000      7.8935      2.6994      0.2016     -2.9930    149.0912     27.4175
   365.7000      7.8935      2.7191      0.1917     -4.1866    161.4674     27.6985
   365.8000      7.8966      2.7346      0.1674     -5.1289    171.5337     28.4182
   365.9000      7.8966      2.7414      0.1789     -5.5384    169.4450     28.7622
   366.0000      7.8743      2.7279      0.1160     -4.7212    159.6879     28.4508
   366.1000      7.8743      2.7003      0.0521     -3.0508    151.9883     28.0233
   366.2000      7.8743      2.6717      0.0390     -1.3131    147.7900     27.9235
   366.3000      7.9344      2.6415     -0.0035      0.5148    142.6929     28.2311
   366.4000      7.9344      2.6108     -0.0194      2.3778    136.9441     28.5724
   366.5000      7.9356      2.5946     -0.0139      3.3579    134.9998     28.3286
   366.6000      7.9356      2.6012      0.0148      2.9557    136.3513     27.4148
   366.7000      7.9356      2.6162      0.0526      2.0482    137.4442     26.3966
   366.8000      7.9086      2.6197      0.0763      1.8375    138.1274     25.7520
   366.9000      7.9086      2.6138      0.0456      2.1914    141.2523     25.6143
   367.0000      7.8830      2.6094      0.0483      2.4577    144.5767     25.9039
   367.1000      7.8830      2.6011      0.0444      2.9633    142.8327     26.0779
   367.2000      7.8830      2.5849      0.0476      3.9461    136.6277     25.6464
   367.3000      7.8744      2.5740     -0.0200      4.6037    130.1526     24.9640
   367.4000      7.8744      2.5806      0.0634      4.2033    127.8824     24.7912
   367.5000      7.8760      2.6023      0.0552      2.8897    130.8933     25.2686
   367.6000      7.8760      2.6235      0.1522      1.6088    137.3101     25.8520
   367.7000      7.8760      2.6185      0.1067      1.9091    144.4063     26.1532
   367.8000      7.8833      2.5881      0.0104      3.7510    150.7912     26.3210
   367.9000      7.8833      2.5592      0.0622      5.5037    157.8705     26.4581
   368.0000      7.8647      2.5357      0.0692      6.9251    165.5045     26.2746
   368.1000      7.8647      2.5105      0.0350      8.4526    172.4593     25.6574
   368.2000      7.8647      2.4933      0.0001      9.4946    176.4381     24.7579
   368.3000      7.9029      2.4915      0.0097      9.6031    173.3268     23.9214
   368.4000      7.9029      2.4986     -0.0160      9.1731    163.4850     23.5751
   368.5000      7.9323      2.5047      0.0360      8.8044    156.3152     23.6551
   368.6000      7.9323      2.4980      0.0631      9.2146    160.2909     23.6921
   368.7000      7.9323      2.4776      0.0228     10.4489    169.8952     23.2660
   368.8000      7.9168      2.4596      0.0187     11.5420    176.1873     22.4721
   368.9000      7.9168      2.4491      0.0501     12.1774    182.5768     21.7404
   369.0000      7.9078      2.4287      0.0713     13.4144    192.1394     21.3270
   369.1000      7.9078      2.3820      0.0207     16.2411    196.7179     21.0210
   369.2000      7.9078      2.3138     -0.0042     20.3766    193.2323     20.6101
   369.3000      7.9623      2.2340      0.0382     25.2147    186.2494     20.4740
   369.4000      7.9623      2.1575     -0.0530     29.8501    176.4878     20.8147
   369.5000      8.0265      2.1093     -0.0273     32.7678    165.2321     21.5167
   369.6000      8.0265      2.0998     -0.0041     33.3470    156.6440     22.3868
   369.7000      8.0265      2.1247      0.0734     31.8389    155.4181     23.3455
   369.8000      8.0192      2.1752      0.1657     28.7759    160.1719     24.5571
   369.9000      8.0192      2.2359      0.2158     25.0991    159.9868     25.7481
   370.0000      8.0409      2.3012      0.1985     21.1369    147.9143     26.4903
   370.1000      8.0409      2.3805      0.2250     16.3338    133.2300     26.9023
   370.2000      8.0409      2.4687      0.2476     10.9876    128.1276     27.2579
   370.3000      8.0332      2.5375      0.2204      6.8154    128.6772     27.7701
   370.4000      8.0332      2.5654      0.1492      5.1284    123.1306     28.3825
   370.5000      8.0401      2.5642      0.1000      5.2014    111.0169     28.5283
   370.6000      8.0401      2.5677      0.0543      4.9872     99.1136     28.0020
   370.7000      8.0401      2.5924      0.1146      3.4916     91.7489     27.4640
   370.8000      7.9613      2.6192      0.1300      1.8667     89.6182     27.4575
   370.9000      7.9613      2.6311      0.0548      1.1454     89.9622     27.6052
   371.0000      7.8838      2.6301      0.0664      1.2045     90.0391     27.2552
   371.1000      7.8838      2.6158      0.0270      2.0731     91.4039     26.3494
   371.2000      7.8838      2.5874      0.0054      3.7967     93.7354     25.2467
   371.3000      7.8788      2.5532     -0.0501      5.8670     94.6149     24.2723
   371.4000      7.8788      2.5219     -0.0085      7.7631     96.7299     23.5299
   371.5000      7.8861      2.4963     -0.1025      9.3176    101.7836     22.9214
   371.6000      7.8861      2.4759     -0.0314     10.5513    106.0194     22.3980
   371.7000      7.8861      2.4627     -0.0600     11.3500    107.6599     22.1003
   371.8000      7.8992      2.4615     -0.0260     11.4234    107.0613     22.0656
   371.9000      7.8992      2.4669      0.0236     11.0944    103.4821     22.1844
   372.0000      7.8790      2.4764      0.0031     10.5228     98.1829     22.5066
   372.1000      7.8790      2.4949      0.0382      9.4011     97.0569     23.0601
   372.2000      7.8790      2.5162      0.0941      8.1111    104.9420     23.5400
   372.3000      7.8558      2.5353      0.1129      6.9534    120.3724     23.7447
   372.4000      7.8558      2.5574      0.1769      5.6124    135.9309     23.8208
   372.5000      7.8543      2.5804      0.2234      4.2173    144.9159     24.0588
   372.6000      7.8543      2.5941      0.2306      3.3876    149.7428     24.8736
   372.7000      7.8543      2.5868      0.2126      3.8298    155.9360     26.0988
   372.8000      7.8506      2.5564      0.1722      5.6737    167.7300     27.0364
   372.9000      7.8506      2.5216      0.0945      7.7824    183.0264     27.5048
   373.0000      7.8537      2.5074      0.0962      8.6430    192.7821     27.9128
   373.1000      7.8537      2.5199      0.0519      7.8860    193.1532     28.3794
   373.2000      7.8537      2.5489      0.0819      6.1292    185.9136     28.5339
   373.3000      7.9570      2.5798      0.0912      4.2520    176.1654     28.1772
   373.4000      7.9570      2.5980      0.1310      3.1512    170.0680     27.6289
   373.5000      8.0258      2.5939      0.1244      3.4016    166.8655     27.3104
   373.6000      8.0258      2.5647      0.1087      5.1718    164.3557     27.1778
   373.7000      8.0258      2.5164      0.0724      8.0991    163.1257     26.9657
   373.8000      8.0236      2.4665      0.0059     11.1201    162.1000     26.8585
   373.9000      8.0236      2.4321      0.0379     13.2057    159.4453     27.0019
   374.0000      8.0076      2.4191      0.0151     13.9927    155.2834     26.9381
   374.1000      8.0076      2.4308      0.0498     13.2873    151.5435     26.4931
   374.2000      8.0076      2.4729     -0.0004     10.7347    150.5497     25.9660
   374.3000      7.8899      2.5434      0.1254      6.4628    150.4617     25.4911
