~Version Information
VERS.                      2.0: CWLS Log ASCII Standard - VERSION 2.0
WRAP.                       NO: One line per depth step
~Well Information Block
STRT.FT               370.0000: 
STOP.FT              1259.0000: 
STEP.FT                 0.1000: 
NULL.                -999.2500: 
COMP.          Pioneer Natural Resources: COMPANY
WELL.           Tennis 7-12 Tr: WELL
FLD.           Purgatoire River: FIELD
LOC.           1794' FNL & 1563' FEL: LOCATION
PROV.                 Colorado: PROVINCE
CNTY.               Las Animas: COUNTRY
SRVC.                Patterson: SERVICE COMPANY
DATE.          Tue Dec 20 13:35:40 2005: LOG DATE
UWI.           05 071 08635 00: UNIQUE WELL ID
~Curve Information Block
DEPT.FT            0 000 00 00: Depth
DCAL.in                       : CDL Caliper
RHOB.g/cc                     : CDL Bulk Density
RHOC.g/cc                     : CDL Density Correction
DPOR.pu                       : CDL Density Porosity
GR.GAPI                       : Gamma Ray
~Parameter Information Block
~A  Depth       DCAL        RHOB        RHOC        DPOR         GR     
# ...
   952.4000      7.7941      2.4142      0.0367     14.2929     44.2855
   952.5000      7.7942      2.4017      0.0544     15.0495     46.3855
   952.6000      7.7942      2.3947      0.0420     15.4751     47.1616
   952.7000      7.7942      2.4031      0.0761     14.9639     43.0208
   952.8000      7.7945      2.4216      0.0963     13.8432     36.6976
   952.9000      7.7945      2.4325      0.1129     13.1824     33.5599
   953.0000      7.7941      2.4296      0.0659     13.3586     33.8781
   953.1000      7.7941      2.4290      0.0669     13.3924     35.9838
   953.2000      7.7941      2.4419      0.0809     12.6098     39.6224
   953.3000      7.7932      2.4618      0.0941     11.4043     42.1912
   953.4000      7.7932      2.4769      0.1253     10.4939     41.9836
   953.5000      7.7918      2.4764      0.0686     10.5184     42.6882
   953.6000      7.7918      2.4588      0.0741     11.5892     45.2425
   953.7000      7.7918      2.4376      0.0201     12.8727     45.0111
   953.8000      7.7909      2.4289      0.0424     13.4016     41.5561
   953.9000      7.7909      2.4295      0.0305     13.3633     38.7253
   954.0000      7.7917      2.4304      0.0303     13.3109     37.1281
   954.1000      7.7917      2.4315      0.0308     13.2401     34.2199
   954.2000      7.7917      2.4387      0.0389     12.8039     30.5130
   954.3000      7.7909      2.4575      0.0524     11.6651     28.9343
   954.4000      7.7909      2.4828      0.0689     10.1361     29.3859
   954.5000      7.7892      2.4978      0.1154      9.2248     30.7955
   954.6000      7.7892      2.4934      0.0510      9.4939     31.9692
   954.7000      7.7892      2.4819      0.0286     10.1891     31.4891
   954.8000      7.7907      2.4711      0.0845     10.8411     29.9772
   954.9000      7.7907      2.4547      0.0070     11.8384     29.9599
   955.0000      7.7925      2.4381     -0.0060     12.8446     32.8864
   955.1000      7.7925      2.4317      0.0087     13.2289     36.9305
   955.2000      7.7925      2.4351      0.0190     13.0226     38.7329
   955.3000      7.7929      2.4374      0.0716     12.8866     36.5699
   955.4000      7.7929      2.4302      0.0355     13.3196     31.8155
   955.5000      7.7935      2.4197      0.0377     13.9588     27.9947
   955.6000      7.7935      2.4117      0.0234     14.4453     27.2026
   955.7000      7.7935      2.4064      0.0424     14.7639     28.4511
   955.8000      7.7936      2.4059      0.0254     14.7932     30.0303
   955.9000      7.7936      2.4118      0.0335     14.4376     31.6990
   956.0000      7.7930      2.4198      0.0109     13.9517     32.3579
   956.1000      7.7930      2.4199      0.0236     13.9441     31.0170
   956.2000      7.7930      2.4031      0.0139     14.9613     29.3897
   956.3000      7.7923      2.3782     -0.0483     16.4715     29.2838
   956.4000      7.7923      2.3663     -0.0121     17.1929     30.3579
   956.5000      7.7925      2.3706      0.0231     16.9335     31.1992
   956.6000      7.7925      2.3771      0.0015     16.5377     31.0976
   956.7000      7.7925      2.3763      0.0496     16.5900     31.2475
   956.8000      7.7930      2.3734     -0.0024     16.7621     31.8864
   956.9000      7.7930      2.3822      0.0148     16.2278     32.5778
   957.0000      7.7938      2.3981      0.0438     15.2666     34.6113
   957.1000      7.7938      2.4021      0.0489     15.0250     36.9389
   957.2000      7.7938      2.3897      0.0543     15.7761     36.6631
   957.3000      7.7945      2.3745      0.0087     16.6992     34.7052
   957.4000      7.7945      2.3668      0.0338     17.1619     33.4938
   957.5000      7.7946      2.3654      0.0157     17.2471     34.6458
   957.6000      7.7946      2.3702      0.0360     16.9552     37.8450
   957.7000      7.7946      2.3796      0.0191     16.3866     38.3068
   957.8000      7.7941      2.3833      0.0311     16.1608     35.0932
   957.9000      7.7941      2.3785      0.0280     16.4568     32.7253
   958.0000      7.7936      2.3704      0.0329     16.9437     31.2533
   958.1000      7.7936      2.3598      0.0213     17.5899     28.4066
   958.2000      7.7936      2.3483      0.0145     18.2837     26.2134
   958.3000      7.7957      2.3409      0.0297     18.7304     26.1451
   958.4000      7.7957      2.3419      0.0265     18.6700     26.5086
   958.5000      7.7985      2.3540      0.0273     17.9384     26.4230
   958.6000      7.7985      2.3769      0.0409     16.5540     26.4349
   958.7000      7.7985      2.4091      0.0644     14.6021     27.5778
   958.8000      7.7965      2.4407      0.1082     12.6850     29.9098
   958.9000      7.7965      2.4596      0.1276     11.5364     32.2231
   959.0000      7.7933      2.4619      0.1602     11.3982     31.5616
   959.1000      7.7933      2.4481      0.1013     12.2354     28.3275
   959.2000      7.7933      2.4276      0.1234     13.4779     27.6934
   959.3000      7.7922      2.4106      0.1178     14.5070     30.0914
   959.4000      7.7922      2.4118      0.0436     14.4345     31.9549
   959.5000      7.7922      2.4440      0.0828     12.4872     32.7488
   959.6000      7.7922      2.4937      0.1128      9.4712     34.7785
   959.7000      7.7922      2.5361      0.1558      6.9001     37.2277
   959.8000      7.7922      2.5545      0.1805      5.7859     36.7428
   959.9000      7.7922      2.5471      0.1473      6.2370     34.1936
   960.0000      7.7919      2.5265      0.1315      7.4836     32.4153
   960.1000      7.7919      2.5058      0.1104      8.7395     32.7652
   960.2000      7.7919      2.4927      0.0734      9.5321     32.7909
   960.3000      7.7913      2.4915      0.0670      9.6065     28.9879
   960.4000      7.7913      2.4974      0.0439      9.2468     24.5709
   960.5000      7.7901      2.5064      0.0015      8.7042     25.6241
   960.6000      7.7901      2.5230      0.0195      7.6991     30.4612
   960.7000      7.7901      2.5449      0.0827      6.3679     33.1501
   960.8000      7.7896      2.5640      0.0554      5.2120     33.0513
   960.9000      7.7896      2.5780      0.0765      4.3650     33.1463
   961.0000      7.7898      2.5821      0.0934      4.1133     34.0559
   961.1000      7.7898      2.5767      0.0583      4.4434     34.3154
   961.2000      7.7898      2.5742      0.0447      4.5957     34.3897
   961.3000      7.7896      2.5870      0.0301      3.8212     34.2686
   961.4000      7.7896      2.6195      0.0584      1.8501     34.0198
   961.5000      7.7888      2.6620      0.0879     -0.7295     37.1898
   961.6000      7.7888      2.6956      0.1133     -2.7629     45.0326
   961.7000      7.7888      2.7190      0.0689     -4.1803     52.9443
   961.8000      7.7885      2.7427      0.1153     -5.6208     56.3786
   961.9000      7.7885      2.7584      0.1267     -6.5710     56.8511
   962.0000      7.7886      2.7514      0.1206     -6.1481     58.6406
   962.1000      7.7886      2.7203      0.1017     -4.2613     61.3767
   962.2000      7.7886      2.6733      0.0661     -1.4142     65.0206
   962.3000      7.7888      2.6209      0.0310      1.7628     71.8994
   962.4000      7.7888      2.5731      0.0129      4.6630     79.2421
   962.5000      7.7887      2.5369      0.0428      6.8519     84.0816
   962.6000      7.7887      2.5146      0.0253      8.2072     89.4648
   962.7000      7.7887      2.5058      0.0511      8.7384     98.1422
   962.8000      7.7857      2.5087      0.0569      8.5642    109.3651
   962.9000      7.7857      2.5168      0.0284      8.0700    119.8853
   963.0000      7.7737      2.5238      0.0903      7.6471    125.4231
   963.1000      7.7737      2.5378      0.0609      6.7978    126.3176
   963.2000      7.7737      2.5725      0.1442      4.6958    126.8145
   963.3000      7.7587      2.6206      0.1991      1.7830    131.4929
   963.4000      7.7587      2.6658      0.2396     -0.9574    138.7953
   963.5000      7.7596      2.6917      0.2898     -2.5267    142.4585
