~Version Information
VERS.                      2.0: CWLS Log ASCII Standard - VERSION 2.0
WRAP.                       NO: One line per depth step
~Well Information Block
STRT.FT               620.0000: 
STOP.FT              3067.2500: 
STEP.FT                 0.2500: 
NULL.                -999.2500: 
COMP.          Pioneer Natural Resources: COMPANY
WELL.          Interceptor 43-13 Kv: WELL
FLD.           Purgatoire River: FIELD
LOC.           2073' FSL & 519' FEL--: LOCATION
PROV.                 Colorado: PROVINCE
CNTY.               Las Animas: COUNTRY
SRVC.                Patterson: SERVICE COMPANY
DATE.          Sat Jan 14 19:35:17 2006: LOG DATE
UWI.           05 071 08655 00: UNIQUE WELL ID
~Curve Information Block
DEPT.FT            0 000 00 00: Depth
SN.Ohm-m                      : IEL Short Normal
SP.mV                         : IEL Spontaneous Potential
DIR.Ohm-m                     : IEL Induction Resistivity
GR.GAPI                       : Gamma Ray
~Parameter Information Block
~A  Depth        SN          SP         DIR          GR     
# ...
  1759.0000     33.5932    -90.7702     33.1917     81.8110
  1759.2500     33.3601    -91.0399     33.0629     84.7554
  1759.5000     33.1811    -91.3111     32.9739     87.3556
  1759.7500     33.0333    -91.5743     32.9407     87.4508
  1760.0000     32.8943    -91.8176     32.9782     85.4532
  1760.2500     32.7608    -92.0275     33.0927     83.4474
  1760.5000     32.6526    -92.1901     33.2713     80.9185
  1760.7500     32.6005    -92.2923     33.4756     80.0153
  1761.0000     32.6274    -92.3233     33.6509     79.6670
  1761.2500     32.7374    -92.2762     33.7517     79.7409
  1761.5000     32.9116    -92.1482     33.7665     79.8142
  1761.7500     33.1114    -91.9412     33.7223     79.6829
  1762.0000     33.2915    -91.6608     33.6648     79.0400
  1762.2500     33.4212    -91.3173     33.6310     78.2435
  1762.5000     33.5007    -90.9248     33.6369     76.5791
  1762.7500     33.5579    -90.5018     33.6820     75.3515
  1763.0000     33.6242    -90.0704     33.7564     73.6276
  1763.2500     33.7134    -89.6556     33.8379     72.5547
  1763.5000     33.8184    -89.2842     33.8838     70.9877
  1763.7500     33.9254    -88.9829     33.8377     70.1179
  1764.0000     34.0298    -88.7769     33.6573     69.4049
  1764.2500     34.1404    -88.6879     33.3484     69.1657
  1764.5000     34.2693    -88.7310     32.9728     68.2604
  1764.7500     34.4188    -88.9123     32.6221     66.9069
  1765.0000     34.5774    -89.2239     32.3721     64.0399
  1765.2500     34.7217    -89.6414     32.2495     62.1528
  1765.5000     34.8154    -90.1213     32.2257     60.3903
  1765.7500     34.8058    -90.6025     32.2365     60.2922
  1766.0000     34.6279    -91.0108     32.2095     61.7687
  1766.2500     34.2172    -91.2678     32.0828     63.6281
  1766.5000     33.5225    -91.3010     31.8089     67.6741
  1766.7500     32.5186    -91.0545     31.3523     71.4362
  1767.0000     31.2221    -90.4975     30.6881     78.6916
  1767.2500     29.7053    -89.6286     29.8082     83.9871
  1767.5000     28.0865    -88.4749     28.7308     91.0550
  1767.7500     26.4978    -87.0873     27.5056     94.8382
  1768.0000     25.0540    -85.5326     26.2052    100.4458
  1768.2500     23.8391    -83.8851     24.9076    105.5068
  1768.5000     22.9017    -82.2183     23.6779    116.1238
  1768.7500     22.2449    -80.5999     22.5608    124.2680
  1769.0000     21.8207    -79.0881     21.5825    134.7273
  1769.2500     21.5452    -77.7304     20.7585    138.9270
  1769.5000     21.3355    -76.5635     20.0998    140.7682
  1769.7500     21.1432    -75.6130     19.6156    140.1074
  1770.0000     20.9629    -74.8933     19.3113    138.3447
  1770.2500     20.8216    -74.4069     19.1868    136.9051
  1770.5000     20.7637    -74.1441     19.2361    132.6628
  1770.7500     20.8432    -74.0831     19.4506    127.0259
  1771.0000     21.1148    -74.1908     19.8219    113.6119
  1771.2500     21.6205    -74.4258     20.3373    102.5695
  1771.5000     22.3701    -74.7425     20.9718     86.3648
  1771.7500     23.3243    -75.0948     21.6792     77.4068
  1772.0000     24.3915    -75.4414     22.3924     67.7970
  1772.2500     25.4457    -75.7487     23.0308     63.8122
  1772.5000     26.3634    -75.9934     23.5048     60.3884
  1772.7500     27.0628    -76.1623     23.7082     58.8926
  1773.0000     27.5238    -76.2523     23.5094     56.7044
  1773.2500     27.7810    -76.2678     22.7782     55.3439
  1773.5000     27.8960    -76.2191     21.4728     54.3501
  1773.7500     27.9295    -76.1198     19.7300     54.6508
  1774.0000     27.9294    -75.9856     17.8535     55.8588
  1774.2500     27.9321    -75.8330     16.1919     56.4842
  1774.5000     27.9623    -75.6785     15.0477     56.5854
  1774.7500     28.0265    -75.5387     14.7329     56.2134
  1775.0000     28.1096    -75.4295     15.8692     55.2934
  1775.2500     28.1843    -75.3657     20.6730     54.4382
  1775.5000     28.2267    -75.3600     47.4436     52.8932
  1775.7500     28.2288    -75.4219 100000.0000     52.0677
  1776.0000     28.1992    -75.5576 100000.0000     52.0630
  1776.2500     28.1542    -75.7698 100000.0000     53.1258
  1776.5000     28.1068    -76.0591 100000.0000     55.7236
  1776.7500     28.0638    -76.4267 100000.0000     57.3713
  1777.0000     28.0289    -76.8766 100000.0000     58.6613
  1777.2500     28.0077    -77.4186 100000.0000     58.6868
  1777.5000     28.0089    -78.0695 100000.0000     58.3006
  1777.7500     28.0403    -78.8534 100000.0000     58.2516
  1778.0000     28.1018    -79.8008 100000.0000     58.5962
  1778.2500     28.1801    -80.9463 100000.0000     58.8748
  1778.5000     28.2503    -82.3266 100000.0000     59.1863
  1778.7500     28.2862    -83.9777 100000.0000     59.3983
  1779.0000     28.2673    -85.9324     24.1470     59.7327
  1779.2500     28.1740    -88.2183     11.4688     59.8306
  1779.5000     27.9742    -90.8550      8.2706     59.6150
  1779.7500     27.6186    -93.8515      7.6406     59.3382
  1780.0000     27.0553    -97.2029      9.5953     59.4475
  1780.2500     26.2537   -100.8882     29.0308     60.5532
  1780.5000     25.2194   -104.8744 100000.0000     64.7143
  1780.7500     23.9904   -109.1251 100000.0000     69.2116
  1781.0000     22.6127   -113.6211 100000.0000     77.9856
  1781.2500     21.1043   -118.3880 100000.0000     84.9480
  1781.5000     19.4341   -123.5273 100000.0000     97.1658
  1781.7500     17.5409   -129.2371 100000.0000    106.5659
  1782.0000     15.3983   -135.8075      2.0092    121.8314
  1782.2500     13.0871   -143.5802      0.5072    131.5728
  1782.5000     10.8059   -152.8714      0.1634    142.4518
  1782.7500      8.7888   -163.8712      0.0507    145.6339
  1783.0000      7.1799   -176.5510      0.0186    143.3680
  1783.2500      5.9718   -190.6093      0.0093    137.6256
  1783.5000      5.0659   -205.4822      0.0065    124.1147
  1783.7500      4.3987   -220.4240      0.0062    112.8462
  1784.0000      4.0264   -234.6365      0.0079     94.9542
  1784.2500      4.1136   -247.4124      0.0129     84.0808
  1784.5000      4.8362   -258.2513      0.0259     71.5943
  1784.7500      6.2200   -266.9143      0.0583     66.1505
  1785.0000      7.9891   -273.4125      0.1297     61.3922
  1785.2500      9.5891   -277.9386      0.2456     59.6791
  1785.5000     10.4719   -280.7681      0.3567     58.4293
  1785.7500     10.4338   -282.1569      0.3682     58.4900
  1786.0000      9.6733   -282.2594      0.2709     60.4669
  1786.2500      8.5396   -281.0801      0.1559     63.2844
  1786.5000      7.2769   -278.4637      0.0785     69.6025
  1786.7500      5.9982   -274.1283      0.0390     74.7365
  1787.0000      4.8023   -267.7359      0.0209     82.4419
  1787.2500      3.8355   -258.9901      0.0126     86.7987
  1787.5000      3.2495   -247.7407      0.0088     91.9705
  1787.7500      3.1506   -234.0703      0.0073     95.1691
  1788.0000      3.5922   -218.3363      0.0074    100.5926
  1788.2500      4.5679   -201.1516      0.0100    104.3603
  1788.5000      5.9720   -183.3051      0.0183    108.7746
  1788.7500      7.5808   -165.6426      0.0466    110.3068
  1789.0000      9.1175   -148.9409      0.1461    110.7121
  1789.2500     10.3669   -133.8065      0.4567    110.2697
  1789.5000     11.2485   -120.6193      1.7644    109.4625
  1789.7500     11.8017   -109.5281 100000.0000    109.2853
  1790.0000     12.1247   -100.4852 100000.0000    110.3027
  1790.2500     12.3198    -93.3037 100000.0000    112.0791
  1790.5000     12.4699    -87.7199 100000.0000    115.9919
  1790.7500     12.6372    -83.4485 100000.0000    118.7599
  1791.0000     12.8704    -80.2217 100000.0000    122.0511
  1791.2500     13.2087    -77.8113 100000.0000    123.3870
  1791.5000     13.6784    -76.0343     19.3403    124.0515
  1791.7500     14.2803    -74.7454      9.6975    123.6119
  1792.0000     14.9758    -73.8220      9.4561    121.6461
  1792.2500     15.6822    -73.1483     13.8296    119.3826
