~Version Information
VERS.                      2.0: CWLS Log ASCII Standard - VERSION 2.0
WRAP.                       NO: One line per depth step
~Well Information Block
STRT.FT                -7.7500: 
STOP.FT              1793.5000: 
STEP.FT                 0.2500: 
NULL.                -999.2500: 
COMP.          Pioneer Natural Resources: COMPANY
WELL.           Loews 41-32 Tr: WELL
FLD.           Purgatorie River: FIELD
LOC.           706' FNL & 224' FEL--: LOCATION
CNTY.               Las Animas: COUNTY
SRVC.          Patterson Wireline: SERVICE COMPANY
DATE.          Fri Feb 24 11:31:48 2006: LOG DATE
UWI.           05 071 08690 00: UNIQUE WELL ID
STAT.                       CO: STATE
~Curve Information Block
DEPT.FT            0 000 00 00: Depth
CCL.                          : Casing Collar Locator
TT3.usec                      : CBL 3' Travel Time
AMP3.mV                       : CBL 3' Amplitude
GR.GAPI                       : Gamma Ray
~Parameter Information Block
~A  Depth       CCL         TT3         AMP3         GR     
# ...
  1064.2500      0.0000    735.9479     12.1557     57.9330
  1064.5000      0.0000    678.5803     12.4065     57.4197
  1064.7500      0.0000    620.6870     12.5973     56.8833
  1065.0000      0.0000    581.7272     12.7055     56.3368
  1065.2500      0.0000    576.1146     12.7233     55.4181
  1065.5000      0.0000    603.5131     12.6706     53.8851
  1065.7500      0.0000    649.1752     12.5906     52.3739
  1066.0000      0.0000    693.8124     12.5285     52.2427
  1066.2500      0.0000    724.6067     12.5139     54.2873
  1066.5000      0.0000    739.0763     12.5592     57.8888
  1066.7500      0.0000    740.9869     12.6706     61.6921
  1067.0000      0.0000    733.8380     12.8606     64.7578
  1067.2500      0.0000    718.0255     13.1515     66.8458
  1067.5000      0.0000    693.7923     13.5686     68.0550
  1067.7500      0.0000    665.1345     14.1253     68.7003
  1068.0000      0.0000    637.2991     14.8105     69.4781
  1068.2500      0.0000    609.2598     15.5883     71.3118
  1068.5000      0.0000    572.6467     16.4069     74.7447
  1068.7500      0.0000    521.3743     17.2161     79.4491
  1069.0000      0.0000    460.1981     17.9800     84.4767
  1069.2500      0.0000    401.8339     18.6781     89.0102
  1069.5000      0.0000    357.3939     19.2876     92.6488
  1069.7500      0.0000    330.5582     19.7708     94.9400
  1070.0000      0.0000    319.0748     20.0932     95.1283
  1070.2500      0.0000    319.9377     20.2612     92.7857
  1070.5000      0.0000    332.8604     20.3329     88.5912
  1070.7500      0.0000    358.4224     20.3807     84.2885
  1071.0000      0.0000    391.6927     20.4433     81.8791
  1071.2500      0.0000    418.8154     20.5149     82.7360
  1071.5000      0.0000    424.3859     20.5705     87.1118
  1071.7500      0.0000    404.8033     20.5922     94.3242
  1072.0000      0.0000    371.9145     20.5757    103.4602
  1072.2500      0.0000    341.9387     20.5265    113.7822
  1072.5000      0.0000    323.2131     20.4564    124.3199
  1072.7500      0.0000    314.6830     20.3834    133.5275
  1073.0000      0.0000    311.7620     20.3312    139.8696
  1073.2500      0.0000    310.9559     20.3254    142.6050
  1073.5000      0.0000    310.6975     20.3818    141.8267
  1073.7500      0.0000    310.5072     20.4975    138.1650
  1074.0000      0.0000    310.2762     20.6578    132.9168
  1074.2500      0.0000    309.9729     20.8519    128.1822
  1074.5000      0.0000    309.6088     21.0769    125.9081
  1074.7500      0.0000    309.2188     21.3262    126.0771
  1075.0000      0.0000    308.8522     21.5783    126.3545
  1075.2500      0.0000    308.5612     21.7967    124.5883
  1075.5000      0.0000    308.4153     21.9446    121.4346
  1075.7500      0.0000    308.6338     21.9971    119.6442
  1076.0000      0.0000    309.9343     21.9437    121.1341
  1076.2500      0.0000    314.0856     21.7833    125.5765
  1076.5000      0.0000    324.1398     21.5246    131.2064
  1076.7500      0.0000    343.2235     21.1942    135.9525
  1077.0000      0.0000    371.6185     20.8434    138.1703
  1077.2500      0.0000    404.4614     20.5399    137.3884
  1077.5000      0.0000    433.2088     20.3427    134.6185
  1077.7500      0.0000    450.3620     20.2791    131.5775
  1078.0000      0.0000    453.0143     20.3395    129.4053
  1078.2500      0.0000    442.4709     20.4875    128.1329
  1078.5000      0.0000    422.0835     20.6731    127.4129
  1078.7500      0.0000    396.4870     20.8447    127.3997
  1079.0000      0.0000    371.6383     20.9623    128.4620
  1079.2500      0.0000    352.8691     21.0084    130.2796
  1079.5000      0.0000    341.6451     20.9926    131.7833
  1079.7500      0.0000    335.1118     20.9454    132.1033
  1080.0000      0.0000    329.4325     20.9026    131.4520
  1080.2500      0.0000    323.1002     20.8914    131.0404
  1080.5000      0.0000    317.0414     20.9233    131.9019
  1080.7500      0.0000    312.5849     20.9976    133.6328
  1081.0000      0.0000    310.0526     21.1091    134.6462
  1081.2500      0.0000    308.8937     21.2503    133.8923
  1081.5000      0.0000    308.4185     21.4054    131.8773
  1081.7500      0.0000    308.2074     21.5496    129.7282
  1082.0000      0.0000    308.0928     21.6588    127.7997
  1082.2500      0.0000    308.0209     21.7227    125.4929
  1082.5000      0.0000    307.9698     21.7492    122.1809
  1082.7500      0.0000    307.9347     21.7593    118.2181
  1083.0000      0.0000    307.9467     21.7719    115.0706
  1083.2500      0.0000    308.1731     21.7842    114.2166
  1083.5000      0.0000    309.1031     21.7664    115.6332
  1083.7500      0.0000    311.7179     21.6805    117.3521
  1084.0000      0.0000    317.1208     21.5091    116.7932
  1084.2500      0.0000    325.1707     21.2698    113.0006
  1084.5000      0.0000    333.1377     21.0034    107.8571
  1084.7500      0.0000    336.7676     20.7513    104.9511
  1085.0000      0.0000    333.8737     20.5361    106.8883
  1085.2500      0.0000    326.4932     20.3616    113.5325
  1085.5000      0.0000    318.8111     20.2299    122.6068
  1085.7500      0.0000    313.6108     20.1569    131.5132
  1086.0000      0.0000    311.4042     20.1599    138.3921
  1086.2500      0.0000    312.1864     20.2298    141.8729
  1086.5000      0.0000    317.3676     20.3170    140.6921
  1086.7500      0.0000    329.9729     20.3324    134.2178
  1087.0000      0.0000    352.5194     20.1530    123.2981
  1087.2500      0.0000    383.9162     19.6459    110.3228
  1087.5000      0.0000    418.4828     18.7715     98.4066
  1087.7500      0.0000    448.6520     17.7179     90.4270
  1088.0000      0.0000    470.1255     16.8444     88.3089
  1088.2500      0.0000    487.0197     16.3652     92.3009
  1088.5000      0.0000    511.5770     16.1407    100.4573
  1088.7500      0.0000    553.1933     15.9054    109.3092
  1089.0000      0.0000    605.3735     15.6119    115.6949
  1089.2500      0.0000    648.0030     15.4120    118.1728
  1089.5000      0.0000    665.0176     15.3974    117.1053
  1089.7500      2.0000    656.5073     15.5202    114.2318
  1090.0000     -2.0000    632.3333     15.7303    112.1543
  1090.2500      0.0000    598.5194     16.1059    113.2101
  1090.5000      0.0000    554.7972     16.8260    118.0124
  1090.7500      0.0000    504.6988     17.9656    124.9587
  1091.0000      0.0000    461.1305     19.2831    131.4285
  1091.2500      0.0000    435.9986     20.3318    135.7917
  1091.5000      0.0000    426.2906     20.9030    138.4069
  1091.7500      0.0000    416.3487     21.2368    140.6762
  1092.0000      0.0000    394.7533     21.6785    143.2654
  1092.2500      0.0000    364.7847     22.2732    145.4582
  1092.5000      0.0000    337.7617     22.8089    146.1958
  1092.7500      0.0000    321.2486     23.1089    145.3999
  1093.0000      0.0000    316.2803     23.1631    143.9615
  1093.2500      0.0000    322.3649     23.0584    142.4222
  1093.5000      0.0000    340.7940     22.8758    140.2548
  1093.7500      0.0000    370.9987     22.6554    137.0771
  1094.0000      0.0000    404.0922     22.4213    134.1196
  1094.2500      0.0000    423.7562     22.2226    133.4657
  1094.5000      0.0000    418.1480     22.1285    135.5687
  1094.7500      0.0000    390.8872     22.1798    138.1072
  1095.0000      0.0000    357.3705     22.3520    137.8101
  1095.2500      0.0000    331.2465     22.5687    133.4557
  1095.5000      0.0000    316.5444     22.7498    126.8682
  1095.7500      0.0000    310.2893     22.8495    120.9960
  1096.0000      0.0000    308.3531     22.8575    117.4599
  1096.2500      0.0000    308.3710     22.7741    116.1035
  1096.5000      0.0000    309.5794     22.5967    116.1431
  1096.7500      0.0000    311.6336     22.3337    116.9100
  1097.0000      0.0000    313.7173     22.0233    117.7192
  1097.2500      0.0000    314.6880     21.7254    117.9200
  1097.5000      0.0000    313.9849     21.4915    117.3862
