~Version Information
VERS.                      2.0: CWLS Log ASCII Standard - VERSION 2.0
WRAP.                       NO: One line per depth step
~Well Information Block
STRT.FT               240.0000: 
STOP.FT               902.0000: 
STEP.FT                 0.1000: 
NULL.                -999.2500: 
COMP.          Pioneer Natural Resources: COMPANY
WELL.          Bienville 31-28: WELL
FLD.           Purgatoire River: FIELD
LOC.           1212' FNL & 2271' FEL: LOCATION
PROV.                 Colorado: PROVINCE
CNTY.               Las Animas: COUNTRY
SRVC.                Patterson: SERVICE COMPANY
DATE.          Mon Jan 16 13:39:21 2006: LOG DATE
UWI.           05 071 08666 00: UNIQUE WELL ID
~Curve Information Block
DEPT.FT            0 000 00 00: Depth
DCAL.in                       : CDL Caliper
RHOB.g/cc                     : CDL Bulk Density
RHOC.g/cc                     : CDL Density Correction
DPOR.pu                       : CDL Density Porosity
GR.GAPI                       : Gamma Ray
NPOR.pu                       : Neutron Porosity
~Parameter Information Block
~A  Depth       DCAL        RHOB        RHOC        DPOR         GR         NPOR    
# ...
   883.2000      7.8604      2.5344      0.0400      7.0070     75.5819     24.1857
   883.3000      7.8467      2.5318      0.0042      7.1642     85.0999     24.1071
   883.4000      7.8467      2.5352      0.0333      6.9559     92.2718     24.4877
   883.5000      7.8104      2.5545     -0.0023      5.7859     88.9312     25.0453
   883.6000      7.8104      2.5839      0.1124      4.0089     67.6076     25.5462
   883.7000      7.8104      2.6047      0.1270      2.7467     35.1713     25.7826
   883.8000      7.8036      2.6059      0.1373      2.6745     11.2261     25.6404
   883.9000      7.8036      2.5872      0.1394      3.8055      2.0549     25.1763
   884.0000      7.8002      2.5601      0.0759      5.4484      0.2074     24.5385
   884.1000      7.8002      2.5405      0.0849      6.6337      0.0110     23.4940
   884.2000      7.8002      2.5325      0.0782      7.1202      0.0000     21.4798
   884.3000      7.7706      2.5294      0.0814      7.3077   -999.2500     18.6845
   884.4000      7.7706      2.5264      0.0692      7.4934   -999.2500     16.3632
   884.5000      7.7712      2.5306      0.0186      7.2352   -999.2500     15.8383
   884.6000      7.7712      2.5463      0.0805      6.2827   -999.2500     17.6498
   884.7000      7.7712      2.5641      0.0653      5.2068   -999.2500     21.2639
   884.8000      7.8052      2.5783      0.1067      4.3451   -999.2500     25.5160
   884.9000      7.8052      2.5882      0.0863      3.7439   -999.2500     29.9339
   885.0000      7.8092      2.5915      0.1115      3.5438   -999.2500     34.4940
   885.1000      7.8092      2.5875      0.0618      3.7905   -999.2500     38.5332
   885.2000      7.8092      2.5778      0.0987      4.3756   -999.2500     41.7054
   885.3000      7.7882      2.5599      0.0844      5.4635   -999.2500     44.3952
   885.4000      7.7882      2.5336      0.0518      7.0556   -999.2500     46.7250
   885.5000      7.8267      2.5113      0.0412      8.4073   -999.2500     48.5492
   885.6000      7.8267      2.5125      0.0041      8.3358   -999.2500     49.9293
   885.7000      7.8267      2.5391      0.0777      6.7206   -999.2500     50.9589
   885.8000      7.8407      2.5546      0.1164      5.7836   -999.2500     51.5450
   885.9000      7.8407      2.5258      0.0492      7.5290   -999.2500     51.6272
   886.0000      7.8242      2.4760      0.0110     10.5445   -999.2500     51.4095
   886.1000      7.8242      2.4481      0.0439     12.2339   -999.2500     51.2579
   886.2000      7.8242      2.4439      0.0865     12.4909   -999.2500     51.4588
   886.3000      7.8276      2.4423      0.1166     12.5857   -999.2500     51.9999
   886.4000      7.8276      2.4502      0.0377     12.1086   -999.2500     52.6462
   886.5000      7.8144      2.4863      0.1030      9.9186   -999.2500     53.1260
   886.6000      7.8144      2.5431      0.1419      6.4786   -999.2500     53.2303
   886.7000      7.8144      2.6015      0.1932      2.9366   -999.2500     52.9828
   886.8000      7.7679      2.6510      0.2314     -0.0585   -999.2500     52.6006
   886.9000      7.7679      2.6858      0.2568     -2.1720   -999.2500     52.2353
   887.0000      7.7668      2.7014      0.2761     -3.1126   -999.2500     52.0496
   887.1000      7.7668      2.6973      0.2213     -2.8648   -999.2500     52.4516
   887.2000      7.7668      2.6832      0.1832     -2.0146   -999.2500     53.9423
   887.3000      7.7916      2.6646      0.1955     -0.8874   -999.2500     56.0838
   887.4000      7.7916      2.6349      0.1648      0.9139   -999.2500     57.6079
   887.5000      7.7784      2.5995      0.0620      3.0589   -999.2500     58.1796
   887.6000      7.7784      2.5781      0.0297      4.3548   -999.2500     58.2947
   887.7000      7.7784      2.5736      0.0616      4.6302   -999.2500     58.3070
   887.8000      7.8044      2.5751      0.0493      4.5364   -999.2500     58.3076
   887.9000      7.8044      2.5765      0.0669      4.4540   -999.2500   -999.2500
   888.0000      7.8060      2.5693      0.0902      4.8935   -999.2500   -999.2500
   888.1000      7.8060      2.5578      0.0076      5.5866   -999.2500   -999.2500
   888.2000      7.8060      2.5597      0.0775      5.4712   -999.2500   -999.2500
   888.3000      7.8105      2.5631      0.1176      5.2662   -999.2500   -999.2500
   888.4000      7.8105      2.5446      0.0841      6.3887   -999.2500   -999.2500
   888.5000      7.8033      2.5152      0.0340      8.1717   -999.2500   -999.2500
   888.6000      7.8033      2.4966      0.0454      9.2972   -999.2500   -999.2500
   888.7000      7.8033      2.4891      0.0519      9.7542   -999.2500   -999.2500
   888.8000      7.7896      2.4855      0.0598      9.9687   -999.2500   -999.2500
   888.9000      7.7896      2.4839      0.0551     10.0683   -999.2500   -999.2500
   889.0000      7.7733      2.4853      0.0624      9.9824   -999.2500   -999.2500
   889.1000      7.7733      2.4875      0.1102      9.8459   -999.2500   -999.2500
   889.2000      7.7733      2.4880      0.0457      9.8202   -999.2500   -999.2500
   889.3000      7.8285      2.4901      0.0662      9.6933   -999.2500   -999.2500
   889.4000      7.8285      2.4958      0.1049      9.3431   -999.2500   -999.2500
   889.5000      7.8218      2.5090      0.0704      8.5443   -999.2500   -999.2500
   889.6000      7.8218      2.5321      0.0766      7.1481   -999.2500   -999.2500
   889.7000      7.8218      2.5464      0.1284      6.2773   -999.2500   -999.2500
   889.8000      7.7958      2.5338      0.0949      7.0416   -999.2500   -999.2500
   889.9000      7.7958      2.5070      0.0723      8.6642   -999.2500   -999.2500
   890.0000      7.8143      2.4866      0.0586      9.9011   -999.2500   -999.2500
   890.1000      7.8143      2.4728      0.0699     10.7402   -999.2500   -999.2500
   890.2000      7.8143      2.4613      0.0383     11.4373   -999.2500   -999.2500
   890.3000      7.8194      2.4614      0.0116     11.4294   -999.2500   -999.2500
   890.4000      7.8194      2.4747      0.0485     10.6260   -999.2500   -999.2500
   890.5000      7.8327      2.4827      0.0474     10.1419   -999.2500   -999.2500
   890.6000      7.8327      2.4795      0.0008     10.3315   -999.2500   -999.2500
   890.7000      7.8327      2.4856      0.0246      9.9620   -999.2500   -999.2500
   890.8000      7.8367      2.5137      0.0557      8.2585   -999.2500   -999.2500
   890.9000      7.8367      2.5471      0.0949      6.2388   -999.2500   -999.2500
   891.0000      7.8068      2.5610      0.1000      5.3933   -999.2500   -999.2500
   891.1000      7.8068      2.5519      0.0671      5.9463   -999.2500   -999.2500
   891.2000      7.8068      2.5379      0.0488      6.7933   -999.2500   -999.2500
   891.3000      7.7827      2.5462      0.0289      6.2894   -999.2500   -999.2500
   891.4000      7.7827      2.5851      0.0860      3.9328   -999.2500   -999.2500
   891.5000      7.7706      2.6231      0.1378      1.6314   -999.2500   -999.2500
   891.6000      7.7706      2.6291      0.1276      1.2642   -999.2500   -999.2500
   891.7000      7.7706      2.6154      0.0465      2.0961   -999.2500   -999.2500
   891.8000      7.8112      2.6084      0.0628      2.5213   -999.2500   -999.2500
   891.9000      7.8112      2.6037      0.1620      2.8060   -999.2500   -999.2500
   892.0000      7.8131      2.5922      0.0723      3.5019   -999.2500   -999.2500
   892.1000      7.8131      2.5903      0.0698      3.6157   -999.2500   -999.2500
   892.2000      7.8131      2.5994      0.1300      3.0671   -999.2500   -999.2500
   892.3000      7.7917      2.6031      0.0835      2.8419   -999.2500   -999.2500
   892.4000      7.7917      2.6003      0.0779      3.0098   -999.2500   -999.2500
   892.5000      7.7757      2.5939      0.0757      3.3974   -999.2500   -999.2500
   892.6000      7.7757      2.5822      0.0770      4.1067   -999.2500   -999.2500
   892.7000      7.7757      2.5682      0.0339      4.9566   -999.2500   -999.2500
