~Version Information
VERS.                      2.0: CWLS Log ASCII Standard - VERSION 2.0
WRAP.                       NO: One line per depth step
~Well Information Block
STRT.FT               245.0000: 
STOP.FT              1217.7000: 
STEP.FT                 0.1000: 
NULL.                -999.2500: 
COMP.          Pioneer Natural Resources: COMPANY
WELL.          Lucky Lady 42-29: WELL
FLD.           Purgatoire River: FIELD
LOC.           2482' FNL & 662' FEL--: LOCATION
CNTY.               Las Animas: COUNTY
SRVC.                Patterson: SERVICE COMPANY
DATE.          Thu Mar 09 18:39:54 2006: LOG DATE
UWI.           05 071 08659 00: UNIQUE WELL ID
STAT.                 Colorado: STATE
~Curve Information Block
DEPT.FT            0 000 00 00: Depth
DCAL.in                       : CDL Caliper
RHOB.g/cc                     : CDL Bulk Density
RHOC.g/cc                     : CDL Density Correction
DPOR.pu                       : CDL Density Porosity
NPOR.pu                       : Neutron Porosity
GR.GAPI                       : Gamma Ray
~Parameter Information Block
~A  Depth       DCAL        RHOB        RHOC        DPOR        NPOR         GR     
# ...
   993.8000      7.8731      2.5845      0.0697      3.9700     18.8006     79.6239
   993.9000      7.8731      2.5798      0.0437      4.2571     19.1362     81.7756
   994.0000      7.8728      2.5701      0.0221      4.8415     19.2876     81.9227
   994.1000      7.8728      2.5602      0.0643      5.4421     19.0839     80.1307
   994.2000      7.8728      2.5485      0.0149      6.1495     18.9549     77.9591
   994.3000      7.8769      2.5402      0.0454      6.6527     19.1370     75.4092
   994.4000      7.8769      2.5439      0.0227      6.4332     19.3417     74.3059
   994.5000      7.8896      2.5648      0.0630      5.1633     19.3990     76.4314
   994.6000      7.8896      2.5956      0.0572      3.2980     19.3896     80.9645
   994.7000      7.8896      2.6197      0.0970      1.8361     19.2476     87.4172
   994.8000      7.9011      2.6297      0.0667      1.2318     18.8424     93.3926
   994.9000      7.9011      2.6328      0.0606      1.0396     18.3200     93.5800
   995.0000      7.9017      2.6313      0.1125      1.1360     18.0981     88.4578
   995.1000      7.9017      2.6166      0.0775      2.0240     18.4574     85.2794
   995.2000      7.9017      2.5927      0.0923      3.4718     19.1366     86.8678
   995.3000      7.9011      2.5768      0.0469      4.4341     19.7017     89.5785
   995.4000      7.9011      2.5758      0.0672      4.4958     20.0360     91.5802
   995.5000      7.9021      2.5711      0.0749      4.7810     20.1498     93.5476
   995.6000      7.9021      2.5492      0.0378      6.1063     19.9929     96.3899
   995.7000      7.9021      2.5268      0.0086      7.4660     19.5960     99.3232
   995.8000      7.9016      2.5225      0.0192      7.7268     19.4833     96.7477
   995.9000      7.9016      2.5330      0.0142      7.0905     20.0834     86.8477
   996.0000      7.9003      2.5461      0.0378      6.2986     21.0977     78.0118
   996.1000      7.9003      2.5479      0.0514      6.1904     21.9730     80.4712
   996.2000      7.9003      2.5289      0.0508      7.3410     22.1313     92.5267
   996.3000      7.8979      2.5005      0.0204      9.0635     21.4478    102.3483
   996.4000      7.8979      2.4823      0.0456     10.1654     20.3710    106.2130
   996.5000      7.8906      2.4749      0.0542     10.6093     19.3826    110.7197
   996.6000      7.8906      2.4671      0.0341     11.0868     18.6841    115.7974
   996.7000      7.8906      2.4623      0.0660     11.3770     18.1283    115.8187
   996.8000      7.8834      2.4770      0.0689     10.4821     17.5703    113.6681
   996.9000      7.8834      2.5154      0.1169      8.1571     17.1498    111.8379
   997.0000      7.8871      2.5594      0.1509      5.4914     17.0220    107.6768
   997.1000      7.8871      2.5866      0.1615      3.8396     17.1006    102.8578
   997.2000      7.8871      2.5911      0.1112      3.5691     17.3967    100.7958
   997.3000      7.8973      2.5826      0.0834      4.0873     18.1636    101.9279
   997.4000      7.8973      2.5695      0.0749      4.8787     19.2435    105.3100
   997.5000      7.8995      2.5564      0.0507      5.6715     20.1652    107.5984
   997.6000      7.8995      2.5490      0.0885      6.1240     20.8966    105.2809
   997.7000      7.8995      2.5506      0.0611      6.0260     21.6962     98.1132
   997.8000      7.8888      2.5574      0.0645      5.6111     22.4335     88.7958
   997.9000      7.8888      2.5572      0.0525      5.6248     22.8137     81.7106
   998.0000      7.8703      2.5484      0.0220      6.1571     23.1230     80.6474
   998.1000      7.8703      2.5372      0.0672      6.8390     23.7936     85.3265
   998.2000      7.8703      2.5203      0.0781      7.8600     24.6612     89.8929
   998.3000      7.8547      2.5053      0.0237      8.7685     25.2187     89.9509
   998.4000      7.8547      2.5067      0.0617      8.6864     25.2889     88.6571
   998.5000      7.8528      2.5082      0.1132      8.5951     25.2619     91.5815
   998.6000      7.8528      2.4785      0.0768     10.3922     25.3086     99.4492
   998.7000      7.8528      2.4204      0.0165     13.9151     25.1489    108.8593
   998.8000      7.8587      2.3723     -0.0403     16.8274     24.6408    116.2920
   998.9000      7.8587      2.3701     -0.0006     16.9640     23.7090    119.6409
   999.0000      7.8582      2.4100      0.0662     14.5434     22.5874    123.1499
   999.1000      7.8582      2.4500      0.1396     12.1228     21.6943    131.3706
   999.2000      7.8582      2.4587      0.1075     11.5925     20.8818    137.6543
   999.3000      7.8582      2.4478      0.1054     12.2575     19.7942    136.8335
   999.4000      7.8582      2.4348      0.0834     13.0396     18.6178    134.0315
   999.5000      7.8708      2.4179      0.1055     14.0672     17.9538    130.8977
   999.6000      7.8708      2.3966      0.0662     15.3586     17.9171    126.5347
   999.7000      7.8708      2.3851      0.0380     16.0547     18.1251    125.7668
   999.8000      7.8854      2.3859      0.0769     16.0079     18.3624    127.2927
   999.9000      7.8854      2.3849      0.0339     16.0657     18.6033    125.7380
  1000.0000      7.8900      2.3807      0.0102     16.3191     19.0886    122.8715
  1000.1000      7.8900      2.3763      0.0712     16.5857     19.9710    122.1768
  1000.2000      7.8900      2.3654      0.0313     17.2495     20.6379    123.8856
  1000.3000      7.8913      2.3392      0.0192     18.8344     20.5552    128.2322
  1000.4000      7.8913      2.2776      0.0735     22.5672     20.0028    131.6327
  1000.5000      7.8915      2.1740     -0.0469     28.8468     19.4613    131.4164
  1000.6000      7.8915      2.0552     -0.0787     36.0496     18.9545    131.8390
  1000.7000      7.8915      1.9373     -0.0788     43.1926     18.1396    130.2960
  1000.8000      7.8923      1.8208     -0.1328     50.2537     16.7902    120.0117
  1000.9000      7.8923      1.7104     -0.1591     56.9484     15.0545    104.7718
  1001.0000      7.8983      1.6085     -0.1749     63.1220     13.2659     93.3941
  1001.1000      7.8983      1.5152     -0.1420     68.7777     11.4361     88.6706
  1001.2000      7.8983      1.4289     -0.1293     74.0041      9.5095     89.9390
  1001.3000      7.9060      1.3576     -0.0940     78.3246      7.8826     91.3185
  1001.4000      7.9060      1.3259      0.0072     80.2499      6.6827     86.7317
  1001.5000      7.9185      1.3518      0.0577     78.6813      5.6676     79.1523
  1001.6000      7.9185      1.4282      0.1368     74.0476      4.9779     72.7914
  1001.7000      7.9185      1.5290      0.2034     67.9375      4.6646     69.6621
  1001.8000      7.9502      1.6356      0.1858     61.4771      4.4913     72.6230
  1001.9000      7.9502      1.7472      0.2212     54.7163      4.5082     76.9108
  1002.0000      7.9917      1.8582      0.2390     47.9857      4.9117     74.1642
  1002.1000      7.9917      1.9616      0.2285     41.7214      5.6903     69.8711
  1002.2000      7.9917      2.0619      0.2657     35.6424      6.5408     74.3528
  1002.3000      8.0029      2.1637      0.2556     29.4710      7.3419     84.2076
  1002.4000      8.0029      2.2671      0.2991     23.2080      8.4118     89.4382
  1002.5000      7.9799      2.3636      0.2859     17.3561      9.7920     89.4478
  1002.6000      7.9799      2.4290      0.2533     13.3915     11.1378     92.5371
  1002.7000      7.9799      2.4455      0.2040     12.3949     12.4175    101.1588
  1002.8000      7.9458      2.4294      0.0838     13.3724     13.7767    109.3798
  1002.9000      7.9458      2.4142      0.0764     14.2923     15.1282    113.3659
  1003.0000      7.9197      2.4184      0.0497     14.0351     16.2674    116.2409
  1003.1000      7.9197      2.4322      0.1133     13.2022     16.9514    121.3240
  1003.2000      7.9197      2.4282      0.1455     13.4449     17.1888    128.0770
  1003.3000      7.9020      2.4041      0.0525     14.9010     17.2256    134.5812
