~Version Information
VERS.                      2.0: CWLS Log ASCII Standard - VERSION 2.0
WRAP.                       NO: One line per depth step
~Well Information Block
STRT.FT                -6.5000: 
STOP.FT              1317.5000: 
STEP.FT                 0.2500: 
NULL.                -999.2500: 
COMP.          Pioneer Natural Resources: COMPANY
WELL.              Dicks 32-5R: WELL
FLD.           Purgatorie River: FIELD
LOC.           1485' FNL & 1684' FEL--: LOCATION
PROV.                       CO: PROVINCE
CNTY.               Las Animas: COUNTRY
SRVC.          Patterson Wireline: SERVICE COMPANY
DATE.          Tue Dec 13 09:33:22 2005: LOG DATE
UWI.           05 071 08596 00: UNIQUE WELL ID
~Curve Information Block
DEPT.FT            0 000 00 00: Depth
CCL.                          : Casing Collar Locator
TT3.usec                      : CBL 3' Travel Time
AMP3.mV                       : CBL 3' Amplitude
GR.GAPI                       : Gamma Ray
~Parameter Information Block
~A  Depth       CCL         TT3         AMP3         GR     
# ...
   864.5000      0.0000    784.3238      7.1596     93.7512
   864.7500      0.0000    803.7984      7.2199     95.7669
   865.0000      0.0000    819.0338      7.4233     98.8040
   865.2500      0.0000    832.3444      7.5653    102.0597
   865.5000      2.0000    844.1520      7.5648    105.1970
   865.7500      0.0000    850.2905      7.4295    108.3880
   866.0000      0.0000    846.3535      7.1982    111.4384
   866.2500      0.0000    832.6945      6.9310    113.7126
   866.5000      0.0000    813.6746      6.7072    115.0331
   866.7500      0.0000    793.6907      6.5929    116.1257
   867.0000      0.0000    775.5320      6.6130    118.1580
   867.2500      0.0000    761.4052      6.7548    122.1613
   867.5000      0.0000    753.5443      6.9745    128.6017
   867.7500      0.0000    753.3260      7.2048    136.7243
   868.0000      0.0000    760.0819      7.3888    144.1718
   868.2500      0.0000    770.9358      7.5141    148.0146
   868.5000      0.0000    782.0028      7.6031    146.7841
   868.7500      0.0000    790.3254      7.6807    141.4525
   869.0000      0.0000    795.0195      7.7571    134.4575
   869.2500      0.0000    796.7374      7.8286    127.9269
   869.5000      0.0000    796.3920      7.8793    122.4376
   869.7500      0.0000    794.7446      7.8903    116.9863
   870.0000      0.0000    792.7997      7.8578    110.2528
   870.2500      0.0000    791.6440      7.8038    102.1978
   870.5000      0.0000    791.5229      7.7573     94.4849
   870.7500      0.0000    791.2360      7.7244     89.3118
   871.0000      0.0000    788.6923      7.6845     87.9025
   871.2500      0.0000    782.3387      7.6165     90.0696
   871.5000      0.0000    772.2460      7.5203     94.8523
   871.7500      0.0000    760.1061      7.4146    101.1665
   872.0000      0.0000    748.5799      7.3211    107.9198
   872.2500      0.0000    740.4020      7.2544    114.1238
   872.5000      0.0000    736.9118      7.2181    119.3324
   872.7500      0.0000    736.8447      7.2052    123.8244
   873.0000      0.0000    737.2044      7.2064    128.2254
   873.2500      0.0000    735.6970      7.2187    133.1156
   873.5000      0.0000    732.0970      7.2462    138.8267
   873.7500      0.0000    727.7573      7.2938    145.0451
   874.0000      0.0000    724.6054      7.3583    150.4978
   874.2500      0.0000    724.4728      7.4258    153.6067
   874.5000      0.0000    728.6165      7.4793    153.8941
   874.7500      0.0000    737.1868      7.5143    152.5841
   875.0000      0.0000    748.8247      7.5444    151.4592
   875.2500      0.0000    760.9095      7.5886    151.0951
   875.5000      0.0000    770.6112      7.6523    150.6063
   875.7500      0.0000    775.9047      7.7242    149.2410
   876.0000      0.0000    775.6489      7.7928    147.6915
   876.2500      0.0000    769.2429      7.8647    147.3922
   876.5000      0.0000    757.0669      7.9649    148.8727
   876.7500      0.0000    741.5034      8.1173    151.2505
   877.0000      0.0000    726.8616      8.3231    152.9968
   877.2500      0.0000    717.3449      8.5644    152.7342
   877.5000      0.0000    714.3744      8.8275    149.7644
   877.7500      0.0000    715.5886      9.1148    144.7325
   878.0000      0.0000    716.8078      9.4245    139.7778
   878.2500      0.0000    715.7642      9.7283    137.2810
   878.5000      0.0000    714.3705      9.9811    137.9557
   878.7500      0.0000    717.4363     10.1554    140.2113
   879.0000      0.0000    729.0400     10.2601    141.5278
   879.2500      0.0000    749.3006     10.3250    140.3288
   879.5000      0.0000    773.7509     10.3686    136.5599
   879.7500      0.0000    796.0123     10.3835    131.0797
   880.0000      0.0000    811.7003     10.3472    125.0589
   880.2500      0.0000    820.0908     10.2447    119.5592
   880.5000      0.0000    822.7720     10.0846    114.9553
   880.7500      0.0000    821.7105      9.8907    110.7218
   881.0000      0.0000    818.3782      9.6749    106.0456
   881.2500      0.0000    813.4545      9.4284    100.3932
   881.5000      0.0000    807.0262      9.1472     93.4127
   881.7500      0.0000    799.8182      8.8589     84.9644
   882.0000      0.0000    794.0160      8.6131     75.7510
   882.2500      0.0000    791.5822      8.4482     67.4466
   882.5000      0.0000    791.9393      8.3714     61.5188
   882.7500      0.0000    792.6437      8.3613     58.0276
   883.0000      0.0000    792.1254      8.3819     56.0811
   883.2500      0.0000    790.7100      8.3969     55.4502
   883.5000      0.0000    789.4415      8.3745     57.1837
   883.7500      0.0000    789.0052      8.2907     62.3862
   884.0000      0.0000    789.7678      8.1375     70.6737
   884.2500      0.0000    792.1252      7.9335     80.2089
   884.5000      0.0000    796.2762      7.7228     89.3573
   884.7500      0.0000    801.4157      7.5538     98.0099
   885.0000      0.0000    805.2316      7.4488    107.0541
   885.2500      0.0000    804.9081      7.3907    116.7714
   885.5000      0.0000    799.4213      7.3426    126.0546
   885.7500      0.0000    790.9492      7.2825    133.1130
   886.0000      0.0000    783.4949      7.2156    136.7247
   886.2500      0.0000    779.8033      7.1573    136.9159
   886.5000      0.0000    779.7434      7.1110    134.8346
   886.7500      0.0000    781.3909      7.0657    132.1621
   887.0000      0.0000    782.9072      7.0107    130.4354
   887.2500      0.0000    783.2358      6.9492    130.4982
   887.5000      0.0000    782.0560      6.8954    132.1703
   887.7500      0.0000    780.2093      6.8566    134.3978
   888.0000      0.0000    780.0646      6.8241    136.0414
   888.2500      0.0000    784.0466      6.7844    136.5844
   888.5000      0.0000    791.7637      6.7352    135.9342
   888.7500      0.0000    799.1442      6.6872    134.0449
   889.0000      0.0000    801.4037      6.6520    131.5399
   889.2500      0.0000    797.0256      6.6338    130.3864
   889.5000      0.0000    788.8237      6.6293    132.8264
   889.7500      0.0000    781.4247      6.6322    139.2474
   890.0000      0.0000    777.7139      6.6424    147.4721
   890.2500      0.0000    777.2601      6.6727    154.2713
   890.5000      0.0000    777.4830      6.7451    157.3069
   890.7500      0.0000    775.7267      6.8688    155.7466
   891.0000      0.0000    770.6661      7.0183    149.8006
   891.2500      0.0000    762.9194      7.1384    140.4657
   891.5000      0.0000    754.7462      7.1852    129.5417
   891.7500      0.0000    748.6179      7.1697    118.8960
   892.0000      0.0000    746.0804      7.1558    109.3294
   892.2500      0.0000    747.8607      7.2055    100.6304
   892.5000      0.0000    753.6120      7.3255     92.7088
   892.7500      0.0000    760.7726      7.4710     86.1975
   893.0000      0.0000    765.3137      7.5983     82.1213
   893.2500      0.0000    764.6497      7.7043     81.4280
   893.5000      0.0000    759.1702      7.8072     84.6334
   893.7500      0.0000    751.2643      7.8997     91.5388
   894.0000      0.0000    743.6573      7.9411    101.2267
   894.2500      0.0000    737.8222      7.8997    112.2410
   894.5000      0.0000    733.0878      7.7939    122.5305
   894.7500      0.0000    727.7117      7.6825    129.6305
   895.0000      0.0000    720.9354      7.6159    131.9389
   895.2500      0.0000    713.5129      7.5994    130.2751
   895.5000      0.0000    706.6934      7.6041    127.7608
   895.7500      0.0000    701.3652      7.6041    127.6246
   896.0000      0.0000    697.8245      7.5969    130.8379
   896.2500      0.0000    695.7073      7.5899    135.7241
   896.5000      0.0000    694.1128      7.5789    139.7290
   896.7500      0.0000    692.0334      7.5532    141.5482
   897.0000      0.0000    689.1161      7.5158    141.5729
   897.2500      0.0000    686.4783      7.4898    140.7814
   897.5000      0.0000    686.6874      7.5004    139.9150
   897.7500      0.0000    692.0823      7.5604    139.4865
