~Version Information
VERS.                      2.0: CWLS Log ASCII Standard - VERSION 2.0
WRAP.                       NO: One line per depth step
~Well Information Block
STRT.FT               570.0000: 
STOP.FT              1954.5000: 
STEP.FT                 0.1000: 
NULL.                -999.2500: 
COMP.          Petrogulf Corporation: COMPANY
WELL.            Montoya 7-14R: WELL
FLD.           Purgatorie River: FIELD
LOC.           628' FSL & 454' FWL: LOCATION
PROV.                 Colorado: PROVINCE
CNTY.               Las Animas: COUNTRY
SRVC.                Patterson: SERVICE COMPANY
DATE.          Mon Oct 10 07:31:15 2005: LOG DATE
UWI.                          : UNIQUE WELL ID
~Curve Information Block
DEPT.FT            0 000 00 00: Depth
DCAL.in                       : CDL Caliper
RHOB.g/cc                     : CDL Bulk Density
RHOC.g/cc                     : CDL Density Correction
DPOR.pu                       : CDL Density Porosity
GR.GAPI                       : Gamma Ray
NPOR.pu                       : Neutron Porosity
~Parameter Information Block
~A  Depth       DCAL        RHOB        RHOC        DPOR         GR         NPOR    
# ...
   752.4000      8.1774      2.3991     -0.0227     15.2090    151.3562     23.6352
   752.5000      8.2303      2.3853     -0.0287     16.0442    151.5105     22.7304
   752.6000      8.2303      2.3770      0.0212     16.5479    151.6453     21.8561
   752.7000      8.2303      2.3557      0.0001     17.8355    149.8890     20.9899
   752.8000      8.3006      2.3134      0.0450     20.3998    143.8583     20.0944
   752.9000      8.3006      2.2504     -0.0230     24.2184    134.9785     19.5520
   753.0000      8.4750      2.1733      0.0157     28.8892    127.5944     19.3159
   753.1000      8.4750      2.0815     -0.0241     34.4537    123.5698     18.7981
   753.2000      8.4750      1.9769     -0.0475     40.7938    122.1037     18.0990
   753.3000      8.4538      1.8887     -0.1163     46.1382    122.8048     17.8219
   753.4000      8.4538      1.8533     -0.1010     48.2855    125.8665     18.3229
   753.5000      8.4347      1.8735     -0.0489     47.0609    130.3575     19.4539
   753.6000      8.4347      1.9239     -0.0023     44.0041    134.6744     20.6010
   753.7000      8.4347      1.9869      0.0474     40.1854    137.0120     21.6655
   753.8000      8.3921      2.0591      0.1577     35.8124    137.6285     23.0954
   753.9000      8.3921      2.1440      0.1370     30.6672    139.4751     24.5976
   754.0000      8.2361      2.2508      0.1443     24.1966    141.2577     25.5044
   754.1000      8.2361      2.3691      0.2036     17.0265    140.4138     25.9978
   754.2000      8.2361      2.4635      0.2137     11.3025    138.8451     26.5562
   754.3000      8.1481      2.5067      0.1174      8.6870    139.7646     27.1244
   754.4000      8.1481      2.5035      0.0288      8.8787    143.8763     27.5133
   754.5000      8.1371      2.4891     -0.0177      9.7516    147.8802     27.7362
   754.6000      8.1371      2.4909     -0.0065      9.6395    150.2053     27.8727
   754.7000      8.1371      2.5022     -0.0118      8.9584    153.0506     27.9539
   754.8000      8.1411      2.5057      0.0212      8.7478    156.6595     27.9500
   754.9000      8.1411      2.4966      0.0311      9.2956    159.5709     27.7848
   755.0000      8.1500      2.4905     -0.0088      9.6655    160.4586     27.4230
   755.1000      8.1500      2.5081      0.0070      8.5998    158.2297     26.7639
   755.2000      8.1500      2.5386      0.0377      6.7539    153.9305     25.9556
   755.3000      8.1556      2.5504      0.0725      6.0342    150.4247     25.5785
   755.4000      8.1556      2.5388      0.0309      6.7402    151.5667     25.8093
   755.5000      8.1721      2.5227      0.0061      7.7132    155.7986     26.2628
   755.6000      8.1721      2.5142      0.0291      8.2289    158.7463     26.5865
   755.7000      8.1721      2.5105      0.0355      8.4518    160.2950     26.6209
   755.8000      8.1641      2.5025      0.0538      8.9365    159.3698     26.4522
   755.9000      8.1641      2.4902      0.0124      9.6819    154.1435     26.2596
   756.0000      8.1634      2.4828      0.0136     10.1363    148.1345     26.1061
   756.1000      8.1634      2.4867      0.0016      9.8996    147.3649     26.0756
   756.2000      8.1634      2.5033      0.0195      8.8912    151.9893     26.3043
   756.3000      8.1687      2.5234      0.0698      7.6724    157.4067     26.6692
   756.4000      8.1687      2.5394      0.0070      6.7054    159.8610     26.7122
   756.5000      8.1713      2.5571      0.0517      5.6289    158.6585     26.5338
   756.6000      8.1713      2.5844      0.0130      3.9755    156.6077     26.7319
   756.7000      8.1713      2.6202      0.0588      1.8048    155.2511     27.2479
   756.8000      8.1774      2.6488      0.0524      0.0721    151.8126     27.6076
   756.9000      8.1774      2.6631      0.0038     -0.7926    145.7600     27.8377
   757.0000      8.1770      2.6763      0.0768     -1.5918    141.4738     27.9748
   757.1000      8.1770      2.6923      0.0688     -2.5625    140.1585     27.8315
   757.2000      8.1770      2.6955      0.1033     -2.7556    139.5078     27.5871
   757.3000      8.1839      2.6716      0.0578     -1.3062    139.5826     27.3872
   757.4000      8.1839      2.6343      0.0219      0.9509    140.6963     27.0197
   757.5000      8.1921      2.6121      0.0025      2.2986    141.6230     26.5143
   757.6000      8.1921      2.6105      0.0155      2.3927    140.5216     26.1675
   757.7000      8.1921      2.6112      0.0450      2.3512    138.4974     26.0377
   757.8000      8.1948      2.6026      0.0200      2.8731    138.8057     26.0666
   757.9000      8.1948      2.5941     -0.0020      3.3885    142.4061     26.0754
   758.0000      8.2009      2.5882      0.0693      3.7462    147.8214     25.9149
   758.1000      8.2009      2.5774      0.0126      4.3980    151.3408     25.8738
   758.2000      8.2009      2.5658      0.0259      5.1058    150.1913     26.0506
   758.3000      8.2069      2.5550      0.0269      5.7570    149.4718     26.1693
   758.4000      8.2069      2.5397      0.0543      6.6823    153.9732     26.1088
   758.5000      8.2096      2.5257     -0.0201      7.5357    158.4348     25.8601
   758.6000      8.2096      2.5237      0.0026      7.6564    158.9042     25.4966
   758.7000      8.2096      2.5245      0.0378      7.6033    157.7195     25.1668
   758.8000      8.2182      2.5089      0.0140      8.5506    157.4781     24.7001
   758.9000      8.2182      2.4708      0.0127     10.8595    157.8320     24.0311
   759.0000      8.2263      2.4141     -0.0157     14.2944    156.6294     23.4559
   759.1000      8.2263      2.3350     -0.0181     19.0905    154.2073     22.8916
   759.2000      8.2263      2.2285     -0.0212     25.5430    150.0075     21.9008
   759.3000      8.2134      2.1134     -0.0761     32.5201    143.7765     20.5007
   759.4000      8.2134      2.0253     -0.1286     37.8598    138.1084     19.2712
   759.5000      8.2327      1.9831     -0.0931     40.4191    134.0994     18.6188
   759.6000      8.2327      1.9787     -0.0673     40.6874    131.3351     18.4609
   759.7000      8.2327      2.0001     -0.0439     39.3855    129.6112     18.6905
   759.8000      8.2737      2.0437      0.0242     36.7436    129.1038     19.2754
   759.9000      8.2737      2.1045      0.1211     33.0587    130.0557     20.1101
   760.0000      8.3411      2.1795      0.1728     28.5180    132.5614     21.0836
   760.1000      8.3411      2.2661      0.2500     23.2687    135.2777     22.0838
   760.2000      8.3411      2.3459      0.2034     18.4313    135.8028     22.9266
   760.3000      8.2889      2.3918      0.1582     15.6507    135.9367     23.5608
   760.4000      8.2889      2.3965      0.0528     15.3620    138.1348     24.1006
   760.5000      8.2517      2.3755      0.0492     16.6354    141.5464     24.4964
   760.6000      8.2517      2.3381      0.0235     18.9003    144.7049     24.5932
   760.7000      8.2517      2.2916     -0.0338     21.7218    145.1974     24.4198
   760.8000      8.2448      2.2539     -0.0316     24.0060    145.2811     24.1927
   760.9000      8.2448      2.2377     -0.0362     24.9894    149.0008     23.9614
   761.0000      8.2470      2.2415     -0.0345     24.7550    153.1251     23.5669
   761.1000      8.2470      2.2524      0.0222     24.0967    152.3582     22.9997
   761.2000      8.2470      2.2461      0.0483     24.4793    145.4637     22.3833
   761.3000      8.2593      2.2058      0.0259     26.9194    136.2624     21.6911
   761.4000      8.2593      2.1357      0.0871     31.1677    130.4724     20.8754
   761.5000      8.2668      2.0479      0.0220     36.4923    129.0047     19.9626
   761.6000      8.2668      1.9494      0.0123     42.4598    128.9778     18.9532
   761.7000      8.2668      1.8449     -0.0657     48.7964    128.8789     17.8514
   761.8000      8.2660      1.7448     -0.0758     54.8590    127.1905     16.8237
   761.9000      8.2660      1.6553     -0.0893     60.2857    122.0366     16.1060
