~Version Information
VERS.                      2.0: CWLS Log ASCII Standard - VERSION 2.0
WRAP.                       NO: One line per depth step
~Well Information Block
STRT.FT               420.0000: 
STOP.FT              2888.7500: 
STEP.FT                 0.2500: 
NULL.                -999.2500: 
COMP.          Pioneer Natural Resources: COMPANY
WELL.          Touchstone 11-32: WELL
FLD.           Purgatoire River: FIELD
LOC.           853' FNL & 407' FWL--: LOCATION
CNTY.               Las Animas: COUNTY
SRVC.                Patterson: SERVICE COMPANY
DATE.          Thu Feb 23 14:02:36 2006: LOG DATE
UWI.           05 071 08564 00: UNIQUE WELL ID
STAT.                 Colorado: STATE
~Curve Information Block
DEPT.FT            0 000 00 00: Depth
SN.Ohm-m                      : IEL Short Normal
SP.mV                         : IEL Spontaneous Potential
DIR.Ohm-m                     : IEL Induction Resistivity
GR.GAPI                       : Gamma Ray
~Parameter Information Block
~A  Depth        SN          SP         DIR          GR     
# ...
  1559.0000     78.5790    -57.0264     55.0729     60.6155
  1559.2500     78.7095    -55.8005     53.9773     61.6145
  1559.5000     78.7693    -54.6752     52.4703     63.2166
  1559.7500     78.7054    -53.9169     50.7889     64.4404
  1560.0000     78.4671    -53.7571     49.1424     66.8150
  1560.2500     78.0215    -54.3305     47.6827     68.8712
  1560.5000     77.3281    -55.6346     46.4862     72.4588
  1560.7500     76.2822    -57.5236     45.5326     74.7979
  1561.0000     74.6848    -59.7374     44.6853     77.1173
  1561.2500     72.2830    -61.9583     43.6903     77.0781
  1561.5000     68.8749    -63.8818     42.2249     73.9270
  1561.7500     64.4275    -65.2830     40.0268     70.2902
  1562.0000     59.1475    -66.0666     37.0568     64.8715
  1562.2500     53.4550    -66.2832     33.5543     62.7099
  1562.5000     47.8526    -66.1089     29.9142     63.0794
  1562.7500     42.7495    -65.7942     26.4951     65.9805
  1563.0000     38.3403    -65.5915     23.5068     74.0069
  1563.2500     34.6062    -65.6914     21.0097     81.1740
  1563.5000     31.4181    -66.1796     18.9675     92.9187
  1563.7500     28.6563    -67.0347     17.3024    100.3940
  1564.0000     26.2725    -68.1511     15.9353    109.9691
  1564.2500     24.2810    -69.3856     14.8066    115.0398
  1564.5000     22.7091    -70.5968     13.8812    120.7636
  1564.7500     21.5516    -71.6710     13.1423    123.4936
  1565.0000     20.7549    -72.5352     12.5800    126.2445
  1565.2500     20.2333    -73.1506     12.1827    127.2815
  1565.5000     19.9016    -73.5062     11.9339    127.7013
  1565.7500     19.7050    -73.6154     11.8145    127.2982
  1566.0000     19.6317    -73.5150     11.8094    126.1598
  1566.2500     19.7064    -73.2631     11.9134    125.4960
  1566.5000     19.9688    -72.9326     12.1333    125.0071
  1566.7500     20.4510    -72.5973     12.4855    124.6609
  1567.0000     21.1725    -72.3140     12.9884    122.6814
  1567.2500     22.1626    -72.1079     13.6568    119.4826
  1567.5000     23.4970    -71.9666     14.4986    110.9933
  1567.7500     25.3204    -71.8530     15.5173    103.0621
  1568.0000     27.8175    -71.7178     16.7198     89.3287
  1568.2500     31.1105    -71.5238     18.1255     80.2342
  1568.5000     35.1158    -71.2583     19.7703     68.4063
  1568.7500     39.4670    -70.9358     21.6994     62.0198
  1569.0000     43.6162    -70.5904     23.9486     54.2573
  1569.2500     47.1041    -70.2611     26.5183     50.1252
  1569.5000     49.8131    -69.9771     29.3491     46.0451
  1569.7500     51.9780    -69.7456     32.3060     45.2854
  1570.0000     53.9354    -69.5493     35.1825     47.3159
  1570.2500     55.8472    -69.3483     37.7332     50.1021
  1570.5000     57.6278    -69.0884     39.7369     54.0120
  1570.7500     59.0810    -68.7170     41.0753     54.8989
  1571.0000     60.0864    -68.1989     41.7858     52.3857
  1571.2500     60.7101    -67.5338     42.0479     48.7247
  1571.5000     61.2146    -66.7660     42.1088     43.0089
  1571.7500     61.9598    -65.9831     42.1935     40.8592
  1572.0000     63.1997    -65.3011     42.4383     42.2012
  1572.2500     64.8597    -64.8354     42.8581     46.5730
  1572.5000     66.4657    -64.6699     43.3435     58.3058
  1572.7500     67.3286    -64.8312     43.6969     69.1965
  1573.0000     66.9024    -65.2784     43.7197     88.0855
  1573.2500     65.0923    -65.9111     43.3217    100.1140
  1573.5000     62.3060    -66.5959     42.5796    113.1008
  1573.7500     59.2250    -67.2035     41.6895    117.1591
  1574.0000     56.4721    -67.6403     40.8571    117.3884
  1574.2500     54.3991    -67.8712     40.2144    115.3632
  1574.5000     53.0778    -67.9230     39.8019    112.0264
  1574.7500     52.4156    -67.8672     39.5958    110.7595
  1575.0000     52.2672    -67.7937     39.5436    110.7829
  1575.2500     52.4834    -67.7839     39.5954    111.5004
  1575.5000     52.9173    -67.8922     39.7235    112.0595
  1575.7500     53.4323    -68.1420     39.9264    111.4732
  1576.0000     53.9288    -68.5301     40.2098    108.9925
  1576.2500     54.3728    -69.0348     40.5628    106.4752
  1576.5000     54.7962    -69.6199     40.9520    101.9369
  1576.7500     55.2656    -70.2377     41.3469     98.7587
  1577.0000     55.8377    -70.8251     41.7488     94.2219
  1577.2500     56.5240    -71.3068     42.1926     91.4120
  1577.5000     57.2844    -71.6036     42.7177     87.3684
  1577.7500     58.0506    -71.6483     43.3348     84.7101
  1578.0000     58.7562    -71.4050     44.0206     80.8603
  1578.2500     59.3537    -70.8810     44.7372     78.6002
  1578.5000     59.8207    -70.1300     45.4508     76.1616
  1578.7500     60.1621    -69.2414     46.1264     75.2477
  1579.0000     60.3993    -68.3190     46.7055     74.4312
  1579.2500     60.5474    -67.4559     47.0936     73.8159
  1579.5000     60.6055    -66.7119     47.1769     72.5692
  1579.7500     60.5740    -66.0980     46.8694     71.8328
  1580.0000     60.4727    -65.5754     46.1716     71.5331
  1580.2500     60.3338    -65.0680     45.2023     71.9395
  1580.5000     60.1771    -64.4865     44.1700     73.1382
  1580.7500     60.0033    -63.7556     43.2955     74.2821
  1581.0000     59.8088    -62.8351     42.7424     76.7662
  1581.2500     59.5976    -61.7329     42.5924     78.8449
  1581.5000     59.3814    -60.5004     42.8590     81.7115
  1581.7500     59.1794    -59.2185     43.5075     83.0068
  1582.0000     59.0201    -57.9792     44.4608     84.2632
  1582.2500     58.9325    -56.8698     45.5941     85.1312
  1582.5000     58.9262    -55.9600     46.7373     86.9026
  1582.7500     58.9825    -55.2962     47.7096     88.2962
  1583.0000     59.0637    -54.9015     48.3742     90.5357
  1583.2500     59.1383    -54.7719     48.6872     92.2830
  1583.5000     59.2021    -54.8736     48.7103     95.7592
  1583.7500     59.2787    -55.1434     48.5806     98.6877
  1584.0000     59.3968    -55.4929     48.4586    103.2292
  1584.2500     59.5696    -55.8228     48.4788    105.5717
  1584.5000     59.7949    -56.0424     48.7210    107.0104
  1584.7500     60.0649    -56.0920     49.1971    106.5989
  1585.0000     60.3650    -55.9590     49.8517    105.0633
  1585.2500     60.6664    -55.6845     50.5761    104.2424
  1585.5000     60.9256    -55.3541     51.2407    103.9171
  1585.7500     61.0934    -55.0783     51.7378    104.0833
  1586.0000     61.1245    -54.9654     52.0144    104.1661
  1586.2500     60.9866    -55.0917     52.0814    103.7967
  1586.5000     60.6760    -55.4832     51.9964    102.3285
  1586.7500     60.2329    -56.1072     51.8295    100.5905
  1587.0000     59.7369    -56.8793     51.6290     96.5577
  1587.2500     59.2691    -57.6831     51.4023     92.8673
  1587.5000     58.8701    -58.3946     51.1211     86.1914
  1587.7500     58.5367    -58.9078     50.7523     81.4820
  1588.0000     58.2486    -59.1538     50.2985     75.2328
  1588.2500     57.9859    -59.1069     49.8149     72.2583
  1588.5000     57.7208    -58.7839     49.3814     70.0327
  1588.7500     57.4070    -58.2334     49.0464     69.7934
  1589.0000     56.9868    -57.5249     48.7903     70.0475
  1589.2500     56.4185    -56.7388     48.5308     69.4833
  1589.5000     55.6990    -55.9569     48.1636     65.5742
  1589.7500     54.8526    -55.2594     47.6078     60.5085
  1590.0000     53.8867    -54.7189     46.8342     50.5161
  1590.2500     52.7704    -54.3944     45.8573     43.7999
  1590.5000     51.4820    -54.3271     44.6903     36.2705
  1590.7500     50.0759    -54.5344     43.2962     34.0748
  1591.0000     48.6633    -55.0061     41.5873     36.1510
  1591.2500     47.2797    -55.7040     39.4933     41.2338
  1591.5000     45.7697    -56.5682     37.0411     53.4844
  1591.7500     43.8399    -57.5281     34.3686     63.6796
  1592.0000     41.2759    -58.5179     31.6659     79.8838
  1592.2500     38.1393    -59.4958     29.1052     90.0793
