~Version Information
VERS.                      2.0: CWLS Log ASCII Standard - VERSION 2.0
WRAP.                       NO: One line per depth step
~Well Information Block
STRT.FT               830.0000: 
STOP.FT              1792.5000: 
STEP.FT                 0.1000: 
NULL.                -999.2500: 
COMP.          Pioneer Natural Resources: COMPANY
WELL.           Rolls 14-14 Tr: WELL
FLD.           Purgatoire River: FIELD
LOC.           473' FSL & 817' FWL: LOCATION
PROV.                 Colorado: PROVINCE
CNTY.               Las Animas: COUNTRY
SRVC.                Patterson: SERVICE COMPANY
DATE.          Wed Aug 03 07:11:37 2005: LOG DATE
UWI.           05 071 08454 00: UNIQUE WELL ID
~Curve Information Block
DEPT.FT            0 000 00 00: Depth
DCAL.in                       : CDL Caliper
RHOB.g/cc                     : CDL Bulk Density
RHOC.g/cc                     : CDL Density Correction
DPOR.pu                       : CDL Density Porosity
GR.GAPI                       : Gamma Ray
NPOR.pu                       : Neutron Porosity
~Parameter Information Block
~A  Depth       DCAL        RHOB        RHOC        DPOR         GR         NPOR    
# ...
  1271.6000      8.1290      2.6494      0.2790      0.0366    117.5107     29.7558
  1271.7000      8.1290      2.5942      0.1749      3.3798    116.3682     29.3112
  1271.8000      8.1592      2.5314     -0.0047      7.1881    112.3974     27.5844
  1271.9000      8.1592      2.5139      0.0250      8.2478    107.8807     25.1138
  1272.0000      8.1550      2.5407      0.0418      6.6228    102.1932     23.7458
  1272.1000      8.1550      2.5757      0.0417      4.5005    100.7234     24.0648
  1272.2000      8.1550      2.5917      0.1215      3.5327    102.8189     25.3365
  1272.3000      8.1160      2.5889      0.0462      3.7001    103.4552     26.3355
  1272.4000      8.1160      2.5990      0.0453      3.0938    101.5458     26.9395
  1272.5000      8.1042      2.6299      0.1227      1.2174     96.6032     27.4287
  1272.6000      8.1042      2.6491      0.0850      0.0542     91.9696     27.4176
  1272.7000      8.1042      2.6444      0.0299      0.3382     92.1266     26.6656
  1272.8000      8.1040      2.6315      0.0944      1.1218     93.5302     25.1034
  1272.9000      8.1040      2.6210      0.0660      1.7565     90.2280     23.4128
  1273.0000      8.0696      2.6283      0.0408      1.3140     82.8993     23.2924
  1273.1000      8.0696      2.6585      0.1104     -0.5167     77.2780     25.0116
  1273.2000      8.0696      2.6868      0.0784     -2.2300     76.5866     26.3325
  1273.3000      8.0886      2.6909      0.1094     -2.4774     77.5094     26.0192
  1273.4000      8.0886      2.6848      0.0672     -2.1074     77.8543     25.5202
  1273.5000      8.0708      2.6923      0.1105     -2.5618     80.8355     25.5990
  1273.6000      8.0708      2.7084      0.0871     -3.5377     87.3935     25.7697
  1273.7000      8.0708      2.7158      0.1089     -3.9877     91.9110     25.8739
  1273.8000      8.0646      2.7083      0.0349     -3.5345     89.5015     25.5451
  1273.9000      8.0646      2.6931      0.0726     -2.6125     84.1551     23.7492
  1274.0000      8.0641      2.6792      0.0824     -1.7720     84.2910     21.8494
  1274.1000      8.0641      2.6752      0.0718     -1.5274     90.0095     22.0522
  1274.2000      8.0641      2.6837      0.0223     -2.0447     92.7272     23.8078
  1274.3000      8.0692      2.6984      0.0242     -2.9331     89.9412     25.4848
  1274.4000      8.0692      2.7067      0.1158     -3.4359     89.1469     27.1874
  1274.5000      8.0837      2.6999      0.0722     -3.0243     93.7394     28.6974
  1274.6000      8.0837      2.6870      0.0665     -2.2423     99.3887     28.5628
  1274.7000      8.0837      2.6776      0.0886     -1.6750    101.8849     26.9748
  1274.8000      8.0859      2.6605      0.1249     -0.6369    101.0750     25.1290
  1274.9000      8.0859      2.6257      0.0061      1.4727    100.7672     23.5434
  1275.0000      8.0927      2.5942     -0.0530      3.3815    102.7812     22.8597
  1275.1000      8.0927      2.5838     -0.0161      4.0125    105.4455     23.8295
  1275.2000      8.0927      2.5751      0.0527      4.5395    107.0815     25.9411
  1275.3000      8.0985      2.5479      0.0727      6.1901    106.6312     27.6092
  1275.4000      8.0985      2.5167      0.0221      8.0793    106.3607     28.0465
  1275.5000      8.0987      2.5046      0.0341      8.8115    107.4164     26.7915
  1275.6000      8.0987      2.5061      0.0658      8.7228    106.0456     24.3307
  1275.7000      8.0987      2.5071      0.0071      8.6598    101.1429     23.0576
  1275.8000      8.1053      2.5103      0.0093      8.4659     95.9404     23.6468
  1275.9000      8.1053      2.5169      0.0079      8.0692     93.3548     24.0582
  1276.0000      8.1056      2.5176      0.0669      8.0272     93.0877     22.8530
  1276.1000      8.1056      2.5117      0.0113      8.3793     91.4956     21.4670
  1276.2000      8.1056      2.5166      0.0410      8.0848     87.0961     21.5042
  1276.3000      8.1154      2.5409      0.0627      6.6112     82.4793     22.4645
  1276.4000      8.1154      2.5686      0.1166      4.9346     81.0176     23.4018
  1276.5000      8.1007      2.5817      0.0994      4.1406     82.0489     23.9832
  1276.6000      8.1007      2.5831      0.0800      4.0554     82.4394     23.5195
  1276.7000      8.1007      2.5811      0.0788      4.1741     82.0605     21.6468
  1276.8000      8.1102      2.5734      0.1106      4.6449     82.5106     20.3906
  1276.9000      8.1102      2.5566      0.0603      5.6629     84.3142     21.4066
  1277.0000      8.1001      2.5401      0.0513      6.6621     85.3403     23.2872
  1277.1000      8.1001      2.5317      0.0513      7.1683     83.9983     24.3467
  1277.2000      8.1001      2.5288      0.0347      7.3449     83.4367     24.7010
  1277.3000      8.0984      2.5412     -0.0208      6.5943     85.1146     24.6000
  1277.4000      8.0984      2.5893      0.0282      3.6765     85.1962     24.6349
  1277.5000      8.0787      2.6695      0.0609     -1.1793     80.7790     24.9629
  1277.6000      8.0787      2.7469      0.1416     -5.8757     75.1671     24.1321
  1277.7000      8.0787      2.7984      0.0890     -8.9926     74.2671     22.5232
  1277.8000      8.0579      2.8276      0.1638    -10.7655     78.1299     22.4559
  1277.9000      8.0579      2.8290      0.2078    -10.8496     81.6779     24.0738
  1278.0000      8.0397      2.7959      0.1207     -8.8400     84.1903     25.4568
  1278.1000      8.0397      2.7489      0.0774     -5.9965     88.4211     25.7601
  1278.2000      8.0397      2.7075     -0.0149     -3.4868     92.8875     25.6764
  1278.3000      8.0257      2.6684     -0.0336     -1.1178     96.1742     24.9657
  1278.4000      8.0257      2.6325     -0.1219      1.0615    101.4045     23.1937
  1278.5000      8.0104      2.6137     -0.0355      2.2002    107.3758     21.5075
  1278.6000      8.0104      2.6056     -0.0280      2.6925    108.7693     21.0355
  1278.7000      8.0104      2.5931      0.0170      3.4473    108.2235     21.2774
  1278.8000      8.0005      2.5845      0.0223      3.9692    111.0104     22.0396
  1278.9000      8.0005      2.5965      0.0524      3.2395    115.9850     24.1818
  1279.0000      8.0332      2.6229      0.1127      1.6446    120.2479     27.1193
  1279.1000      8.0332      2.6395      0.1015      0.6356    121.9644     28.7878
  1279.2000      8.0332      2.6348      0.1060      0.9217    120.0013     28.4781
  1279.3000      8.0522      2.6175      0.0523      1.9690    117.7014     27.1703
  1279.4000      8.0522      2.6056      0.0431      2.6882    119.1720     26.6993
  1279.5000      8.0515      2.6020      0.0735      2.9063    123.8553     27.5406
  1279.6000      8.0515      2.5982      0.0405      3.1379    129.3399     27.8785
  1279.7000      8.0515      2.5925      0.0495      3.4842    133.6850     26.9555
  1279.8000      8.0511      2.5833      0.0138      4.0423    137.0172     26.7154
  1279.9000      8.0511      2.5661      0.0373      5.0822    141.5427     27.8629
  1280.0000      8.0429      2.5404      0.0233      6.6430    145.9388     28.6511
  1280.1000      8.0429      2.5073      0.0414      8.6456    146.5269     28.0399
  1280.2000      8.0429      2.4584      0.0557     11.6128    144.5255     26.8340
  1280.3000      8.0365      2.3823      0.0147     16.2219    142.7075     25.9704
  1280.4000      8.0365      2.2789     -0.0032     22.4896    141.1140     26.3042
  1280.5000      8.0407      2.1512     -0.0207     30.2319    138.1643     27.9649
  1280.6000      8.0407      2.0095     -0.0717     38.8169    132.8775     29.8997
  1280.7000      8.0407      1.8906     -0.1608     46.0251    127.7794     31.2969
  1280.8000      8.0452      1.8298     -0.1260     49.7116    123.8249     31.8203
  1280.9000      8.0452      1.8206     -0.0706     50.2657    119.5672     31.5838
  1281.0000      8.0822      1.8461     -0.0598     48.7191    115.5153     31.2687
  1281.1000      8.0822      1.9093      0.0340     44.8912    110.9060     30.7831
