~Version Information
VERS.                      2.0: CWLS Log ASCII Standard - VERSION 2.0
WRAP.                       NO: One line per depth step
~Well Information Block
STRT.FT               460.0000: 
STOP.FT              2311.7500: 
STEP.FT                 0.2500: 
NULL.                -999.2500: 
COMP.          Pioneer Natural Resources: COMPANY
WELL.          McDonald 33-31 R: WELL
FLD.           Purgatoire River: FIELD
LOC.           1386' FSL & 1926' FEL: LOCATION
STAT.                 Colorado: State
CNTY.               Las Animas: COUNTY
CTRY.                      USA: Country
SECT.                       31: Section
TOWN.                      32S: Township
RANG.                      66W: Range
SRVC.                Patterson: SERVICE COMPANY
DATE.          Fri Sep 23 00:08:18 2005: LOG DATE
API.           05 071 08533 00: API#
~Curve Information Block
DEPT.FT            0 000 00 00: Depth
SN.Ohm-m                      : IEL Short Normal
SP.mV                         : IEL Spontaneous Potential
DIR.Ohm-m                     : IEL Induction Resistivity
GR.GAPI                       : Gamma Ray
~Parameter Information Block
~A  Depth        SN          SP         DIR          GR     
# ...
  1532.0000      2.2490   -369.3546      8.3743    139.4135
  1532.2500      2.2491   -370.2550      8.2759    141.3495
  1532.5000      2.2610   -371.2582      8.1695    143.0264
  1532.7500      2.3004   -372.2651      8.0483    143.4567
  1533.0000      2.3792   -373.1687      7.9123    143.4937
  1533.2500      2.4931   -373.8666      7.7679    143.5557
  1533.5000      2.6145   -374.2769      7.6243    144.5910
  1533.7500      2.7046   -374.3547      7.4897    146.0706
  1534.0000      2.7351   -374.1039      7.3685    148.6700
  1534.2500      2.7023   -373.5824      7.2613    149.9359
  1534.5000      2.6255   -372.8934      7.1670    150.7636
  1534.7500      2.5375   -372.1656      7.0842    151.1556
  1535.0000      2.4705   -371.5250      7.0127    152.9728
  1535.2500      2.4416   -371.0664      6.9538    155.4803
  1535.5000      2.4486   -370.8316      6.9099    160.6150
  1535.7500      2.4794   -370.8036      6.8831    163.9280
  1536.0000      2.5221   -370.9154      6.8751    166.7354
  1536.2500      2.5640   -371.0742      6.8862    166.4918
  1536.5000      2.5896   -371.1896      6.9150    163.3845
  1536.7500      2.5905   -371.1992      6.9579    160.5690
  1537.0000      2.5820   -371.0825      7.0099    157.4005
  1537.2500      2.6020   -370.8622      7.0657    156.7011
  1537.5000      2.6858   -370.5923      7.1218    157.3136
  1537.7500      2.8330   -370.3399      7.1782    157.8275
  1538.0000      3.0012   -370.1667      7.2401    157.1143
  1538.2500      3.1356   -370.1135      7.3171    155.4541
  1538.5000      3.2065   -370.1932      7.4220    152.4408
  1538.7500      3.2202   -370.3891      7.5688    151.1398
  1539.0000      3.2012   -370.6609      7.7693    150.9020
  1539.2500      3.1715   -370.9529      8.0321    151.0785
  1539.5000      3.1419   -371.2043      8.3614    149.2545
  1539.7500      3.1133   -371.3592      8.7571    145.4720
  1540.0000      3.0794   -371.3728      9.2151    135.8274
  1540.2500      3.0319   -371.2151      9.7288    127.7603
  1540.5000      2.9678   -370.8696     10.2913    115.8279
  1540.7500      2.8943   -370.3323     10.8984    109.3504
  1541.0000      2.8260   -369.6097     11.5472    102.9284
  1541.2500      2.7766   -368.7216     12.2298    100.6832
  1541.5000      2.7508   -367.7054     12.9212     99.2967
  1541.7500      2.7422   -366.6210     13.5684     98.8843
  1542.0000      2.7374   -365.5505     14.0890     97.8725
  1542.2500      2.7261   -364.5900     14.3905     96.7921
  1542.5000      2.7109   -363.8328     14.4083     95.6269
  1542.7500      2.7088   -363.3489     14.1414     96.2277
  1543.0000      2.7375   -363.1671     13.6558    100.5760
  1543.2500      2.8018   -363.2675     13.0531    105.7997
  1543.5000      2.8980   -363.5862     12.4298    115.8280
  1543.7500      3.0248   -364.0327     11.8522    122.8807
  1544.0000      3.1788   -364.5137     11.3527    132.4765
  1544.2500      3.3367   -364.9538     10.9397    137.7112
  1544.5000      3.4543   -365.3090     10.6103    143.3930
  1544.7500      3.4918   -365.5680     10.3623    145.5333
  1545.0000      3.4431   -365.7428     10.1976    145.8438
  1545.2500      3.3411   -365.8527     10.1217    143.9658
  1545.5000      3.2351   -365.9062     10.1378    138.5683
  1545.7500      3.1580   -365.8901     10.2435    134.1726
  1546.0000      3.1129   -365.7677     10.4306    128.1818
  1546.2500      3.0871   -365.4895     10.6871    125.0996
  1546.5000      3.0697   -365.0114     11.0010    121.4085
  1546.7500      3.0557   -364.3163     11.3606    118.9398
  1547.0000      3.0420   -363.4277     11.7527    114.3640
  1547.2500      3.0253   -362.4124     12.1597    110.5275
  1547.5000      3.0019   -361.3707     12.5585    103.7757
  1547.7500      2.9706   -360.4171     12.9237     99.0154
  1548.0000      2.9355   -359.6593     13.2337     92.4364
  1548.2500      2.9044   -359.1815     13.4773     88.8542
  1548.5000      2.8799   -359.0356     13.6557     84.8723
  1548.7500      2.8564   -359.2390     13.7802     82.9819
  1549.0000      2.8273   -359.7780     13.8672     80.9352
  1549.2500      2.7924   -360.6125     13.9340     80.0418
  1549.5000      2.7556   -361.6814     13.9963     79.4745
  1549.7500      2.7204   -362.9077     14.0661     79.4911
  1550.0000      2.6898   -364.2049     14.1497     79.4266
  1550.2500      2.6678   -365.4842     14.2488     78.9429
  1550.5000      2.6588   -366.6615     14.3624     77.7891
  1550.7500      2.6670   -367.6656     14.4885     77.4292
  1551.0000      2.6956   -368.4450     14.6247     78.4495
  1551.2500      2.7439   -368.9743     14.7668     79.9204
  1551.5000      2.8014   -369.2591     14.9092     81.8412
  1551.7500      2.8478   -369.3372     15.0454     82.2550
  1552.0000      2.8683   -369.2753     15.1702     81.5225
  1552.2500      2.8676   -369.1605     15.2816     80.4560
  1552.5000      2.8621   -369.0860     15.3817     78.2844
  1552.7500      2.8581   -369.1335     15.4758     76.4385
  1553.0000      2.8451   -369.3560     15.5695     73.3585
  1553.2500      2.8106   -369.7650     15.6653     71.5943
  1553.5000      2.7578   -370.3248     15.7609     70.1974
  1553.7500      2.7063   -370.9547     15.8496     70.1690
  1554.0000      2.6772   -371.5399     15.9240     70.9271
  1554.2500      2.6799   -371.9482     15.9802     71.5511
  1554.5000      2.7117   -372.0508     16.0209     72.2430
  1554.7500      2.7628   -371.7445     16.0565     72.4730
  1555.0000      2.8174   -370.9731     16.1008     72.5158
  1555.2500      2.8536   -369.7457     16.1649     72.4507
  1555.5000      2.8520   -368.1452     16.2513     72.6063
  1555.7500      2.8067   -366.3260     16.3540     73.1317
  1556.0000      2.7286   -364.4956     16.4661     74.5558
  1556.2500      2.6388   -362.8827     16.5866     75.5434
  1556.5000      2.5589   -361.6952     16.7185     76.2161
  1556.7500      2.5014   -361.0795     16.8630     75.9416
  1557.0000      2.4676   -361.0906     17.0156     74.8436
  1557.2500      2.4519   -361.6822     17.1687     73.9688
  1557.5000      2.4477   -362.7201     17.3156     72.6124
  1557.7500      2.4515   -364.0135     17.4507     71.6573
  1558.0000      2.4658   -365.3578     17.5680     70.3180
  1558.2500      2.5003   -366.5724     17.6629     69.7431
  1558.5000      2.5662   -367.5313     17.7364     69.7275
  1558.7500      2.6643   -368.1751     17.7975     70.2632
  1559.0000      2.7766   -368.5102     17.8600     71.4633
  1559.2500      2.8738   -368.5949     17.9363     72.2761
  1559.5000      2.9315   -368.5201     18.0297     73.4617
  1559.7500      2.9417   -368.3871     18.1310     74.3870
  1560.0000      2.9127   -368.2877     18.2197     75.9993
  1560.2500      2.8631   -368.2887     18.2730     76.8413
  1560.5000      2.8137   -368.4220     18.2768     76.7138
  1560.7500      2.7784   -368.6814     18.2321     75.3751
  1561.0000      2.7588   -369.0263     18.1541     72.0659
  1561.2500      2.7508   -369.3902     18.0641     69.8039
  1561.5000      2.7592   -369.6931     17.9807     67.4772
  1561.7500      2.8028   -369.8551     17.9143     66.7609
  1562.0000      2.8970   -369.8104     17.8677     66.3325
  1562.2500      3.0240   -369.5162     17.8401     65.9787
  1562.5000      3.1282   -368.9614     17.8302     64.7779
  1562.7500      3.1546   -368.1672     17.8367     63.5304
  1563.0000      3.0967   -367.1839     17.8589     61.6089
  1563.2500      3.0010   -366.0819     17.8972     60.8183
  1563.5000      2.9284   -364.9391     17.9540     60.8975
  1563.7500      2.9192   -363.8291     18.0297     61.6771
  1564.0000      2.9849   -362.8131     18.1162     63.2592
  1564.2500      3.1100   -361.9378     18.1894     64.1922
  1564.5000      3.2533   -361.2401     18.2071     65.0030
  1564.7500      3.3634   -360.7542     18.1135     65.1061
  1565.0000      3.4104   -360.5160     17.8528     65.0117
  1565.2500      3.4092   -360.5614     17.3926     65.4167
