~Version Information
VERS.                      2.0: CWLS Log ASCII Standard - VERSION 2.0
WRAP.                       NO: One line per depth step
~Well Information Block
STRT.FT                -8.2500: 
STOP.FT              1729.7500: 
STEP.FT                 0.2500: 
NULL.                -999.2500: 
COMP.          Pioneer Natural Resources: COMPANY
WELL.            Dude 43-34 Tr: WELL
FLD.           Purgatorie River: FIELD
LOC.           2083' FSL & 1042' FEL--: LOCATION
PROV.                       CO: PROVINCE
CNTY.               Las Animas: COUNTRY
SRVC.          Patterson Wireline: SERVICE COMPANY
DATE.          Tue Jan 31 09:23:54 2006: LOG DATE
UWI.           05 071 08676 00: UNIQUE WELL ID
~Curve Information Block
DEPT.FT            0 000 00 00: Depth
CCL.                          : Casing Collar Locator
TT3.usec                      : CBL 3' Travel Time
AMP3.mV                       : CBL 3' Amplitude
GR.GAPI                       : Gamma Ray
~Parameter Information Block
~A  Depth       CCL         TT3         AMP3         GR     
# ...
  1365.2500      0.0000    437.0198      6.1717    132.2962
  1365.5000      0.0000    422.3776      6.1101    133.3855
  1365.7500      0.0000    420.6683      6.0383    135.5677
  1366.0000      0.0000    432.9081      5.9463    137.1380
  1366.2500      0.0000    460.2846      5.8252    137.4984
  1366.5000      0.0000    497.6676      5.6800    137.6687
  1366.7500      0.0000    532.3434      5.5336    139.0285
  1367.0000      0.0000    551.3389      5.4162    141.7441
  1367.2500      0.0000    550.1649      5.3477    144.7766
  1367.5000      0.0000    534.6674      5.3278    147.1651
  1367.7500      0.0000    516.6127      5.3416    148.6865
  1368.0000      0.0000    507.6819      5.3707    149.2867
  1368.2500      0.0000    513.0314      5.4006    148.5948
  1368.5000      0.0000    526.7894      5.4223    146.3871
  1368.7500      0.0000    535.5778      5.4338    143.0960
  1369.0000      0.0000    530.9358      5.4370    139.5988
  1369.2500      0.0000    519.3636      5.4324    136.8102
  1369.5000      0.0000    517.0320      5.4175    135.3304
  1369.7500      0.0000    532.6693      5.3926    134.7018
  1370.0000      0.0000    557.6126      5.3685    133.1136
  1370.2500      0.0000    574.8120      5.3624    128.9834
  1370.5000      0.0000    576.6565      5.3858    123.2481
  1370.7500      0.0000    571.2745      5.4326    119.1864
  1371.0000      0.0000    570.3580      5.4808    119.5020
  1371.2500      0.0000    573.5454      5.5077    124.0217
  1371.5000      0.0000    568.8525      5.5044    130.2113
  1371.7500      0.0000    549.0599      5.4766    135.2174
  1372.0000      0.0000    524.1138      5.4320    137.3325
  1372.2500      0.0000    514.3804      5.3710    136.4672
  1372.5000      0.0000    532.1016      5.2927    134.0455
  1372.7500      0.0000    570.9226      5.2079    132.1076
  1373.0000      0.0000    612.8895      5.1388    131.6919
  1373.2500      0.0000    643.1266      5.0991    131.9503
  1373.5000      0.0000    657.4916      5.0822    131.2265
  1373.7500      0.0000    659.9007      5.0706    129.0460
  1374.0000      0.0000    656.2115      5.0521    126.8032
  1374.2500      0.0000    650.3947      5.0239    126.4231
  1374.5000      0.0000    643.5736      4.9826    128.4467
  1374.7500      0.0000    635.0701      4.9186    131.5043
  1375.0000      0.0000    624.6661      4.8247    133.6852
  1375.2500      0.0000    614.3113      4.7108    134.0988
  1375.5000      0.0000    607.1621      4.6069    133.0519
  1375.7500      0.0000    604.7549      4.5470    131.1638
  1376.0000      0.0000    605.8864      4.5451    128.5898
  1376.2500      0.0000    608.6978      4.5882    125.1010
  1376.5000      0.0000    612.8639      4.6498    120.8942
  1376.7500      0.0000    618.8804      4.7071    117.0757
  1377.0000      0.0000    625.8871      4.7491    115.0182
  1377.2500      0.0000    631.0632      4.7728    115.1926
  1377.5000      0.0000    630.9642      4.7801    116.6928
  1377.7500      0.0000    623.2280      4.7780    117.9474
  1378.0000      0.0000    607.8308      4.7770    117.8933
  1378.2500      0.0000    587.5920      4.7869    116.4757
  1378.5000      0.0000    567.2984      4.8109    114.3011
  1378.7500      0.0000    551.5100      4.8430    112.2943
  1379.0000      0.0000    542.2449      4.8718    111.6734
  1379.2500      0.0000    537.7515      4.8878    113.6109
  1379.5000      0.0000    533.2230      4.8893    118.3206
  1379.7500      0.0000    523.7489      4.8821    124.3000
  1380.0000      0.0000    508.0887      4.8742    128.7888
  1380.2500      0.0000    490.3412      4.8693    129.7347
  1380.5000      0.0000    477.9397      4.8658    127.8142
  1380.7500      0.0000    477.7254      4.8655    126.2904
  1381.0000      0.0000    493.1111      4.8758    128.4062
  1381.2500      0.0000    523.1688      4.9009    134.7462
  1381.5000      0.0000    562.6143      4.9335    143.1096
  1381.7500      0.0000    602.9277      4.9568    150.4652
  1382.0000      0.0000    635.7806      4.9518    154.5961
  1382.2500      0.0000    657.0690      4.9038    154.5146
  1382.5000      0.0000    667.9094      4.8108    150.3769
  1382.7500      0.0000    672.1138      4.6891    143.2368
  1383.0000      0.0000    673.1949      4.5667    134.4838
  1383.2500      0.0000    673.1680      4.4664    125.1272
  1383.5000      0.0000    672.8421      4.3940    115.3261
  1383.7500      0.0000    672.4520      4.3430    104.5642
  1384.0000      0.0000    672.0652      4.3052     92.5180
  1384.2500      0.0000    671.7319      4.2762     79.9073
  1384.5000      0.0000    671.4925      4.2519     68.3627
  1384.7500      0.0000    671.3607      4.2219     59.3482
  1385.0000      0.0000    671.3163      4.1698     53.1931
  1385.2500      0.0000    671.3248      4.0864     49.1426
  1385.5000      0.0000    671.3671      3.9866     46.3650
  1385.7500      0.0000    671.4513      3.9109     44.8316
  1386.0000      0.0000    671.5913      3.9011     45.0665
  1386.2500      0.0000    671.7738      3.9694     47.1030
  1386.5000      0.0000    671.9596      4.0946     50.0834
  1386.7500      0.0000    672.1235      4.2438     53.2535
  1387.0000      0.0000    672.2825      4.3906     57.1331
  1387.2500      0.0000    672.4726      4.5172     63.1913
  1387.5000      0.0000    672.7057      4.6132     72.2292
  1387.7500      0.0000    672.9647      4.6784     83.3886
  1388.0000      0.0000    673.2332      4.7208     94.7701
  1388.2500      0.0000    673.5061      4.7472    104.7801
  1388.5000      0.0000    673.7605      4.7586    112.9783
  1388.7500      0.0000    673.9406      4.7547    120.0071
  1389.0000      0.0000    673.9898      4.7413    126.9250
  1389.2500      0.0000    673.8923      4.7289    134.3990
  1389.5000      0.0000    673.6788      4.7244    142.0949
  1389.7500      0.0000    673.4014      4.7234    148.6397
  1390.0000      0.0000    673.1036      4.7157    152.4368
  1390.2500      0.0000    672.8011      4.6973    152.9346
  1390.5000      0.0000    672.4933      4.6767    151.1453
  1390.7500      0.0000    672.1949      4.6628    148.6539
  1391.0000      0.0000    671.9479      4.6506    146.1089
  1391.2500      0.0000    671.7905      4.6232    143.0735
  1391.5000      0.0000    671.7291      4.5712    139.2162
  1391.7500      0.0000    671.7565      4.5065    134.9445
  1392.0000      0.0000    671.8832      4.4489    130.6453
  1392.2500      0.0000    672.1112      4.4007    125.9259
  1392.5000      0.0000    672.3677      4.3424    119.9298
  1392.7500      0.0000    672.5078      4.2529    112.1399
  1393.0000      0.0000    672.4285      4.1278    102.9449
  1393.2500      0.0000    672.1711      3.9764     93.6299
  1393.5000      0.0000    671.8912      3.8094     85.4991
  1393.7500      0.0000    671.7471      3.6366     78.6427
  1394.0000      0.0000    671.8184      3.4725     71.7763
  1394.2500      0.0000    672.1209      3.3427     63.6517
  1394.5000      0.0000    672.7351      3.2810     54.5236
  1394.7500      0.0000    674.0849      3.3137     46.0330
  1395.0000      0.0000    677.0818      3.4364     39.8584
  1395.2500      0.0000    682.6647      3.6052     36.6544
  1395.5000      0.0000    690.9022      3.7637     35.9711
  1395.7500      0.0000    700.5796      3.8896     36.8137
  1396.0000      0.0000    709.6619      4.0117     38.2358
  1396.2500      0.0000    715.9837      4.1768     39.6514
  1396.5000      0.0000    717.9678      4.3983     41.0164
  1396.7500      0.0000    715.6656      4.6431     42.9997
  1397.0000      0.0000    711.2162      4.8670     46.7811
  1397.2500      0.0000    707.5105      5.0546     53.3781
  1397.5000      0.0000    705.9130      5.2240     63.1705
  1397.7500      0.0000    705.3923      5.4016     75.8343
  1398.0000      0.0000    703.6786      5.5978     90.3514
  1398.2500      0.0000    698.6721      5.7985    105.1811
  1398.5000      0.0000    688.4175      5.9753    118.7062
