~Version Information
 VERS.                                  2.0 : CWLS LAS VERSION
 WRAP.                                   NO : WRAPING MODE
 SWARE .                 MController 2.5.0J : SOFTWARE VERSION
~Well Information
 WELL.                  Lorencito 8-1-34-67 : WELL
 COMP.                              Pioneer : COMPANY
 FLD.                      Purgatoire River : FIELD
 LOC.                    1567 FNL & 500 FEL : LOCATION
 DATE.                                  N/A : DATE(S) LOGGED
 SRVC.                                  N/A : SERVICE COMPANY
 STAT.                             Colorado : STATE
 CNTY.                           Las Animas : COUNTY
 CTRY.                                 USA  : COUNTRY
 API.                           05-071-08506 : API NUMBER
 STRT.FT                             201.00 : START DEPTH
 STOP.FT                            1673.00 : STOP DEPTH
 STEP.FT                               1.00 : DEPTH INCREMENT
 NULL.                                -9999 : NULL VALUE
~Curve information
 DEPTH.FT                                   :
 ROP.MIN/FT                                 :
 GAS.UNITS                                  :
~ASCII Log data
       201.0     -9999.00          1.8 
       202.0         0.33          1.9 
       203.0         0.27          1.8 
       204.0         0.22          1.9 
       205.0         0.27          1.9 
       206.0         0.27          2.1 
       207.0         0.27          1.9 
       208.0         0.20          1.8 
       209.0         0.20          1.6 
       210.0         0.33          2.1 
       211.0         0.33          1.9 
       212.0         0.33          1.7 
       213.0         0.27          2.0 
       214.0         0.27          2.0 
       215.0         0.42          1.8 
       216.0         0.40          2.0 
       217.0         0.33          1.7 
       218.0         0.33          1.7 
       219.0         0.20          1.6 
       220.0         0.33          1.8 
       221.0         0.27          1.9 
       222.0         0.27          2.0 
       223.0         0.33          1.9 
       224.0         0.35          1.8 
       225.0         0.40          1.9 
       226.0         0.40          2.0 
       227.0         0.47          1.9 
       228.0         0.47          1.8 
       229.0         0.27          1.7 
       230.0         0.40          2.1 
       231.0         2.15          1.9 
       232.0         0.20          2.0 
       233.0         0.20          1.7 
       234.0         0.20          1.9 
       235.0         0.27          2.2 
       236.0         0.20          2.0 
       237.0         0.33          1.9 
       238.0         0.20          1.7 
       239.0         0.42          1.8 
       240.0         0.27          1.9 
       241.0         0.27          1.8 
       242.0         0.27          1.7 
       243.0         0.33          1.8 
       244.0         0.27          1.8 
       245.0         0.33          1.9 
       246.0         0.20          1.7 
       247.0         0.33          1.9 
       248.0         0.20          1.9 
       249.0         0.27          2.0 
       250.0         0.20          2.0 
       251.0         0.22          1.8 
       252.0         0.20          2.0 
       253.0         0.27          1.8 
       254.0         0.27          1.7 
       255.0         0.20          1.9 
       256.0         0.27          1.8 
       257.0         0.13          1.8 
       258.0         0.20          2.1 
       259.0         0.20          1.8 
       260.0         0.33          2.0 
       261.0         1.82          2.0 
       262.0         0.33          1.7 
       263.0         0.33          1.9 
       264.0         0.40          1.8 
       265.0         0.27          2.0 
       266.0         0.27          1.6 
       267.0         0.27          1.8 
       268.0         0.27          1.8 
       269.0         0.27          1.6 
       270.0         0.28          1.8 
       271.0         0.27          1.8 
       272.0         0.47          1.8 
       273.0         0.27          1.5 
       274.0         0.27          1.6 
       275.0         0.27          2.0 
       276.0         0.33          1.7 
       277.0         0.27          1.9 
       278.0         0.27          2.1 
       279.0         0.27          1.8 
       280.0         0.27          1.7 
       281.0         0.55          1.9 
       282.0         0.27          1.9 
       283.0         0.33          1.9 
       284.0         0.53          3.0 
       285.0         0.57          4.9 
       286.0         0.33          4.7 
       287.0         0.40          4.8 
       288.0         0.33          4.4 
       289.0         0.27          4.5 
       290.0         0.35          4.0 
       291.0         1.60          4.0 
       292.0         0.33          1.9 
       293.0         0.33          0.8 
       294.0         0.37          0.5 
       295.0         0.30          0.4 
       296.0         0.35          5.7 
       297.0         0.27         12.9 
       298.0         0.33         12.5 
       299.0         0.37          8.6 
       300.0         0.33          9.3 
       301.0         0.40          9.8 
       302.0         0.40          9.5 
       303.0         0.33          7.2 
       304.0         0.33          4.6 
       305.0         0.28          3.3 
       306.0         0.40          2.7 
       307.0         0.40          2.4 
       308.0         0.40          2.1 
       309.0         0.33          2.1 
       310.0         0.33          2.7 
       311.0         0.33          2.6 
       312.0         0.33          2.2 
       313.0         0.33          2.3 
       314.0         0.33          2.1 
       315.0         0.45          2.0 
       316.0         0.40          4.7 
       317.0         0.33          7.6 
       318.0         0.33          6.9 
       319.0         0.27          5.2 
       320.0         0.27          3.2 
       321.0         1.85          2.1 
       322.0         0.60          3.8 
       323.0         0.27          2.6 
       324.0         0.30          2.7 
       325.0         0.27          5.5 
       326.0         0.27          4.7 
       327.0         0.23          4.2 
       328.0         0.23          3.8 
       329.0         0.30          3.0 
       330.0         0.27          2.7 
       331.0         0.25          2.7 
       332.0         0.23          2.4 
       333.0         0.23          2.5 
       334.0         0.23          2.3 
       335.0         0.23          2.1 
       336.0         0.20          2.2 
       337.0         0.13          1.6 
       338.0         0.10          1.8 
       339.0         0.07          1.8 
       340.0         0.13          2.0 
       341.0         0.07          1.7 
       342.0         0.17          2.2 
       343.0         0.17          2.4 
       344.0         0.17          4.6 
       345.0         0.30         57.4 
       346.0         0.23         94.3 
       347.0         0.27        120.6 
       348.0         0.25        124.7 
       349.0         0.23        123.2 
       350.0         0.40        118.0 
       351.0         3.85        107.9 
       352.0         0.33        191.4 
       353.0         0.37        245.5 
       354.0         0.27        210.0 
       355.0         0.23        151.6 
       356.0         0.27        122.3 
       357.0         0.23        101.3 
       358.0         0.20         87.9 
       359.0         0.22         78.0 
       360.0         0.13         68.6 
       361.0         0.17         65.5 
       362.0         0.27         60.3 
       363.0         0.20         56.4 
       364.0         0.23         54.7 
       365.0         0.37         55.6 
       366.0         0.33         56.2 
       367.0         0.33         55.8 
       368.0         0.30         53.6 
       369.0         0.30         52.6 
       370.0         0.27         52.0 
       371.0         0.23         51.6 
       372.0         0.25         51.3 
       373.0         0.23         50.9 
       374.0         0.13         50.2 
       375.0         0.13         50.1 
       376.0         0.13         49.8 
       377.0         0.17         49.6 
       378.0         0.13         49.1 
       379.0         0.17         48.9 
       380.0         0.17         48.3 
       381.0         7.30         56.3 
       382.0         0.30        199.8 
       383.0         0.47        207.7 
       384.0         0.23        132.4 
       385.0         0.22         98.0 
       386.0         0.13         77.9 
       387.0         0.20         67.4 
       388.0         0.33         58.5 
       389.0         0.33         50.1 
       390.0         0.27         43.4 
       391.0         0.20         39.9 
       392.0         0.13         36.9 
       393.0         0.17         36.0 
       394.0         0.23         36.5 
       395.0         0.23         38.7 
       396.0         0.27         39.5 
       397.0         0.30         39.8 
       398.0         0.20         39.5 
       399.0         0.23         38.2 
       400.0         0.32         37.3 
