~Version Information
VERS.                      2.0: CWLS Log ASCII Standard - VERSION 2.0
WRAP.                       NO: One line per depth step
~Well Information Block
STRT.FT                 0.0000: 
STOP.FT              1528.0000: 
STEP.FT                 0.1000: 
NULL.                -999.2500: 
COMP.          Pioneer Natural Resources: COMPANY
WELL.             Andrew 23-15: WELL
FLD.           Purgatorie River: FIELD
LOC.           2137' FSL & 2292' FWL: LOCATION
PROV.                 Colorado: PROVINCE
CNTY.               Las Animas: COUNTRY
SRVC.                Patterson: SERVICE COMPANY
DATE.          Sat Aug 13 12:06:57 2005: LOG DATE
UWI.                          : UNIQUE WELL ID
~Curve Information Block
DEPT.FT            0 000 00 00: Depth
DCAL.in                       : CDL Caliper
RHOB.g/cc                     : CDL Bulk Density
RHOC.g/cc                     : CDL Density Correction
DPOR.pu                       : CDL Density Porosity
GR.GAPI                       : Gamma Ray
NPOR.pu                       : Neutron Porosity
~Parameter Information Block
~A  Depth       DCAL        RHOB        RHOC        DPOR         GR         NPOR    
# ...
  1008.0000      7.9665      2.5491      0.1107      6.1162    131.3213     23.5866
  1008.1000      7.9665      2.5389      0.0587      6.7341    137.2935     23.4869
  1008.2000      7.9665      2.5402      0.1074      6.6567    139.9060     23.2911
  1008.3000      7.9450      2.5456      0.0789      6.3257    138.3699     23.1533
  1008.4000      7.9450      2.5517      0.0852      5.9554    134.7351     23.2357
  1008.5000      7.9372      2.5559      0.0804      5.7011    131.8623     23.4808
  1008.6000      7.9372      2.5506      0.1098      6.0246    131.4735     23.6495
  1008.7000      7.9372      2.5388      0.0817      6.7389    131.1280     23.4987
  1008.8000      7.9445      2.5296      0.0904      7.2957    128.2898     23.3620
  1008.9000      7.9445      2.5204      0.1296      7.8545    124.2006     23.7916
  1009.0000      7.9573      2.5102      0.0416      8.4753    120.6870     24.5605
  1009.1000      7.9573      2.5104      0.0491      8.4607    116.9535     25.2014
  1009.2000      7.9573      2.5238      0.0209      7.6501    113.6361     25.7533
  1009.3000      8.0220      2.5413      0.0353      6.5877    113.2721     26.3117
  1009.4000      8.0220      2.5560      0.0486      5.6986    114.9190     26.5157
  1009.5000      8.0179      2.5654      0.0125      5.1294    117.7485     26.1338
  1009.6000      8.0179      2.5632      0.0680      5.2629    122.1494     25.5462
  1009.7000      8.0179      2.5375      0.0296      6.8161    126.4947     24.8833
  1009.8000      8.0456      2.4786      0.0169     10.3909    129.6303     23.8591
  1009.9000      8.0456      2.3793     -0.0073     16.4083    133.0217     22.4657
  1010.0000      7.9923      2.2504     -0.0911     24.2211    137.2221     20.9069
  1010.1000      7.9923      2.1137     -0.1041     32.5023    139.5454     19.1425
  1010.2000      7.9923      1.9773     -0.1317     40.7723    138.1644     17.2927
  1010.3000      7.9790      1.8528     -0.1083     48.3163    136.7686     15.9988
  1010.4000      7.9790      1.7700     -0.1223     53.3349    139.1721     15.6634
  1010.5000      7.9900      1.7517     -0.1010     54.4406    142.8498     16.0464
  1010.6000      7.9900      1.7931      0.0866     51.9325    143.7985     16.6561
  1010.7000      7.9900      1.8696      0.1773     47.2942    141.2072     17.1403
  1010.8000      8.0987      1.9592      0.2873     41.8672    137.6302     17.6666
  1010.9000      8.0987      2.0570      0.2174     35.9409    135.5355     18.7077
  1011.0000      8.1337      2.1709      0.2848     29.0376    134.7776     20.1760
  1011.1000      8.1337      2.2862      0.3349     22.0461    135.8600     21.6639
  1011.2000      8.1337      2.3739      0.3195     16.7350    139.8424     23.0489
  1011.3000      8.1225      2.4283      0.2392     13.4379    146.3504     24.2721
  1011.4000      8.1225      2.4625      0.1714     11.3649    152.2804     25.1318
  1011.5000      8.0610      2.4822      0.1709     10.1685    155.1849     25.5477
  1011.6000      8.0610      2.4851      0.1383      9.9925    157.9809     25.6946
  1011.7000      8.0610      2.4712      0.1188     10.8368    163.8492     25.7488
  1011.8000      8.2271      2.4505      0.0853     12.0931    169.8305     25.8387
  1011.9000      8.2271      2.4403      0.1409     12.7082    172.0224     25.9205
  1012.0000      8.2408      2.4500      0.1211     12.1203    170.6106     25.7500
  1012.1000      8.2408      2.4764      0.1290     10.5193    167.2445     25.3911
  1012.2000      8.2408      2.5093      0.1473      8.5250    165.0834     25.1721
  1012.3000      8.2052      2.5452      0.1466      6.3487    166.7540     25.1593
  1012.4000      8.2052      2.5862      0.1904      3.8653    169.2059     25.2961
  1012.5000      8.2382      2.6320      0.2225      1.0936    168.8545     25.6016
  1012.6000      8.2382      2.6777      0.3101     -1.6777    166.7615     25.9840
  1012.7000      8.2382      2.7120      0.3157     -3.7569    164.6402     26.3060
  1012.8000      8.3710      2.7224      0.3306     -4.3888    162.1783     26.5546
  1012.9000      8.3710      2.7021      0.2630     -3.1605    158.2257     26.8334
  1013.0000      8.4673      2.6642      0.1586     -0.8587    154.7281     27.2366
  1013.1000      8.4673      2.6321      0.0926      1.0861    155.1865     27.6309
  1013.2000      8.4673      2.6156      0.0437      2.0831    157.2003     27.8368
  1013.3000      8.3462      2.6098      0.0515      2.4342    153.9299     28.0009
  1013.4000      8.3462      2.6071      0.0599      2.5970    145.6893     28.2331
  1013.5000      8.2341      2.6098      0.0259      2.4385    139.6900     28.3488
  1013.6000      8.2341      2.6211      0.0556      1.7499    139.5553     28.2507
  1013.7000      8.2341      2.6279      0.0471      1.3400    143.2099     28.0266
  1013.8000      8.1799      2.6178      0.0485      1.9532    147.0810     27.8331
  1013.9000      8.1799      2.5981      0.0373      3.1436    150.9881     27.7254
  1014.0000      8.1489      2.5816      0.0530      4.1463    155.1833     27.6003
  1014.1000      8.1489      2.5751      0.0209      4.5403    156.6262     27.3338
  1014.2000      8.1489      2.5789      0.0396      4.3065    155.8061     26.9594
  1014.3000      8.1694      2.5807      0.0481      4.1980    157.1983     26.7313
  1014.4000      8.1694      2.5712      0.0240      4.7786    159.0172     26.8437
  1014.5000      8.1812      2.5564      0.0414      5.6711    158.0428     27.1188
  1014.6000      8.1812      2.5478     -0.0029      6.1965    156.7612     27.1330
  1014.7000      8.1812      2.5505      0.0240      6.0316    156.4606     26.7382
  1014.8000      8.1338      2.5630      0.0182      5.2735    156.8003     26.1464
  1014.9000      8.1338      2.5827      0.0630      4.0811    159.3097     25.7765
  1015.0000      8.1371      2.5986      0.0967      3.1146    162.4212     25.9785
  1015.1000      8.1371      2.5979      0.0914      3.1588    162.7881     26.5222
  1015.2000      8.1371      2.5851      0.0475      3.9358    160.9683     26.8383
  1015.3000      8.1302      2.5755      0.0600      4.5142    159.5269     26.7490
  1015.4000      8.1302      2.5788      0.0408      4.3163    158.5531     26.5368
  1015.5000      8.1511      2.5937      0.0828      3.4143    157.1485     26.4792
  1015.6000      8.1511      2.6123      0.0634      2.2860    154.8728     26.7443
  1015.7000      8.1511      2.6307      0.0846      1.1700    151.0261     27.3111
  1015.8000      8.1363      2.6450      0.0953      0.3017    146.0025     27.8166
  1015.9000      8.1363      2.6528      0.0996     -0.1721    140.6138     27.9356
  1016.0000      8.1362      2.6631      0.0864     -0.7923    134.4471     27.8455
  1016.1000      8.1362      2.6817      0.1008     -1.9187    128.7972     27.9795
  1016.2000      8.1362      2.6975      0.0808     -2.8812    126.7106     28.3287
  1016.3000      8.1417      2.6990      0.1289     -2.9690    130.1392     28.4611
  1016.4000      8.1417      2.6909      0.0383     -2.4798    136.1378     28.2148
  1016.5000      8.1246      2.6870      0.0753     -2.2451    139.8452     27.9122
  1016.6000      8.1246      2.6897      0.0524     -2.4054    141.5791     27.7775
  1016.7000      8.1246      2.6901      0.0706     -2.4312    144.0662     27.5528
  1016.8000      8.1270      2.6803      0.0817     -1.8385    146.1397     27.0846
  1016.9000      8.1270      2.6601      0.0523     -0.6120    147.0624     26.6806
  1017.0000      8.1562      2.6381     -0.0181      0.7233    148.8303     26.4290
  1017.1000      8.1562      2.6230      0.0618      1.6374    151.3086     26.0250
  1017.2000      8.1562      2.6095      0.0515      2.4542    153.2011     25.4797
  1017.3000      8.1785      2.5917      0.0521      3.5330    154.7073     25.1677
  1017.4000      8.1785      2.5713      0.0702      4.7711    155.1927     25.1701
  1017.5000      8.1692      2.5487      0.0627      6.1405    155.4758     25.3818
