~Version Information
 VERS.                                  2.0 : CWLS LAS VERSION
 WRAP.                                   NO : WRAPING MODE
 SWARE .                 MController 2.5.0J : SOFTWARE VERSION
~Well Information
 WELL.                      Buffet 41-36 Tr : WELL
 COMP.    Pioneer Natural Resources USA Inc : COMPANY
 FLD.                      Purgatoire River : FIELD
 LOC.                NE/NE Sec 36 T32S R67W : LOCATION
 DATE.                             12/28/05 : DATE(S) LOGGED
 SRVC.       BLANCO Geological Services LLC : SERVICE COMPANY
 STAT.                                   CO : STATE
 CNTY.                           Las Animas : COUNTY
 CTRY.                                  USA : COUNTRY
 API.                       05-071-08627-00 : API NUMBER
 STRT.FT                             287.00 : START DEPTH
 STOP.FT                            1373.00 : STOP DEPTH
 STEP.FT                               1.00 : DEPTH INCREMENT
 NULL.                                -9999 : NULL VALUE
~Curve information
 DEPTH.FT                                   :
 ROP.MIN/FT                                 :
 GAS.UNITS                                  :
~ASCII Log data
# ...
       487.0         0.72          4.1 
       488.0         0.70          4.1 
       489.0         0.73          4.0 
       490.0         0.67          4.7 
       491.0         0.78          4.6 
       492.0         0.77          4.7 
       493.0         0.83          5.0 
       494.0         0.77          5.0 
       495.0         0.85          4.8 
       496.0         0.83          4.6 
       497.0         0.67          4.3 
       498.0         0.63          4.4 
       499.0         0.72          4.7 
       500.0         0.77          4.6 
       501.0         0.77          4.8 
       502.0         4.93          5.8 
       503.0         0.67          5.8 
       504.0         0.37          5.9 
       505.0         0.43          5.4 
       506.0         0.43          5.4 
       507.0         0.40          5.2 
       508.0         0.38          5.3 
       509.0         0.37          5.1 
       510.0         0.37          5.2 
       511.0         0.37          5.3 
       512.0         0.37          5.1 
       513.0         0.40          5.1 
       514.0         0.40          5.2 
       515.0         0.40          5.0 
       516.0         0.40          5.2 
       517.0         0.45          5.2 
       518.0         0.47          5.2 
       519.0         0.40          4.8 
       520.0         0.40          5.2 
       521.0         0.43          4.9 
       522.0         0.40          4.9 
       523.0         0.47          5.2 
       524.0         0.40          5.5 
       525.0         0.48          5.3 
       526.0         0.43          5.4 
       527.0         0.43          5.2 
       528.0         0.47          5.3 
       529.0         0.43          5.3 
       530.0         0.47          5.6 
       531.0         0.50          5.3 
       532.0         3.47          6.0 
       533.0         0.50          5.7 
       534.0         0.60          6.0 
       535.0         0.43          5.8 
       536.0         0.43          6.1 
       537.0         0.47          6.1 
       538.0         0.48          6.6 
       539.0         0.43          6.1 
       540.0         0.47          5.8 
       541.0         0.47          5.8 
       542.0         0.37          6.0 
       543.0         0.40          6.0 
       544.0         0.35          6.3 
       545.0         0.27          6.5 
       546.0         0.27          6.3 
       547.0         0.30          6.0 
       548.0         0.30          5.6 
       549.0         0.33          5.8 
       550.0         0.33          6.2 
       551.0         0.27          6.3 
       552.0         0.40          6.4 
       553.0         0.30          6.3 
       554.0         0.38          6.2 
       555.0         0.40          6.2 
       556.0         0.30          6.1 
       557.0         0.47          6.1 
       558.0         0.30          6.0 
       559.0         0.40          5.4 
       560.0         0.43          5.6 
       561.0         0.35          5.9 
       562.0         2.60          7.0 
       563.0         0.35          6.7 
       564.0         0.57          6.5 
       565.0         0.63          6.4 
       566.0         0.53          6.5 
       567.0         0.40          6.9 
       568.0         0.47          6.7 
       569.0         0.48          6.7 
       570.0         0.47          6.6 
       571.0         0.43          6.4 
       572.0         0.53          6.6 
       573.0         0.53          6.6 
       574.0         0.37          6.6 
       575.0         0.30          6.4 
       576.0         0.27          6.7 
       577.0         0.32          6.4 
       578.0         0.27          6.4 
       579.0         0.30          6.3 
       580.0         0.30          6.2 
       581.0         0.30          6.2 
       582.0         0.30          6.2 
       583.0         0.30          6.2 
       584.0         0.30          6.3 
       585.0         0.30          6.4 
       586.0         0.30          6.4 
       587.0         0.33          6.2 
       588.0         0.35          6.4 
       589.0         0.47          6.4 
       590.0         0.33          6.3 
       591.0         0.33          6.2 
       592.0         3.68          6.8 
       593.0         0.50          6.6 
       594.0         0.53          6.5 
       595.0         0.58          6.6 
       596.0         0.57          6.2 
       597.0         0.60          6.5 
       598.0         0.50          6.6 
       599.0         0.50          6.2 
       600.0         0.50          5.9 
       601.0         0.30          6.4 
       602.0         0.32          6.2 
       603.0         0.30          6.2 
       604.0         0.30          6.5 
       605.0         0.30          6.7 
       606.0         0.37          6.6 
       607.0         0.43          6.8 
       608.0         0.40          7.1 
       609.0         0.40          6.8 
       610.0         0.40          6.9 
       611.0         0.45          6.5 
       612.0         0.37          6.8 
       613.0         0.43          7.1 
       614.0         0.40          6.7 
       615.0         0.40          6.6 
       616.0         0.37          6.4 
       617.0         0.40          6.6 
       618.0         0.40          6.7 
       619.0         0.35          6.5 
       620.0         0.40          6.6 
       621.0         0.37          6.7 
       622.0         3.48          7.0 
       623.0         0.63          6.6 
       624.0         0.47          6.5 
       625.0         0.40          6.7 
       626.0         0.43          6.7 
       627.0         0.45          6.6 
       628.0         0.43          6.8 
       629.0         0.43          6.6 
       630.0         0.30          6.7 
       631.0         0.33          6.4 
       632.0         0.47          6.5 
       633.0         0.47          6.2 
       634.0         0.47          6.0 
       635.0         0.38          6.1 
       636.0         0.33          6.1 
       637.0         0.30          5.6 
       638.0         0.23          5.6 
       639.0         0.20          5.6 
       640.0         0.20          6.0 
       641.0         0.27          6.1 
       642.0         0.33          6.1 
       643.0         0.40          5.8 
       644.0         0.47          5.5 
       645.0         0.52          5.7 
       646.0         0.40          5.7 
       647.0         0.37          6.0 
       648.0         0.40          5.6 
       649.0         0.40          5.4 
       650.0         0.37          5.7 
       651.0         0.30          5.6 
       652.0         2.62          6.3 
       653.0         0.33          6.1 
       654.0         0.33          6.0 
       655.0         0.30          5.5 
       656.0         0.35          6.3 
       657.0         0.33          6.2 
       658.0         0.33          6.0 
       659.0         0.33          5.7 
       660.0         0.30          5.4 
       661.0         0.33          5.1 
       662.0         0.50          5.1 
       663.0         0.40          5.1 
       664.0         0.40          5.4 
       665.0         0.42          5.1 
       666.0         0.40          5.1 
       667.0         0.43          5.1 
       668.0         0.40          5.0 
       669.0         0.33          5.2 
       670.0         0.27          5.0 
       671.0         0.27          5.1 
       672.0         0.33          4.9 
       673.0         0.33          4.3 
       674.0         0.38          3.8 
       675.0         0.30          4.2 
       676.0         0.30          4.3 
       677.0         0.33          4.7 
       678.0         0.30          4.9 
       679.0         0.30          5.1 
       680.0         0.30          5.2 
       681.0         0.27          5.3 
       682.0         2.75          4.5 
       683.0         0.33          4.3 
       684.0         0.42          4.0 
       685.0         0.40          4.0 
       686.0         0.47          3.8 
