~Version Information
 VERS.                                  2.0 : CWLS LAS VERSION
 WRAP.                                   NO : WRAPING MODE
 SWARE .                 MController 2.5.0N : SOFTWARE VERSION
~Well Information
 WELL.               Bear Cub Federal 11-23 : WELL
 COMP.    Pioneer Natural Resources USA Inc : COMPANY
 FLD.                      Purgatoire River : FIELD
 LOC.                 NW/NW Sec23 T33S R67W : LOCATION
 DATE.                          06/18-19/06 : DATE(S) LOGGED
 SRVC.       Blanco Geological Services LLC : SERVICE COMPANY
 STAT.                             Colorado : STATE
 CNTY.                           Las Animas : COUNTY
 CTRY.                                  USA : COUNTRY
 API.                       05-071-08509-00 : API NUMBER
 STRT.FT                             475.00 : START DEPTH
 STOP.FT                            2220.00 : STOP DEPTH
 STEP.FT                               1.00 : DEPTH INCREMENT
 NULL.                                -9999 : NULL VALUE
~Curve information
 DEPTH.FT                                   :
 ROP.MIN/FT                                 :
 GAS.UNITS                                  :
~ASCII Log data
# ...
       675.0         0.33          8.6 
       676.0         0.10          8.0 
       677.0         0.23          8.0 
       678.0         0.13          7.4 
       679.0         0.10          7.4 
       680.0         0.10          7.2 
       681.0         0.17          7.2 
       682.0         0.30          8.5 
       683.0         0.20          9.3 
       684.0         0.27          9.5 
       685.0         0.77          8.9 
       686.0         3.18          9.8 
       687.0         0.20          8.2 
       688.0         0.27          9.2 
       689.0         0.27         10.4 
       690.0         0.32         11.9 
       691.0         0.33         11.0 
       692.0         0.30          8.3 
       693.0         0.27          7.3 
       694.0         0.23          6.9 
       695.0         0.13          6.9 
       696.0         0.17          8.7 
       697.0         0.13          8.7 
       698.0         0.23          8.5 
       699.0         0.17          8.8 
       700.0         0.20          8.6 
       701.0         0.27          9.0 
       702.0         0.17          8.9 
       703.0         0.20          8.9 
       704.0         0.35          7.3 
       705.0         0.47          7.8 
       706.0         0.33          8.3 
       707.0         0.40          9.1 
       708.0         0.30          8.8 
       709.0         0.33          9.9 
       710.0         0.37          8.9 
       711.0         0.53          8.0 
       712.0         0.47          9.3 
       713.0         0.62          9.9 
       714.0         0.17          7.5 
       715.0         0.23          7.5 
       716.0         1.10          8.5 
       717.0         0.37          7.9 
       718.0         0.30          8.3 
       719.0         0.27          7.9 
       720.0         0.27          8.7 
       721.0         0.28          7.4 
       722.0         0.30          8.0 
       723.0         0.27          8.7 
       724.0         0.23          8.2 
       725.0         0.27          8.7 
       726.0         0.27          8.2 
       727.0         0.27          7.4 
       728.0         0.33          8.6 
       729.0         0.27          8.7 
       730.0         0.27          8.7 
       731.0         0.27          8.0 
       732.0         0.27          8.5 
       733.0         0.32          8.6 
       734.0         0.30          8.3 
       735.0         0.30          8.1 
       736.0         0.27          6.7 
       737.0         0.40          6.1 
       738.0         0.63          8.6 
       739.0         0.60         10.1 
       740.0         0.53          8.3 
       741.0         0.58          9.5 
       742.0         0.30          8.1 
       743.0         0.30          8.5 
       744.0         0.23          8.0 
       745.0         0.43          7.1 
       746.0         1.52          8.7 
       747.0         0.43          7.4 
       748.0         0.43          7.5 
       749.0         0.33          7.6 
       750.0         0.37          8.1 
       751.0         0.43          8.3 
       752.0         0.45          7.4 
       753.0         0.43          8.0 
       754.0         0.47          8.9 
       755.0         0.43          8.8 
       756.0         0.43         10.4 
       757.0         0.53          8.0 
       758.0         0.43          8.7 
       759.0         0.13          7.9 
       760.0         0.23          8.3 
       761.0         0.25          8.0 
       762.0         0.13          9.1 
       763.0         0.17          8.6 
       764.0         0.17          8.6 
       765.0         0.20          9.6 
       766.0         0.17          9.4 
       767.0         0.20          9.4 
       768.0         0.17          8.6 
       769.0         0.17          8.5 
       770.0         0.17          8.6 
       771.0         0.40          8.5 
       772.0         0.37          9.9 
       773.0         0.27          8.7 
       774.0         0.27          8.6 
       775.0         0.27          9.0 
       776.0         0.82          9.0 
       777.0         0.20          8.2 
       778.0         0.20          8.8 
       779.0         0.10          8.8 
       780.0         0.40          9.1 
       781.0         0.47          9.5 
       782.0         0.33         10.0 
       783.0         0.33         11.6 
       784.0         0.27         12.5 
       785.0         0.27         13.1 
       786.0         0.32         14.0 
       787.0         0.37         14.6 
       788.0         0.17         16.7 
       789.0         0.13         17.7 
       790.0         0.23         19.2 
       791.0         0.20         21.0 
       792.0         0.20         20.7 
       793.0         0.23         23.3 
       794.0         0.23         26.2 
       795.0         0.23         27.7 
       796.0         0.30         27.9 
       797.0         0.37         26.8 
       798.0         0.43         30.8 
       799.0         0.28         26.2 
       800.0         0.33         15.9 
       801.0         0.27         16.4 
       802.0         0.30         16.4 
       803.0         0.17         17.5 
       804.0         0.27         21.9 
       805.0         0.43         43.4 
       806.0         1.10         53.6 
       807.0         0.35         45.9 
       808.0         0.37         35.7 
       809.0         0.27         26.0 
       810.0         0.33         44.1 
       811.0         0.10         46.1 
       812.0         0.10         48.8 
       813.0         0.33         48.6 
       814.0         0.27         42.9 
       815.0         0.17         42.6 
       816.0         0.17         42.1 
       817.0         0.17         40.2 
       818.0         0.13         40.2 
       819.0         0.10         38.6 
       820.0         0.10         37.2 
       821.0         0.13         37.2 
       822.0         0.20         37.9 
       823.0         0.17         37.0 
       824.0         0.25         35.2 
       825.0         0.17         33.1 
       826.0         0.20         29.0 
       827.0         0.20         29.8 
       828.0         0.20         32.9 
       829.0         0.23         27.9 
       830.0         0.17         23.2 
       831.0         0.20         24.2 
       832.0         0.17         20.3 
       833.0         0.23         18.8 
       834.0         0.30         19.1 
       835.0         0.23         21.7 
       836.0         1.65         74.7 
       837.0         0.37         69.4 
       838.0         0.43         48.4 
       839.0         0.17         37.8 
       840.0         0.17         35.4 
       841.0         0.42         35.0 
       842.0         0.30         33.2 
       843.0         0.27         32.2 
       844.0         0.23         32.2 
       845.0         0.17         31.7 
       846.0         0.13         31.7 
       847.0         0.13         31.7 
       848.0         0.13         30.3 
       849.0         0.13         30.3 
       850.0         0.20         30.8 
       851.0         0.20         31.2 
       852.0         0.20         31.0 
       853.0         0.17         30.2 
       854.0         0.20         30.0 
       855.0         0.17         30.0 
       856.0         0.20         29.1 
       857.0         0.28         28.5 
       858.0         0.23         27.2 
       859.0         0.23         24.0 
       860.0         0.23         16.2 
       861.0         0.20         11.7 
       862.0         0.27         11.7 
       863.0         0.23         11.7 
       864.0         0.23         11.9 
       865.0         0.23         12.0 
       866.0         1.82         34.2 
       867.0         0.17         30.4 
       868.0         0.17         31.0 
       869.0         0.07         31.0 
       870.0         0.37         25.4 
       871.0         0.30         30.2 
       872.0         0.43         44.2 
       873.0         0.38         46.2 
       874.0         0.17         45.0 
