~Version Information
VERS.                      2.0: CWLS Log ASCII Standard - VERSION 2.0
WRAP.                       NO: One line per depth step
~Well Information Block
STRT.FT               505.0000: 
STOP.FT               770.5000: 
STEP.FT                 0.1000: 
NULL.                -999.2500: 
COMP.          Pioneer Natural Resources: COMPANY
WELL.                Zed 11-23: WELL
FLD.           Purgatoire River: FIELD
LOC.           641' FNL & 952' FWL: LOCATION
CNTY.               Las Animas: COUNTY
SRVC.                Patterson: SERVICE COMPANY
DATE.          Mon Feb 27 07:12:43 2006: LOG DATE
UWI.           05 071 08702 00: UNIQUE WELL ID
STAT.                 Colorado: STATE
~Curve Information Block
DEPT.FT            0 000 00 00: Depth
DCAL.in                       : CDL Caliper
RHOB.g/cc                     : CDL Bulk Density
RHOC.g/cc                     : CDL Density Correction
DPOR.pu                       : CDL Density Porosity
GR.GAPI                       : Gamma Ray
NPOR.pu                       : Neutron Porosity
~Parameter Information Block
~A  Depth       DCAL        RHOB        RHOC        DPOR         GR         NPOR    
# ...
   601.0000      8.2268      1.5617      0.0391     65.9600     48.3503     35.3823
   601.1000      8.2268      1.6870      0.1001     58.3610     49.8055     35.1227
   601.2000      8.2268      1.8400      0.1811     49.0885     53.1616     34.7677
   601.3000      8.3418      1.9884      0.1904     40.0955     59.5543     34.3627
   601.4000      8.3418      2.1148      0.2171     32.4362     66.0776     33.6002
   601.5000      8.2094      2.2187      0.2148     26.1374     68.7505     32.5328
   601.6000      8.2094      2.3035      0.2115     20.9990     69.2891     31.7568
   601.7000      8.2094      2.3730      0.1914     16.7867     72.5453     31.4624
   601.8000      8.1246      2.4276      0.1188     13.4770     79.7229     31.1252
   601.9000      8.1246      2.4646      0.0948     11.2334     88.7590     30.4546
   602.0000      8.0475      2.4822      0.0305     10.1704     97.5412     29.5238
   602.1000      8.0475      2.4869      0.0232      9.8879    106.6591     28.4639
   602.2000      8.0475      2.4926      0.0333      9.5402    114.4998     27.8003
   602.3000      7.9771      2.5084      0.0648      8.5815    117.0923     27.8120
   602.4000      7.9771      2.5259      0.0727      7.5191    116.8744     27.8455
   602.5000      7.9341      2.5316      0.0932      7.1776    115.0057     27.3977
   602.6000      7.9341      2.5303      0.0512      7.2524    109.7569     27.0825
   602.7000      7.9341      2.5357      0.0520      6.9292    103.3214     27.2440
   602.8000      7.9107      2.5441      0.0804      6.4207     97.1252     27.4124
   602.9000      7.9107      2.5479      0.0208      6.1865     90.4257     27.5975
   603.0000      7.9198      2.5564      0.0567      5.6741     88.5852     27.9881
   603.1000      7.9198      2.5735      0.0721      4.6354     95.7197     27.8903
   603.2000      7.9198      2.5821      0.0848      4.1125    103.7176     26.6054
   603.3000      7.9243      2.5727      0.0495      4.6867    105.8167     24.9849
   603.4000      7.9243      2.5556      0.0569      5.7221    102.6072     24.5099
   603.5000      7.9239      2.5348      0.0746      6.9823     96.2719     25.5369
   603.6000      7.9239      2.5176      0.0080      8.0237     91.7107     27.3710
   603.7000      7.9239      2.5231      0.0315      7.6898     94.3732     28.6524
   603.8000      7.9374      2.5454      0.0543      6.3368     99.8642     28.8041
   603.9000      7.9374      2.5543      0.0348      5.8007    100.9832     29.0473
   604.0000      7.9288      2.5393      0.0249      6.7079    104.6335     29.9889
   604.1000      7.9288      2.5208      0.0208      7.8317    116.5086     30.4090
   604.2000      7.9288      2.5149      0.0391      8.1906    125.7358     29.5911
   604.3000      7.9010      2.5225      0.0655      7.7270    122.0685     28.1089
   604.4000      7.9010      2.5471      0.0200      6.2361    111.5614     27.0966
   604.5000      7.9408      2.5764      0.0981      4.4632    103.0710     27.1171
   604.6000      7.9408      2.5734      0.1061      4.6444     96.3178     27.8568
   604.7000      7.9408      2.5354      0.0505      6.9474     93.9837     28.7336
   604.8000      7.9482      2.4999      0.0374      9.0981    101.3321     29.6107
   604.9000      7.9482      2.4920      0.0020      9.5754    115.3571     30.4366
   605.0000      7.9354      2.5086      0.0360      8.5685    126.6477     30.9105
   605.1000      7.9354      2.5256      0.0345      7.5404    128.5402     30.9978
   605.2000      7.9354      2.5246      0.0430      7.6002    125.3363     30.4773
   605.3000      7.9127      2.5119      0.0808      8.3722    123.2679     29.7488
   605.4000      7.9127      2.4935      0.0884      9.4873    123.1759     29.7093
   605.5000      7.8959      2.4673      0.0669     11.0701    128.4857     30.0687
   605.6000      7.8959      2.4411      0.0557     12.6622    138.6399     30.0690
   605.7000      7.8959      2.4308      0.0805     13.2858    143.2406     29.5895
   605.8000      7.8882      2.4427      0.0604     12.5633    138.6482     29.1781
   605.9000      7.8882      2.4626      0.0943     11.3589    131.9971     29.2002
   606.0000      7.8868      2.4743      0.0830     10.6457    130.2179     29.4819
   606.1000      7.8868      2.4873      0.0700      9.8608    135.6883     29.8172
   606.2000      7.8868      2.5106      0.1187      8.4479    145.4065     30.2918
   606.3000      7.8882      2.5261      0.1446      7.5089    152.5769     31.0035
   606.4000      7.8882      2.5172      0.1389      8.0494    152.8320     31.5026
   606.5000      7.8867      2.4926      0.1007      9.5414    147.2537     31.2105
   606.6000      7.8867      2.4736      0.0857     10.6917    143.2578     30.5407
   606.7000      7.8867      2.4674      0.0977     11.0689    143.2991     30.5595
   606.8000      7.8950      2.4586      0.0895     11.5983    139.7953     31.2306
   606.9000      7.8950      2.4362      0.0504     12.9571    134.6794     31.8167
   607.0000      7.9002      2.4154      0.0040     14.2178    137.3904     32.3147
   607.1000      7.9002      2.4208      0.0033     13.8928    145.4792     32.1933
   607.2000      7.9002      2.4534      0.0396     11.9159    149.0949     30.6907
   607.3000      7.8946      2.4936      0.0555      9.4796    144.3055     28.7391
   607.4000      7.8946      2.5281      0.1300      7.3883    136.4307     27.9230
   607.5000      7.8881      2.5558      0.0745      5.7065    133.2342     28.3612
   607.6000      7.8881      2.5716      0.1390      4.7487    134.7980     28.6488
   607.7000      7.8881      2.5681      0.0874      4.9616    135.4277     27.7387
   607.8000      7.8953      2.5615      0.0578      5.3655    134.3914     26.0669
   607.9000      7.8953      2.5709      0.0591      4.7938    130.5809     24.0494
   608.0000      7.8837      2.5904      0.0679      3.6126    120.7515     22.4025
   608.1000      7.8837      2.6128      0.0325      2.2530    107.7228     22.4483
   608.2000      7.8837      2.6411      0.0673      0.5387    100.3577     23.8560
   608.3000      7.8864      2.6583      0.1237     -0.5052    103.2090     15.5046
   608.4000      7.8864      2.6407      0.0845      0.5646    108.0578     14.8117
   608.5000      7.9047      2.6011      0.0215      2.9624    106.0660     14.3971
   608.6000      7.9047      2.5761      0.0250      4.4816    102.3857     15.1127
   608.7000      7.9047      2.5768      0.0390      4.4371    101.3979     16.1028
   608.8000      7.9178      2.5853      0.0576      3.9202     95.4753     16.3475
   608.9000      7.9178      2.5857      0.0844      3.8998     80.2792     16.0351
   609.0000      7.9050      2.5753      0.0673      4.5297     66.1168     15.7493
   609.1000      7.9050      2.5574      0.0857      5.6092     63.7645     15.0256
   609.2000      7.9050      2.5423      0.0278      6.5251     69.9125     13.4132
   609.3000      7.9010      2.5364      0.0607      6.8870     76.7005     12.2377
   609.4000      7.9010      2.5259      0.0365      7.5192     81.5737     12.5187
   609.5000      7.9024      2.5005      0.0109      9.0603     84.8819     13.5404
   609.6000      7.9024      2.4719     -0.0167     10.7951     84.4198     14.3973
   609.7000      7.9024      2.4542      0.0023     11.8647     79.7413     15.0338
   609.8000      7.9019      2.4614     -0.0464     11.4275     76.8729     15.4832
   609.9000      7.9019      2.5014      0.0071      9.0055     77.7535     15.5644
   610.0000      7.9288      2.5370      0.1285      6.8511     80.0356     14.9170
   610.1000      7.9288      2.5257      0.0440      7.5338     86.4106     13.5369
   610.2000      7.9288      2.4932     -0.0422      9.5043     94.2290     12.4562
   610.3000      7.9227      2.4859      0.0224      9.9483     95.8510     12.3614
   610.4000      7.9227      2.5047      0.0277      8.8078     92.1252     12.3520
   610.5000      7.9284      2.5269      0.0305      7.4586     86.0877     11.7072
