~Version Information
VERS.                      2.0: CWLS Log ASCII Standard - VERSION 2.0
WRAP.                       NO: One line per depth step
~Well Information Block
STRT.FT               491.0000: 
STOP.FT              1911.5000: 
STEP.FT                 0.2500: 
NULL.                -999.2500: 
COMP.          Pioneer Natural Resources: COMPANY
WELL.            Corazon 13-10: WELL
FLD.           Purgatoire River: FIELD
LOC.           2510' FSL & 439' FWL: LOCATION
PROV.                 Colorado: PROVINCE
CNTY.               Las Animas: COUNTRY
SRVC.                Patterson: SERVICE COMPANY
DATE.          Wed Nov 30 22:14:48 2005: LOG DATE
UWI.           05 071 08613 00: UNIQUE WELL ID
~Curve Information Block
DEPT.FT            0 000 00 00: Depth
SN.Ohm-m                      : IEL Short Normal
SP.mV                         : IEL Spontaneous Potential
DIR.Ohm-m                     : IEL Induction Resistivity
GR.GAPI                       : Gamma Ray
~Parameter Information Block
~A  Depth        SN          SP         DIR          GR     
# ...
  1228.0000     13.2453     18.8413     12.1648    135.6424
  1228.2500     12.7949     18.7205     11.6681    132.0822
  1228.5000     12.2846     18.5968     11.2086    130.4596
  1228.7500     11.8167     18.4802     10.8033    132.7675
  1229.0000     11.5149     18.3771     10.4674    139.5294
  1229.2500     11.3626     18.2872     10.2094    144.3528
  1229.5000     11.2720     18.2047     10.0244    149.8432
  1229.7500     11.1708     18.1235      9.8931    152.0786
  1230.0000     11.0273     18.0433      9.7889    153.8148
  1230.2500     10.8863     17.9715      9.6901    154.2359
  1230.5000     10.7597     17.9189      9.5877    154.1668
  1230.7500     10.5307     17.8951      9.4834    153.8780
  1231.0000     10.1155     17.9058      9.3819    153.3737
  1231.2500      9.6466     17.9534      9.2847    152.9454
  1231.5000      9.3919     18.0351      9.1906    151.6981
  1231.7500      9.4687     18.1424      9.0986    150.1190
  1232.0000      9.7354     18.2635      9.0088    146.2570
  1232.2500     10.0031     18.3878      8.9210    142.8194
  1232.5000     10.1985     18.5094      8.8329    137.5844
  1232.7500     10.3374     18.6285      8.7414    135.1532
  1233.0000     10.4567     18.7466      8.6439    134.4689
  1233.2500     10.5300     18.8618      8.5396    136.0029
  1233.5000     10.4515     18.9656      8.4289    140.2837
  1233.7500     10.1525     19.0446      8.3110    143.7251
  1234.0000      9.7155     19.0831      8.1832    148.6065
  1234.2500      9.3346     19.0691      8.0419    151.1513
  1234.5000      9.1448     19.0007      7.8856    153.7909
  1234.7500      9.1331     18.8879      7.7165    155.2675
  1235.0000      9.1808     18.7485      7.5411    158.1314
  1235.2500      9.1666     18.6030      7.3688    160.7426
  1235.5000      9.0601     18.4703      7.2101    165.6672
  1235.7500      8.8964     18.3627      7.0735    169.6701
  1236.0000      8.7010     18.2829      6.9638    176.7534
  1236.2500      8.4692     18.2253      6.8827    181.5772
  1236.5000      8.1948     18.1818      6.8311    186.7016
  1236.7500      7.8475     18.1489      6.8113    187.5368
  1237.0000      7.3632     18.1324      6.8285    184.9675
  1237.2500      6.8240     18.1466      6.8887    181.9753
  1237.5000      6.4939     18.2072      6.9965    178.0267
  1237.7500      6.5335     18.3207      7.1519    176.2366
  1238.0000      6.9446     18.4774      7.3495    173.5804
  1238.2500      7.7637     18.6523      7.5791    170.6876
  1238.5000      8.9809     18.8144      7.8286    163.7100
  1238.7500     10.3212     18.9413      8.0860    157.6004
  1239.0000     11.3948     19.0281      8.3420    147.6859
  1239.2500     12.0946     19.0856      8.5912    141.5544
  1239.5000     12.6583     19.1308      8.8339    134.4311
  1239.7500     13.3201     19.1782      9.0757    131.4412
  1240.0000     14.0517     19.2360      9.3225    129.4724
  1240.2500     14.6470     19.3101      9.5735    129.4878
  1240.5000     14.9287     19.4087      9.8167    130.6454
  1240.7500     14.8287     19.5427     10.0324    131.5340
  1241.0000     14.3599     19.7197     10.2043    132.0390
  1241.2500     13.5869     19.9384     10.3303    131.7262
  1241.5000     12.6419     20.1890     10.4233    131.4340
  1241.7500     11.7613     20.4578     10.5021    132.4464
  1242.0000     11.2323     20.7302     10.5790    136.8073
  1242.2500     11.2269     20.9929     10.6529    141.0498
  1242.5000     11.7089     21.2345     10.7131    146.8142
  1242.7500     12.4444     21.4478     10.7499    148.8030
  1243.0000     13.0614     21.6296     10.7644    148.1884
  1243.2500     13.2454     21.7801     10.7692    145.8154
  1243.5000     12.9611     21.9027     10.7820    140.5226
  1243.7500     12.4656     22.0039     10.8187    136.5430
  1244.0000     12.1206     22.0919     10.8907    131.2464
  1244.2500     12.1753     22.1741     11.0074    128.9173
  1244.5000     12.6525     22.2542     11.1765    127.6808
  1244.7500     13.3882     22.3345     11.4032    127.9180
  1245.0000     14.1820     22.4183     11.6856    128.4902
  1245.2500     14.9209     22.5080     12.0135    128.4095
  1245.5000     15.5556     22.5988     12.3695    127.3198
  1245.7500     16.0607     22.6781     12.7311    126.0210
  1246.0000     16.4522     22.7333     13.0742    123.2453
  1246.2500     16.7226     22.7626     13.3785    120.9039
  1246.5000     16.8624     22.7769     13.6370    117.3670
  1246.7500     16.9470     22.7920     13.8624    115.7080
  1247.0000     17.0127     22.8166     14.0820    115.1805
  1247.2500     17.0014     22.8468     14.3201    116.1160
  1247.5000     16.9455     22.8707     14.5803    118.4768
  1247.7500     16.9457     22.8773     14.8433    119.8353
  1248.0000     16.9793     22.8616     15.0789    120.3611
  1248.2500     16.9757     22.8241     15.2625    119.5378
  1248.5000     16.9334     22.7683     15.3857    117.2852
  1248.7500     16.8311     22.6985     15.4572    115.8633
  1249.0000     16.6039     22.6181     15.4984    115.0301
  1249.2500     16.2856     22.5313     15.5349    115.6554
  1249.5000     16.0421     22.4468     15.5888    118.1557
  1249.7500     15.9966     22.3807     15.6719    120.5035
  1250.0000     16.0653     22.3505     15.7845    124.2393
  1250.2500     16.0589     22.3642     15.9180    126.0869
  1250.5000     15.9707     22.4106     16.0600    125.9280
  1250.7500     15.9902     22.4643     16.1991    122.9851
  1251.0000     16.2026     22.5010     16.3284    114.7995
  1251.2500     16.5256     22.5133     16.4479    108.3558
  1251.5000     16.9082     22.5112     16.5651    100.3660
  1251.7500     17.3501     22.5095     16.6938     97.2774
  1252.0000     17.8216     22.5132     16.8471     95.9169
  1252.2500     18.2987     22.5167     17.0282     96.1942
  1252.5000     18.7464     22.5132     17.2293     96.0388
  1252.7500     19.0897     22.5021     17.4409     94.5111
  1253.0000     19.2901     22.4888     17.6619     89.9406
  1253.2500     19.3779     22.4822     17.8971     86.2672
  1253.5000     19.3903     22.4890     18.1445     81.7146
  1253.7500     19.3575     22.5069     18.3862     79.9026
  1254.0000     19.3468     22.5231     18.5963     78.9491
  1254.2500     19.4113     22.5211     18.7580     79.2334
  1254.5000     19.4936     22.4936     18.8743     80.7290
  1254.7500     19.5081     22.4478     18.9616     82.2071
  1255.0000     19.4698     22.3933     19.0355     84.3883
  1255.2500     19.4194     22.3258     19.1033     85.3323
  1255.5000     19.3300     22.2253     19.1691     85.6400
  1255.7500     19.1952     22.0700     19.2402     85.3022
  1256.0000     19.0855     21.8527     19.3255     84.7897
  1256.2500     19.0481     21.5851     19.4273     84.9322
  1256.5000     19.0359     21.2900     19.5348     85.9820
  1256.7500     18.9805     20.9908     19.6269     86.6318
  1257.0000     18.8678     20.7039     19.6813     86.1223
  1257.2500     18.7459     20.4367     19.6852     84.5515
  1257.5000     18.6826     20.1877     19.6415     81.3687
  1257.7500     18.6980     19.9491     19.5675     79.5605
  1258.0000     18.7693     19.7127     19.4869     78.1494
  1258.2500     18.8958     19.4767     19.4213     78.1251
  1258.5000     19.0963     19.2486     19.3879     79.2158
  1258.7500     19.3173     19.0431     19.4008     80.4384
  1259.0000     19.4238     18.8746     19.4683     82.2995
  1259.2500     19.3554     18.7500     19.5865     83.0518
  1259.5000     19.2136     18.6662     19.7340     82.8167
  1259.7500     19.1129     18.6133     19.8770     81.6961
  1260.0000     19.0651     18.5812     19.9807     79.0159
  1260.2500     19.0567     18.5665     20.0224     77.0075
  1260.5000     19.0849     18.5718     19.9964     74.3777
  1260.7500     19.1007     18.5970     19.9159     73.0927
  1261.0000     19.0681     18.6331     19.8118     71.8516
  1261.2500     19.0614     18.6683     19.7295     71.3875
