~Version Information
VERS.                      2.0: CWLS Log ASCII Standard - VERSION 2.0
WRAP.                       NO: One line per depth step
~Well Information Block
STRT.FT               555.0000: 
STOP.FT              2286.5000: 
STEP.FT                 0.1000: 
NULL.                -999.2500: 
COMP.          Pioneer Natural Resources: COMPANY
WELL.          Roadster 41-33 Kv: WELL
FLD.           Purgatoire River: FIELD
LOC.           903' FNL & 248' FEL: LOCATION
PROV.                 Colorado: PROVINCE
CNTY.               Las Animas: COUNTRY
SRVC.                Patterson: SERVICE COMPANY
DATE.          Thu Dec 15 10:28:25 2005: LOG DATE
UWI.           05 071 08615 00: UNIQUE WELL ID
~Curve Information Block
DEPT.FT            0 000 00 00: Depth
DCAL.in                       : CDL Caliper
RHOB.g/cc                     : CDL Bulk Density
RHOC.g/cc                     : CDL Density Correction
DPOR.pu                       : CDL Density Porosity
GR.GAPI                       : Gamma Ray
NPOR.pu                       : Neutron Porosity
~Parameter Information Block
~A  Depth       DCAL        RHOB        RHOC        DPOR         GR         NPOR    
   555.0000      3.3406      2.4693      0.6434     10.9497     57.9866     20.0586
   555.1000      3.3406      2.4530      0.6082     11.9423     60.7758     20.0667
   555.2000      3.3406      2.4225      0.5572     13.7860     64.0007     19.3844
   555.3000      3.3335      2.3813      0.5326     16.2861     67.9508     18.6204
   555.4000      3.3335      2.3297      0.4765     19.4131     71.3007     18.1929
   555.5000      3.3423      2.2738      0.4184     22.7977     72.5486     18.0121
   555.6000      3.3423      2.2320      0.3529     25.3336     73.4098     18.0551
   555.7000      3.3423      2.2193      0.3805     26.1008     77.0733     18.5291
   555.8000      3.3363      2.2273      0.3823     25.6180     84.2159     19.0960
   555.9000      3.3363      2.2371      0.3765     25.0236     90.9108     19.4294
   556.0000      3.3365      2.2459      0.3379     24.4931     92.6322     19.8954
   556.1000      3.3365      2.2623      0.3961     23.4952     90.7164     20.7673
   556.2000      3.3365      2.2866      0.3873     22.0216     88.3825     21.9119
   556.3000      3.3296      2.3083      0.4148     20.7070     85.9516     22.7089
   556.4000      3.3296      2.3133      0.4147     20.4076     83.7718     22.6950
   556.5000      3.3290      2.2970      0.4013     21.3941     82.7347     22.3808
   556.6000      3.3290      2.2739      0.3225     22.7969     82.6419     22.2666
   556.7000      3.3290      2.2572      0.3663     23.8085     83.7624     22.2565
   556.8000      3.3324      2.2409      0.3223     24.7939     83.7765     21.9682
   556.9000      3.3324      2.2254      0.2840     25.7362     81.0090     21.3286
   557.0000      3.3344      2.2213      0.2995     25.9814     79.3518     21.0117
   557.1000      3.3344      2.2229      0.3140     25.8872     81.2721     21.3573
   557.2000      3.3344      2.2198      0.2962     26.0737     82.6245     21.9940
   557.3000      3.3300      2.2221      0.2626     25.9312     81.5497     22.3712
   557.4000      3.3300      2.2413      0.2941     24.7723     81.6071     22.4229
   557.5000      3.3270      2.2645      0.3179     23.3637     83.1932     22.6148
   557.6000      3.3270      2.2773      0.2995     22.5854     84.0619     23.0103
   557.7000      3.3270      2.2875      0.2863     21.9716     86.4694     23.0869
   557.8000      3.3278      2.3038      0.3155     20.9791     90.2530     22.6608
   557.9000      3.3278      2.3222      0.2947     19.8682     89.6718     22.2636
   558.0000      3.3320      2.3370      0.2752     18.9669     85.9605     22.4233
   558.1000      3.3320      2.3498      0.2898     18.1947     84.1964     22.9682
   558.2000      3.3320      2.3632      0.3046     17.3815     84.2873     23.3390
   558.3000      3.3200      2.3773      0.2801     16.5292     85.5777     23.3973
   558.4000      3.3200      2.3907      0.2376     15.7169     89.7174     23.6895
   558.5000      3.3175      2.3967      0.2417     15.3508     94.0991     24.4392
   558.6000      3.3175      2.3933      0.1889     15.5575     94.4047     24.8539
   558.7000      3.3175      2.3914      0.1372     15.6734     93.7422     24.4566
   558.8000      3.3118      2.3938      0.1269     15.5258     97.0127     23.6998
   558.9000      3.3118      2.3909      0.1024     15.7039    101.6618     22.8968
   559.0000      3.3105      2.3736      0.0550     16.7502    103.0740     22.5887
   559.1000      3.3105      2.3420     -0.0573     18.6652    101.3564     23.1108
   559.2000      3.3105      2.3016     -0.0404     21.1127     99.4285     23.8177
   559.3000      3.3083      2.2539     -0.1439     24.0053     99.6468     23.9617
   559.4000      3.3083      2.2080     -0.2094     26.7868    100.6538     23.5303
   559.5000      3.3060      2.1786     -0.2352     28.5710     98.3347     23.0405
   559.6000      3.3060      2.1694     -0.2096     29.1278     93.4039     22.6462
   559.7000      3.3060      2.1696     -0.2590     29.1159     90.6290     22.2210
   559.8000      3.3075      2.1630     -0.2340     29.5159     90.7026     21.9424
   559.9000      3.3075      2.1437     -0.2929     30.6855     89.4864     21.8756
   560.0000      3.3088      2.1257     -0.3497     31.7734     86.3773     22.0496
   560.1000      3.3088      2.1165     -0.3048     32.3326     85.5506     22.1040
   560.2000      3.3088      2.1070     -0.3757     32.9105     86.3854     21.4720
   560.3000      3.3074      2.0969     -0.4081     33.5214     86.1847     20.7110
   560.4000      3.3074      2.0880     -0.3505     34.0595     86.1395     20.6852
   560.5000      3.3056      2.0743     -0.3934     34.8882     85.5423     21.2161
   560.6000      3.3056      2.0636     -0.4755     35.5412     82.0391     21.4695
   560.7000      3.3056      2.0826     -0.4679     34.3874     77.9122     20.9855
   560.8000      3.3067      2.1383     -0.3648     31.0143     76.1505     20.2184
   560.9000      3.3067      2.1911     -0.3225     27.8098     75.4529     20.0296
   561.0000      3.3074      2.1994     -0.3446     27.3109     73.8070     20.2797
   561.1000      3.3074      2.1703     -0.4342     29.0746     69.6576     20.1972
   561.2000      3.3074      2.1406     -0.4417     30.8756     62.8104     19.7170
   561.3000      3.3051      2.1246     -0.4567     31.8398     56.7981     19.2397
   561.4000      3.3051      2.1181     -0.4355     32.2367     55.0499     18.9050
   561.5000      3.3074      2.1191     -0.4206     32.1755     58.6887     18.5899
   561.6000      3.3074      2.1233     -0.4384     31.9212     66.2337     18.3830
   561.7000      3.3074      2.1180     -0.4036     32.2437     72.9028     18.5842
   561.8000      3.3067      2.0949     -0.4227     33.6408     74.9876     19.0698
   561.9000      3.3067      2.0701     -0.4450     35.1459     73.0412     19.2629
   562.0000      3.3039      2.0608     -0.3732     35.7077     70.1924     19.0264
   562.1000      3.3039      2.0544     -0.3498     36.0948     68.8427     18.7739
   562.2000      3.3039      2.0339     -0.3962     37.3388     68.4462     18.7118
   562.3000      3.3132      2.0111     -0.4316     38.7189     68.1689     18.6840
   562.4000      3.3132      2.0100     -0.3927     38.7854     70.7887     18.6171
   562.5000      3.3071      2.0355     -0.3854     37.2452     76.5568     19.1613
   562.6000      3.3071      2.0777     -0.4224     34.6845     80.6900     20.4828
   562.7000      3.3071      2.1270     -0.3863     31.6961     82.0903     21.3826
   562.8000      3.2964      2.1703     -0.3055     29.0711     84.0465     21.2508
   562.9000      3.2964      2.1869     -0.2808     28.0638     86.8833     20.8594
   563.0000      3.3068      2.1699     -0.3322     29.0954     88.2492     20.9487
   563.1000      3.3068      2.1468     -0.3525     30.4985     86.8116     21.6765
   563.2000      3.3068      2.1389     -0.3384     30.9754     83.8793     22.4410
   563.3000      3.3067      2.1258     -0.3060     31.7701     80.8421     22.0111
   563.4000      3.3067      2.0854     -0.3890     34.2194     78.0300     20.4626
   563.5000      3.3046      2.0241     -0.3955     37.9344     75.8119     19.2351
   563.6000      3.3046      1.9716     -0.5472     41.1168     74.2951     19.0201
   563.7000      3.3046      1.9624     -0.5336     41.6716     73.8981     19.3902
   563.8000      3.3025      1.9858     -0.4085     40.2567     75.6075     19.4883
   563.9000      3.3025      2.0025     -0.4199     39.2453     79.0978     19.1553
   564.0000      3.3041      1.9988     -0.3711     39.4672     81.5496     19.0446
   564.1000      3.3041      1.9806     -0.4014     40.5690     79.9825     19.3563
   564.2000      3.3041      1.9689     -0.4895     41.2805     75.3852     19.8089
   564.3000      3.3073      1.9867     -0.4359     40.1998     73.1489     20.5012
   564.4000      3.3073      2.0221     -0.3584     38.0575     76.5194     21.4768
   564.5000      3.3091      2.0481     -0.4097     36.4818     83.1695     22.0026
