~Version Information
VERS.                      2.0: CWLS Log ASCII Standard - VERSION 2.0
WRAP.                       NO: One line per depth step
~Well Information Block
STRT.FT               -12.2500: 
STOP.FT              1442.2500: 
STEP.FT                 0.2500: 
NULL.                -999.2500: 
COMP.          Pioneer Natural Resources: COMPANY
WELL.              Lucky 21-36: WELL
FLD.           Purgatorie River: FIELD
LOC.           799' FNL & 1578' FWL--: LOCATION
CDN. :
PROV. :
UWI. :
STAT. :
CNTY. :
CTRY. :
API. :
COMP. :
WELL. :
FLD. :
LOC. :
DATE. :
SRVC. :
CNTY.               Las Animas: COUNTY
SRVC.          Superior Well Services: SERVICE COMPANY
DATE.          Mon Jul 21 12-16-21 2008: LOG DATE
UWI.           05 071 08456 00: UNIQUE WELL ID
STAT.                       CO: STATE
~Curve Information Block
DEPT.FT            0 000 00 00: Depth
CCL.                          : Casing Collar Locator
TT3.usec                      : CBL 3' Travel Time
AMP3.mV                       : CBL 3' Amplitude
GR.GAPI                       : Gamma Ray
~Parameter Information Block
~A  Depth       CCL         TT3         AMP3         GR     
   -12.2500   -999.2500   -999.2500   -999.2500     99.3934
   -12.0000   -999.2500   -999.2500   -999.2500     99.6251
   -11.7500   -999.2500   -999.2500   -999.2500     97.6128
   -11.5000   -999.2500   -999.2500   -999.2500     94.8681
   -11.2500   -999.2500   -999.2500   -999.2500     92.7936
   -11.0000   -999.2500   -999.2500   -999.2500     92.2230
   -10.7500   -999.2500   -999.2500   -999.2500     93.0697
   -10.5000   -999.2500   -999.2500   -999.2500     94.3336
   -10.2500   -999.2500   -999.2500   -999.2500     94.4632
   -10.0000   -999.2500   -999.2500   -999.2500     92.2764
    -9.7500   -999.2500   -999.2500   -999.2500     88.2685
    -9.5000   -999.2500   -999.2500   -999.2500     84.7717
    -9.2500   -999.2500   -999.2500   -999.2500     84.0698
    -9.0000   -999.2500   -999.2500   -999.2500     86.3111
    -8.7500   -999.2500   -999.2500   -999.2500     89.5743
    -8.5000   -999.2500   -999.2500   -999.2500     91.7567
    -8.2500   -999.2500   -999.2500   -999.2500     92.1642
    -8.0000   -999.2500   -999.2500   -999.2500     91.5260
    -7.7500   -999.2500   -999.2500   -999.2500     90.6949
    -7.5000   -999.2500   1143.0000      2.2096     89.4649
    -7.2500   -999.2500   1143.0000      2.2110     87.0288
    -7.0000   -999.2500   1143.0000      2.2116     83.5838
    -6.7500   -999.2500   1143.0000      2.2114     80.8442
    -6.5000   -999.2500   1143.0000      2.2099     80.6898
    -6.2500   -999.2500   1143.0000      2.2062     83.5139
    -6.0000   -999.2500   1143.0000      2.2001     87.8625
    -5.7500   -999.2500   1143.0000      2.1928     91.4415
    -5.5000   -999.2500   1143.0000      2.1876     92.6367
    -5.2500   -999.2500   1143.0000      2.1874     91.5914
    -5.0000   -999.2500   1143.0000      2.1918     89.9592
    -4.7500   -999.2500   1143.0000      2.1971     89.2823
    -4.5000   -999.2500   1143.0000      2.1995     89.6079
    -4.2500   -999.2500   1143.0000      2.1981     89.9570
    -4.0000   -999.2500   1143.0000      2.1958     89.8176
    -3.7500   -999.2500   1143.0000      2.1955     89.5304
    -3.5000   -999.2500   1143.0000      2.1970     89.4028
    -3.2500   -999.2500   1143.0000      2.1972     89.2837
    -3.0000   -999.2500   1143.0000      2.1941     89.2787
    -2.7500   -999.2500   1143.0000      2.1902     90.1351
    -2.5000   -999.2500   1143.0000      2.1911     92.2418
    -2.2500   -999.2500   1143.0000      2.2000     94.6226
    -2.0000      0.0000   1143.0000      2.2145     95.6669
    -1.7500      0.0000   1143.0000      2.2280     94.7684
    -1.5000      0.0000   1143.0000      2.2340     92.6230
    -1.2500      0.0000   1143.0000      2.2306     89.8986
    -1.0000     -2.0000   1143.0000      2.2211     86.2263
    -0.7500      2.0000   1143.0000      2.2113     80.7150
    -0.5000      0.0000   1143.0000      2.2058     73.1359
    -0.2500      2.0000   1143.0000      2.2047     64.4093
     0.0000      0.0000   1143.0000      2.2047     64.4093
     0.2500      0.0000   1143.0000      2.2064     55.9531
     0.5000      0.0000   1143.0000      2.2100     48.5561
     0.7500      2.0000   1143.0000      2.2203     35.9114
     1.0000      0.0000   1143.0000      2.2218     30.5026
     1.2500     -2.0000   1143.0000      2.2177     26.4588
     1.5000      2.0000   1143.0000      2.2091     24.0519
     1.7500     -2.0000   1143.0000      2.1997     22.9854
     2.0000     -2.0000   1143.0000      2.1938     23.0515
     2.2500      2.0000   1143.0000      2.1942     24.5753
     2.5000      0.0000   1143.0000      2.2008     27.8481
     2.7500      0.0000   1143.0000      2.2120     32.2206
     3.0000      0.0000   1143.0000      2.2262     36.2779
     3.2500      0.0000   1143.0000      2.2411     39.1394
     3.5000      0.0000   1143.0000      2.2538     41.2904
     3.7500      0.0000   1143.0000      2.2619     44.0089
     4.0000      0.0000   1143.0000      2.2635     48.1545
     4.2500      0.0000   1143.0000      2.2591     53.3386
     4.5000      0.0000   1143.0000      2.2521     57.8567
     4.7500      0.0000   1143.0000      2.2465     59.6597
     5.0000      0.0000   1143.0000      2.2445     58.1496
     5.2500      0.0000   1143.0000      2.2450     55.1623
     5.5000      0.0000   1143.0000      2.2462     53.6048
     5.7500      0.0000   1143.0000      2.2486     54.9278
     6.0000      0.0000   1143.0000      2.2544     58.1863
     6.2500      0.0000   1143.0000      2.2636     61.3168
     6.5000      0.0000   1143.0000      2.2724     62.7512
     6.7500      0.0000   1143.0000      2.2759     62.0454
     7.0000      0.0000   1143.0000      2.2724     59.8146
     7.2500      0.0000   1143.0000      2.2639     57.3354
     7.5000      0.0000   1143.0000      2.2534     55.8216
     7.7500      0.0000   1143.0000      2.2431     55.7498
     8.0000      0.0000   1143.0000      2.2359     56.7937
     8.2500      0.0000   1143.0000      2.2361     58.3655
     8.5000      0.0000   1143.0000      2.2456     60.1554
     8.7500      0.0000   1143.0000      2.2614     62.2406
     9.0000      0.0000   1143.0000      2.2768     64.8149
     9.2500      0.0000   1143.0000      2.2867     67.7355
     9.5000      0.0000   1143.0000      2.2905     70.3044
     9.7500      2.0000   1143.0000      2.2906     71.8339
    10.0000      0.0000   1143.0000      2.2898     72.6120
    10.2500      0.0000   1143.0000      2.2894     74.0722
    10.5000      0.0000   1143.0000      2.2899     77.6555
    10.7500      2.0000   1143.0000      2.2909     83.3398
    11.0000      2.0000   1143.0000      2.2916     89.3971
    11.2500      2.0000   1143.0000      2.2902     93.7804
    11.5000      0.0000   1143.0000      2.2848     95.6861
    11.7500      2.0000   1143.0000      2.2760     95.6597
    12.0000      0.0000   1143.0000      2.2662     94.4860
    12.2500      0.0000   1143.0000      2.2584     92.4886
    12.5000      0.0000   1143.0000      2.2549     89.9653
    12.7500      0.0000   1143.0000      2.2563     87.7963
    13.0000      0.0000   1143.0000      2.2617     87.0446
    13.2500      0.0000   1143.0000      2.2697     88.0069
    13.5000      0.0000   1143.0000      2.2794     89.9955
    13.7500      0.0000   1143.0000      2.2886     91.8822
    14.0000      0.0000   1143.0000      2.2925     92.5635
    14.2500      0.0000   1143.0000      2.2871     91.3875
    14.5000      0.0000   1143.0000      2.2737     88.6161
    14.7500      0.0000   1143.0000      2.2594     85.1178
    15.0000      0.0000   1143.0000      2.2531     81.3366
    15.2500      0.0000   1143.0000      2.2584     76.9791
    15.5000      0.0000   1143.0000      2.2714     71.9126
    15.7500     -2.0000   1143.0000      2.2838     67.0141
    16.0000      2.0000   1143.0000      2.2891     63.9311
    16.2500      0.0000   1143.0000      2.2863     64.0336
    16.5000      0.0000   1143.0000      2.2785     67.3949
    16.7500      0.0000   1143.0000      2.2703     72.4937
    17.0000      0.0000   1143.0000      2.2653     76.9030
    17.2500      0.0000   1143.0000      2.2641     78.6931
    17.5000      0.0000   1143.0000      2.2656     77.5883
    17.7500      0.0000   1143.0000      2.2681     74.8605
    18.0000      0.0000   1143.0000      2.2700     72.1466
    18.2500      0.0000   1143.0000      2.2701     70.5115
    18.5000      0.0000   1143.0000      2.2678     70.3064
    18.7500      0.0000   1143.0000      2.2638     71.2511
    19.0000      0.0000   1143.0000      2.2595     72.5391
    19.2500      0.0000   1143.0000      2.2558     73.3844
    19.5000      0.0000   1143.0000      2.2519     73.8633
    19.7500      0.0000   1143.0000      2.2469     75.1019
    20.0000      0.0000   1143.0000      2.2408     78.3659
    20.2500      0.0000   1143.0000      2.2343     83.7698
    20.5000      0.0000   1143.0000      2.2286     89.7993
    20.7500      0.0000   1143.0000      2.2252     94.2090
    21.0000      0.0000   1143.0000      2.2265     95.5417
