~Version Information
VERS.                      2.0: CWLS Log ASCII Standard - VERSION 2.0
WRAP.                       NO: One line per depth step
~Well Information Block
STRT.FT                -9.2500: 
STOP.FT              1854.7500: 
STEP.FT                 0.2500: 
NULL.                -999.2500: 
COMP.          Pioneer Natural Resources: COMPANY
WELL.          State Wildlife 32-16 Tr: WELL
FLD.           Purgatoire River: FIELD
LOC.           1838' FNL & 1850' FEL--: LOCATION
STAT.                       CO: State
CNTY.               Las Animas: COUNTY
CTRY. USA : Country
SECT. 16 : Section
TOWN. 32S : Township
RANG. 66W : Range
SRVC.          Patterson Wireline: SERVICE COMPANY
DATE.          Tue Nov 22 10:17:13 2005: LOG DATE
API.           05 071 08568 00: UNIQUE WELL ID
~Curve Information Block
DEPT.FT            0 000 00 00: Depth
CCL.                          : Casing Collar Locator
TT3.usec                      : CBL 3' Travel Time
AMP3.mV                       : CBL 3' Amplitude
GR.GAPI                       : Gamma Ray
~Parameter Information Block
~A  Depth       CCL         TT3         AMP3         GR     
# ...
  1699.2500      0.0000    733.8618      7.8598    101.9073
  1699.5000      0.0000    733.4353      7.8287    100.9681
  1699.7500      0.0000    732.1992      7.7777    101.4771
  1700.0000      0.0000    729.4144      7.6595    103.5046
  1700.2500      0.0000    724.4193      7.4456    107.1768
  1700.5000      0.0000    717.6647      7.1443    112.7781
  1700.7500      0.0000    711.4910      6.7957    120.3287
  1701.0000      0.0000    709.3549      6.4454    129.0520
  1701.2500      0.0000    713.4852      6.1230    137.2768
  1701.5000      0.0000    722.8997      5.8450    142.8827
  1701.7500      0.0000    733.8785      5.6207    144.1762
  1702.0000      0.0000    742.7324      5.4471    141.0623
  1702.2500      2.0000    748.1824      5.3078    135.7747
  1702.5000      0.0000    751.1041      5.1816    132.1191
  1702.7500      0.0000    752.5862      5.0476    133.0920
  1703.0000      0.0000    752.9459      4.8958    138.5158
  1703.2500      0.0000    752.2264      4.7553    144.9467
  1703.5000      0.0000    750.7339      4.7029    148.3063
  1703.7500      0.0000    748.6999      4.7960    146.8687
  1704.0000      0.0000    745.7549      4.9907    142.0735
  1704.2500      0.0000    741.4308      5.1664    137.0813
  1704.5000      0.0000    736.2504      5.2342    134.6305
  1704.7500      0.0000    731.6036      5.1946    135.4625
  1705.0000      0.0000    728.4870      5.1099    138.1083
  1705.2500      0.0000    726.8947      5.0575    140.2395
  1705.5000      0.0000    726.4180      5.0951    140.4998
  1705.7500      0.0000    726.9549      5.2343    139.1012
  1706.0000      0.0000    728.6893      5.4427    136.7941
  1706.2500      0.0000    731.5165      5.6747    133.6712
  1706.5000      0.0000    734.6514      5.8959    129.4457
  1706.7500      0.0000    737.1440      6.0749    124.8609
  1707.0000      0.0000    739.0520      6.1738    122.2460
  1707.2500      0.0000    741.6511      6.1732    123.9068
  1707.5000      0.0000    745.8627      6.1067    129.7141
  1707.7500      0.0000    750.6551      6.0515    136.7679
  1708.0000      0.0000    753.6727      6.0755    141.8624
  1708.2500      0.0000    753.5244      6.1950    143.9628
  1708.5000      0.0000    750.7621      6.3742    144.0671
  1708.7500      0.0000    746.4012      6.5551    143.4514
  1709.0000      0.0000    740.5232      6.6887    142.8437
  1709.2500      0.0000    733.3269      6.7513    142.8795
  1709.5000      0.0000    726.6721      6.7475    144.2681
  1709.7500      0.0000    722.9890      6.7012    147.1458
  1710.0000      0.0000    722.8339      6.6415    150.6358
  1710.2500      0.0000    724.6359      6.5904    153.3587
  1710.5000      0.0000    726.5630      6.5585    154.2830
  1710.7500      0.0000    727.7934      6.5454    152.9435
  1711.0000      0.0000    728.3030      6.5398    149.1105
  1711.2500      0.0000    728.2961      6.5246    142.8211
  1711.5000      0.0000    727.9982      6.4938    134.9274
  1711.7500      0.0000    727.6439      6.4632    127.1805
  1712.0000      0.0000    727.4271      6.4572    121.3995
  1712.2500      0.0000    727.4254      6.4857    118.4662
  1712.5000      0.0000    727.5631      6.5358    117.8403
  1712.7500      0.0000    727.6790      6.5783    117.8340
  1713.0000      0.0000    727.6535      6.5785    116.7679
  1713.2500      0.0000    727.5063      6.5094    114.3700
  1713.5000      0.0000    727.3811      6.3641    111.9902
  1713.7500      0.0000    727.4269      6.1606    111.3990
  1714.0000      0.0000    727.6702      5.9383    113.5454
  1714.2500      0.0000    727.9827      5.7471    118.1476
  1714.5000      0.0000    728.1696      5.6296    123.7844
  1714.7500      0.0000    728.1007      5.6001    128.5646
  1715.0000      0.0000    727.7908      5.6341    131.3960
  1715.2500      0.0000    727.3808      5.6756    132.4900
  1715.5000      0.0000    727.0282      5.6618    132.2660
  1715.7500      0.0000    726.7993      5.5610    130.3588
  1716.0000      0.0000    726.6638      5.3964    126.3089
  1716.2500      0.0000    726.5726      5.2301    120.6426
  1716.5000      0.0000    726.4992      5.1164    114.7593
  1716.7500      0.0000    726.4058      5.0692    110.1390
  1717.0000      0.0000    726.2232      5.0705    107.8501
  1717.2500      0.0000    725.8781      5.1033    108.2872
  1717.5000      0.0000    725.2640      5.1685    110.9582
  1717.7500      0.0000    724.1011      5.2709    114.4196
  1718.0000      0.0000    721.9034      5.3926    116.6147
  1718.2500      0.0000    718.4134      5.4935    115.9454
  1718.5000      0.0000    714.3299      5.5467    112.5164
  1718.7500      0.0000    711.3437      5.5712    108.1654
  1719.0000      0.0000    710.8063      5.6207    105.0438
  1719.2500      0.0000    712.2063      5.7398    104.2035
  1719.5000      0.0000    713.3969      5.9386    105.4521
  1719.7500      0.0000    712.4551      6.2052    108.1853
  1720.0000      0.0000    709.0079      6.5229    111.9227
  1720.2500      0.0000    703.9269      6.8650    115.8392
  1720.5000      0.0000    698.4678      7.1851    118.2087
  1720.7500      0.0000    693.8613      7.4252    117.1155
  1721.0000      0.0000    691.1606      7.5364    112.0099
  1721.2500      0.0000    691.0115      7.5003    104.1700
  1721.5000      0.0000    693.4666      7.3384     95.6066
  1721.7500      0.0000    697.9731      7.1061     88.1240
  1722.0000      0.0000    703.5869      6.8657     83.5619
  1722.2500      0.0000    709.2955      6.6579     83.9350
  1722.5000      0.0000    714.1076      6.4934     90.3413
  1722.7500      0.0000    717.0856      6.3657    101.7416
  1723.0000      0.0000    717.8580      6.2601    115.3138
  1723.2500      0.0000    717.2573      6.1554    128.2636
  1723.5000      0.0000    716.9402      6.0303    139.2365
  1723.7500      0.0000    718.0073      5.8762    147.9466
  1724.0000      0.0000    720.1570      5.7020    154.1440
  1724.2500      0.0000    722.2578      5.5254    157.6786
  1724.5000      0.0000    723.3664      5.3603    159.0210
  1724.7500      0.0000    722.9636      5.2108    158.8344
  1725.0000      0.0000    720.6279      5.0746    157.3276
  1725.2500      0.0000    716.1044      4.9501    154.4711
  1725.5000      0.0000    710.0500      4.8395    150.6601
  1725.7500      0.0000    704.5259      4.7443    147.1471
  1726.0000      0.0000    702.0953      4.6595    146.0169
  1726.2500      0.0000    703.8661      4.5870    149.1976
  1726.5000      0.0000    708.3699      4.5619    156.6742
  1726.7500      0.0000    712.6635      4.6633    165.5216
  1727.0000      0.0000    714.7164      4.9862    171.0916
  1727.2500      0.0000    714.8556      5.5888    169.6643
  1727.5000      0.0000    715.0571      6.4498    160.6006
  1727.7500      0.0000    717.0352      7.4713    146.5570
  1728.0000      0.0000    721.0342      8.5251    131.9084
  1728.2500      0.0000    726.0613      9.5002    120.5317
  1728.5000      0.0000    730.7189     10.3178    114.2882
  1728.7500      0.0000    733.9816     10.9320    112.8453
  1729.0000      0.0000    735.8265     11.3469    114.5798
  1729.2500      0.0000    737.0786     11.6377    117.9493
  1729.5000      0.0000    738.2209     11.9237    122.7344
  1729.7500      0.0000    738.6686     12.2771    129.9478
  1730.0000      0.0000    737.6712     12.6324    140.0161
  1730.2500      0.0000    735.5084     12.8077    151.3761
  1730.5000      0.0000    733.2629     12.6471    161.5417
  1730.7500      0.0000    731.7184     12.1503    169.1570
  1731.0000      0.0000    730.8658     11.4657    174.3653
  1731.2500      0.0000    730.1762     10.7714    177.6405
  1731.5000      0.0000    728.8592     10.1695    178.9686
  1731.7500      0.0000    725.7357      9.6740    178.0232
  1732.0000      0.0000    719.0820      9.2621    174.8173
  1732.2500      0.0000    707.0157      8.9189    170.1925
  1732.5000      0.0000    688.1275      8.6431    165.4966
