~Version Information
VERS.                      2.0: CWLS Log ASCII Standard - VERSION 2.0
WRAP.                       NO: One line per depth step
~Well Information Block
STRT.FT                -2.0000: 
STOP.FT              2017.5000: 
STEP.FT                 0.2500: 
NULL.                -999.2500: 
COMP.          Pioneer Natural Resources: COMPANY
WELL.            Zink 44-10 Tr: WELL
FLD.           Purgatoire River: FIELD
LOC.           486' FSL & 554' FEL--: LOCATION
PROV.                 Colorado: PROVINCE
CNTY.               Las Animas: COUNTRY
SRVC.                Patterson: SERVICE COMPANY
DATE.          Mon Aug 01 14:01:23 2005: LOG DATE
UWI.           05 071 08446 00: UNIQUE WELL ID
~Curve Information Block
DEPT.FT            0 000 00 00: Depth
CCL.                          : Casing Collar Locator
TT3.usec                      : CBL 3' Travel Time
AMP3.mV                       : CBL 3' Amplitude
GR.GAPI                       : Gamma Ray
~Parameter Information Block
~A  Depth       CCL         TT3         AMP3         GR     
# ...
   132.0000      0.0000   1139.5146     14.9950    100.6462
   132.2500      0.0000   1094.9655     14.9512     98.3164
   132.5000      0.0000   1055.9220     14.9114     94.5954
   132.7500      0.0000   1024.1675     14.8664     90.6807
   133.0000      0.0000   1009.1072     14.8078     87.1512
   133.2500      0.0000   1015.0320     14.7397     83.1756
   133.5000      0.0000   1031.4164     14.6782     77.3750
   133.7500      0.0000   1038.5048     14.6370     69.7193
   134.0000      0.0000   1023.6100     14.6129     62.0722
   134.2500      0.0000    990.7491     14.5859     56.7485
   134.5000      0.0000    953.7336     14.5363     54.8702
   134.7500      0.0000    922.9789     14.4640     56.0263
   135.0000      0.0000    900.7122     14.3930     58.8328
   135.2500      0.0000    885.0627     14.3588     61.5356
   135.5000      0.0000    874.3610     14.3875     62.7290
   135.7500      0.0000    867.7820     14.4769     62.2353
   136.0000      0.0000    864.4438     14.5924     61.1506
   136.2500      0.0000    863.2099     14.6855     60.7092
   136.5000      0.0000    863.0906     14.7245     61.3454
   136.7500      0.0000    863.6329     14.7117     62.8397
   137.0000      0.0000    864.9869     14.6714     64.6460
   137.2500      0.0000    867.7078     14.6254     65.7857
   137.5000      0.0000    872.0798     14.5797     65.1522
   137.7500      0.0000    877.1783     14.5287     62.5344
   138.0000      0.0000    880.8073     14.4696     59.0516
   138.2500      0.0000    881.1259     14.4119     56.1206
   138.5000      0.0000    878.6795     14.3748     54.1914
   138.7500      0.0000    876.4051     14.3709     52.9655
   139.0000      0.0000    877.2484     14.3918     52.6933
   139.2500      0.0000    881.6285     14.4112     54.5558
   139.5000      0.0000    887.0184     14.4050     59.3799
   139.7500      0.0000    889.9983     14.3676     66.2738
   140.0000      0.0000    889.1705     14.3131     72.8635
   140.2500      0.0000    886.4368     14.2663     76.7864
   140.5000      0.0000    885.3862     14.2489     77.0168
   140.7500      0.0000    888.2592     14.2671     74.2086
   141.0000      0.0000    894.3508     14.3051     69.9756
   141.2500      0.0000    901.0867     14.3323     65.7440
   141.5000      0.0000    906.2497     14.3234     62.2766
   141.7500      0.0000    909.1236     14.2734     59.9673
   142.0000      0.0000    910.0167     14.1997     58.8280
   142.2500      0.0000    909.2399     14.1349     58.1299
   142.5000      0.0000    906.6345     14.1167     56.8436
   142.7500      0.0000    901.9769     14.1694     54.8131
   143.0000      0.0000    895.8235     14.2865     53.1244
   143.2500      0.0000    889.7155     14.4369     53.0517
   143.5000      0.0000    885.2360     14.5862     54.7804
   143.7500      0.0000    882.9960     14.7091     57.2821
   144.0000      0.0000    882.8254     14.7880     59.2457
   144.2500      0.0000    884.5924     14.8165     59.9608
   144.5000      0.0000    888.3757     14.8074     59.5877
   144.7500      0.0000    894.4139     14.7874     58.9482
   145.0000      0.0000    903.6666     14.7797     58.8677
   145.2500      0.0000    919.1596     14.7908     59.4208
   145.5000      0.0000    946.0420     14.8123     59.9619
   145.7500      0.0000    987.7082     14.8303     60.0882
   146.0000      0.0000   1039.2157     14.8362     60.2293
   146.2500      0.0000   1085.4641     14.8279     60.8640
   146.5000      0.0000   1109.2371     14.8071     61.3653
   146.7500      0.0000   1103.3997     14.7792     60.3486
   147.0000      0.0000   1076.4752     14.7596     57.3276
   147.2500      0.0000   1046.7631     14.7719     53.4572
   147.5000      0.0000   1030.4641     14.8287     50.3473
   147.7500      0.0000   1034.3014     14.9114     48.5858
   148.0000      0.0000   1056.0382     14.9757     47.7920
   148.2500      0.0000   1087.4901     14.9808     47.7107
   148.5000      0.0000   1117.7592     14.9156     48.7033
   148.7500      0.0000   1138.4838     14.7995     51.1612
   149.0000      0.0000   1146.6735     14.6627     54.7077
   149.2500      0.0000   1142.2042     14.5167     58.0298
   149.5000      0.0000   1127.4786     14.3364     59.5232
   149.7500      0.0000   1111.5753     14.0614     58.3880
   150.0000      0.0000   1107.3740     13.6315     55.3212
   150.2500      0.0000   1119.0226     13.0516     52.1204
   150.5000      0.0000   1136.2236     12.4236     50.5318
   150.7500      0.0000   1145.8790     11.8708     51.2906
   151.0000      0.0000   1146.1058     11.4206     53.8066
   151.2500      0.0000   1144.4414     11.0131     56.3867
   151.5000      0.0000   1147.6044     10.6228     57.0937
   151.7500      0.0000   1158.7222     10.3033     55.2119
   152.0000     -2.0000   1179.0280     10.1125     52.1050
   152.2500      0.0000   1206.4043     10.0565     50.2008
   152.5000      2.0000   1236.8762     10.1205     51.0059
   152.7500     -2.0000   1270.1979     10.3351     54.1315
   153.0000      0.0000   1308.1917     10.8050     57.8049
   153.2500      0.0000   1347.3374     11.6359     59.9659
   153.5000      0.0000   1379.3746     12.7802     59.3679
   153.7500      0.0000   1399.2375     13.9797     56.2781
   154.0000      0.0000   1408.3577     14.9427     52.2800
   154.2500      0.0000   1410.6538     15.5620     49.3282
   154.5000      0.0000   1407.5802     15.9124     48.7504
   154.7500      0.0000   1395.6637     16.0949     50.5569
   155.0000      0.0000   1367.1725     16.1587     53.3819
   155.2500      0.0000   1315.8551     16.1324     55.4574
   155.5000      0.0000   1246.9802     16.0563     56.0817
   155.7500      0.0000   1181.6964     15.9748     56.0583
   156.0000      0.0000   1144.4884     15.9119     56.5368
   156.2500      0.0000   1140.4497     15.8616     57.6618
   156.5000      0.0000   1147.9371     15.7987     58.6593
   156.7500      0.0000   1139.8518     15.7029     59.1318
   157.0000      0.0000   1112.4709     15.5689     59.8792
   157.2500      0.0000   1089.6029     15.4052     62.3214
   157.5000      0.0000   1098.6882     15.2327     67.3052
   157.7500      0.0000   1144.8142     15.0817     74.5280
   158.0000      0.0000   1206.8417     14.9785     82.7557
   158.2500      0.0000   1257.2271     14.9246     90.1685
   158.5000      0.0000   1285.8026     14.8919     94.5467
   158.7500      0.0000   1303.2948     14.8409     93.8477
   159.0000      0.0000   1322.3757     14.7440     87.4735
   159.2500      0.0000   1339.9703     14.5986     77.1260
   159.5000      0.0000   1340.0724     14.4266     66.0563
   159.7500      0.0000   1310.6130     14.2637     57.3748
   160.0000      0.0000   1255.8845     14.1449     52.9728
   160.2500      0.0000   1193.5381     14.0922     53.4230
   160.5000      0.0000   1139.0142     14.1089     58.2682
   160.7500      0.0000   1093.8164     14.1775     66.3429
   161.0000      0.0000   1051.0029     14.2625     76.1112
   161.2500      0.0000   1008.2385     14.3238     86.0409
   161.5000      0.0000    970.5350     14.3378     94.8614
   161.7500      0.0000    943.0607     14.3103    101.5495
   162.0000      0.0000    926.4338     14.2639    105.4356
   162.2500      0.0000    918.0294     14.2149    106.6705
   162.5000      0.0000    914.7212     14.1628    106.2057
   162.7500      0.0000    914.1934     14.0984    104.9050
   163.0000      0.0000    915.0115     14.0143    103.0663
   163.2500      0.0000    916.0866     13.9113    100.9081
   163.5000      0.0000    916.3080     13.7979     98.8063
   163.7500      0.0000    915.0988     13.6837     96.8148
   164.0000      0.0000    913.1431     13.5712     94.7340
   164.2500      0.0000    911.9225     13.4553     92.8932
   164.5000      0.0000    912.2756     13.3315     92.2429
   164.7500      0.0000    913.6037     13.2043     93.4220
   165.0000      0.0000    914.2186     13.0893     96.0175
   165.2500      0.0000    912.2152     13.0066     98.8221
