~Version Information
VERS.                      2.0: CWLS Log ASCII Standard - VERSION 2.0
WRAP.                       NO: One line per depth step
~Well Information Block
STRT.FT                 5.0000: 
STOP.FT               880.0000: 
STEP.FT                 0.2500: 
NULL.                -999.2500: 
COMP.          Pioneer Natural Resources: COMPANY
WELL.          Bienville 31-28: WELL
FLD.           Purgatoire River: FIELD
LOC.           1212' FNL & 2271' FEL: LOCATION
PROV.                 Colorado: PROVINCE
CNTY.               Las Animas: COUNTRY
SRVC.                Patterson: SERVICE COMPANY
DATE.          Tue Jan 24 11:44:03 2006: LOG DATE
UWI.           05 071 08666 00: UNIQUE WELL ID
~Curve Information Block
DEPT.FT            0 000 00 00: Depth
GR.GAPI                       : Gamma Ray
CCL.                          : Casing Collar Locator
TT3.usec                      : CBL 3' Travel Time
AMP3.mV                       : CBL 3' Amplitude
~Parameter Information Block
~A  Depth        GR         CCL         TT3         AMP3    
# ...
   775.5000    113.3531      0.0000    763.2128     12.3346
   775.7500    110.3593      0.0000    763.5996     12.4642
   776.0000    103.6940      0.0000    763.9657     12.6384
   776.2500     95.2618      0.0000    764.2488     12.8606
   776.5000     87.3006      0.0000    764.4781     13.1096
   776.7500     81.4422      0.0000    764.7938     13.3575
   777.0000     78.0989      0.0000    765.4883     13.5930
   777.2500     76.5363      0.0000    766.9128     13.8275
   777.5000     75.8315      0.0000    769.0687     14.0829
   777.7500     75.8036      0.0000    771.1910     14.3700
   778.0000     76.7974      0.0000    772.0630     14.6804
   778.2500     78.7766      0.0000    771.0885     14.9955
   778.5000     81.0665      0.0000    768.9130     15.3012
   778.7500     82.9281      0.0000    766.7781     15.5922
   779.0000     84.0038      0.0000    765.4911     15.8679
   779.2500     84.1578      0.0000    765.1889     16.1305
   779.5000     83.2534      0.0000    765.8051     16.3833
   779.7500     81.3650      0.0000    767.3645     16.6270
   780.0000     79.1306      0.0000    769.6815     16.8579
   780.2500     77.5606      0.0000    771.9108     17.0698
   780.5000     77.2154      0.0000    772.8104     17.2547
   780.7500     77.5491      0.0000    771.7692     17.3959
   781.0000     77.2805      0.0000    769.4193     17.4663
   781.2500     75.5430      0.0000    766.9953     17.4405
   781.5000     72.6048      0.0000    765.2787     17.3140
   781.7500     69.5589      0.0000    764.3025     17.1083
   782.0000     67.5232      0.0000    763.7639     16.8579
   782.2500     67.0178      0.0000    763.4224     16.5954
   782.5000     67.6630      0.0000    763.1818     16.3441
   782.7500     68.3014      0.0000    763.0232     16.1192
   783.0000     67.7115      0.0000    762.9546     15.9284
   783.2500     65.4523      0.0000    763.0220     15.7737
   783.5000     62.1039      0.0000    763.3329     15.6549
   783.7500     58.8082      0.0000    764.0013     15.5767
   784.0000     56.6165      0.0000    764.9009     15.5530
   784.2500     56.0170      0.0000    765.2690     15.6013
   784.5000     56.8706      0.0000    763.6742     15.7311
   784.7500     58.8038      0.0000    758.9549     15.9336
   785.0000     61.5841      0.0000    751.5668     16.1853
   785.2500     64.9058      0.0000    743.6611     16.4627
   785.5000     67.9659      0.0000    737.4709     16.7506
   785.7500     69.7377      0.0000    733.7941     17.0367
   786.0000     69.8035      0.0000    732.0428     17.2983
   786.2500     68.6565      0.0000    731.2411     17.5007
   786.5000     67.2301      0.0000    730.7255     17.6079
   786.7500     66.5313      0.0000    730.2449     17.5991
   787.0000     67.5944      0.0000    729.7997     17.4744
   787.2500     71.1201      0.0000    729.4680     17.2454
   787.5000     76.8644      0.0000    729.2877     16.9214
   787.7500     83.5456      0.0000    729.2758     16.5094
   788.0000     89.5325      0.0000    729.5631     16.0265
   788.2500     93.7138      0.0000    730.5164     15.5074
   788.5000     95.8541      0.0000    732.6656     14.9958
   788.7500     96.3699      0.0000    736.3165     14.5297
   789.0000     95.8653      0.0000    741.0638     14.1331
   789.2500     94.7296      0.0000    745.8320     13.8162
   789.5000     93.1013      0.0000    749.7061     13.5818
   789.7500     91.2121      0.0000    752.6608     13.4279
   790.0000     89.5468      0.0000    755.2109     13.3447
   790.2500     88.4416      0.0000    757.5529     13.3141
   790.5000     87.7456      0.0000    759.4181     13.3159
   790.7500     87.2060      0.0000    760.5901     13.3325
   791.0000     86.9135      0.0000    761.2252     13.3536
   791.2500     87.0881      0.0000    761.7396     13.3791
   791.5000     87.6962      0.0000    762.6287     13.4190
   791.7500     88.4447      0.0000    764.2991     13.4839
   792.0000     88.9574      0.0000    766.7161     13.5764
   792.2500     89.0386      0.0000    769.0626     13.6869
   792.5000     89.0240      0.0000    770.0870     13.7977
   792.7500     89.6528      0.0000    769.1705     13.8962
   793.0000     91.3061      0.0000    766.9583     13.9913
   793.2500     93.5792      0.0000    764.7266     14.1126
   793.5000     95.7583      0.0000    763.3048     14.2858
   793.7500     97.4061      0.0000    762.6916     14.5058
   794.0000     98.1942      0.0000    762.3146     14.7381
   794.2500     97.3596      0.0000    761.2686     14.9422
   794.5000     93.9681      0.0000    758.4208     15.0917
   794.7500     88.0817      0.0000    752.8245     15.1794
   795.0000     81.2890      0.0000    744.5523     15.2143
   795.2500     75.6667      0.0000    735.1536     15.2169
   795.5000     72.4060      0.0000    726.8898     15.2065
   795.7500     71.5599      0.0000    721.2566     15.1897
   796.0000     72.6028      0.0000    718.2773     15.1636
   796.2500     74.8665      0.0000    717.0498     15.1301
   796.5000     77.7548      0.0000    716.6461     15.0999
   796.7500     80.8720      0.0000    716.5187     15.0836
   797.0000     83.9207      0.0000    716.4377     15.0858
   797.2500     86.3710      0.0000    716.3385     15.1102
   797.5000     87.4387      0.0000    716.2830     15.1641
   797.7500     86.6519      0.0000    716.5566     15.2501
   798.0000     84.3813      0.0000    717.8635     15.3493
   798.2500     81.6687      0.0000    721.3277     15.4174
   798.5000     79.5621      0.0000    727.8168     15.3995
   798.7500     78.5728      0.0000    736.5652     15.2537
   799.0000     78.5863      0.0000    744.7709     14.9515
   799.2500     79.0777      0.0000    750.0339     14.4332
   799.5000     79.3197      0.0000    753.8711     13.5704
   799.7500     78.4925      0.0000    761.2690     12.2538
   800.0000     75.9087      0.0000    775.4326     10.5939
   800.2500     71.4273      0.0000    794.0298      8.9835
   800.5000     65.7425      0.0000    811.4848      7.8412
   800.7500     60.1387      0.0000    823.6005      7.2842
   801.0000     55.8148      0.0000    829.2250      7.1061
   801.2500     53.3909     -3.0000    829.2900      7.0417
   801.5000     53.0279     -2.9068    825.7747      7.0130
   801.7500     54.7014      0.0000    820.5422      7.1726
   802.0000     58.0122      0.0000    813.6811      7.7541
   802.2500     61.8733      0.0000    803.4342      8.8558
   802.5000     64.8490      0.0000    788.9170     10.3576
   802.7500     65.9708      0.0000    772.6560     12.0624
   803.0000     65.1663      0.0000    759.3907     13.8578
   803.2500     63.0499      0.0000    752.1066     15.6788
   803.5000     60.5224      0.0000    749.6641     17.3874
   803.7500     58.5006      0.0000    748.3239     18.7946
   804.0000     57.6553      0.0000    745.2349     19.7890
   804.2500     58.0711      0.0000    740.2486     20.3930
   804.5000     59.2284      0.0000    734.7443     20.7059
   804.7500     60.5660      0.0000    729.6661     20.8285
   805.0000     61.9764      0.0000    725.2018     20.8293
   805.2500     63.5243      0.0000    721.7536     20.7340
   805.5000     64.8786      0.0000    720.2288     20.5221
   805.7500     65.3873      0.0000    721.0667     20.1449
   806.0000     64.7150      0.0000    723.4982     19.5722
   806.2500     63.2246      0.0000    726.2048     18.8332
   806.5000     61.6989      0.0000    728.5195     18.0116
   806.7500     60.6850      0.0000    730.7155     17.2011
   807.0000     60.1737      0.0000    733.2503     16.4588
   807.2500     60.0130      0.0000    736.0866     15.7945
   807.5000     60.4401      0.0000    738.9379     15.1988
   807.7500     61.8284      0.0000    741.9780     14.6802
   808.0000     63.9143      0.0000    745.7708     14.2703
   808.2500     65.6430      0.0000    750.3397     13.9940
   808.5000     66.0055      0.0000    754.7505     13.8413
   808.7500     64.9765      0.0000    757.8186     13.7721
