~Version Information
VERS.                      2.0: CWLS Log ASCII Standard - VERSION 2.0
WRAP.                       NO: One line per depth step
~Well Information Block
STRT.FT                 6.0000: 
STOP.FT              1577.7500: 
STEP.FT                 0.2500: 
NULL.                -999.2500: 
COMP.          Pioneer Natural Resources: COMPANY
WELL.           Kermit 32-7 Tr: WELL
FLD.           Purgatoire River: FIELD
LOC.           2009' FNL & 2196' FEL: LOCATION
PROV.                 Colorado: PROVINCE
CNTY.               Las Animas: COUNTRY
SRVC.                Patterson: SERVICE COMPANY
DATE.          Wed Jan 18 14:19:39 2006: LOG DATE
UWI.           05 071 08664 00: UNIQUE WELL ID
~Curve Information Block
DEPT.FT            0 000 00 00: Depth
GR.GAPI                       : Gamma Ray
CCL.                          : Casing Collar Locator
TT3.usec                      : CBL 3' Travel Time
AMP3.mV                       : CBL 3' Amplitude
~Parameter Information Block
~A  Depth        GR         CCL         TT3         AMP3    
# ...
   508.5000     84.2481      0.0000    849.6024      7.7611
   508.7500     86.9588      0.0000    858.2981      7.7712
   509.0000     90.8067      0.0000    861.9130      7.7345
   509.2500     94.7486      0.0000    863.0494      7.6828
   509.5000     97.1050      0.0000    863.2839      7.6392
   509.7500     96.8200      0.0000    863.2766      7.6137
   510.0000     94.3560      0.0000    863.2313      7.6080
   510.2500     91.2928      0.0000    863.1808      7.6205
   510.5000     88.9013      0.0000    863.0277      7.6469
   510.7500     87.2490      0.0000    862.4261      7.6819
   511.0000     85.7841      0.0000    860.6707      7.7217
   511.2500     84.3273      0.0000    856.8987      7.7663
   511.5000     83.1007      0.0000    850.8238      7.8190
   511.7500     82.1891      0.0000    843.3538      7.8805
   512.0000     81.4832      0.0000    835.9398      7.9448
   512.2500     81.0654      0.0000    829.2321      8.0003
   512.5000     81.3424      0.0000    823.2645      8.0391
   512.7500     82.5433      0.0000    818.7403      8.0612
   513.0000     83.9504      0.0000    816.2286      8.0734
   513.2500     83.8551      0.0000    813.8552      8.0828
   513.5000     80.7495      0.0000    808.0729      8.0857
   513.7500     74.6713      0.0000    797.5938      8.0541
   514.0000     67.2113      0.0000    785.1628      7.9209
   514.2500     60.3545      0.0000    775.3647      7.5957
   514.5000     55.4898      0.0000    772.0312      7.0299
   514.7500     53.1096      0.0000    777.2673      6.2882
   515.0000     52.7655      0.0000    790.7204      5.5330
   515.2500     53.2547      0.0000    809.0211      4.9189
   515.5000     53.4343      0.0000    826.9307      4.5124
   515.7500     53.2095      0.0000    839.7534      4.3005
   516.0000     53.4694      0.0000    844.9363      4.2324
   516.2500     54.9114      0.0000    842.1563      4.2499
   516.5000     57.2595     -2.6477    832.7780      4.3185
   516.7500     59.7119      0.0000    819.5030      4.4557
   517.0000     61.7074      0.0000    806.0471      4.7402
   517.2500     63.1173      0.0000    795.8439      5.2758
   517.5000     64.0403      0.0000    789.8950      6.0967
   517.7500     64.5489      0.0000    786.2322      7.0694
   518.0000     64.4804      0.0000    782.3338      7.9203
   518.2500     63.4947      0.0000    777.6713      8.4246
   518.5000     61.4425      0.0000    773.4284      8.5682
   518.7500     58.6322      0.0000    770.6223      8.5073
   519.0000     55.6813      0.0000    769.2527      8.4053
   519.2500     53.1954      0.0000    768.7297      8.3374
   519.5000     51.6143      0.0000    768.4032      8.3056
   519.7500     51.1657      0.0000    767.7058      8.2886
   520.0000     51.7627      0.0000    766.2262      8.2702
   520.2500     52.9649      0.0000    763.9973      8.2466
   520.5000     54.2054      0.0000    761.7751      8.2243
   520.7500     55.1670      0.0000    760.7052      8.2118
   521.0000     55.8761      0.0000    761.3561      8.2146
   521.2500     56.3357      0.0000    763.1708      8.2352
   521.5000     56.2411      0.0000    765.0352      8.2777
   521.7500     55.3567      0.0000    766.1951      8.3469
   522.0000     54.0822      0.0000    766.4534      8.4412
   522.2500     53.2838      0.0000    765.6829      8.5484
   522.5000     53.5215      0.0000    763.4360      8.6513
   522.7500     54.6996      0.0000    759.2108      8.7355
   523.0000     56.5847      0.0000    753.2595      8.7944
   523.2500     59.5560      0.0000    747.1540      8.8300
   523.5000     64.5859      0.0000    743.2868      8.8501
   523.7500     72.2382      0.0000    743.4457      8.8629
   524.0000     81.5787      0.0000    747.5975      8.8730
   524.2500     90.1468      0.0000    753.8937      8.8829
   524.5000     95.4011      0.0000    759.9014      8.8939
   524.7500     96.5843      0.0000    764.0475      8.9056
   525.0000     95.0567      0.0000    766.1443      8.9146
   525.2500     92.6012      0.0000    766.8595      8.9162
   525.5000     89.7387      0.0000    766.9160      8.9075
   525.7500     86.0168      0.0000    766.6621      8.8924
   526.0000     81.4834      0.0000    766.0330      8.8819
   526.2500     77.2030      0.0000    764.7718      8.8888
   526.5000     74.3902      0.0000    762.8915      8.9177
   526.7500     73.5216      0.0000    761.0780      8.9621
   527.0000     74.3469      0.0000    760.4097      9.0112
   527.2500     76.3550      0.0000    761.4091      9.0601
   527.5000     78.9140      0.0000    763.4930      9.1119
   527.7500     81.2071      0.0000    765.5504      9.1741
   528.0000     82.5213      0.0000    766.8922      9.2533
   528.2500     82.8551      0.0000    767.5206      9.3510
   528.5000     83.1015      0.0000    767.7542      9.4614
   528.7500     84.2634      0.0000    767.8470      9.5721
   529.0000     86.3139      0.0000    767.8824      9.6719
   529.2500     88.0075      0.0000    767.8358      9.7580
   529.5000     88.0520      0.0000    767.6671      9.8359
   529.7500     86.3714      0.0000    767.3817      9.9131
   530.0000     84.0243      0.0000    767.0305      9.9909
   530.2500     82.0232      0.0000    766.6865     10.0609
   530.5000     80.5247      0.0000    766.4162     10.1056
   530.7500     79.0182      0.0000    766.2517     10.1093
   531.0000     76.9220      0.0000    766.0220     10.0709
   531.2500     74.0254      0.0000    765.0295     10.0069
   531.5000     70.6288      0.0000    761.7621      9.9408
   531.7500     67.3774      0.0000    754.4658      9.8923
   532.0000     65.0048      0.0000    743.2339      9.8756
   532.2500     64.2631      0.0000    732.0292      9.9005
   532.5000     65.7161      0.0000    727.0896      9.9692
   532.7500     69.1149      0.0000    731.5988     10.0703
   533.0000     72.9771      0.0000    742.5134     10.1797
   533.2500     75.1357      0.0000    753.6714     10.2698
   533.5000     74.0240      0.0000    761.0857     10.3199
   533.7500     69.6236      0.0000    764.5543     10.3221
   534.0000     63.3729      0.0000    765.6969     10.2825
   534.2500     57.3230      0.0000    765.9309     10.2197
   534.5000     53.2675      0.0000    765.9398     10.1578
   534.7500     52.0913      0.0000    765.9572     10.1156
   535.0000     53.3694      0.0000    766.0450     10.0996
   535.2500     55.5967      0.0000    766.2082     10.1058
   535.5000     57.1771      0.0000    766.3974     10.1271
   535.7500     57.3871      0.0000    766.5436     10.1581
   536.0000     56.5080      0.0000    766.6055     10.1918
   536.2500     55.3327      0.0000    766.6058     10.2205
   536.5000     54.6480      0.0000    766.6198     10.2417
   536.7500     54.7698      0.0000    766.7169     10.2590
   537.0000     55.2040      0.0000    766.8995     10.2737
   537.2500     54.9995      0.0000    767.1001     10.2818
   537.5000     53.8114      0.0000    767.2465     10.2819
   537.7500     52.4367      0.0000    767.3208     10.2817
   538.0000     51.9826      0.0000    767.3495     10.2910
   538.2500     52.7006      0.0000    767.3552     10.3157
   538.5000     53.9307      0.0000    767.3424     10.3612
   538.7500     54.9258      0.0000    767.3188     10.4325
   539.0000     55.4017      0.0000    767.2997     10.5238
   539.2500     55.4525      0.0000    767.2888     10.6119
   539.5000     55.2827      0.0000    767.2748     10.6704
   539.7500     55.1291      0.0000    767.2454     10.6866
   540.0000     55.2884      0.0000    767.1942     10.6623
   540.2500     56.0078      0.0000    767.1191     10.6069
   540.5000     57.2921      0.0000    767.0272     10.5370
   540.7500     58.9719      0.0000    766.9394     10.4785
   541.0000     61.0026      0.0000    766.8664     10.4543
   541.2500     63.4612      0.0000    766.7739     10.4683
   541.5000     66.2066      0.0000    766.5319     10.5035
   541.7500     68.9376      0.0000    765.8383     10.5381
