~Version Information
VERS.                      2.0: CWLS Log ASCII Standard - VERSION 2.0
WRAP.                       NO: One line per depth step
~Well Information Block
STRT.FT                -8.7500: 
STOP.FT              1525.0000: 
STEP.FT                 0.2500: 
NULL.                -999.2500: 
COMP.          Pioneer Natural Resources: COMPANY
WELL.          Grand Prix 13-12 Tr: WELL
FLD.           Purgatorie River: FIELD
LOC.           2595' FSL & 1277' FWL--: LOCATION
CNTY.               Las Animas: COUNTY
SRVC.          Patterson Wireline: SERVICE COMPANY
DATE.          Thu Apr 13 10:28:30 2006: LOG DATE
UWI.           05 071 08711 00: UNIQUE WELL ID
STAT.                       CO: STATE
~Curve Information Block
DEPT.FT            0 000 00 00: Depth
CCL.                          : Casing Collar Locator
TT3.usec                      : CBL 3' Travel Time
AMP3.mV                       : CBL 3' Amplitude
GR.GAPI                       : Gamma Ray
~Parameter Information Block
~A  Depth       CCL         TT3         AMP3         GR     
# ...
   192.2500      0.0000    889.3390      4.7338     96.2172
   192.5000      0.0000    861.0250      4.8703    104.1040
   192.7500      0.0000    820.7752      5.0386    109.2049
   193.0000      0.0000    780.2529      5.1601    110.2661
   193.2500      0.0000    748.7281      5.1773    108.4175
   193.5000      0.0000    730.3553      5.1138    107.1862
   193.7500      0.0000    724.6854      5.0350    110.3442
   194.0000      0.0000    727.2278      4.9763    118.4574
   194.2500      0.0000    730.9801      4.9340    127.6887
   194.5000      0.0000    730.1255      4.8986    133.1879
   194.7500      0.0000    723.5613      4.8693    133.4799
   195.0000      0.0000    714.5402      4.8474    130.5303
   195.2500      0.0000    707.0133      4.8329    126.2477
   195.5000      0.0000    702.6729      4.8279    120.8021
   195.7500      0.0000    700.9702      4.8358    114.2933
   196.0000      0.0000    700.6308      4.8565    108.2203
   196.2500      0.0000    700.6712      4.8849    104.3511
   196.5000      0.0000    700.5880      4.9123    102.7658
   196.7500      0.0000    700.2466      4.9310    101.6285
   197.0000      0.0000    699.7484      4.9380     98.8643
   197.2500      0.0000    699.2892      4.9390     94.0196
   197.5000      0.0000    699.0280      4.9481     88.5220
   197.7500      0.0000    699.0164      4.9807     84.2698
   198.0000      0.0000    699.2013      5.0429     82.1629
   198.2500      0.0000    699.4571      5.1249     81.7693
   198.5000      0.0000    699.6495      5.2067     81.9050
   198.7500      0.0000    699.7171      5.2688     81.6429
   199.0000      0.0000    699.7037      5.3019     81.2108
   199.2500      0.0000    699.7053      5.3084     81.8057
   199.5000      0.0000    699.7966      5.2986     84.3123
   199.7500      0.0000    699.9991      5.2848     88.4199
   200.0000      0.0000    700.2769      5.2777     93.0777
   200.2500      0.0000    700.5513      5.2852     97.4093
   200.5000      0.0000    700.8151      5.3094    100.9995
   200.7500      0.0000    701.3887      5.3422    103.6973
   201.0000      0.0000    703.1633      5.3667    105.6190
   201.2500      0.0000    707.4191      5.3686    107.1135
   201.5000      0.0000    714.7413      5.3479    108.0991
   201.7500      0.0000    723.4689      5.3174    107.5749
   202.0000      0.0000    729.6240      5.2917    104.6039
   202.2500      0.0000    729.6342      5.2809     99.9082
   202.5000      0.0000    723.6297      5.2909     95.6452
   202.7500      0.0000    715.5629      5.3240     93.2028
   203.0000      0.0000    710.2098      5.3770     91.7541
   203.2500      0.0000    710.5466      5.4389     89.4262
   203.5000      0.0000    717.0732      5.4911     85.5921
   203.7500      0.0000    727.6844      5.5118     81.4643
   204.0000      0.0000    737.7535      5.4876     78.4436
   204.2500      0.0000    742.0062      5.4243     76.6797
   204.5000      0.0000    737.9804      5.3474     75.6653
   204.7500      0.0000    727.8639      5.2863     75.6444
   205.0000      0.0000    716.6311      5.2596     77.6611
   205.2500      0.0000    708.5612      5.2713     82.0896
   205.5000      0.0000    705.6569      5.3124     87.5524
   205.7500      0.0000    708.4675      5.3636     91.8188
   206.0000      0.0000    716.9225      5.3991     93.9175
   206.2500      0.0000    729.6705      5.3982     94.9588
   206.5000      0.0000    743.3289      5.3573     96.5641
   206.7500      0.0000    753.6627      5.2908     98.8176
   207.0000      0.0000    758.0327      5.2227    100.1691
   207.2500      0.0000    756.5401      5.1762     99.2572
   207.5000      0.0000    751.1954      5.1642     96.5359
   207.7500      0.0000    744.7388      5.1827     93.9590
   208.0000      0.0000    739.8722      5.2140     93.0073
   208.2500      0.0000    738.2988      5.2372     93.0278
   208.5000      0.0000    739.8942      5.2373     91.7767
   208.7500      0.0000    742.9006      5.2091     87.7713
   209.0000      0.0000    744.9868      5.1575     81.8293
   209.2500      0.0000    744.5986      5.0970     76.1825
   209.5000      0.0000    742.1057      5.0466     72.3904
   209.7500      0.0000    739.6056      5.0196     70.2011
   210.0000      0.0000    739.0919      5.0169     68.2717
   210.2500      0.0000    740.9829      5.0279     65.9046
   210.5000      0.0000    744.6642      5.0379     63.8725
   210.7500      0.0000    749.7403      5.0356     63.3651
   211.0000      0.0000    756.0565      5.0180     64.4442
   211.2500      0.0000    762.8588      4.9897     65.8717
   211.5000      0.0000    768.6532      4.9592     66.2955
   211.7500      0.0000    772.0196      4.9353     65.3653
   212.0000      0.0000    772.3732      4.9239     63.7503
   212.2500      0.0000    770.1780      4.9270     62.2636
   212.5000      0.0000    766.8818      4.9416     61.2042
   212.7500      0.0000    764.5026      4.9611     60.5130
   213.0000      0.0000    764.5583      4.9763     60.1506
   213.2500      0.0000    766.9602      4.9804     59.9939
   213.5000      0.0000    770.0248      4.9740     59.6440
   213.7500      0.0000    771.4773      4.9653     58.7554
   214.0000      0.0000    769.3426      4.9652     57.4114
   214.2500      0.0000    762.6461      4.9816     55.8306
   214.5000      0.0000    752.4668      5.0154     53.8901
   214.7500      0.0000    742.3564      5.0600     51.3584
   215.0000      0.0000    736.5612      5.1028     48.7109
   215.2500      0.0000    737.0977      5.1316     47.3454
   215.5000      0.0000    742.5958      5.1400     48.4907
   215.7500      0.0000    749.4703      5.1319     51.8776
   216.0000      0.0000    753.6215      5.1200     55.8496
   216.2500      0.0000    751.9919      5.1203     58.8521
   216.5000      0.0000    744.3998      5.1443     60.5836
   216.7500      0.0000    734.4526      5.1941     61.6051
   217.0000      0.0000    727.7166      5.2617     62.0925
   217.2500      0.0000    728.0578      5.3299     61.4929
   217.5000      0.0000    735.3470      5.3777     59.6922
   217.7500      0.0000    746.0753      5.3899     58.0061
   218.0000      0.0000    755.4772      5.3662     58.3396
   218.2500      0.0000    759.3882      5.3222     61.4992
   218.5000      0.0000    755.5784      5.2780     66.7720
   218.7500      0.0000    744.8041      5.2456     72.9700
   219.0000      0.0000    730.8623      5.2256     79.4840
   219.2500      0.0000    718.8426      5.2126     86.2477
   219.5000      0.0000    712.5583      5.2021     92.8926
   219.7500      0.0000    713.1377      5.1913     98.0574
   220.0000      0.0000    719.3300      5.1754     99.8168
   220.2500      0.0000    728.5246      5.1445     97.2650
   220.5000      0.0000    737.6496      5.0910     91.8013
   220.7500      0.0000    743.7638      5.0189     86.5089
   221.0000      0.0000    744.7328      4.9452     83.9830
   221.2500      0.0000    740.3820      4.8893     84.6609
   221.5000      0.0000    733.2240      4.8599     87.2373
   221.7500      0.0000    727.1866      4.8514     90.6572
   222.0000      0.0000    724.9978      4.8507     95.2069
   222.2500      0.0000    726.6500      4.8482    101.0982
   222.5000      0.0000    729.7494      4.8403    106.7249
   222.7500      0.0000    730.9462      4.8243    109.7903
   223.0000      0.0000    727.9817      4.7978    110.2152
   223.2500      0.0000    721.4848      4.7647    110.5387
   223.5000      0.0000    714.8338      4.7348    112.9675
   223.7500      0.0000    712.0020      4.7153    116.8747
   224.0000      0.0000    715.3834      4.7046    119.6372
   224.2500      0.0000    724.8704      4.6941    119.2633
   224.5000      0.0000    737.9065      4.6760    115.9966
   224.7500      0.0000    750.3527      4.6484    112.0158
   225.0000      0.0000    758.1863      4.6153    109.7802
   225.2500      0.0000    759.1904      4.5825    110.1134
   225.5000      0.0000    753.7250      4.5547    111.6930
