~Version Information
VERS.                      2.0: CWLS Log ASCII Standard - VERSION 2.0
WRAP.                       NO: One line per depth step
~Well Information Block
STRT.FT                -5.5000: 
STOP.FT               791.0000: 
STEP.FT                 0.2500: 
NULL.                -999.2500: 
COMP.          Pioneer Natural Resources: COMPANY
WELL.           Beringer 33-18: WELL
FLD.           Purgatoire River: FIELD
LOC.           2356' FSL & 2338' FEL--: LOCATION
CNTY.               Las Animas: COUNTY
SRVC.                Patterson: SERVICE COMPANY
DATE.          Mon Apr 03 11:39:01 2006: LOG DATE
UWI.           05 071 08725 00: UNIQUE WELL ID
STAT.                 Colorado: STATE
~Curve Information Block
DEPT.FT            0 000 00 00: Depth
CCL.                          : Casing Collar Locator
TT3.usec                      : CBL 3' Travel Time
AMP3.mV                       : CBL 3' Amplitude
GR.GAPI                       : Gamma Ray
~Parameter Information Block
~A  Depth       CCL         TT3         AMP3         GR     
# ...
   765.0000      0.0000    743.6705      4.8986     76.0191
   765.2500      0.0000    741.8380      4.9042     74.7173
   765.5000      0.0000    746.5115      4.9750     73.4968
   765.7500      0.0000    754.6118      5.0458     74.2187
   766.0000      0.0000    770.3417      5.1508     78.1535
   766.2500      0.0000    780.0169      5.2063     81.6978
   766.5000      0.0000    789.6748      5.2600     85.3545
   766.7500      0.0000    792.7118      5.2738     85.5242
   767.0000      0.0000    794.0223      5.2495     83.0962
   767.2500      0.0000    793.9055      5.1979     81.0663
   767.5000      0.0000    793.3818      5.0814     78.9908
   767.7500      0.0000    793.0322      4.9990     78.2008
   768.0000      0.0000    792.6113      4.9074     76.8269
   768.2500      0.0000    792.4282      4.8847     75.1166
   768.5000      0.0000    792.3541      4.9221     71.0569
   768.7500      0.0000    792.4391      4.9860     68.0991
   769.0000      0.0000    792.6855      5.0853     65.6992
   769.2500      0.0000    792.8484      5.1109     66.3263
   769.5000      0.0000    792.9825      5.0539     69.2533
   769.7500      0.0000    792.9848      4.9734     70.4822
   770.0000      0.0000    792.9050      4.8689     68.4934
   770.2500      0.0000    792.8370      4.8464     64.4202
   770.5000      0.0000    792.7641      4.8838     55.0632
   770.7500      0.0000    792.7443      4.9255     46.7959
   771.0000      0.0000    792.7438      4.9587     31.4676
   771.2500      0.0000    792.7482      4.9536     20.4097
   771.5000      0.0000    792.7361      4.9331      6.0596
   771.7500      0.0000    792.6944      4.9302     -0.4928
   772.0000      0.0000    792.5374      4.9515     -5.7365
   772.2500      0.0000    792.3620      4.9766     -7.1494
   772.5000      0.0000    792.0430      5.0153     -7.8519
   772.7500      0.0000    791.8485      5.0380     -7.9623
   773.0000      0.0000    791.7015      5.0760     -7.9977
   773.2500      0.0000    791.8306      5.1147   -999.2500
   773.5000      0.0000    792.9099      5.1980   -999.2500
   773.7500      0.0000    794.8367      5.2583   -999.2500
   774.0000      0.0000    800.9855      5.3224   -999.2500
   774.2500      0.0000    807.9612      5.3336   -999.2500
   774.5000      0.0000    822.6576      5.2966   -999.2500
   774.7500      0.0000    834.1028      5.2376   -999.2500
   775.0000      0.0000    849.3047      5.1020   -999.2500
   775.2500      0.0000    853.1530      4.9775   -999.2500
   775.5000      0.0000    833.5893      4.7038   -999.2500
   775.7500      0.0000    790.1888      4.4161   -999.2500
   776.0000      0.0000    661.1699      3.7450   -999.2500
   776.2500      0.0000    535.8559      3.1430   -999.2500
   776.5000      0.0000    327.4067      2.1627   -999.2500
   776.7500      0.0000    205.4548      1.5908   -999.2500
   777.0000      0.0000     81.0348      1.0047   -999.2500
   777.2500      0.0000     36.9512      0.7956   -999.2500
   777.5000      0.0000      8.7578      0.6609   -999.2500
   777.7500      0.0000      2.7939      0.6322   -999.2500
   778.0000      0.0000      0.3690      0.6204   -999.2500
   778.2500      0.0000      0.0676      0.6190   -999.2500
   778.5000      0.0000   -999.2500   -999.2500   -999.2500
   778.7500      0.0000   -999.2500   -999.2500   -999.2500
   779.0000      0.0000   -999.2500   -999.2500   -999.2500
   779.2500      0.0000   -999.2500   -999.2500   -999.2500
   779.5000      0.0000   -999.2500   -999.2500   -999.2500
   779.7500      0.0000   -999.2500   -999.2500   -999.2500
   780.0000      0.0000   -999.2500   -999.2500   -999.2500
   780.2500      0.0000   -999.2500   -999.2500   -999.2500
   780.5000      0.0000   -999.2500   -999.2500   -999.2500
   780.7500      0.0000   -999.2500   -999.2500   -999.2500
   781.0000      0.0000   -999.2500   -999.2500   -999.2500
   781.2500      0.0000   -999.2500   -999.2500   -999.2500
   781.5000      0.0000   -999.2500   -999.2500   -999.2500
   781.7500      0.0000   -999.2500   -999.2500   -999.2500
   782.0000      0.0000   -999.2500   -999.2500   -999.2500
   782.2500      0.0000   -999.2500   -999.2500   -999.2500
   782.5000      0.0000   -999.2500   -999.2500   -999.2500
   782.7500      0.0000   -999.2500   -999.2500   -999.2500
   783.0000      0.0000   -999.2500   -999.2500   -999.2500
   783.2500      0.0000   -999.2500   -999.2500   -999.2500
   783.5000      0.0000   -999.2500   -999.2500   -999.2500
   783.7500      0.0000   -999.2500   -999.2500   -999.2500
   784.0000   -999.2500   -999.2500   -999.2500   -999.2500
   784.2500   -999.2500   -999.2500   -999.2500   -999.2500
   784.5000   -999.2500   -999.2500   -999.2500   -999.2500
   784.7500   -999.2500   -999.2500   -999.2500   -999.2500
   785.0000   -999.2500   -999.2500   -999.2500   -999.2500
   785.2500   -999.2500   -999.2500   -999.2500   -999.2500
   785.5000   -999.2500   -999.2500   -999.2500   -999.2500
   785.7500   -999.2500   -999.2500   -999.2500   -999.2500
   786.0000   -999.2500   -999.2500   -999.2500   -999.2500
   786.2500   -999.2500   -999.2500   -999.2500   -999.2500
   786.5000   -999.2500   -999.2500   -999.2500   -999.2500
   786.7500   -999.2500   -999.2500   -999.2500   -999.2500
   787.0000   -999.2500   -999.2500   -999.2500   -999.2500
   787.2500   -999.2500   -999.2500   -999.2500   -999.2500
   787.5000   -999.2500   -999.2500   -999.2500   -999.2500
   787.7500   -999.2500   -999.2500   -999.2500   -999.2500
   788.0000   -999.2500   -999.2500   -999.2500   -999.2500
   788.2500   -999.2500   -999.2500   -999.2500   -999.2500
   788.5000   -999.2500   -999.2500   -999.2500   -999.2500
   788.7500   -999.2500   -999.2500   -999.2500   -999.2500
   789.0000   -999.2500   -999.2500   -999.2500   -999.2500
   789.2500   -999.2500   -999.2500   -999.2500   -999.2500
   789.5000   -999.2500   -999.2500   -999.2500   -999.2500
   789.7500   -999.2500   -999.2500   -999.2500   -999.2500
   790.0000   -999.2500   -999.2500   -999.2500   -999.2500
   790.2500   -999.2500   -999.2500   -999.2500   -999.2500
   790.5000   -999.2500   -999.2500   -999.2500   -999.2500
   790.7500   -999.2500   -999.2500   -999.2500   -999.2500
   791.0000   -999.2500   -999.2500   -999.2500   -999.2500
