~Version Information
VERS.                      2.0: CWLS Log ASCII Standard - VERSION 2.0
WRAP.                       NO: One line per depth step
~Well Information Block
STRT.FT               550.0000: 
STOP.FT              1500.5000: 
STEP.FT                 0.2500: 
NULL.                -999.2500: 
COMP.          Pioneer Natural Resources: COMPANY
WELL.          Surtees 23-34 Tr: WELL
FLD.           Purgatoire River: FIELD
LOC.           1559' FSL & 1997' FWL: LOCATION
PROV.                 Colorado: PROVINCE
CNTY.               Las Animas: COUNTRY
SRVC.                Patterson: SERVICE COMPANY
DATE.          Tue Jul 26 23:47:42 2005: LOG DATE
UWI.           05 071 08449 00: UNIQUE WELL ID
~Curve Information Block
DEPT.FT            0 000 00 00: Depth
SN.Ohm-m                      : IEL Short Normal
SP.mV                         : IEL Spontaneous Potential
DIR.Ohm-m                     : IEL Induction Resistivity
GR.GAPI                       : Gamma Ray
~Parameter Information Block
~A  Depth        SN          SP         DIR          GR     
# ...
  1287.0000      8.4823    -63.8141      8.1490    130.4539
  1287.2500      8.7207    -64.2725      8.3353    121.4981
  1287.5000      9.2027    -64.5805      8.4751    106.6967
  1287.7500      9.8698    -64.7643      8.5648     97.0191
  1288.0000     10.5838    -64.8956      8.6160     85.1318
  1288.2500     11.3444    -65.0879      8.6516     80.3864
  1288.5000     12.2697    -65.4739      8.6966     79.7192
  1288.7500     13.3177    -66.1671      8.7703     83.6973
  1289.0000     14.0803    -67.2291      8.8813     94.7477
  1289.2500     14.0279    -68.6652      9.0262    103.8391
  1289.5000     13.0931    -70.4455      9.1896    117.0693
  1289.7500     11.8507    -72.5346      9.3455    124.3867
  1290.0000     10.9707    -74.9084      9.4612    132.1919
  1290.2500     10.6520    -77.5492      9.5048    135.3270
  1290.5000     10.6966    -80.4088      9.4556    137.7256
  1290.7500     10.8825    -83.3515      9.3122    138.4997
  1291.0000     11.0535    -86.1219      9.0938    139.5047
  1291.2500     11.0801    -88.3789      8.8337    140.3711
  1291.5000     10.9595    -89.7988      8.5692    141.8430
  1291.7500     10.8016    -90.1899      8.3332    142.6315
  1292.0000     10.6248    -89.5465      8.1498    142.9485
  1292.2500     10.3851    -87.9997      8.0342    142.3954
  1292.5000     10.2103    -85.7066      7.9942    140.4849
  1292.7500     10.2973    -82.7523      8.0330    138.6977
  1293.0000     10.5851    -79.1108      8.1506    135.7389
  1293.2500     10.8307    -74.6748      8.3445    133.8255
  1293.5000     10.9854    -69.3509      8.6115    131.1547
  1293.7500     11.2222    -63.1894      8.9491    129.4300
  1294.0000     11.6581    -56.4782      9.3558    126.8973
  1294.2500     12.2749    -49.7086      9.8289    125.2633
  1294.5000     13.0636    -43.3872     10.3617    122.3380
  1294.7500     14.0813    -37.8156     10.9465    119.1479
  1295.0000     15.3982    -33.0488     11.5830    110.5121
  1295.2500     17.1402    -29.0633     12.2861    101.5930
  1295.5000     19.5535    -25.9084     13.0869     84.6027
  1295.7500     23.0296    -23.6497     14.0235     72.6076
  1296.0000     28.1218    -22.2178     15.1304     56.7917
  1296.2500     35.2864    -21.3816     16.4301     48.8441
  1296.5000     44.4091    -20.8699     17.9330     41.2978
  1296.7500     54.5840    -20.4945     19.6437     38.9086
  1297.0000     64.3030    -20.1740     21.5630     38.3767
  1297.2500     72.0753    -19.8862     23.6627     39.4153
  1297.5000     77.1299    -19.6198     25.8317     42.0217
  1297.7500     79.4968    -19.3604     27.8256     43.9720
  1298.0000     79.6250    -19.0974     29.2924     46.5418
  1298.2500     78.1571    -18.8308     29.9092     47.6968
  1298.5000     75.7407    -18.5695     29.5483     48.3881
  1298.7500     72.6864    -18.3247     28.3292     48.3638
  1299.0000     68.8869    -18.0969     26.5282     48.4501
  1299.2500     64.1672    -17.8665     24.4492     49.2675
  1299.5000     58.6029    -17.6036     22.3427     52.9833
  1299.7500     52.5015    -17.2924     20.3811     57.8470
  1300.0000     46.2262    -16.9469     18.6614     69.1520
  1300.2500     40.0931    -16.6005     17.2180     78.8206
  1300.5000     34.3590    -16.2842     16.0394     94.4196
  1300.7500     29.1854    -16.0086     15.0868    104.1276
  1301.0000     24.5940    -15.7641     14.3096    115.8908
  1301.2500     20.6021    -15.5336     13.6552    121.5394
  1301.5000     17.3984    -15.3051     13.0731    127.1897
  1301.7500     15.1584    -15.0737     12.5206    129.5403
  1302.0000     13.7313    -14.8412     11.9723    131.3192
  1302.2500     12.7382    -14.6181     11.4282    131.2690
  1302.5000     11.8885    -14.4256     10.9102    129.3824
  1302.7500     11.1317    -14.2872     10.4466    127.4182
  1303.0000     10.6228    -14.2185     10.0569    124.9427
  1303.2500     10.5677    -14.2232      9.7461    124.3603
  1303.5000     11.0210    -14.2994      9.5093    125.3101
  1303.7500     11.7644    -14.4442      9.3388    126.7686
  1304.0000     12.3885    -14.6513      9.2256    129.4922
  1304.2500     12.5409    -14.9027      9.1571    131.5730
  1304.5000     12.1485    -15.1684      9.1146    135.3633
  1304.7500     11.4081    -15.4170      9.0751    138.4690
  1305.0000     10.5819    -15.6302      9.0155    143.7009
  1305.2500      9.8768    -15.8053      8.9194    147.0143
  1305.5000      9.4462    -15.9484      8.7811    150.5834
  1305.7500      9.3235    -16.0668      8.6069    151.7274
  1306.0000      9.3524    -16.1680      8.4115    152.0721
  1306.2500      9.3463    -16.2605      8.2124    151.8693
  1306.5000      9.2774    -16.3493      8.0251    151.0848
  1306.7500      9.1630    -16.4330      7.8617    149.9829
  1307.0000      8.9543    -16.5069      7.7308    147.3929
  1307.2500      8.6611    -16.5681      7.6366    145.5058
  1307.5000      8.3868    -16.6167      7.5795    143.5143
  1307.7500      8.1530    -16.6488      7.5569    143.0565
  1308.0000      7.8998    -16.6536      7.5650    143.4288
  1308.2500      7.6761    -16.6173      7.5997    144.0888
  1308.5000      7.6346    -16.5293      7.6574    145.6613
  1308.7500      7.8444    -16.3855      7.7348    147.3690
  1309.0000      8.1921    -16.1867      7.8283    151.0375
  1309.2500      8.4812    -15.9359      7.9360    153.7382
  1309.5000      8.6111    -15.6329      8.0590    156.7539
  1309.7500      8.6603    -15.2717      8.2013    157.4737
  1310.0000      8.7919    -14.8462      8.3656    156.7475
  1310.2500      9.0816    -14.3595      8.5487    155.6766
  1310.5000      9.4604    -13.8289      8.7411    153.9980
  1310.7500      9.7815    -13.2826      8.9323    152.7043
  1311.0000      9.9185    -12.7475      9.1171    149.9172
  1311.2500      9.8470    -12.2366      9.2991    147.5581
  1311.5000      9.6731    -11.7442      9.4875    143.9531
  1311.7500      9.5765    -11.2566      9.6933    141.7195
  1312.0000      9.6758    -10.7688      9.9258    138.5746
  1312.2500      9.9449    -10.2936     10.1897    136.6771
  1312.5000     10.2840     -9.8598     10.4820    134.4371
  1312.7500     10.6051     -9.4997     10.7916    133.3879
  1313.0000     10.8449     -9.2354     11.1036    132.3406
  1313.2500     11.0150     -9.0715     11.4065    131.9519
  1313.5000     11.2302     -8.9992     11.6946    131.7803
  1313.7500     11.5577     -9.0111     11.9654    131.8237
  1314.0000     11.9071     -9.1063     12.2146    131.9402
  1314.2500     12.1876     -9.2839     12.4356    132.1796
  1314.5000     12.4413     -9.5377     12.6221    133.5428
  1314.7500     12.7360     -9.8704     12.7720    135.5424
  1315.0000     13.0188    -10.3073     12.8868    139.6966
  1315.2500     13.1704    -10.8827     12.9666    142.0947
  1315.5000     13.1783    -11.6020     13.0065    143.0411
  1315.7500     13.1350    -12.4205     12.9971    141.4750
  1316.0000     13.0804    -13.2583     12.9314    136.7247
  1316.2500     12.9501    -14.0372     12.8116    132.9414
  1316.5000     12.6505    -14.7145     12.6516    127.9189
  1316.7500     12.1452    -15.2957     12.4721    125.6994
  1317.0000     11.5194    -15.8214     12.2923    125.0469
  1317.2500     10.9796    -16.3380     12.1230    126.8091
  1317.5000     10.7301    -16.8739     11.9638    132.3884
  1317.7500     10.7954    -17.4349     11.8047    136.8950
  1318.0000     11.0067    -18.0111     11.6312    142.0756
  1318.2500     11.1727    -18.5872     11.4320    143.4450
  1318.5000     11.1924    -19.1492     11.2036    142.4821
  1318.7500     11.0439    -19.6870     10.9530    140.5794
  1319.0000     10.7968    -20.1974     10.6952    137.1472
  1319.2500     10.5788    -20.6858     10.4489    135.0003
  1319.5000     10.4285    -21.1654     10.2300    132.6788
  1319.7500     10.2487    -21.6519     10.0461    132.1321
  1320.0000      9.9572    -22.1552      9.8936    133.2563
  1320.2500      9.6777    -22.6735      9.7598    135.0922
