~Version Information
VERS.                      2.0: CWLS Log ASCII Standard - VERSION 2.0
WRAP.                       NO: One line per depth step
~Well Information Block
STRT.FT               547.0000: 
STOP.FT              1685.5000: 
STEP.FT                 0.1000: 
NULL.                -999.2500: 
COMP.          Pioneer Natural Resources: COMPANY
WELL.           Pedri 42-33 Tr: WELL
FLD.           Purgatorie River: FIELD
LOC.           1933' FNL & 662' FEL: LOCATION
PROV.                 Colorado: PROVINCE
CNTY.               Las Animas: COUNTRY
SRVC.                Patterson: SERVICE COMPANY
DATE.          Mon Dec 19 13:36:44 2005: LOG DATE
UWI.                          : UNIQUE WELL ID
~Curve Information Block
DEPT.FT            0 000 00 00: Depth
DCAL.in                       : CDL Caliper
RHOB.g/cc                     : CDL Bulk Density
RHOC.g/cc                     : CDL Density Correction
DPOR.pu                       : CDL Density Porosity
GR.GAPI                       : Gamma Ray
~Parameter Information Block
~A  Depth       DCAL        RHOB        RHOC        DPOR         GR     
   547.0000      8.1834      2.3800      1.5319     -0.0054     76.2539
   547.1000      8.1834      2.4049      1.6261     -0.0049     76.4870
   547.2000      8.1834      2.4154      1.6550     -0.0047     76.4624
   547.3000      8.1849      2.4059      1.5737     -0.0049     74.5665
   547.4000      8.1849      2.3922      1.5883     -0.0052     73.1882
   547.5000      8.1862      2.3877      1.5615     -0.0052     74.7427
   547.6000      8.1862      2.4027      1.5711     -0.0049     77.4936
   547.7000      8.1862      2.4337      1.6330     -0.0043     78.4077
   547.8000      8.1932      2.4594      1.6301     -0.0038     77.2144
   547.9000      8.1932      2.4634      1.6579     -0.0037     76.3861
   548.0000      8.1879      2.4481      1.6130     -0.0040     76.9404
   548.1000      8.1879      2.4319      1.5990     -0.0044     77.6594
   548.2000      8.1879      2.4198      1.6278     -0.0046     77.3784
   548.3000      8.1887      2.4004      1.6013     -0.0050     75.8894
   548.4000      8.1887      2.3773      1.5351     -0.0055     74.4743
   548.5000      8.1920      2.3688      1.5200     -0.0056     73.7634
   548.6000      8.1920      2.3867      1.5154     -0.0053     73.3735
   548.7000      8.1920      2.4256      1.5976     -0.0045     72.4701
   548.8000      8.1964      2.4670      1.5975     -0.0037     70.3046
   548.9000      8.1964      2.4991      1.5998     -0.0030     68.9703
   549.0000      8.1960      2.5215      1.6169     -0.0026     69.7571
   549.1000      8.1960      2.5228      1.6653     -0.0025     70.7700
   549.2000      8.1960      2.4959      1.5598     -0.0031     69.9801
   549.3000      8.1886      2.4626      1.5698     -0.0038     67.5891
   549.4000      8.1886      2.4465      1.5462     -0.0041     66.4240
   549.5000      8.1823      2.4478      1.5423     -0.0040     68.6820
   549.6000      8.1823      2.4512      1.5579     -0.0040     72.5975
   549.7000      8.1823      2.4520      1.5213     -0.0040     74.1454
   549.8000      8.1806      2.4606      1.5859     -0.0038     72.9626
   549.9000      8.1806      2.4744      1.5929     -0.0035     72.1137
   550.0000      8.1834      2.4812      1.6009     -0.0034     71.2533
   550.1000      8.1834      2.4812      1.5860     -0.0034     68.2697
   550.2000      8.1834      2.4851      1.5472     -0.0033     65.2101
   550.3000      8.1861      2.4967      1.6176     -0.0031     65.4464
   550.4000      8.1861      2.5048      1.6074     -0.0029     68.6152
   550.5000      8.1839      2.4964      1.6453     -0.0031     72.1415
   550.6000      8.1839      2.4696      1.5336     -0.0036     73.9595
   550.7000      8.1839      2.4349      1.5491     -0.0043     73.9010
   550.8000      8.1863      2.4054      1.4798     -0.0049     73.3557
   550.9000      8.1863      2.3917      1.5424     -0.0052     73.8153
   551.0000      8.1957      2.3906      1.5744     -0.0052     74.6919
   551.1000      8.1957      2.4013      1.4801     -0.0050     74.2541
   551.2000      8.1957      2.4223      1.6348     -0.0046     73.7377
   551.3000      8.1871      2.4246      1.6321     -0.0045     75.5393
   551.4000      8.1871      2.3995      1.5333     -0.0050     79.1027
   551.5000      8.1894      2.3724      1.5459     -0.0056     80.9033
   551.6000      8.1894      2.3591      1.5081     -0.0058     78.8963
   551.7000      8.1894      2.3637      1.5292     -0.0057     75.8066
   551.8000      8.1892      2.3796      1.5734     -0.0054     74.5497
   551.9000      8.1892      2.3871      1.5969     -0.0053     74.5601
   552.0000      8.1926      2.3751      1.5593     -0.0055     74.5642
   552.1000      8.1926      2.3604      1.5178     -0.0058     73.4785
   552.2000      8.1926      2.3658      1.5351     -0.0057     71.0204
   552.3000      8.1911      2.3900      1.5766     -0.0052     69.3805
   552.4000      8.1911      2.4198      1.5308     -0.0046     70.5532
   552.5000      8.1947      2.4472      1.5955     -0.0041     72.8582
   552.6000      8.1947      2.4651      1.5795     -0.0037     74.0364
   552.7000      8.1947      2.4741      1.5790     -0.0035     75.2115
   552.8000      8.1952      2.4823      1.5640     -0.0034     77.9299
   552.9000      8.1952      2.4933      1.5937     -0.0031     79.9452
   553.0000      8.1950      2.4996      1.6082     -0.0030     78.4542
   553.1000      8.1950      2.5020      1.5836     -0.0030     75.7894
   553.2000      8.1950      2.5076      1.5942     -0.0028     74.7077
   553.3000      8.1926      2.5088      1.5723     -0.0028     73.8231
   553.4000      8.1926      2.4955      1.5996     -0.0031     71.0449
   553.5000      8.1836      2.4730      1.5638     -0.0035     69.2284
   553.6000      8.1836      2.4611      1.5412     -0.0038     71.0569
   553.7000      8.1836      2.4685      1.6105     -0.0036     72.2847
   553.8000      8.1768      2.4812      1.5724     -0.0034     70.2760
   553.9000      8.1768      2.4863      1.5605     -0.0033     67.7575
   554.0000      8.1816      2.4754      1.6005     -0.0035     66.1034
   554.1000      8.1816      2.4583      1.4878     -0.0038     64.1336
   554.2000      8.1816      2.4665      1.5050     -0.0037     61.3816
   554.3000      8.1769      2.4958      1.6097     -0.0031     59.1070
   554.4000      8.1769      2.5091      1.6111     -0.0028     58.5226
   554.5000      8.1840      2.5102      1.5103     -0.0028     58.5697
   554.6000      8.1840      2.5363      1.5015     -0.0023     56.5937
   554.7000      8.1840      2.5848      1.6304     -0.0013     52.7067
   554.8000      8.1851      2.6210      1.6537     -0.0006     49.5108
   554.9000      8.1851      2.6370      1.6366     -0.0003     48.2249
   555.0000      8.1851      2.6418      1.6372     -0.0002     48.5759
   555.1000      8.1851      2.6293      1.6260     -0.0004     49.4985
   555.2000      8.1851      2.5956      1.5731     -0.0011     49.6705
   555.3000      8.1858      2.5571      1.5905     -0.0019     48.4813
   555.4000      8.1858      2.5328      1.5540     -0.0023     46.9093
   555.5000      8.1909      2.5197      1.5740     -0.0026     46.9341
   555.6000      8.1909      2.5042      1.5202     -0.0029     48.5688
   555.7000      8.1909      2.4868      1.5208     -0.0033     49.6583
   555.8000      8.1909      2.4669      1.5892     -0.0037     49.4575
   555.9000      8.1909      2.4487      1.4653     -0.0040     49.2189
   556.0000      8.1945      2.4503      1.5377     -0.0040     50.4852
   556.1000      8.1945      2.4701      1.5361     -0.0036     53.6340
   556.2000      8.1945      2.4833      1.5921     -0.0033     57.0648
   556.3000      8.1933      2.4836      1.5231     -0.0033     59.1403
   556.4000      8.1933      2.4961      1.4831     -0.0031     60.5198
   556.5000      8.1898      2.5236      1.5721     -0.0025     62.3251
   556.6000      8.1898      2.5261      1.6225     -0.0025     64.1768
   556.7000      8.1898      2.4893      1.5452     -0.0032     64.9212
   556.8000      8.1843      2.4499      1.5102     -0.0040     64.0264
   556.9000      8.1843      2.4298      1.5473     -0.0044     62.6107
   557.0000      8.1849      2.4121      1.5222     -0.0048     62.6328
   557.1000      8.1849      2.3883      1.5379     -0.0052     64.4315
   557.2000      8.1849      2.3689      1.5346     -0.0056     66.7283
   557.3000      8.1837      2.3581      1.5106     -0.0058     68.8416
   557.4000      8.1837      2.3517      1.5292     -0.0060     71.1072
   557.5000      8.1734      2.3496      1.5405     -0.0060     72.4424
   557.6000      8.1734      2.3568      1.4910     -0.0059     71.9686
   557.7000      8.1734      2.3747      1.5179     -0.0055     71.4079
   557.8000      8.1737      2.3928      1.5640     -0.0051     78.7689
   557.9000      8.1737      2.4015      1.5244     -0.0050     83.7757
   558.0000      8.1681      2.3876      1.6201     -0.0053     86.4037
   558.1000      8.1681      2.3451      1.5023     -0.0061     83.5919
