~Version Information
VERS.                      2.0: CWLS Log ASCII Standard - VERSION 2.0
WRAP.                       NO: One line per depth step
~Well Information Block
STRT.FT               -12.2500: 
STOP.FT              1442.2500: 
STEP.FT                 0.2500: 
NULL.                -999.2500: 
COMP.          Pioneer Natural Resources: COMPANY
WELL.              Lucky 21-36: WELL
FLD.           Purgatorie River: FIELD
LOC.           799' FNL & 1578' FWL--: LOCATION
CDN. :
PROV. :
UWI. :
STAT. :
CNTY. :
CTRY. :
API. :
COMP. :
WELL. :
FLD. :
LOC. :
DATE. :
SRVC. :
CNTY.               Las Animas: COUNTY
SRVC.          Superior Well Services: SERVICE COMPANY
DATE.          Mon Jul 21 12-16-21 2008: LOG DATE
UWI.           05 071 08456 00: UNIQUE WELL ID
STAT.                       CO: STATE
~Curve Information Block
DEPT.FT            0 000 00 00: Depth
CCL.                          : Casing Collar Locator
TT3.usec                      : CBL 3' Travel Time
AMP3.mV                       : CBL 3' Amplitude
GR.GAPI                       : Gamma Ray
~Parameter Information Block
~A  Depth       CCL         TT3         AMP3         GR     
# ...
   925.7500      0.0000    783.8036     12.7825    100.7410
   926.0000      0.0000    787.4125     13.1863     97.8677
   926.2500      0.0000    790.1105     13.3075     95.3239
   926.5000      0.0000    790.0252     13.2422     93.7654
   926.7500      0.0000    786.9034     13.0710     93.9322
   927.0000      0.0000    782.3737     12.8460     95.7714
   927.2500      0.0000    778.4629     12.6012     97.8435
   927.5000      0.0000    775.8878     12.3640     98.1552
   927.7500      0.0000    773.8492     12.1636     96.0246
   928.0000      0.0000    771.4328     12.0340     92.9555
   928.2500      0.0000    768.7610     12.0037     91.3521
   928.5000      0.0000    766.6031     12.0728     92.6111
   928.7500      0.0000    765.3394     12.2012     96.8022
   929.0000      0.0000    764.6813     12.3230    103.7123
   929.2500      0.0000    763.9531     12.3805    113.3578
   929.5000      0.0000    762.1078     12.3561    125.3488
   929.7500      0.0000    757.4273     12.2795    138.1468
   930.0000      0.0000    748.0530     12.2072    149.0606
   930.2500      0.0000    734.2871     12.1903    155.1977
   930.5000      0.0000    720.9129     12.2533    155.0659
   930.7500      0.0000    715.4445     12.3896    149.4749
   931.0000      0.0000    722.0524     12.5699    140.5164
   931.2500      0.0000    737.8376     12.7524    129.6366
   931.5000      0.0000    756.1185     12.8843    117.0480
   931.7500      0.0000    772.0243     12.9015    102.9420
   932.0000      0.0000    784.1317     12.7528     88.7673
   932.2500      0.0000    792.8560     12.4415     76.9972
   932.5000      0.0000    799.2449     12.0401     69.6069
   932.7500      0.0000    804.5531     11.6529     66.8103
   933.0000      0.0000    809.1894     11.3586     67.3251
   933.2500      0.0000    811.5280     11.1798     69.8240
   933.5000      0.0000    808.7298     11.0855     73.9035
   933.7500      0.0000    799.6536     11.0151     79.5567
   934.0000      0.0000    786.7030     10.9118     86.1733
   934.2500      0.0000    774.0521     10.7512     92.6453
   934.5000      0.0000    764.4088     10.5438     98.4019
   934.7500      0.0000    758.1122     10.3149    103.7990
   935.0000      0.0000    754.7482     10.0895    109.1730
   935.2500      0.0000    754.4654      9.8910    113.8559
   935.5000      0.0000    757.5170      9.7409    116.7076
   935.7500      0.0000    763.3116      9.6494    117.6055
   936.0000      0.0000    770.4633      9.6097    117.9878
   936.2500      0.0000    777.5529      9.6020    119.8857
   936.5000      0.0000    783.4813      9.6029    124.3949
   936.7500      0.0000    787.1793      9.5972    130.6840
   937.0000      0.0000    787.6395      9.5874    136.2391
   937.2500      0.0000    784.8931      9.5881    138.3176
   937.5000      0.0000    780.8148      9.6094    135.4953
   937.7500      0.0000    777.9738      9.6500    128.1374
   938.0000      0.0000    776.9083      9.7090    117.8376
   938.2500      0.0000    774.4656      9.7968    106.7306
   938.5000      0.0000    765.4156      9.9255     97.0884
   938.7500      0.0000    747.1599     10.0883     90.8816
   939.0000      0.0000    724.4822     10.2504     88.9781
   939.2500      0.0000    709.0618     10.3636     90.4762
   939.5000      0.0000    711.1263     10.3924     93.2376
   939.7500      0.0000    729.9708     10.3323     95.5702
   940.0000      0.0000    754.1313     10.2095     97.4095
   940.2500      0.0000    771.3060     10.0651     99.9421
   940.5000      0.0000    776.6773      9.9366    104.3778
   940.7500      0.0000    772.3390      9.8455    110.9170
   941.0000      0.0000    761.3167      9.7957    118.3254
   941.2500      0.0000    743.1158      9.7765    124.6134
   941.5000      0.0000    714.5139      9.7646    128.7474
   941.7500      0.0000    674.6799      9.7314    131.6781
   942.0000      0.0000    629.6110      9.6580    135.2482
   942.2500      0.0000    590.5239      9.5488    140.1666
   942.5000      0.0000    567.1489      9.4284    145.2738
   942.7500      0.0000    562.4435      9.3227    148.6104
   943.0000      0.0000    572.8091      9.2417    149.1015
   943.2500      0.0000    591.8618      9.1808    147.4343
   943.5000      0.0000    613.9034      9.1340    145.5063
   943.7500      0.0000    635.0931      9.1020    145.0046
   944.0000      0.0000    652.5250      9.0872    146.3782
   944.2500      0.0000    662.8658      9.0839    148.8231
   944.5000      0.0000    662.2480      9.0802    151.0342
   944.7500      0.0000    648.0945      9.0655    152.2990
   945.0000      0.0000    622.0743      9.0360    153.1284
   945.2500      0.0000    591.5114      8.9929    154.4831
   945.5000      0.0000    566.5358      8.9410    156.2634
   945.7500      0.0000    554.6519      8.8876    156.9722
   946.0000      0.0000    557.2585      8.8407    155.0336
   946.2500      0.0000    569.7548      8.8045    150.2739
   946.5000      0.0000    583.9534      8.7775    144.0906
   946.7500      0.0000    592.0801      8.7556    138.3408
   947.0000      0.0000    591.3002      8.7342    134.1341
   947.2500      0.0000    585.2895      8.7100    131.6301
   947.5000      0.0000    581.2866      8.6832    130.6900
   947.7500      0.0000    585.8302      8.6575    131.3691
   948.0000      0.0000    602.3047      8.6382    133.6504
   948.2500      0.0000    629.7329      8.6284    136.9234
   948.5000      0.0000    662.4409      8.6276    140.2312
   948.7500      0.0000    692.2651      8.6336    143.3092
   949.0000      0.0000    712.9818      8.6423    147.0665
   949.2500      0.0000    723.2050      8.6473    152.4649
   949.5000      0.0000    725.2522      8.6413    158.8380
   949.7500      0.0000    721.7947      8.6199    163.7509
   950.0000      0.0000    714.1107      8.5853    164.9499
   950.2500      0.0000    703.7491      8.5446    162.4736
   950.5000      0.0000    695.0968      8.5070    158.7363
   950.7500      0.0000    694.1295      8.4818    156.5849
   951.0000      0.0000    703.0038      8.4772    157.1748
   951.2500      0.0000    717.0681      8.4956    159.3663
   951.5000      0.0000    729.1100      8.5271    160.9875
   951.7500      0.0000    735.9014      8.5515    160.7749
   952.0000      0.0000    739.4053      8.5488    159.1451
   952.2500      0.0000    742.7037      8.5109    157.3276
   952.5000      0.0000    746.5493      8.4461    156.1122
   952.7500      0.0000    749.5178      8.3753    155.4671
   953.0000      0.0000    749.7906      8.3239    155.0477
   953.2500      0.0000    746.4666      8.3159    154.8399
   953.5000      0.0000    740.5986      8.3724    155.1804
   953.7500      0.0000    735.5758      8.5079    156.0391
   954.0000      0.0000    735.4600      8.7225    156.4532
   954.2500      0.0000    742.2995      8.9943    155.0128
   954.5000      0.0000    755.0999      9.2818    151.0130
   954.7500      0.0000    770.6490      9.5370    145.1688
   955.0000      0.0000    785.0227      9.7232    139.3341
   955.2500      0.0000    795.3935      9.8260    135.3555
   955.5000      0.0000    801.2635      9.8492    133.7816
   955.7500      0.0000    804.0496      9.8015    133.5215
   956.0000      0.0000    805.6450      9.6933    132.9069
   956.2500      0.0000    807.2598      9.5602    131.2534
   956.5000      0.0000    808.7960      9.4799    129.6789
   956.7500      0.0000    808.8124      9.5272    130.3675
   957.0000      0.0000    805.6920      9.6806    134.3734
   957.2500      0.0000    799.5164      9.8071    139.8902
   957.5000      0.0000    792.1268      9.7856    143.2906
   957.7500      0.0000    784.8672      9.6212    142.2423
   958.0000      0.0000    777.5727      9.4098    137.6239
   958.2500      0.0000    770.9199      9.2272    132.6093
   958.5000      0.0000    767.9790      9.0939    130.1821
   958.7500     -2.0000    771.1537      9.0175    131.2428
   959.0000      0.0000    778.1219      9.0300    134.6886
