~Version Information
VERS.                      2.0: CWLS Log ASCII Standard - VERSION 2.0
WRAP.                       NO: One line per depth step
~Well Information Block
STRT.FT               345.0000: 
STOP.FT              2167.7000: 
STEP.FT                 0.1000: 
NULL.                -999.2500: 
COMP.          Pioneer Natural Resources: COMPANY
WELL.          Hemisphere 32-24: WELL
FLD.           Purgatoire River: FIELD
LOC.           1850' FNL & 2284' FEL--: LOCATION
PROV.                 Colorado: PROVINCE
CNTY.               Las Animas: COUNTRY
SRVC.                Patterson: SERVICE COMPANY
DATE.          Mon Aug 15 07:19:13 2005: LOG DATE
UWI.           05 071 08440 00: UNIQUE WELL ID
~Curve Information Block
DEPT.FT            0 000 00 00: Depth
DCAL.in                       : CDL Caliper
RHOB.g/cc                     : CDL Bulk Density
RHOC.g/cc                     : CDL Density Correction
DPOR.pu                       : CDL Density Porosity
NPOR.pu                       : Neutron Porosity
GR.GAPI                       : Gamma Ray
~Parameter Information Block
~A  Depth       DCAL        RHOB        RHOC        DPOR        NPOR         GR     
# ...
   460.2000      8.1324      2.5726      0.0490      4.6908     22.4105     75.3859
   460.3000      8.1381      2.5755      0.0524      4.5144     22.9348     73.0347
   460.4000      8.1381      2.5814      0.0317      4.1568     23.2602     72.7166
   460.5000      8.1488      2.5999      0.0368      3.0351     23.2087     74.7153
   460.6000      8.1488      2.6324      0.0618      1.0677     22.8264     77.5512
   460.7000      8.1488      2.6705      0.0745     -1.2407     22.2022     80.7443
   460.8000      8.1555      2.6949      0.0967     -2.7193     21.7213     81.4681
   460.9000      8.1555      2.6842      0.1017     -2.0704     21.3631     75.3356
   461.0000      8.1572      2.6401      0.0313      0.5989     20.8970     66.0440
   461.1000      8.1572      2.5946     -0.0035      3.3582     20.3466     61.2538
   461.2000      8.1572      2.5742      0.0037      4.5946     19.7460     61.3196
   461.3000      8.1587      2.5757      0.0637      4.5030     19.2010     60.8211
   461.4000      8.1587      2.5837      0.0597      4.0154     18.8645     59.0981
   461.5000      8.1590      2.5926      0.0767      3.4768     18.6800     57.9848
   461.6000      8.1590      2.6042      0.0466      2.7768     18.5119     56.2306
   461.7000      8.1590      2.6175      0.0729      1.9692     18.3179     53.0032
   461.8000      8.1601      2.6259      0.0688      1.4608     18.0918     49.8812
   461.9000      8.1601      2.6272      0.0468      1.3816     17.7566     46.3198
   462.0000      8.1667      2.6220      0.0927      1.6954     17.2718     41.6899
   462.1000      8.1667      2.6155      0.0238      2.0893     16.9349     39.2161
   462.2000      8.1667      2.6177      0.0769      1.9595     17.1119     40.2622
   462.3000      8.1757      2.6214      0.0999      1.7345     17.6465     41.8901
   462.4000      8.1757      2.6219      0.0288      1.7034     18.2316     43.6453
   462.5000      8.1792      2.6245      0.0866      1.5424     18.7573     48.6243
   462.6000      8.1792      2.6191      0.0586      1.8747     19.1712     56.6960
   462.7000      8.1792      2.6033      0.0215      2.8300     19.3828     62.5610
   462.8000      8.1801      2.5932      0.0480      3.4443     19.3311     62.3569
   462.9000      8.1801      2.5909      0.0589      3.5844     19.2402     60.2406
   463.0000      8.1827      2.5887      0.0350      3.7129     19.6181     61.7048
   463.1000      8.1827      2.5845      0.0527      3.9681     20.6312     64.6789
   463.2000      8.1827      2.5725      0.0498      4.6963     21.8084     64.6227
   463.3000      8.1855      2.5469      0.0477      6.2461     22.6080     63.1226
   463.4000      8.1855      2.5135      0.0399      8.2743     23.0684     63.5877
   463.5000      8.1910      2.4860     -0.0298      9.9421     23.5314     66.6368
   463.6000      8.1910      2.4766     -0.0018     10.5104     23.9995     72.1558
   463.7000      8.1910      2.4815      0.0399     10.2119     24.1583     79.7810
   463.8000      8.2007      2.4819      0.0291     10.1860     23.6961     88.7151
   463.9000      8.2007      2.4641      0.0740     11.2695     22.8594     98.4939
   464.0000      8.2097      2.4268      0.0623     13.5264     22.2481    110.1340
   464.1000      8.2097      2.3804      0.0463     16.3414     21.8075    120.4467
   464.2000      8.2097      2.3410      0.0192     18.7279     21.1026    123.1741
   464.3000      8.2193      2.3340      0.0189     19.1529     20.2073    120.3198
   464.4000      8.2193      2.3735      0.1180     16.7570     19.6402    118.2415
   464.5000      8.2327      2.4316      0.1694     13.2391     19.6214    118.0294
   464.6000      8.2327      2.4672      0.1631     11.0817     19.6950    120.5486
   464.7000      8.2327      2.4702      0.1324     10.8954     19.4407    126.1618
   464.8000      8.2532      2.4563      0.1040     11.7403     18.9878    129.0431
   464.9000      8.2532      2.4376      0.1451     12.8727     18.5594    125.7339
   465.0000      8.2799      2.4188      0.0818     14.0098     18.2713    123.1935
   465.1000      8.2799      2.4155      0.0409     14.2137     18.2710    127.2521
   465.2000      8.2799      2.4404      0.0885     12.7018     18.5217    132.0617
   465.3000      8.3014      2.4893      0.0825      9.7399     18.7625    131.9171
   465.4000      8.3014      2.5451      0.1284      6.3554     18.9025    128.9502
   465.5000      8.3109      2.5849      0.1524      3.9434     19.1014    125.1992
   465.6000      8.3109      2.5992      0.1587      3.0793     19.4516    121.8113
   465.7000      8.3109      2.5948      0.1665      3.3455     19.9220    121.8876
   465.8000      8.3134      2.5806      0.1139      4.2084     20.5309    125.1036
   465.9000      8.3134      2.5680      0.1317      4.9677     21.1772    125.9049
   466.0000      8.3144      2.5667      0.2024      5.0497     21.5133    120.5544
   466.1000      8.3144      2.5649      0.1911      5.1593     21.3731    112.0496
   466.2000      8.3144      2.5476      0.0651      6.2033     21.0505    105.9613
   466.3000      8.3150      2.5255      0.0350      7.5456     20.9339    106.2218
   466.4000      8.3150      2.5126     -0.0033      8.3296     21.0923    111.3378
   466.5000      8.3156      2.5066      0.0566      8.6938     21.2097    115.5668
   466.6000      8.3156      2.4976      0.0593      9.2348     20.9593    116.1144
   466.7000      8.3156      2.4807      0.0530     10.2585     20.5216    117.3322
   466.8000      8.3178      2.4614     -0.0020     11.4312     20.3180    124.2152
   466.9000      8.3178      2.4516     -0.0063     12.0245     20.4310    132.6462
   467.0000      8.3201      2.4587      0.0196     11.5926     20.8170    132.2589
   467.1000      8.3201      2.4835      0.0626     10.0880     21.3982    125.1132
   467.2000      8.3201      2.5165      0.1078      8.0924     21.7657    124.1088
   467.3000      8.3204      2.5388      0.1060      6.7420     21.5959    128.0488
   467.4000      8.3204      2.5422      0.1149      6.5305     21.2307    126.5556
   467.5000      8.3194      2.5379      0.0892      6.7922     21.0686    122.2992
   467.6000      8.3194      2.5376      0.1161      6.8109     20.9954    121.8236
   467.7000      8.3194      2.5396      0.0880      6.6911     20.9506    124.3192
   467.8000      8.3179      2.5351      0.1183      6.9637     21.1211    129.7776
   467.9000      8.3179      2.5176      0.0720      8.0262     21.4429    135.5455
   468.0000      8.3161      2.4940      0.0223      9.4544     21.6970    137.9860
   468.1000      8.3161      2.4796     -0.0266     10.3298     21.7735    139.6995
   468.2000      8.3161      2.4769      0.0120     10.4892     21.5903    140.5455
   468.3000      8.3157      2.4744      0.0109     10.6416     21.0158    138.3255
   468.4000      8.3157      2.4647      0.0285     11.2281     20.3499    137.3169
   468.5000      8.3163      2.4550     -0.0116     11.8189     20.1236    140.1966
   468.6000      8.3163      2.4564      0.0090     11.7333     20.3338    140.0677
   468.7000      8.3163      2.4660      0.0117     11.1489     20.5478    134.3527
   468.8000      8.3125      2.4772      0.0514     10.4749     20.3055    130.0877
   468.9000      8.3125      2.4960      0.0455      9.3359     19.7134    129.7982
   469.0000      8.2987      2.5225      0.0836      7.7288     19.3363    129.7669
   469.1000      8.2987      2.5406      0.0863      6.6296     19.3595    124.6235
   469.2000      8.2987      2.5380      0.0955      6.7889     19.5713    114.6866
   469.3000      8.2771      2.5170      0.0384      8.0617     19.8056    107.0278
   469.4000      8.2771      2.4968      0.0382      9.2865     20.0430    103.2890
   469.5000      8.2629      2.4984     -0.0103      9.1869     20.1519     97.9863
   469.6000      8.2629      2.5200      0.0277      7.8799     20.1255     91.6799
   469.7000      8.2629      2.5389      0.0353      6.7347     20.2328     91.5400
