~Version Information
 VERS.                                  2.0 : CWLS LAS VERSION
 WRAP.                                   NO : WRAPING MODE
 SWARE .                 MController 2.5.0J : SOFTWARE VERSION
~Well Information
 WELL.                  Lorencito 8-1-34-67 : WELL
 COMP.                              Pioneer : COMPANY
 FLD.                      Purgatoire River : FIELD
 LOC.                    1567 FNL & 500 FEL : LOCATION
 DATE.                                  N/A : DATE(S) LOGGED
 SRVC.                                  N/A : SERVICE COMPANY
 STAT.                             Colorado : STATE
 CNTY.                           Las Animas : COUNTY
 CTRY.                                 USA  : COUNTRY
 API.                           05-071-08506 : API NUMBER
 STRT.FT                             201.00 : START DEPTH
 STOP.FT                            1673.00 : STOP DEPTH
 STEP.FT                               1.00 : DEPTH INCREMENT
 NULL.                                -9999 : NULL VALUE
~Curve information
 DEPTH.FT                                   :
 ROP.MIN/FT                                 :
 GAS.UNITS                                  :
~ASCII Log data
# ...
      1401.0         0.30        109.6 
      1402.0        16.85       1352.5 
      1403.0         0.57        109.1 
      1404.0         0.58        115.0 
      1405.0         0.60        148.8 
      1406.0         0.47        149.7 
      1407.0         0.53        138.4 
      1408.0         0.53        123.9 
      1409.0         0.53        123.1 
      1410.0         0.55        116.7 
      1411.0         0.53        111.7 
      1412.0         0.43        108.9 
      1413.0         0.57        108.7 
      1414.0         1.13        103.6 
      1415.0         0.92        120.3 
      1416.0         1.13        125.3 
      1417.0         1.27        130.1 
      1418.0         0.13        118.6 
      1419.0         0.68        118.1 
      1420.0         0.53        112.1 
      1421.0         0.43         88.7 
      1422.0         0.70         98.0 
      1423.0         1.03        127.6 
      1424.0         0.42        122.7 
      1425.0         0.47        118.4 
      1426.0         0.63        114.8 
      1427.0         0.70        123.5 
      1428.0         0.53        122.0 
      1429.0         0.57        116.4 
      1430.0         0.55        112.3 
      1431.0         0.70        109.3 
      1432.0        14.40       2180.9 
      1433.0         0.40        640.9 
      1434.0         0.40        475.0 
      1435.0         0.37        456.5 
      1436.0         0.35        459.1 
      1437.0         0.30        457.5 
      1438.0         0.33        446.1 
      1439.0         0.30        440.0 
      1440.0         0.27        142.6 
      1441.0         0.27        135.4 
      1442.0         0.27        129.7 
      1443.0         0.23        125.5 
      1444.0         0.23        122.2 
      1445.0         0.23        119.5 
      1446.0         0.27        117.1 
      1447.0         0.27        114.5 
      1448.0         0.32        113.2 
      1449.0         0.27        113.3 
      1450.0         0.23        113.0 
      1451.0         0.27        112.2 
      1452.0         0.23        111.3 
      1453.0         0.17        110.6 
      1454.0         0.17        110.1 
      1455.0         0.20        109.7 
      1456.0         0.30        109.6 
      1457.0         0.33        111.1 
      1458.0         0.30        114.9 
      1459.0         0.37        117.7 
      1460.0         0.45        117.1 
      1461.0         0.20        113.3 
      1462.0         9.62        386.9 
      1463.0         0.47        101.5 
      1464.0         0.43        104.5 
      1465.0         0.37        113.0 
      1466.0         0.33        137.7 
      1467.0         0.28        148.7 
      1468.0         0.40        149.5 
      1469.0         0.33        144.6 
      1470.0         0.37        137.8 
      1471.0         0.33        130.1 
      1472.0         0.37        120.3 
      1473.0         0.30        115.3 
      1474.0         0.37        114.7 
      1475.0         0.33        112.9 
      1476.0         0.47        110.6 
      1477.0         0.45        109.3 
      1478.0         0.30        108.6 
      1479.0         0.33        103.4 
      1480.0         0.37         99.7 
      1481.0         0.37        107.4 
      1482.0         0.57        110.4 
      1483.0         0.40        110.3 
      1484.0         0.30        109.7 
      1485.0         0.23        107.2 
      1486.0         0.28         96.2 
      1487.0         0.43        102.3 
      1488.0         0.63        108.4 
      1489.0         0.43        118.3 
      1490.0         0.40        116.7 
      1491.0         0.20        107.5 
      1492.0        26.00       1860.0 
      1493.0         0.60        146.5 
      1494.0         0.33        125.4 
      1495.0         0.65        108.5 
      1496.0         0.50        106.2 
      1497.0         0.43        106.1 
      1498.0         0.50        126.0 
      1499.0         0.43        130.5 
      1500.0         0.40        130.3 
      1501.0         0.37        128.4 
      1502.0         0.42        125.1 
      1503.0         0.50        121.8 
      1504.0         0.40        117.9 
      1505.0         0.37        115.0 
      1506.0         0.37        110.7 
      1507.0         0.37         99.5 
      1508.0         0.37        100.5 
      1509.0         0.37        102.6 
      1510.0         0.43        105.6 
      1511.0         0.48        108.3 
      1512.0         0.50        108.9 
      1513.0         0.40        106.6 
      1514.0         0.43        105.5 
      1515.0         0.40        106.3 
      1516.0         0.37        106.8 
      1517.0         0.40        106.9 
      1518.0         0.10        106.9 
      1519.0         0.10        106.9 
      1520.0         0.28        106.8 
      1521.0         0.27        106.9 
      1522.0         5.65        418.7 
      1523.0         0.27        162.9 
      1524.0         0.20        161.8 
      1525.0         0.28        150.9 
      1526.0         0.40        149.3 
      1527.0         0.37        154.4 
      1528.0         0.37        170.2 
      1529.0         0.37        171.2 
      1530.0         0.37        159.8 
      1531.0         0.33        143.9 
      1532.0         0.33        133.8 
      1533.0         0.30        127.5 
      1534.0         0.23        118.7 
      1535.0         0.28        114.7 
      1536.0         0.27        113.2 
      1537.0         0.23        112.8 
      1538.0         0.20        111.2 
      1539.0         0.20        109.8 
      1540.0         0.20        110.0 
      1541.0         0.17        110.3 
      1542.0         0.20        110.6 
      1543.0         0.20        111.3 
      1544.0         0.20        114.6 
      1545.0         0.23        119.2 
      1546.0         0.27        121.4 
      1547.0         0.27        122.5 
      1548.0         0.27        124.8 
      1549.0         0.27        125.6 
      1550.0         0.35        124.6 
      1551.0         0.10        121.6 
      1552.0         5.78        305.0 
      1553.0         0.48        149.3 
      1554.0         0.30        127.8 
      1555.0         0.33        127.8 
      1556.0         0.40        153.4 
      1557.0         0.33        158.8 
      1558.0         0.30        159.6 
      1559.0         0.33        158.5 
      1560.0         0.30        154.9 
      1561.0         0.30        149.7 
      1562.0         0.27        142.7 
      1563.0         0.33        136.6 
      1564.0         0.32        129.9 
      1565.0         0.30        125.4 
      1566.0         0.30        122.6 
      1567.0         0.30        122.5 
      1568.0         0.30        122.7 
      1569.0         0.30        124.3 
      1570.0         0.33        126.2 
      1571.0         0.33        127.9 
      1572.0         0.30        129.2 
      1573.0         0.33        131.6 
      1574.0         0.32        133.0 
      1575.0         0.27        134.0 
      1576.0         0.30        135.3 
      1577.0         0.30        137.1 
      1578.0         0.30        138.0 
      1579.0         0.30        138.4 
      1580.0         0.23        138.8 
      1581.0         0.33        138.9 
      1582.0         6.20        422.8 
      1583.0         0.38        178.2 
      1584.0         0.33        159.0 
      1585.0         0.33        168.3 
      1586.0         0.30        160.2 
      1587.0         0.30        159.5 
      1588.0         0.33        171.1 
      1589.0         0.27        174.7 
      1590.0         0.52        174.5 
      1591.0         0.30        165.6 
      1592.0         0.30        157.7 
      1593.0         0.33        149.9 
      1594.0         0.37        132.0 
      1595.0         0.27        126.7 
      1596.0         0.23        131.5 
      1597.0         0.27        131.2 
      1598.0         0.30        117.6 
      1599.0         0.23        109.9 
      1600.0         0.28        124.2 
