~Version Information
VERS.                      2.0: CWLS Log ASCII Standard - VERSION 2.0
WRAP.                       NO: One line per depth step
~Well Information Block
STRT.FT               315.0000: 
STOP.FT              1292.5000: 
STEP.FT                 0.1000: 
NULL.                -999.2500: 
COMP.          Pioneer Natural Resources: COMPANY
WELL.          Hot Tomatoes 22-20: WELL
FLD.           Purgatoire River: FIELD
LOC.           2120' FNL & 2585' FWL: LOCATION
CNTY.               Las Animas: COUNTY
SRVC.                Patterson: SERVICE COMPANY
DATE.          Mon Feb 27 07:06:41 2006: LOG DATE
UWI.           05 071 08701 00: UNIQUE WELL ID
STAT.                 Colorado: STATE
~Curve Information Block
DEPT.FT            0 000 00 00: Depth
DCAL.in                       : CDL Caliper
RHOB.g/cc                     : CDL Bulk Density
RHOC.g/cc                     : CDL Density Correction
DPOR.pu                       : CDL Density Porosity
GR.GAPI                       : Gamma Ray
NPOR.pu                       : Neutron Porosity
~Parameter Information Block
~A  Depth       DCAL        RHOB        RHOC        DPOR         GR         NPOR    
# ...
   958.2000      7.9202      2.5257      0.0767      7.5313    108.9792     26.9982
   958.3000      7.9192      2.5191      0.0333      7.9318    106.1636     27.2662
   958.4000      7.9192      2.5149      0.0511      8.1867    105.4342     27.7805
   958.5000      7.9309      2.5150      0.0381      8.1845    105.6641     28.3232
   958.6000      7.9309      2.5129      0.0476      8.3063    103.3112     28.2678
   958.7000      7.9309      2.5085      0.0409      8.5741    100.1489     27.3921
   958.8000      7.9365      2.5071      0.0291      8.6606     98.1334     26.3654
   958.9000      7.9365      2.5095      0.0670      8.5179     94.6506     26.1229
   959.0000      7.9045      2.5144      0.0404      8.2190     88.2879     26.6335
   959.1000      7.9045      2.5224      0.0329      7.7322     86.2977     27.0828
   959.2000      7.9045      2.5243      0.0997      7.6189     93.2590     26.9076
   959.3000      7.9216      2.5162      0.0453      8.1088    101.8352     26.5633
   959.4000      7.9216      2.5147      0.0428      8.2028    103.8806     26.5233
   959.5000      7.8985      2.5240      0.0690      7.6353    102.0909     26.8112
   959.6000      7.8985      2.5262      0.0642      7.5026    104.2438     27.2579
   959.7000      7.8985      2.5115      0.0544      8.3963    112.6248     27.3178
   959.8000      7.9020      2.4912      0.0317      9.6264    123.7325     26.9447
   959.9000      7.9020      2.4821      0.0689     10.1733    130.3472     26.4617
   960.0000      7.9236      2.4884      0.1020      9.7966    126.0775     25.9880
   960.1000      7.9236      2.5015      0.0604      8.9991    115.8054     26.0924
   960.2000      7.9236      2.5137      0.1259      8.2590    110.2199     26.7430
   960.3000      7.9020      2.5236      0.0972      7.6577    108.9581     27.0280
   960.4000      7.9020      2.5390      0.1158      6.7272    106.9086     27.2263
   960.5000      7.9046      2.5607      0.1495      5.4102    107.1127     28.0117
   960.6000      7.9046      2.5774      0.1502      4.4006    109.9543     28.7259
   960.7000      7.9046      2.5857      0.1532      3.8946    109.7075     28.6252
   960.8000      7.8602      2.5920      0.1035      3.5165    107.3863     27.8515
   960.9000      7.8602      2.5933      0.1612      3.4349    106.0193     27.2092
   961.0000      7.8490      2.5782      0.1404      4.3495    102.9116     27.1960
   961.1000      7.8490      2.5492      0.1144      6.1081     97.5703     27.2412
   961.2000      7.8490      2.5231      0.0615      7.6929     95.4761     26.6757
   961.3000      7.8559      2.5105      0.0187      8.4532     97.3096     26.1987
   961.4000      7.8559      2.5107      0.0618      8.4402     96.2617     26.4136
   961.5000      7.8511      2.5185      0.0284      7.9680     92.4729     26.3971
   961.6000      7.8511      2.5332      0.0447      7.0770     93.3529     26.0383
   961.7000      7.8511      2.5558      0.0818      5.7088     99.6368     25.8143
   961.8000      7.8565      2.5764      0.1589      4.4592    104.2025     25.6477
   961.9000      7.8565      2.5833      0.1434      4.0435    100.7801     26.0222
   962.0000      7.8852      2.5758      0.1382      4.4970     94.7521     26.9073
   962.1000      7.8852      2.5609      0.1104      5.4000     94.1897     27.0129
   962.2000      7.8852      2.5487      0.0839      6.1401     95.5457     26.0350
   962.3000      7.8639      2.5422      0.0898      6.5332     96.7120     25.3457
   962.4000      7.8639      2.5358      0.0313      6.9222    101.4722     25.7291
   962.5000      7.8677      2.5296      0.0432      7.2961    105.7880     26.6733
   962.6000      7.8677      2.5227      0.0663      7.7158    104.4544     27.5065
   962.7000      7.8677      2.5077      0.0533      8.6271    100.4159     27.8129
   962.8000      7.8895      2.4915      0.0199      9.6085     96.9007     27.8371
   962.9000      7.8895      2.4914      0.0205      9.6109     94.2783     27.8620
   963.0000      7.8849      2.5059      0.0594      8.7345     92.4032     27.6164
   963.1000      7.8849      2.5237      0.0448      7.6571     91.6270     27.0683
   963.2000      7.8849      2.5479      0.1178      6.1874     92.8342     26.5580
   963.3000      7.9114      2.5749      0.1078      4.5515     94.4183     26.5984
   963.4000      7.9114      2.5892      0.1162      3.6861     94.6346     27.3760
   963.5000      7.8920      2.5839      0.1268      4.0043     94.4413     28.4908
   963.6000      7.8920      2.5673      0.0660      5.0133     92.5120     29.3533
   963.7000      7.8920      2.5505      0.0558      6.0313     86.6823     29.5551
   963.8000      7.8710      2.5393      0.0298      6.7068     80.3829     28.9090
   963.9000      7.8710      2.5340      0.0293      7.0293     76.1687     27.5915
   964.0000      7.8791      2.5199      0.1016      7.8833     72.8758     26.3066
   964.1000      7.8791      2.4898      0.0287      9.7119     72.3315     25.9943
   964.2000      7.8791      2.4672      0.0194     11.0768     74.8994     26.5501
   964.3000      7.8896      2.4705      0.0615     10.8794     78.0711     26.7869
   964.4000      7.8896      2.4857      0.0617      9.9579     81.8664     26.4573
   964.5000      7.8917      2.4930      0.0572      9.5179     84.5910     26.2745
   964.6000      7.8917      2.4859      0.0567      9.9466     81.8361     26.1365
   964.7000      7.8917      2.4642      0.1005     11.2619     73.6337     25.8615
   964.8000      7.8880      2.4374      0.0629     12.8848     65.5274     25.5358
   964.9000      7.8880      2.4189      0.0788     14.0043     61.8307     25.0111
   965.0000      7.8872      2.4078      0.0472     14.6783     60.2924     24.3343
   965.1000      7.8872      2.3984      0.0645     15.2506     58.7658     23.8220
   965.2000      7.8872      2.3929      0.0297     15.5795     59.5385     23.7193
   965.3000      7.8881      2.3969      0.0739     15.3418     61.8467     23.7196
   965.4000      7.8881      2.4017      0.0747     15.0509     62.6793     23.4373
   965.5000      7.8856      2.3999      0.0636     15.1547     61.0513     23.3362
   965.6000      7.8856      2.4021      0.0750     15.0214     57.9474     23.6881
   965.7000      7.8856      2.4192      0.0509     13.9896     57.6635     24.0143
   965.8000      7.8942      2.4462      0.0987     12.3489     63.6576     24.0397
   965.9000      7.8942      2.4679      0.0837     11.0354     71.5469     23.9156
   966.0000      7.8974      2.4760      0.0855     10.5469     75.3145     23.9186
   966.1000      7.8974      2.4698      0.0610     10.9241     74.6470     24.2479
   966.2000      7.8974      2.4547      0.0365     11.8357     72.2116     24.7007
   966.3000      7.8892      2.4469      0.0231     12.3066     67.7773     24.8044
   966.4000      7.8892      2.4543      0.0563     11.8609     61.9275     24.2939
   966.5000      7.8908      2.4602      0.1252     11.5017     58.3738     23.2642
   966.6000      7.8908      2.4574      0.0222     11.6702     58.3744     22.1356
   966.7000      7.8908      2.4572      0.0386     11.6824     60.3223     21.6539
   966.8000      7.8925      2.4455      0.0785     12.3949     61.7279     22.0608
   966.9000      7.8925      2.4126     -0.0216     14.3894     60.3177     22.8378
   967.0000      7.9015      2.3995     -0.0822     15.1829     57.8215     23.1100
   967.1000      7.9015      2.4236      0.0605     13.7209     57.9379     22.4754
   967.2000      7.9015      2.4459      0.0494     12.3684     60.0500     21.6628
   967.3000      7.8987      2.4493      0.0066     12.1645     59.1743     21.3516
   967.4000      7.8987      2.4507      0.0391     12.0778     54.6597     21.2719
   967.5000      7.8957      2.4481      0.0637     12.2343     51.3854     21.0994
   967.6000      7.8957      2.4274      0.0249     13.4886     50.9155     20.9709
   967.7000      7.8957      2.3981      0.0183     15.2680     51.3092     20.8207
