~Version Information
VERS.                      2.0: CWLS Log ASCII Standard - VERSION 2.0
WRAP.                       NO: One line per depth step
~Well Information Block
STRT.FT               430.0000: 
STOP.FT              2074.0000: 
STEP.FT                 0.1000: 
NULL.                -999.2500: 
COMP.          Pioneer Natural Resources: COMPANY
WELL.             Fleming 11-2: WELL
FLD.           Purgatoire River: FIELD
LOC.           534' FNL & 160' FWL: LOCATION
CNTY.               Las Animas: COUNTY
SRVC.                Patterson: SERVICE COMPANY
DATE.          Tue Jun 27 10:07:47 2006: LOG DATE
UWI.           05 071 08491 00: UNIQUE WELL ID
STAT.                 Colorado: STATE
~Curve Information Block
DEPT.FT            0 000 00 00: Depth
DCAL.in                       : CDL Caliper
RHOB.g/cc                     : CDL Bulk Density
RHOC.g/cc                     : CDL Density Correction
DPOR.pu                       : CDL Density Porosity
GR.GAPI                       : Gamma Ray
NPOR.pu                       : Neutron Porosity
~Parameter Information Block
~A  Depth       DCAL        RHOB        RHOC        DPOR         GR         NPOR    
# ...
  1188.4000      8.3733      1.8909      0.1054     46.0087     92.3943     21.8573
  1188.5000      8.2891      1.9253      0.0739     43.9186     85.1984     21.4569
  1188.6000      8.2891      1.9558      0.0571     42.0726     80.5904     20.6420
  1188.7000      8.2891      1.9951      0.0854     39.6895     83.9910     20.2829
  1188.8000      8.2790      2.0487      0.1201     36.4440     92.6192     20.4385
  1188.9000      8.2790      2.1140      0.1763     32.4826     99.2054     21.0315
  1189.0000      8.2848      2.1733      0.1833     28.8888    100.9382     21.6622
  1189.1000      8.2848      2.2028      0.1391     27.1044    100.4123     21.7848
  1189.2000      8.2848      2.2062      0.0572     26.8995     98.5442     21.3069
  1189.3000      8.2765      2.2115      0.0292     26.5767     94.1885     20.6597
  1189.4000      8.2765      2.2268      0.0612     25.6502     91.0929     20.2808
  1189.5000      8.2708      2.2336      0.0510     25.2350     92.0190     20.0622
  1189.6000      8.2708      2.2266      0.0198     25.6630     93.9456     19.7697
  1189.7000      8.2708      2.2247     -0.0034     25.7764     95.0282     19.6450
  1189.8000      8.2702      2.2362      0.0291     25.0797     98.1345     19.9906
  1189.9000      8.2702      2.2431      0.0419     24.6585    107.2299     20.8841
  1190.0000      8.2728      2.2377      0.0263     24.9908    118.2154     21.6842
  1190.1000      8.2728      2.2356      0.0186     25.1129    123.3165     21.5610
  1190.2000      8.2728      2.2484      0.0420     24.3422    120.7697     20.9320
  1190.3000      8.2777      2.2688      0.0715     23.1034    114.9480     20.4998
  1190.4000      8.2777      2.2831      0.1010     22.2338    112.2016     20.0349
  1190.5000      8.2827      2.2834      0.0736     22.2161    111.0610     19.5562
  1190.6000      8.2827      2.2689      0.0435     23.0947    106.6722     19.2481
  1190.7000      8.2827      2.2420      0.0118     24.7265    100.1194     18.4792
  1190.8000      8.2873      2.2117     -0.0495     26.5618     95.0150     16.8464
  1190.9000      8.2873      2.1808     -0.0480     28.4346     93.6097     15.1007
  1191.0000      8.2972      2.1218     -0.0092     32.0135     97.7363     14.3126
  1191.1000      8.2972      2.0049     -0.0315     39.0948    104.8336     14.6069
  1191.2000      8.2972      1.8542     -0.1263     48.2329    106.3568     15.3638
  1191.3000      8.3274      1.7302     -0.1615     55.7484    100.4848     16.3624
  1191.4000      8.3274      1.6630     -0.1362     59.8164     94.9290     17.6852
  1191.5000      8.3735      1.6431     -0.1485     61.0255     94.1904     19.1146
  1191.6000      8.3735      1.6625     -0.1343     59.8493     96.2659     19.9549
  1191.7000      8.3735      1.7226     -0.0852     56.2074     97.5007     19.8903
  1191.8000      8.3983      1.8100      0.0964     50.9099     96.9890     19.8190
  1191.9000      8.3983      1.9043      0.1311     45.1918     99.0169     20.3486
  1192.0000      8.3809      1.9972      0.2026     39.5637    103.1217     20.8921
  1192.1000      8.3809      2.0853      0.2054     34.2225    103.2060     20.9989
  1192.2000      8.3809      2.1747      0.1557     28.8050    100.4770     20.7663
  1192.3000      8.3496      2.2634      0.1305     23.4317     98.7730     20.1075
  1192.4000      8.3496      2.3151      0.1724     20.2976     96.8337     19.0927
  1192.5000      8.3529      2.2853      0.1628     22.1050     92.8490     18.1978
  1192.6000      8.3529      2.1659      0.0456     29.3398     86.6046     17.6659
  1192.7000      8.3529      1.9936     -0.0276     39.7789     77.8918     17.2257
  1192.8000      8.3905      1.8235     -0.0751     50.0897     70.8855     16.6986
  1192.9000      8.3905      1.6897     -0.1311     58.1995     69.8317     16.1953
  1193.0000      8.4243      1.5837     -0.1211     64.6229     71.6283     15.5814
  1193.1000      8.4243      1.4849     -0.1800     70.6097     70.4283     14.6574
  1193.2000      8.4243      1.4028     -0.1824     75.5860     64.4878     13.3661
  1193.3000      8.4621      1.3570     -0.1230     78.3650     57.7062     12.1820
  1193.4000      8.4621      1.3353      0.0582     79.6799     55.5647     11.7504
  1193.5000      8.5102      1.3085      0.1201     81.3012     59.9751     12.0850
  1193.6000      8.5102      1.2736      0.1196     83.4176     67.0146     12.7130
  1193.7000      8.5102      1.2418      0.1131     85.3446     70.3438     13.1344
  1193.8000      8.5351      1.2143      0.0788     87.0106     69.2383     13.3812
  1193.9000      8.5351      1.2076     -0.0008     87.4185     68.1153     14.1017
  1194.0000      8.5447      1.2696     -0.0382     83.6621     68.7877     15.5504
  1194.1000      8.5447      1.4354      0.1080     73.6118     70.8156     17.1711
  1194.2000      8.5447      1.6716      0.3986     59.2988     74.3254     18.3627
  1194.3000      8.5519      1.8904      0.5048     46.0390     77.4520     18.9764
  1194.4000      8.5519      2.0337      0.5237     37.3488     77.8909     19.5151
  1194.5000      8.5188      2.1186      0.4348     32.2088     79.1937     20.6612
  1194.6000      8.5188      2.1842      0.4186     28.2327     85.1863     22.2907
  1194.7000      8.5188      2.2251      0.4339     25.7523     92.1651     23.5094
  1194.8000      8.4612      2.2183      0.2973     26.1657     97.5360     23.8068
  1194.9000      8.4612      2.1882      0.0611     27.9858    106.7393     23.7319
  1195.0000      8.4362      2.1832      0.0535     28.2908    123.2684     23.8938
  1195.1000      8.4362      2.2201      0.0497     26.0539    139.4966     23.8910
  1195.2000      8.4362      2.2980      0.1040     21.3322    143.7708     23.4810
  1195.3000      8.5145      2.4108      0.2030     14.4954    136.6957     23.2544
  1195.4000      8.5145      2.5327      0.3257      7.1081    131.1395     23.2038
  1195.5000      8.6497      2.6285      0.4281      1.3006    132.0220     22.8157
  1195.6000      8.6497      2.6782      0.3965     -1.7103    133.8500     22.5108
  1195.7000      8.6497      2.6748      0.4499     -1.5022    134.1005     22.9149
  1195.8000      8.6580      2.6172      0.3179      1.9890    133.2336     23.6293
  1195.9000      8.6580      2.5209      0.2511      7.8231    131.1408     24.1653
  1196.0000      8.5174      2.4139      0.0927     14.3119    126.4467     24.5539
  1196.1000      8.5174      2.3210      0.0229     19.9367    121.1237     24.8887
  1196.2000      8.5174      2.2415      0.0225     24.7556    121.1761     24.7312
  1196.3000      8.4051      2.1465     -0.0072     30.5157    126.8307     23.6608
  1196.4000      8.4051      2.0151     -0.0470     38.4786    133.5221     22.0878
  1196.5000      8.3726      1.8571     -0.0185     48.0559    138.2476     20.6388
  1196.6000      8.3726      1.7006     -0.1042     57.5407    139.8544     19.4819
  1196.7000      8.3726      1.5588     -0.1030     66.1339    138.5037     18.4702
  1196.8000      8.3998      1.4243     -0.1230     74.2836    133.9870     17.3236
  1196.9000      8.3998      1.3245     -0.1484     80.3324    126.1127     16.1433
  1197.0000      8.4913      1.3322     -0.1139     79.8666    118.6340     15.3030
  1197.1000      8.4913      1.4904      0.0216     70.2801    112.7215     14.9032
  1197.2000      8.4913      1.7586      0.4136     54.0252    105.2179     14.9871
  1197.3000      8.6702      2.0377      0.5520     37.1084     98.7319     15.4029
  1197.4000      8.6702      2.2365      0.6469     25.0635     98.1606     15.8714
  1197.5000      8.8764      2.3191      0.5958     20.0552    102.8785     16.5849
  1197.6000      8.8764      2.3104      0.4827     20.5816    109.2189     17.6375
  1197.7000      8.8764      2.2424      0.4702     24.7020    113.3008     18.9031
  1197.8000      8.8692      2.1185      0.3648     32.2144    109.7827     20.4495
  1197.9000      8.8692      1.9559      0.1630     42.0686     98.4672     21.8572
