~Version Information
VERS.                      2.0: CWLS Log ASCII Standard - VERSION 2.0
WRAP.                       NO: One line per depth step
~Well Information Block
STRT.FT                -5.7500: 
STOP.FT              2734.0000: 
STEP.FT                 0.2500: 
NULL.                -999.2500: 
COMP.          Pioneer Natural Resources: COMPANY
WELL.              Loews 41-32: WELL
FLD.           Purgatoire River: FIELD
LOC.           751' FNL & 128' FEL--: LOCATION
CNTY.               Las Animas: COUNTY
SRVC.                         : SERVICE COMPANY
DATE.          Sat Mar 04 08:20:59 2006: LOG DATE
UWI.           05 071 08693 00: UNIQUE WELL ID
STAT.                       CO: STATE
~Curve Information Block
DEPT.FT            0 000 00 00: Depth
GR.GAPI                       : Gamma Ray
CCL.                          : Casing Collar Locator
TT3.usec                      : CBL 3' Travel Time
AMP3.mV                       : CBL 3' Amplitude
~Parameter Information Block
~A  Depth        GR         CCL         TT3         AMP3    
# ...
  1434.7500    123.6530      0.0000    696.2553      4.9242
  1435.0000    118.6016      0.0000    693.5142      5.2429
  1435.2500    111.3325      0.0000    687.4378      5.4766
  1435.5000    105.1463      0.0000    682.8052      5.5868
  1435.7500    102.5344      0.0000    682.7383      5.5617
  1436.0000    103.6755      0.0000    686.0350      5.3949
  1436.2500    106.9364      0.0000    689.4089      5.0951
  1436.5000    110.1485      0.0000    691.0786      4.7241
  1436.7500    111.5770      0.0000    691.2192      4.4137
  1437.0000    110.7245      0.0000    689.9115      4.3123
  1437.2500    108.6260      0.0000    686.0710      4.4863
  1437.5000    106.8223      0.0000    678.8756      4.8663
  1437.7500    105.9531      0.0000    669.7158      5.2975
  1438.0000    105.7666      0.0000    661.5594      5.6410
  1438.2500    106.1963      0.0000    656.2645      5.8370
  1438.5000    107.6733      0.0000    653.1902      5.8959
  1438.7500    110.3463      0.0000    649.7017      5.8524
  1439.0000    113.4960      0.0000    641.3677      5.7308
  1439.2500    115.9608      0.0000    622.1307      5.5512
  1439.5000    117.0663      0.0000    587.0453      5.3579
  1439.7500    116.9957      0.0000    537.0417      5.2204
  1440.0000    116.2041      0.0000    480.8557      5.1883
  1440.2500    114.7030      0.0000    430.6920      5.2484
  1440.5000    112.1289      0.0000    394.8763      5.3405
  1440.7500    108.4151      0.0000    374.2429      5.4094
  1441.0000    104.2093      0.0000    364.5035      5.4350
  1441.2500    100.5423      0.0000    360.7561      5.4249
  1441.5000     97.9871      0.0000    360.0044      5.3966
  1441.7500     96.1463      0.0000    361.2706      5.3661
  1442.0000     94.1191      0.0000    364.7321      5.3430
  1442.2500     91.4020      0.0000    370.7688      5.3283
  1442.5000     88.1514      0.0000    379.0858      5.3154
  1442.7500     84.7126      0.0000    388.3883      5.2978
  1443.0000     81.3527      0.0000    397.2350      5.2744
  1443.2500     78.5110      0.0000    405.7516      5.2483
  1443.5000     76.7406      0.0000    417.0294      5.2202
  1443.7500     76.0711      0.0000    436.7451      5.1859
  1444.0000     75.9030      0.0000    469.8849      5.1423
  1444.2500     75.9399      0.0000    515.5641      5.0910
  1444.5000     76.7981      0.0000    564.6960      5.0367
  1444.7500     79.0652      0.0000    604.6662      4.9829
  1445.0000     81.9594      0.0000    627.7005      4.9296
  1445.2500     83.5359      0.0000    634.8891      4.8728
  1445.5000     82.2744      0.0000    633.0128      4.8081
  1445.7500     78.2608      0.0000    628.7562      4.7367
  1446.0000     72.9978      0.0000    625.5468      4.6690
  1446.2500     68.2979      0.0000    623.9337      4.6202
  1446.5000     65.1100      0.0000    623.3054      4.5992
  1446.7500     62.9728      0.0000    623.0465      4.6022
  1447.0000     60.6280      0.0000    622.8437      4.6175
  1447.2500     57.4054      0.0000    622.5812      4.6379
  1447.5000     53.9253      0.0000    622.2373      4.6642
  1447.7500     51.3638      0.0000    621.8274      4.6949
  1448.0000     50.3412      0.0000    621.4052      4.7147
  1448.2500     50.6631      0.0000    621.0457      4.7008
  1448.5000     51.8105      0.0000    620.8108      4.6459
  1448.7500     53.4485      0.0000    620.7266      4.5705
  1449.0000     55.5970      0.0000    620.7912      4.5092
  1449.2500     58.2889      0.0000    620.9822      4.4833
  1449.5000     60.9372      0.0000    621.2391      4.4921
  1449.7500     62.2287      0.0000    621.4550      4.5223
  1450.0000     61.0482      0.0000    621.5221      4.5612
  1450.2500     57.7855      0.0000    621.4010      4.5990
  1450.5000     54.6035      0.0000    621.1310      4.6263
  1450.7500     54.0151      0.0000    620.7761      4.6333
  1451.0000     56.9035      0.0000    620.3787      4.6149
  1451.2500     61.8867      0.0000    619.9630      4.5764
  1451.5000     66.5328      0.0000    619.5653      4.5336
  1451.7500     69.1096      0.0000    619.2804      4.5047
  1452.0000     69.4339      0.0000    619.3400      4.5005
  1452.2500     68.5668      0.0000    620.2265      4.5209
  1452.5000     67.8849      0.0000    622.6990      4.5610
  1452.7500     68.1510      0.0000    627.4719      4.6151
  1453.0000     69.1730      0.0000    634.5572      4.6756
  1453.2500     70.1603      0.0000    642.9163      4.7310
  1453.5000     70.3322      0.0000    651.1126      4.7694
  1453.7500     69.4742      0.0000    658.4286      4.7860
  1454.0000     68.4909      0.0000    665.0970      4.7842
  1454.2500     69.6099      0.0000    671.2195      4.7732
  1454.5000     75.5027      0.0000    675.3614      4.7624
  1454.7500     87.3865      0.0000    673.7380      4.7561
  1455.0000    103.5669      0.0000    660.6866      4.7497
  1455.2500    120.0318      0.0000    631.5874      4.7337
  1455.5000    132.9620      0.0000    587.6841      4.7041
  1455.7500    140.9694      0.0000    538.1452      4.6669
  1456.0000    145.0539      0.0000    495.5258      4.6273
  1456.2500    146.7321      0.0000    468.4780      4.5803
  1456.5000    146.6224      0.0000    459.3416      4.5145
  1456.7500    144.8078      0.0000    467.5291      4.4269
  1457.0000    141.9415      0.0000    492.3276      4.3302
  1457.2500    139.2869      0.0000    531.1225      4.2496
  1457.5000    137.6413      0.0000    576.8586      4.2082
  1457.7500    136.7153      0.0000    620.0482      4.2120
  1458.0000    135.6744      0.0000    654.0967      4.2461
  1458.2500    133.7410      0.0000    678.0330      4.2886
  1458.5000    130.2360      0.0000    694.6134      4.3269
  1458.7500    124.9800      0.0000    706.9677      4.3605
  1459.0000    119.0355      0.0000    716.9142      4.3942
  1459.2500    114.1436      0.0000    724.7898      4.4327
  1459.5000    110.9768      0.0000    728.8978      4.4779
  1459.7500    108.5763      0.0000    724.3325      4.5283
  1460.0000    105.7414      0.0000    703.8644      4.5825
  1460.2500    102.4503      0.0000    662.7608      4.6444
  1460.5000     99.9259      0.0000    604.6762      4.7236
  1460.7500     99.7708      0.0000    542.3453      4.8247
  1461.0000    102.8959      0.0000    490.5536      4.9352
  1461.2500    108.7505      0.0000    457.2876      5.0262
  1461.5000    115.5475      0.0000    441.2038      5.0702
  1461.7500    121.4780      0.0000    435.9730      5.0625
  1462.0000    125.8598      0.0000    435.5879      5.0280
  1462.2500    129.0742      0.0000    436.4879      5.0043
  1462.5000    131.5392      0.0000    437.1889      5.0144
  1462.7500    133.0202      0.0000    437.4615      5.0557
  1463.0000    132.9338      0.0000    437.9190      5.1123
  1463.2500    130.8633      0.0000    439.7033      5.1733
  1463.5000    126.7770      0.0000    443.7400      5.2376
  1463.7500    121.4997      0.0000    449.6017      5.3082
  1464.0000    117.0829      0.0000    455.0142      5.3866
  1464.2500    115.7411      0.0000    457.0322      5.4692
  1464.5000    117.9789      0.0000    454.2954      5.5459
  1464.7500    122.3087      0.0000    448.2026      5.6031
  1465.0000    126.8232      0.0000    441.7256      5.6326
  1465.2500    130.4898      0.0000    437.1345      5.6364
  1465.5000    133.2011      0.0000    434.8650      5.6236
  1465.7500    135.4006      0.0000    434.1061      5.6060
  1466.0000    137.6776      0.0000    433.9139      5.5960
  1466.2500    140.0176      0.0000    433.7552      5.6037
  1466.5000    141.1926      0.0000    433.4536      5.6311
  1466.7500    139.3185      0.0000    433.0063      5.6699
  1467.0000    133.5488      0.0000    432.5043      5.7021
  1467.2500    125.3075      0.0000    432.0713      5.7040
  1467.5000    117.7250      0.0000    431.7749      5.6606
  1467.7500    113.8168      0.0000    431.6284      5.5857
  1468.0000    115.0320      0.0000    431.9089      5.5205
