~Version Information
VERS.                      2.0: CWLS Log ASCII Standard - VERSION 2.0
WRAP.                       NO: One line per depth step
~Well Information Block
STRT.FT                10.0000: 
STOP.FT               959.2500: 
STEP.FT                 0.2500: 
NULL.                -999.2500: 
COMP.          XTO Energy Inc.: COMPANY
WELL.          Golden Eagle 20-04: WELL
FLD.           Purgatrorie River: FIELD
LOC.           702' FNL & 487' FWL--: LOCATION
STAT.                       CO: State
CNTY.               Las Animas: COUNTY
CTRY. USA : Country
SECT. 20 : Section
TOWN. 33S : Township
RANG. 67W : Range
SRVC.          Patterson Wireline: SERVICE COMPANY
DATE.          Mon Dec 05 08:42:44 2005: LOG DATE
API.           05 071 08599 00: UNIQUE WELL ID
~Curve Information Block
DEPT.FT            0 000 00 00: Depth
TEMP.degF                     : Downhole Temperature
DTMP.degF                     : Delta Temperature
~Parameter Information Block
~A  Depth       TEMP        DTMP    
# ...
   734.7500     69.0235      0.0451
   735.0000     69.0355      0.0448
   735.2500     69.0474      0.0429
   735.5000     69.0562      0.0426
   735.7500     69.0679      0.0437
   736.0000     69.0795      0.0433
   736.2500     69.0882      0.0415
   736.5000     69.0996      0.0426
   736.7500     69.1109      0.0422
   737.0000     69.1220      0.0417
   737.2500     69.1304      0.0414
   737.5000     69.1414      0.0409
   737.7500     69.1523      0.0404
   738.0000     69.1630      0.0387
   738.2500     69.1710      0.0395
   738.5000     69.1814      0.0390
   738.7500     69.1917      0.0384
   739.0000     69.1994      0.0367
   739.2500     69.2095      0.0374
   739.5000     69.2194      0.0369
   739.7500     69.2291      0.0351
   740.0000     69.2364      0.0358
   740.2500     69.2458      0.0340
   740.5000     69.2551      0.0345
   740.7500     69.2620      0.0328
   741.0000     69.2710      0.0333
   741.2500     69.2776      0.0327
   741.5000     69.2884      0.0311
   741.7500     69.2948      0.0316
   742.0000     69.3031      0.0309
   742.2500     69.3112      0.0313
   742.5000     69.3173      0.0286
   742.7500     69.3251      0.0290
   743.0000     69.3328      0.0275
   743.2500     69.3402      0.0268
   743.5000     69.3457      0.0270
   743.7500     69.3528      0.0263
   744.0000     69.3580      0.0248
   744.2500     69.3648      0.0240
   744.5000     69.3713      0.0242
   744.7500     69.3777      0.0227
   745.0000     69.3823      0.0228
   745.2500     69.3883      0.0221
   745.5000     69.3941      0.0207
   745.7500     69.3983      0.0199
   746.0000     69.4037      0.0199
   746.2500     69.4089      0.0191
   746.5000     69.4127      0.0184
   746.7500     69.4175      0.0178
   747.0000     69.4222      0.0171
   747.2500     69.4266      0.0164
   747.5000     69.4309      0.0164
   747.7500     69.4340      0.0153
   748.0000     69.4380      0.0146
   748.2500     69.4418      0.0140
   748.5000     69.4454      0.0130
   748.7500     69.4481      0.0129
   749.0000     69.4515      0.0120
   749.2500     69.4546      0.0114
   749.5000     69.4569      0.0107
   749.7500     69.4598      0.0106
   750.0000     69.4619      0.0097
   750.2500     69.4645      0.0091
   750.5000     69.4669      0.0089
   750.7500     69.4692      0.0083
   751.0000     69.4708      0.0078
   751.2500     69.4728      0.0073
   751.5000     69.4747      0.0067
   751.7500     69.4764      0.0060
   752.0000     69.4776      0.0057
   752.2500     69.4790      0.0051
   752.5000     69.4803      0.0045
   752.7500     69.4812      0.0038
   753.0000     69.4822      0.0034
   753.2500     69.4830      0.0028
   753.5000     69.4836      0.0021
   753.7500     69.4840      0.0016
   754.0000     69.4843      0.0010
   754.2500     69.4845      0.0004
   754.5000     69.4845     -0.0002
   754.7500     69.4844     -0.0007
   755.0000     69.4841     -0.0012
   755.2500     69.4838     -0.0016
   755.5000     69.4833     -0.0021
   755.7500     69.4827     -0.0026
   756.0000     69.4819     -0.0030
   756.2500     69.4813     -0.0033
   756.5000     69.4803     -0.0036
   756.7500     69.4792     -0.0040
   757.0000     69.4781     -0.0041
   757.2500     69.4773     -0.0045
   757.5000     69.4760     -0.0047
   757.7500     69.4747     -0.0050
   758.0000     69.4737     -0.0050
   758.2500     69.4723     -0.0053
   758.5000     69.4708     -0.0055
   758.7500     69.4693     -0.0054
   759.0000     69.4682     -0.0056
   759.2500     69.4666     -0.0057
   759.5000     69.4651     -0.0055
   759.7500     69.4639     -0.0054
   760.0000     69.4624     -0.0055
   760.2500     69.4610     -0.0054
   760.5000     69.4599     -0.0052
   760.7500     69.4585     -0.0051
   761.0000     69.4571     -0.0049
   761.2500     69.4558     -0.0046
   761.5000     69.4546     -0.0044
   761.7500     69.4537     -0.0040
   762.0000     69.4527     -0.0035
   762.2500     69.4518     -0.0031
   762.5000     69.4511     -0.0027
   762.7500     69.4505     -0.0024
   763.0000     69.4500     -0.0019
   763.2500     69.4496     -0.0014
   763.5000     69.4492     -0.0010
   763.7500     69.4490     -0.0006
   764.0000     69.4490     -0.0001
   764.2500     69.4490      0.0004
   764.5000     69.4491      0.0008
   764.7500     69.4494      0.0013
   765.0000     69.4498      0.0018
   765.2500     69.4503      0.0023
   765.5000     69.4508      0.0029
   765.7500     69.4516      0.0033
   766.0000     69.4526      0.0039
   766.2500     69.4536      0.0044
   766.5000     69.4549      0.0049
   766.7500     69.4559      0.0055
   767.0000     69.4575      0.0061
   767.2500     69.4592      0.0064
   767.5000     69.4606      0.0069
   767.7500     69.4626      0.0077
   768.0000     69.4647      0.0082
   768.2500     69.4664      0.0087
   768.5000     69.4688      0.0091
   768.7500     69.4713      0.0096
   769.0000     69.4739      0.0097
   769.2500     69.4767      0.0105
   769.5000     69.4789      0.0110
   769.7500     69.4819      0.0110
   770.0000     69.4842      0.0114
   770.2500     69.4874      0.0118
   770.5000     69.4907      0.0126
   770.7500     69.4932      0.0125
   771.0000     69.4968      0.0133
   771.2500     69.5004      0.0138
   771.5000     69.5041      0.0142
   771.7500     69.5069      0.0146
   772.0000     69.5108      0.0151
   772.2500     69.5149      0.0150
   772.5000     69.5192      0.0156
   772.7500     69.5224      0.0167
   773.0000     69.5270      0.0173
   773.2500     69.5305      0.0173
   773.5000     69.5353      0.0179
   773.7500     69.5403      0.0191
   774.0000     69.5455      0.0190
   774.2500     69.5495      0.0203
   774.5000     69.5550      0.0210
   774.7500     69.5607      0.0208
   775.0000     69.5650      0.0215
   775.2500     69.5711      0.0228
   775.5000     69.5772      0.0235
   775.7500     69.5820      0.0233
   776.0000     69.5885      0.0247
   776.2500     69.5952      0.0253
   776.5000     69.6021      0.0259
   776.7500     69.6073      0.0263
   777.0000     69.6144      0.0268
   777.2500     69.6217      0.0262
   777.5000     69.6290      0.0266
   777.7500     69.6345      0.0278
   778.0000     69.6420      0.0282
   778.2500     69.6477      0.0275
   778.5000     69.6553      0.0278
   778.7500     69.6630      0.0291
   779.0000     69.6708      0.0284
   779.2500     69.6767      0.0297
   779.5000     69.6846      0.0291
   779.7500     69.6926      0.0297
   780.0000     69.6988      0.0303
   780.2500     69.7071      0.0321
   780.5000     69.7135      0.0330
   780.7500     69.7223      0.0327
   781.0000     69.7314      0.0348
   781.2500     69.7408      0.0359
   781.5000     69.7506      0.0380
   781.7500     69.7581      0.0377
   782.0000     69.7683      0.0386
   782.2500     69.7789      0.0396
   782.5000     69.7895      0.0389
   782.7500     69.7977      0.0409
   783.0000     69.8087      0.0417
   783.2500     69.8200      0.0409
   783.5000     69.8284      0.0416
   783.7500     69.8400      0.0436
   784.0000     69.8517      0.0443
   784.2500     69.8606      0.0434
   784.5000     69.8727      0.0456
   784.7500     69.8849      0.0464
   785.0000     69.8974      0.0471
   785.2500     69.9068      0.0478
   785.5000     69.9196      0.0487
   785.7500     69.9327      0.0496
   786.0000     69.9460      0.0489
   786.2500     69.9562      0.0516
   786.5000     69.9700      0.0529
   786.7500     69.9842      0.0542
   787.0000     69.9951      0.0535
   787.2500     70.0100      0.0565
   787.5000     70.0254      0.0558
   787.7500     70.0411      0.0571
   788.0000     70.0531      0.0602
   788.2500     70.0692      0.0616
   788.5000     70.0816      0.0605
   788.7500     70.0984      0.0618
   789.0000     70.1156      0.0652
   789.2500     70.1331      0.0642
   789.5000     70.1464      0.0677
   789.7500     70.1646      0.0691
   790.0000     70.1834      0.0705
   790.2500     70.1976      0.0694
