~Version Information
 VERS.                                  2.0 : CWLS LAS VERSION
 WRAP.                                   NO : WRAPING MODE
 SWARE .                 MController 2.5.0N : SOFTWARE VERSION
~Well Information
 WELL.                        ROLLS 14-14Tr : WELL
 COMP.   Pioneer Natural Resources, USA INC : COMPANY
 FLD.                      PURGATOIRE RIVER : FIELD
 LOC.                SW/SW SEC 14 T32S R66W : LOCATION
 DATE.                           08/02/2005 : DATE(S) LOGGED
 SRVC.       BLANCO GEOLOGICAL SERVICES LLC : SERVICE COMPANY
 STAT.                             COLORADO : STATE
 CNTY.                           LAS ANIMAS : COUNTY
 CTRY.                                  USA : COUNTRY
 API.                       05-071-08454-00 : API NUMBER
 STRT.FT                             744.00 : START DEPTH
 STOP.FT                            1800.00 : STOP DEPTH
 STEP.FT                               1.00 : DEPTH INCREMENT
 NULL.                                -9999 : NULL VALUE
~Curve information
 DEPTH.FT                                   :
 ROP.MIN/FT                                 :
 GAS.UNITS                                  :
~ASCII Log data
# ...
      1344.0         0.20        621.5 
      1345.0         0.27        635.7 
      1346.0         2.85       1105.5 
      1347.0         0.37        705.9 
      1348.0         0.30        615.7 
      1349.0         0.27        545.1 
      1350.0         0.23        510.6 
      1351.0         0.22        461.6 
      1352.0         0.23        443.6 
      1353.0         0.23        440.0 
      1354.0         0.20         10.1 
      1355.0         0.20          7.2 
      1356.0         0.17          3.9 
      1357.0         0.20          2.0 
      1358.0         0.23          0.4 
      1359.0         0.20          2.0 
      1360.0         0.27          2.4 
      1361.0         0.23          1.1 
      1362.0         0.20          2.0
      1363.0         0.27          2.2 
      1364.0         0.20          2.0 
      1365.0         0.20          5.9 
      1366.0         0.17          6.3 
      1367.0         0.18          6.4 
      1368.0         0.13          6.5 
      1369.0         0.20          6.6 
      1370.0         0.20          6.7 
      1371.0         0.17          6.9 
      1372.0         0.20          6.9 
      1373.0         0.20          7.2 
      1374.0         0.20          7.3 
      1375.0         0.30          7.3 
      1376.0         1.58          7.3 
      1377.0         0.47          7.8 
      1378.0         0.13          8.0 
      1379.0         0.23          7.9 
      1380.0         0.23          8.1 
      1381.0         0.40          8.0 
      1382.0         0.40          8.1 
      1383.0         0.33          8.1 
      1384.0         0.27          8.2 
      1385.0         0.27          8.2 
      1386.0         0.30          8.2 
      1387.0         0.32          8.3 
      1388.0         0.30          8.3 
      1389.0         0.27          8.4 
      1390.0         0.23          8.4 
      1391.0         0.23          8.4 
      1392.0         0.23          8.4 
      1393.0         0.20          8.5 
      1394.0         0.20          8.4 
      1395.0         0.17          8.5 
      1396.0         0.17          8.5 
      1397.0         0.17          8.5 
      1398.0         0.20          8.4 
      1399.0         0.17          8.4 
      1400.0         0.20          8.5 
      1401.0         0.17          8.5 
      1402.0         0.23          8.4 
      1403.0         0.25          8.5 
      1404.0         0.27          8.6 
      1405.0         0.17          8.6 
      1406.0         4.05          8.7 
      1407.0         0.33          9.3 
      1408.0         0.37          9.4 
      1409.0         0.33          9.4 
      1410.0         0.37          9.4 
      1411.0         0.27          9.4 
      1412.0         0.30          9.5 
      1413.0         0.18          9.5 
      1414.0         0.17          9.5 
      1415.0         0.13          9.5 
      1416.0         0.17          9.6 
      1417.0         0.13          9.5 
      1418.0         0.20          9.5 
      1419.0         0.17          9.6 
      1420.0         0.13          9.7 
      1421.0         0.13          9.6 
      1422.0         0.17          9.6 
      1423.0         0.20          9.6 
      1424.0         0.20          9.6 
      1425.0         0.20          9.7 
      1426.0         0.20          9.7 
      1427.0         0.23          9.7 
      1428.0         0.23          9.7 
      1429.0         0.17          9.8 
      1430.0         0.10          9.7 
      1431.0         0.13          9.9 
      1432.0         0.17          9.9 
      1433.0         0.15          9.9 
      1434.0         0.20          9.8 
      1435.0         0.23         10.1 
      1436.0         1.53         10.4 
      1437.0         0.37         11.1 
      1438.0         0.37         10.9 
      1439.0         0.37         10.7 
      1440.0         0.38         10.7 
      1441.0         0.33         10.8 
      1442.0         0.47         11.2 
      1443.0         0.47         11.1 
      1444.0         0.37         11.0 
      1445.0         0.37         11.1 
      1446.0         0.33         11.1 
      1447.0         0.27         11.1 
      1448.0         0.27         11.2 
      1449.0         0.25         11.2 
      1450.0         0.20         11.2 
      1451.0         0.27         11.3 
      1452.0         0.23          9.5 
      1453.0         0.23          7.8 
      1454.0         0.23          5.2 
      1455.0         0.20          3.8 
      1456.0         0.23          2.4 
      1457.0         0.23          1.1 
      1458.0         0.20          0.8 
      1459.0         0.23          0.4 
      1460.0         0.23          0.1 
      1461.0         0.20          0.0 
      1462.0         0.17          0.4 
      1463.0         0.17          0.0 
      1464.0         0.20          0.6 
      1465.0         0.22          0.3 
      1466.0         1.23          0.4 
      1467.0         0.70          1.1 
      1468.0         0.23          1.8 
      1469.0         0.10          1.9 
      1470.0         0.10          1.9 
      1471.0         0.37          1.6 
      1472.0         0.23          1.8 
      1473.0         0.20          2.5 
      1474.0         0.25          2.0 
      1475.0         0.23          2.0 
      1476.0         0.17          2.3 
      1477.0         0.17          2.2 
      1478.0         0.17          2.2 
      1479.0         0.17          2.3 
      1480.0         0.17          2.9 
      1481.0         0.17          2.6 
      1482.0         0.20          2.6 
      1483.0         0.20          2.6 
      1484.0         0.20          2.8 
      1485.0         0.20          3.2 
      1486.0         0.17          2.9 
      1487.0         0.20          2.9 
      1488.0         0.20          3.3 
      1489.0         0.23          3.1 
      1490.0         0.23          3.3 
      1491.0         0.25          3.0 
      1492.0         0.30          3.5 
      1493.0         0.17          3.2 
      1494.0         0.17          3.2 
      1495.0         0.17          3.2 
      1496.0         2.27        312.7 
      1497.0         0.35        312.7 
      1498.0         0.37        252.2 
      1499.0         0.27        104.9 
      1500.0         0.37        105.7 
      1501.0         0.50        174.2 
      1502.0         0.20        187.1 
      1503.0         0.23        187.7 
      1504.0         0.27        174.4 
      1505.0         0.27        168.2 
      1506.0         0.23        175.7 
      1507.0         0.20        174.6 
      1508.0         0.10        170.6 
      1509.0         0.15        168.2 
      1510.0         0.23        163.0 
      1511.0         0.33        158.3 
      1512.0         0.20        147.6 
      1513.0         0.17        139.6 
      1514.0         0.33        135.1 
      1515.0         0.37        128.1 
      1516.0         0.27        139.7 
      1517.0         0.27        156.0 
      1518.0         0.30        183.2 
      1519.0         0.27        187.7 
      1520.0         0.17        188.5 
      1521.0         0.20        175.1 
      1522.0         0.25        148.1 
      1523.0         0.20        111.1 
      1524.0         0.20        105.0 
      1525.0         0.23        116.0 
      1526.0         3.85       2746.8 
      1527.0         0.63       1320.5 
      1528.0         0.30        867.4 
      1529.0         0.23        779.7 
      1530.0         0.20        817.1 
      1531.0         0.60        904.1 
      1532.0         0.68        995.6 
      1533.0         0.53        990.2 
      1534.0         0.23        924.7 
      1535.0         0.23        893.5 
      1536.0         0.20        851.9 
      1537.0         0.17        830.0 
      1538.0         0.17        800.7 
      1539.0         0.17        793.6 
      1540.0         0.17        772.0 
      1541.0         0.23        768.8 
      1542.0         0.20        753.3 
      1543.0         0.13        738.5 
      1544.0         0.17        729.4 
