~Version Information
VERS.                      2.0: CWLS Log ASCII Standard - VERSION 2.0
WRAP.                       NO: One line per depth step
~Well Information Block
STRT.FT                -8.5000: 
STOP.FT              1214.7500: 
STEP.FT                 0.2500: 
NULL.                -999.2500: 
COMP.          Pioneer Natural Resources: COMPANY
WELL.          Rock Island 44-24 Tr: WELL
FLD.           Purgatorie River: FIELD
LOC.           814' FSL & 761' FEL--: LOCATION
CNTY.               Las Animas: COUNTY
SRVC.          Patterson Wireline: SERVICE COMPANY
DATE.          Fri Apr 28 10:23:18 2006: LOG DATE
UWI.           05 071 08680 00: UNIQUE WELL ID
STAT.                       CO: STATE
~Curve Information Block
DEPT.FT            0 000 00 00: Depth
CCL.                          : Casing Collar Locator
TT3.usec                      : CBL 3' Travel Time
AMP3.mV                       : CBL 3' Amplitude
GR.GAPI                       : Gamma Ray
~Parameter Information Block
~A  Depth       CCL         TT3         AMP3         GR     
# ...
   795.5000      0.0000    424.3210     14.0868    130.4654
   795.7500      0.0000    396.3379     16.1842    131.9384
   796.0000      0.0000    373.9251     18.1610    133.4934
   796.2500      0.0000    359.9377     19.5436    134.5081
   796.5000      0.0000    354.7619     20.2175    134.4941
   796.7500      0.0000    356.3237     20.3710    132.9678
   797.0000      0.0000    364.0091     20.2014    130.4993
   797.2500      0.0000    378.4591     19.7807    129.1500
   797.5000      0.0000    397.7129     19.1249    130.6367
   797.7500      0.0000    416.8617     18.2711    134.0789
   798.0000      0.0000    432.4864     17.2831    136.4393
   798.2500      0.0000    445.7115     16.2363    135.4378
   798.5000      0.0000    461.0757     15.2068    131.6008
   798.7500      0.0000    483.5261     14.2575    127.1675
   799.0000      0.0000    514.8062     13.4321    123.2526
   799.2500      0.0000    550.2535     12.7518    118.6189
   799.5000      0.0000    580.2474     12.2015    111.3252
   799.7500      0.0000    597.7032     11.7249    101.1364
   800.0000      0.0000    604.6682     11.2701     90.1226
   800.2500      0.0000    610.3471     10.8598     81.0831
   800.5000      0.0000    622.1526     10.5929     75.4117
   800.7500      0.0000    638.0320     10.5641     72.3665
   801.0000      0.0000    646.2301     10.7863     70.3609
   801.2500      0.0000    632.9727     11.1922     68.7702
   801.5000      0.0000    593.4925     11.6921     68.3807
   801.7500      0.0000    537.6708     12.2200     70.3098
   802.0000      0.0000    483.7609     12.7360     74.6355
   802.2500      0.0000    445.2450     13.2032     79.8523
   802.5000      0.0000    424.0757     13.5694     83.5941
   802.7500      0.0000    415.1976     13.7769     84.2373
   803.0000      0.0000    413.6273     13.7997     82.1945
   803.2500      0.0000    415.8792     13.6750     79.7235
   803.5000      0.0000    418.3167     13.4937     79.1206
   803.7500      0.0000    418.2418     13.3554     80.8271
   804.0000      0.0000    416.6771     13.3262     83.4110
   804.2500      0.0000    417.9498     13.4191     85.1639
   804.5000      0.0000    425.7088     13.5865     85.2004
   804.7500      0.0000    439.8176     13.7228     83.4119
   805.0000      0.0000    457.4521     13.6996     80.3657
   805.2500      0.0000    477.1042     13.4379     77.2265
   805.5000      0.0000    501.1125     12.9552     74.9757
   805.7500      0.0000    532.9971     12.3373     73.5761
   806.0000      0.0000    571.3822     11.6673     72.2799
   806.2500      0.0000    608.0649     10.9936     70.6245
   806.5000      0.0000    634.7374     10.3532     68.8107
   806.7500      0.0000    651.2537      9.7894     67.2682
   807.0000      0.0000    664.9374      9.3319     66.0464
   807.2500      0.0000    682.4869      8.9717     64.5718
   807.5000      0.0000    704.7723      8.6672     62.1560
   807.7500      0.0000    728.3560      8.3768     58.9989
   808.0000      0.0000    749.0577      8.0924     56.5497
   808.2500      0.0000    763.5720      7.8438     56.5399
   808.5000      0.0000    769.6815      7.6682     59.4318
   808.7500      0.0000    767.0162      7.5728     63.7367
   809.0000      0.0000    758.1016      7.5313     66.9898
   809.2500      0.0000    747.7865      7.5139     67.6447
   809.5000      0.0000    740.4503      7.5121     66.1716
   809.7500      0.0000    736.9726      7.5303     64.4055
   810.0000      0.0000    734.3542      7.5601     63.8804
   810.2500      0.0000    728.6464      7.5732     64.6462
   810.5000      0.0000    718.6756      7.5394     65.4588
   810.7500      0.0000    707.3795      7.4494     64.9576
   811.0000      0.0000    699.8499      7.3188     62.6904
   811.2500      0.0000    699.9302      7.1707     59.3410
   811.5000      0.0000    707.8759      7.0169     56.2313
   811.7500      0.0000    720.3192      6.8605     54.3385
   812.0000      0.0000    732.1066      6.7167     53.5120
   812.2500      0.0000    738.7446      6.6199     52.8771
   812.5000      0.0000    738.2603      6.6022     52.1977
   812.7500      0.0000    731.9236      6.6697     52.5465
   813.0000      0.0000    723.4617      6.8004     55.4117
   813.2500      0.0000    717.1321      6.9571     61.3072
   813.5000      0.0000    716.0793      7.1014     69.2720
   813.7500      0.0000    721.7986      7.2060     77.4777
   814.0000      0.0000    733.9349      7.2636     84.2577
   814.2500      0.0000    750.0840      7.2830     88.7608
   814.5000      0.0000    766.5810      7.2731     90.8631
   814.7500      0.0000    780.1974      7.2377     90.7419
   815.0000      0.0000    789.1346      7.1809     88.7447
   815.2500      0.0000    792.5919      7.1125     85.6441
   815.5000      0.0000    789.9510      7.0438     82.8058
   815.7500      0.0000    780.9305      6.9816     81.8699
   816.0000      0.0000    766.9610      6.9273     83.9839
   816.2500      0.0000    752.0849      6.8767     89.2413
   816.5000      0.0000    741.2664      6.8234     96.9642
   816.7500      0.0000    736.8979      6.7618    106.3931
   817.0000      0.0000    737.0599      6.6906    116.7309
   817.2500      0.0000    737.5565      6.6140    126.5846
   817.5000      0.0000    735.4821      6.5407    134.0801
   817.7500      0.0000    730.7000      6.4813    138.1226
   818.0000      0.0000    724.5231      6.4445    139.4190
   818.2500      0.0000    718.1534      6.4354    139.8116
   818.5000      0.0000    712.6820      6.4527    140.6229
   818.7500      0.0000    709.3541      6.4869    141.9038
   819.0000      0.0000    708.7462      6.5247    142.9867
   819.2500      0.0000    710.0571      6.5572    143.1998
   819.5000      0.0000    711.8613      6.5839    142.2464
   819.7500      0.0000    713.3925      6.6070    140.4691
   820.0000      0.0000    714.9382      6.6280    138.5007
   820.2500      0.0000    717.2576      6.6465    136.3479
   820.5000      0.0000    720.5716      6.6605    133.3432
   820.7500      0.0000    723.7268      6.6659    129.2734
   821.0000      0.0000    724.5828      6.6612    124.9357
   821.2500      0.0000    722.0277      6.6511    121.3678
   821.5000      0.0000    717.5269      6.6421    119.1101
   821.7500      0.0000    713.5899      6.6366    118.2477
   822.0000      0.0000    710.5246      6.6322    118.6657
   822.2500      0.0000    705.9452      6.6285    120.0877
   822.5000      0.0000    697.9847      6.6339    121.9342
   822.7500      0.0000    687.8859      6.6615    123.2786
   823.0000      0.0000    678.8477      6.7178    123.3357
   823.2500      0.0000    673.3292      6.7932    122.1217
   823.5000      0.0000    671.9734      6.8681    120.4180
   823.7500      0.0000    673.9490      6.9273    118.9864
   824.0000      0.0000    677.4622      6.9682    117.9464
   824.2500      0.0000    680.6581      6.9948    116.7847
   824.5000      0.0000    682.9340      7.0095    114.7492
   824.7500      0.0000    685.4065      7.0127    111.3974
   825.0000      0.0000    689.8416      7.0055    106.9255
   825.2500      0.0000    697.4440      6.9903    101.8107
   825.5000      0.0000    708.8687      6.9693     96.1187
   825.7500      0.0000    724.4665      6.9452     89.4603
   826.0000      0.0000    743.4819      6.9220     81.8918
   826.2500      0.0000    763.3004      6.9027     74.5951
   826.5000      0.0000    780.3531      6.8873     69.3363
   826.7500      0.0000    791.6993      6.8742     67.2766
   827.0000      0.0000    795.3918      6.8634     68.3251
   827.2500      0.0000    790.1628      6.8566     71.3192
   827.5000      0.0000    776.3276      6.8539     74.6371
   827.7500      0.0000    757.2260      6.8506     76.9251
   828.0000      0.0000    738.4795      6.8389     77.6587
   828.2500      0.0000    724.8616      6.8127     77.1950
   828.5000      0.0000    717.8762      6.7705     76.3265
   828.7500      0.0000    715.9292      6.7140     75.8393
