~Version Information
VERS.                      2.0: CWLS Log ASCII Standard - VERSION 2.0
WRAP.                       NO: One line per depth step
~Well Information Block
STRT.FT               460.0000: 
STOP.FT              3058.5000: 
STEP.FT                 0.1000: 
NULL.                -999.2500: 
COMP.          Pioneer Natural Resources: COMPANY
WELL.            Cleaver 24-12: WELL
FLD.           Purgatoire River: FIELD
LOC.           204' FSL & 2351' FWL: LOCATION
PROV.                 Colorado: PROVINCE
CNTY.               Las Animas: COUNTRY
SRVC.                Patterson: SERVICE COMPANY
DATE.          Mon Jan 09 13:49:27 2006: LOG DATE
UWI.           05 071 08634 00: UNIQUE WELL ID
~Curve Information Block
DEPT.FT            0 000 00 00: Depth
DCAL.in                       : CDL Caliper
RHOB.g/cc                     : CDL Bulk Density
RHOC.g/cc                     : CDL Density Correction
DPOR.pu                       : CDL Density Porosity
GR.GAPI                       : Gamma Ray
NPOR.pu                       : Neutron Porosity
~Parameter Information Block
~A  Depth       DCAL        RHOB        RHOC        DPOR         GR         NPOR    
# ...
   978.4000      7.9662      2.5421      0.0149      6.5408    127.4639     30.9791
   978.5000      7.9527      2.5415      0.0469      6.5745    132.3413     31.0712
   978.6000      7.9527      2.5471      0.0114      6.2342    137.0063     30.9999
   978.7000      7.9527      2.5538      0.0618      5.8274    137.7134     30.7141
   978.8000      7.9596      2.5630      0.0259      5.2729    136.0222     30.5826
   978.9000      7.9596      2.5757      0.0396      4.5011    132.8700     30.6972
   979.0000      7.9766      2.5812      0.0494      4.1724    127.5635     30.6965
   979.1000      7.9766      2.5732      0.0511      4.6555    120.7686     30.4595
   979.2000      7.9766      2.5612      0.0261      5.3825    117.8283     30.2281
   979.3000      7.9980      2.5547      0.0110      5.7747    122.6487     30.2001
   979.4000      7.9980      2.5536      0.0130      5.8408    131.5939     30.3852
   979.5000      8.0109      2.5564     -0.0197      5.6705    137.2840     30.6866
   979.6000      8.0109      2.5636     -0.0050      5.2369    133.8193     30.8822
   979.7000      8.0109      2.5681      0.0370      4.9635    121.9828     30.7290
   979.8000      8.0090      2.5684      0.0385      4.9427    109.3804     30.3299
   979.9000      8.0090      2.5790     -0.0246      4.3046    103.2081     30.0754
   980.0000      8.0137      2.5923      0.0675      3.4974    102.3104     30.1829
   980.1000      8.0137      2.5783      0.0312      4.3469    102.7654     30.3457
   980.2000      8.0137      2.5445     -0.0564      6.3941    106.0642     30.1961
   980.3000      8.0014      2.5280     -0.0685      7.3942    112.2741     29.9008
   980.4000      8.0014      2.5401     -0.0250      6.6594    113.8869     29.6880
   980.5000      8.0117      2.5605      0.0363      5.4238    108.2372     29.4475
   980.6000      8.0117      2.5621      0.0259      5.3286    103.9045     29.2167
   980.7000      8.0117      2.5368     -0.0304      6.8585    106.4898     29.1904
   980.8000      7.9662      2.5031     -0.0351      8.9005    110.0777     29.2430
   980.9000      7.9662      2.4858     -0.0861      9.9509    109.7834     28.9889
   981.0000      7.9303      2.4957     -0.0536      9.3539    109.8865     28.4439
   981.1000      7.9303      2.5199      0.0342      7.8838    112.5445     28.0292
   981.2000      7.9303      2.5400      0.0380      6.6682    112.4383     28.0388
   981.3000      7.9235      2.5608     -0.0039      5.4038    106.7257     28.3049
   981.4000      7.9235      2.5904      0.0495      3.6123    100.2535     28.2799
   981.5000      7.9307      2.6095      0.1189      2.4558     99.5487     28.0161
   981.6000      7.9307      2.6008      0.0375      2.9808    105.0301     28.2323
   981.7000      7.9307      2.5779      0.0543      4.3668    112.3555     28.9693
   981.8000      7.9519      2.5629      0.0703      5.2818    118.2368     29.4132
   981.9000      7.9519      2.5677      0.0102      4.9862    121.1376     29.1083
   982.0000      7.9473      2.5834      0.0858      4.0386    122.3835     28.6416
   982.1000      7.9473      2.5828      0.1032      4.0749    124.3195     28.5685
   982.2000      7.9473      2.5649      0.0626      5.1605    124.1908     28.6369
   982.3000      7.9246      2.5589      0.0179      5.5239    122.6075     28.4538
   982.4000      7.9246      2.5769      0.0595      4.4293    125.4227     28.0879
   982.5000      7.9201      2.5964      0.1121      3.2483    130.9621     27.8973
   982.6000      7.9201      2.5920      0.1127      3.5158    131.1874     27.9167
   982.7000      7.9201      2.5679      0.0525      4.9744    125.1192     27.8308
   982.8000      7.9159      2.5429      0.0448      6.4922    119.3338     27.6476
   982.9000      7.9159      2.5217      0.0173      7.7765    115.7900     27.6250
   983.0000      7.9173      2.5001      0.0290      9.0834    111.1882     27.6403
   983.1000      7.9173      2.4777     -0.0185     10.4449    107.1609     27.5098
   983.2000      7.9173      2.4563      0.0070     11.7366    109.4863     27.4095
   983.3000      7.8954      2.4376      0.0108     12.8723    117.4418     27.5028
   983.4000      7.8954      2.4345     -0.0613     13.0593    122.7359     27.5659
   983.5000      7.9007      2.4608      0.0329     11.4637    125.0444     27.3735
   983.6000      7.9007      2.5070      0.0743      8.6691    129.8154     27.1048
   983.7000      7.9007      2.5590      0.1491      5.5179    136.2432     27.2156
   983.8000      7.9005      2.6076      0.1904      2.5719    137.4070     27.6532
   983.9000      7.9005      2.6461      0.2366      0.2372    130.1093     28.1008
   984.0000      7.9063      2.6712      0.2132     -1.2862    121.5423     28.3941
   984.1000      7.9063      2.6839      0.1923     -2.0541    116.4449     28.1604
   984.2000      7.9063      2.6873      0.1989     -2.2601    110.2702     27.4395
   984.3000      7.9070      2.6736      0.2216     -1.4321    102.4266     26.8813
   984.4000      7.9070      2.6414      0.1044      0.5197     97.8017     26.5870
   984.5000      7.9134      2.6084      0.0614      2.5219     94.3189     26.2640
   984.6000      7.9134      2.5762      0.0854      4.4741     88.5481     25.8929
   984.7000      7.9134      2.5355      0.0099      6.9404     82.7184     25.5469
   984.8000      7.9202      2.4968     -0.0368      9.2862     78.1491     25.4580
   984.9000      7.9202      2.4816     -0.0674     10.2067     74.2567     25.4663
   985.0000      7.9229      2.5051     -0.0423      8.7836     71.8712     25.0895
   985.1000      7.9229      2.5461      0.0842      6.2972     72.1391     24.5415
   985.2000      7.9229      2.5653      0.0345      5.1338     73.8954     24.3731
   985.3000      7.9206      2.5602     -0.0025      5.4432     73.5059     24.6558
   985.4000      7.9206      2.5505      0.0263      6.0332     69.7453     24.9850
   985.5000      7.9118      2.5458      0.0231      6.3133     66.4458     25.2567
   985.6000      7.9118      2.5455      0.0705      6.3352     66.7893     25.7158
   985.7000      7.9118      2.5424      0.0655      6.5191     69.9905     26.0346
   985.8000      7.8948      2.5361      0.0600      6.9020     73.5247     25.7453
   985.9000      7.8948      2.5375      0.0203      6.8179     75.9529     25.1288
   986.0000      7.9031      2.5501      0.0514      6.0524     78.2301     24.5202
   986.1000      7.9031      2.5605      0.0541      5.4215     80.2438     23.9641
   986.2000      7.9031      2.5649      0.0216      5.1603     80.8427     23.9019
   986.3000      7.9050      2.5694      0.0305      4.8852     79.3190     24.5640
   986.4000      7.9050      2.5764      0.0118      4.4591     75.4925     25.2896
   986.5000      7.9029      2.5823      0.0243      4.1053     72.3452     25.7842
   986.6000      7.9029      2.5764      0.0819      4.4620     73.9868     26.3027
   986.7000      7.9029      2.5583      0.0305      5.5546     78.8438     26.8330
   986.8000      7.9086      2.5392      0.0420      6.7166     84.7112     27.1654
   986.9000      7.9086      2.5193      0.0432      7.9194     91.8646     27.4108
   987.0000      7.8837      2.5038     -0.0386      8.8610     99.0762     27.6705
   987.1000      7.8837      2.5140     -0.0558      8.2408    104.6682     27.8844
   987.2000      7.8837      2.5488      0.0601      6.1319    107.9467     28.2609
   987.3000      7.9038      2.5854      0.0457      3.9130    110.0451     28.8757
   987.4000      7.9038      2.6148      0.0889      2.1345    111.7589     29.3887
   987.5000      7.9070      2.6292      0.1087      1.2631    112.2458     29.5280
   987.6000      7.9070      2.6226      0.0820      1.6583    112.1666     29.4800
   987.7000      7.9070      2.6060      0.0956      2.6676    113.5725     29.5730
   987.8000      7.9117      2.5907      0.0784      3.5955    116.4909     29.7668
   987.9000      7.9117      2.5841     -0.0088      3.9925    116.8850     29.7222
