~Version Information
VERS.                      2.0: CWLS Log ASCII Standard - VERSION 2.0
WRAP.                       NO: One line per depth step
~Well Information Block
STRT.FT                -5.7500: 
STOP.FT              2734.0000: 
STEP.FT                 0.2500: 
NULL.                -999.2500: 
COMP.          Pioneer Natural Resources: COMPANY
WELL.              Loews 41-32: WELL
FLD.           Purgatoire River: FIELD
LOC.           751' FNL & 128' FEL--: LOCATION
CNTY.               Las Animas: COUNTY
SRVC.                         : SERVICE COMPANY
DATE.          Sat Mar 04 08:20:59 2006: LOG DATE
UWI.           05 071 08693 00: UNIQUE WELL ID
STAT.                       CO: STATE
~Curve Information Block
DEPT.FT            0 000 00 00: Depth
GR.GAPI                       : Gamma Ray
CCL.                          : Casing Collar Locator
TT3.usec                      : CBL 3' Travel Time
AMP3.mV                       : CBL 3' Amplitude
~Parameter Information Block
~A  Depth        GR         CCL         TT3         AMP3    
# ...
  1066.2500     91.6675      0.0000    649.9442      4.3824
  1066.5000     99.3596      0.0000    669.3029      4.3023
  1066.7500    108.0561      0.0000    671.6616      4.2198
  1067.0000    116.7761      0.0000    660.6993      4.1453
  1067.2500    123.3016      0.0000    647.1171      4.0903
  1067.5000    125.1490      0.0000    642.5349      4.0625
  1067.7500    121.1586      0.0000    651.6991      4.0656
  1068.0000    112.4429      0.0000    669.8732      4.0983
  1068.2500    101.8372      0.0000    687.6091      4.1518
  1068.5000     92.3371      0.0000    697.7949      4.2111
  1068.7500     85.7504      0.0000    699.1646      4.2612
  1069.0000     82.1284      0.0000    694.9620      4.2939
  1069.2500     80.0753      0.0000    689.4285      4.3084
  1069.5000     78.0397      0.0000    685.5566      4.3081
  1069.7500     75.7821      0.0000    684.9434      4.2951
  1070.0000     74.4091      0.0000    688.0403      4.2683
  1070.2500     74.9288      0.0000    693.8723      4.2291
  1070.5000     77.1617      0.0000    700.3442      4.1856
  1070.7500     80.2096      0.0000    705.6360      4.1482
  1071.0000     83.6132      0.0000    709.1929      4.1227
  1071.2500     87.7601      0.0000    711.1118      4.1093
  1071.5000     93.2547      0.0000    710.7107      4.1061
  1071.7500    100.0508      0.0000    706.3455      4.1110
  1072.0000    107.2039      0.0000    697.6567      4.1219
  1072.2500    113.3349      0.0000    688.0416      4.1396
  1072.5000    117.2618      0.0000    683.0551      4.1701
  1072.7500    118.3767      0.0000    684.7679      4.2238
  1073.0000    116.8264      0.0000    688.3887      4.3089
  1073.2500    113.4384      0.0000    685.6224      4.4239
  1073.5000    109.2239      0.0000    671.9122      4.5579
  1073.7500    104.8246      0.0000    651.5142      4.7009
  1074.0000    100.4335      0.0000    635.9156      4.8517
  1074.2500     96.1440      0.0000    635.1467      5.0107
  1074.5000     92.3256      0.0000    648.9181      5.1732
  1074.7500     89.8514      0.0000    666.5123      5.3324
  1075.0000     89.8856      0.0000    675.2756      5.4861
  1075.2500     93.1661      0.0000    668.6157      5.6339
  1075.5000     99.4358      0.0000    647.7473      5.7698
  1075.7500    107.5068      0.0000    618.6799      5.8813
  1076.0000    115.6735      0.0000    587.6161      5.9560
  1076.2500    122.2497      0.0000    557.1150      5.9910
  1076.5000    126.2382      0.0000    525.5851      5.9959
  1076.7500    127.6554      0.0000    491.5348      5.9886
  1077.0000    127.2424      0.0000    459.0298      5.9836
  1077.2500    126.1078      0.0000    438.1541      5.9797
  1077.5000    125.6907      0.0000    439.6303      5.9588
  1077.7500    127.4756      0.0000    468.3587      5.9011
  1078.0000    132.0266      0.0000    519.5400      5.8066
  1078.2500    138.1643      0.0000    579.1223      5.6991
  1078.5000    143.5365      0.0000    630.2194      5.6071
  1078.7500    146.3685      0.0000    662.6251      5.5427
  1079.0000    146.6348      0.0000    677.7598      5.4994
  1079.2500    145.5519      0.0000    684.5045      5.4666
  1079.5000    144.1742      0.0000    690.5268      5.4409
  1079.7500    142.5934      0.0000    696.9960      5.4258
  1080.0000    140.3736      0.0000    699.7890      5.4212
  1080.2500    137.4873      0.0000    693.9409      5.4191
  1080.5000    134.5682      0.0000    677.6166      5.4124
  1080.7500    132.2175      0.0000    654.0626      5.4084
  1081.0000    130.3111      0.0000    630.2001      5.4266
  1081.2500    128.1314      0.0000    611.7187      5.4831
  1081.5000    125.1376      0.0000    599.4391      5.5794
  1081.7500    121.6195      0.0000    592.6411      5.7023
  1082.0000    118.5949      0.0000    595.4991      5.8297
  1082.2500    116.9204      0.0000    615.0841      5.9383
  1082.5000    116.3962      0.0000    650.7141      6.0106
  1082.7500    115.9644      0.0000    689.8071      6.0340
  1083.0000    115.0045      0.0000    718.0755      5.9989
  1083.2500    114.1555      0.0000    731.3572      5.9026
  1083.5000    114.7040      0.0000    734.9792      5.7485
  1083.7500    117.3857      0.0000    734.1348      5.5330
  1084.0000    121.6907      0.0000    729.1671      5.2376
  1084.2500    125.9940      0.0000    720.2038      4.8438
  1084.5000    128.5876      0.0000    712.6231      4.3569
  1084.7500    128.8264      0.0000    714.9398      3.8147
  1085.0000    127.1029      0.0000    731.5815      3.2779
  1085.2500    123.7682      0.0000    758.7217      2.8091
  1085.5000    118.4939      0.0000    787.7095      2.4487
  1085.7500    110.8622      0.0000    812.5845      2.2037
  1086.0000    101.5528      0.0000    833.0828      2.0576
  1086.2500     92.8046      0.0000    850.0335      1.9885
  1086.5000     87.2674      0.0000    860.2468      1.9793
  1086.7500     86.1394      0.0000    857.5081      2.0225
  1087.0000     88.6597      0.0000    837.9566      2.1238
  1087.2500     93.4498      0.0000    804.5828      2.2975
  1087.5000     99.8833      0.0000    767.1381      2.5550
  1087.7500    107.9485      0.0000    736.5880      2.8941
  1088.0000    117.1841      0.0000    718.4858      3.2979
  1088.2500    126.1672      0.0000    711.3986      3.7354
  1088.5000    133.1145      0.0000    710.8560      4.1663
  1088.7500    136.9572      0.0000    713.6367      4.5543
  1089.0000    138.0374      0.0000    719.0014      4.8805
  1089.2500    137.9640      0.0000    727.1717      5.1424
  1089.5000    138.5600      0.0000    736.9684      5.3408
  1089.7500    140.4127      0.0000    744.9941      5.4751
  1090.0000    142.0969      0.0000    748.0579      5.5483
  1090.2500    140.9315      0.0000    746.4877      5.5712
  1090.5000    135.0928      0.0000    743.6039      5.5615
  1090.7500    125.5506      0.0000    741.6669      5.5410
  1091.0000    115.9479      0.0000    740.0051      5.5283
  1091.2500    110.0858      0.0000    737.6714      5.5311
  1091.5000    109.1794      0.0000    736.6260      5.5458
  1091.7500    111.5154      0.0000    741.3367      5.5651
  1092.0000    114.5285      0.0000    754.7536      5.5842
  1092.2500    116.8939      0.0000    774.0219      5.6007
  1092.5000    118.7608      0.0000    790.5936      5.6130
  1092.7500    120.5399      0.0000    795.6416      5.6199
  1093.0000    122.1311      0.0000    785.6863      5.6229
  1093.2500    123.4407      0.0000    762.8347      5.6258
  1093.5000    125.0090      0.0000    730.4141      5.6304
  1093.7500    127.4224      0.0000    689.9932      5.6345
  1094.0000    130.2127      0.0000    643.3195      5.6346
  1094.2500    131.8219      0.0000    595.4583      5.6301
  1094.5000    130.6904      0.0000    553.8464      5.6232
  1094.7500    126.3525      0.0000    524.0976      5.6177
  1095.0000    119.8957      0.0000    507.5165      5.6197
  1095.2500    113.5978      0.0000    501.8406      5.6362
  1095.5000    109.8758      0.0000    503.0308      5.6690
  1095.7500    110.0664      0.0000    506.8610      5.7106
  1096.0000    113.6315      0.0000    510.3422      5.7467
  1096.2500    118.2512      0.0000    512.3647      5.7682
  1096.5000    121.1149      0.0000    513.1680      5.7796
  1096.7500    120.8635      0.0000    513.3116      5.7949
  1097.0000    118.4891      0.0000    513.0394      5.8256
  1097.2500    116.0152      0.0000    512.1348      5.8716
  1097.5000    114.3229      0.0000    510.1017      5.9227
  1097.7500    112.6492      0.0000    506.5532      5.9631
  1098.0000    110.2253      0.0000    501.5642      5.9784
  1098.2500    107.7751      0.0000    495.6184      5.9599
  1098.5000    106.9001      0.0000    489.2752      5.9047
  1098.7500    108.1303      0.0000    483.3271      5.8074
  1099.0000    110.0211      0.0000    479.6991      5.6513
  1099.2500    110.5080      0.0000    482.3233      5.4144
  1099.5000    109.0860      0.0000    496.0935      5.0989
