~Version Information
VERS.                      2.0: CWLS Log ASCII Standard - VERSION 2.0
WRAP.                       NO: One line per depth step
~Well Information Block
STRT.FT               625.0000: 
STOP.FT              2053.7500: 
STEP.FT                 0.2500: 
NULL.                -999.2500: 
COMP.          Pioneer Natural Resources: COMPANY
WELL.            Zink 44-10 Tr: WELL
FLD.           Purgatoire River: FIELD
LOC.           486' FSL & 554' FEL--: LOCATION
PROV.                 Colorado: PROVINCE
CNTY.               Las Animas: COUNTRY
SRVC.                Patterson: SERVICE COMPANY
DATE.          Sun Jul 24 06:18:01 2005: LOG DATE
UWI.           05 071 08446 00: UNIQUE WELL ID
~Curve Information Block
DEPT.FT            0 000 00 00: Depth
SN.Ohm-m                      : IEL Short Normal
SP.mV                         : IEL Spontaneous Potential
DIR.Ohm-m                     : IEL Induction Resistivity
GR.GAPI                       : Gamma Ray
~Parameter Information Block
~A  Depth        SN          SP         DIR          GR     
# ...
  1831.0000     30.8465     42.4266     30.1177     67.2845
  1831.2500     30.3871     41.8471     29.5769     70.7770
  1831.5000     29.9674     41.2489     29.1309     76.5141
  1831.7500     29.5725     40.6747     28.7944     80.5708
  1832.0000     29.2033     40.1505     28.5419     86.4504
  1832.2500     28.8821     39.6858     28.3367     89.6972
  1832.5000     28.6392     39.2787     28.1520     92.9343
  1832.7500     28.4925     38.9207     27.9688     93.9270
  1833.0000     28.4419     38.6028     27.7690     93.5853
  1833.2500     28.4765     38.3181     27.5438     92.0595
  1833.5000     28.5854     38.0632     27.3119     88.1919
  1833.7500     28.7621     37.8365     27.1213     85.3033
  1834.0000     29.0055     37.6380     27.0252     82.2583
  1834.2500     29.3171     37.4677     27.0519     81.7793
  1834.5000     29.6895     37.3253     27.1921     83.1744
  1834.7500     30.0915     37.2105     27.4065     84.7576
  1835.0000     30.4644     37.1234     27.6430     86.7615
  1835.2500     30.7375     37.0654     27.8469     87.3170
  1835.5000     30.8499     37.0392     27.9640     86.4572
  1835.7500     30.7648     37.0490     27.9409     84.7306
  1836.0000     30.4723     37.0993     27.7313     81.1972
  1836.2500     29.9866     37.1943     27.3120     79.1868
  1836.5000     29.3424     37.3363     26.6959     78.5212
  1836.7500     28.5843     37.5250     25.9295     80.1576
  1837.0000     27.7495     37.7561     25.0715     85.1285
  1837.2500     26.8517     38.0218     24.1686     89.3258
  1837.5000     25.8832     38.3110     23.2436     95.9768
  1837.7500     24.8342     38.6104     22.2982    100.5234
  1838.0000     23.7115     38.9056     21.3235    107.7465
  1838.2500     22.5437     39.1833     20.3128    112.9341
  1838.5000     21.3738     39.4324     19.2726    120.9183
  1838.7500     20.2528     39.6452     18.2287    125.8289
  1839.0000     19.2355     39.8182     17.2218    131.6406
  1839.2500     18.3711     39.9521     16.2968    134.3197
  1839.5000     17.6892     40.0516     15.4920    137.0933
  1839.7500     17.1903     40.1246     14.8349    138.6473
  1840.0000     16.8500     40.1816     14.3414    141.1762
  1840.2500     16.6341     40.2347     14.0177    142.9141
  1840.5000     16.5098     40.2967     13.8605    144.4411
  1840.7500     16.4525     40.3802     13.8581    143.6932
  1841.0000     16.4489     40.4968     13.9906    138.6482
  1841.2500     16.5026     40.6571     14.2335    132.7138
  1841.5000     16.6316     40.8698     14.5636    121.1465
  1841.7500     16.8548     41.1421     14.9632    112.5299
  1842.0000     17.1739     41.4793     15.4180     99.6874
  1842.2500     17.5663     41.8846     15.9065     92.0237
  1842.5000     17.9943     42.3587     16.3875     83.1124
  1842.7500     18.4178     42.8990     16.7968     79.3327
  1843.0000     18.7991     43.4993     17.0597     77.4369
  1843.2500     19.0965     44.1493     17.1148     79.0900
  1843.5000     19.2553     44.8353     16.9346     86.4024
  1843.7500     19.2163     45.5404     16.5339     94.1051
  1844.0000     18.9515     46.2463     15.9630    107.6769
  1844.2500     18.4995     46.9344     15.2938    116.2593
  1844.5000     17.9594     47.5873     14.6039    125.8428
  1844.7500     17.4433     48.1902     13.9651    129.4438
  1845.0000     17.0311     48.7318     13.4357    131.5061
  1845.2500     16.7539     49.2051     13.0555    131.8462
  1845.5000     16.5998     49.6081     12.8420    132.6733
  1845.7500     16.5275     49.9430     12.7894    133.7125
  1846.0000     16.4844     50.2165     12.8704    134.7126
  1846.2500     16.4310     50.4377     13.0429    133.7021
  1846.5000     16.3605     50.6174     13.2596    128.1222
  1846.7500     16.3085     50.7659     13.4811    121.9761
  1847.0000     16.3468     50.8913     13.6871    112.1201
  1847.2500     16.5618     50.9989     13.8822    107.7569
  1847.5000     17.0198     51.0904     14.0915    107.8689
  1847.7500     17.7323     51.1645     14.3469    112.2541
  1848.0000     18.6447     51.2178     14.6717    121.6509
  1848.2500     19.6664     51.2462     15.0725    127.2738
  1848.5000     20.7245     51.2460     15.5427    132.2353
  1848.7500     21.8050     51.2150     16.0770    132.6633
  1849.0000     22.9589     51.1532     16.6861    128.3438
  1849.2500     24.2826     51.0623     17.4043    122.1378
  1849.5000     25.8920     50.9459     18.2847    109.3855
  1849.7500     27.9044     50.8085     19.3902    100.0862
  1850.0000     30.4232     50.6550     20.7839     86.7187
  1850.2500     33.5165     50.4900     22.5221     78.4138
  1850.5000     37.1868     50.3172     24.6466     66.9434
  1850.7500     41.3458     50.1384     27.1709     60.3660
  1851.0000     45.8056     49.9533     30.0581     52.9534
  1851.2500     50.2968     49.7593     33.1910     49.7213
  1851.5000     54.5166     49.5517     36.3495     46.9402
  1851.7500     58.1973     49.3248     39.2237     46.2034
  1852.0000     61.1668     49.0729     41.4956     46.4511
  1852.2500     63.3679     48.7915     42.9715     47.1689
  1852.5000     64.8328     48.4778     43.6687     48.3151
  1852.7500     65.6293     48.1312     43.7723     48.9296
  1853.0000     65.8060     47.7531     43.4966     49.8355
  1853.2500     65.3584     47.3474     42.9718     50.5445
  1853.5000     64.2309     46.9207     42.2197     51.5231
  1853.7500     62.3478     46.4853     41.2000     51.8601
  1854.0000     59.6601     46.0614     39.8669     51.7755
  1854.2500     56.1838     45.6795     38.1938     51.5722
  1854.5000     52.0194     45.3809     36.1668     51.8437
  1854.7500     47.3497     45.2142     33.7832     52.9064
  1855.0000     42.4248     45.2291     31.0763     56.3336
  1855.2500     37.5377     45.4668     28.1501     59.8685
  1855.5000     32.9765     45.9495     25.1769     67.0761
  1855.7500     28.9515     46.6720     22.3458     73.4286
  1856.0000     25.5374     47.5978     19.8007     85.8124
  1856.2500     22.6828     48.6603     17.6098     95.7663
  1856.5000     20.2754     49.7708     15.7725    111.5949
  1856.7500     18.2117     50.8316     14.2487    121.3911
  1857.0000     16.4319     51.7517     12.9862    133.0988
  1857.2500     14.9179     52.4619     11.9397    138.5753
  1857.5000     13.6701     52.9260     11.0765    143.9271
  1857.7500     12.6822     53.1442     10.3741    146.1108
  1858.0000     11.9261     53.1500      9.8140    147.5226
  1858.2500     11.3533     52.9992      9.3779    147.0509
  1858.5000     10.9089     52.7565      9.0459    144.4884
  1858.7500     10.5518     52.4821      8.7973    142.2528
  1859.0000     10.2704     52.2224      8.6132    139.3910
  1859.2500     10.0795     52.0060      8.4788    138.0645
  1859.5000     10.0017     51.8443      8.3844    136.8444
  1859.7500     10.0438     51.7360      8.3250    136.6655
  1860.0000     10.1861     51.6728      8.2991    137.8602
  1860.2500     10.3857     51.6443      8.3082    139.6811
  1860.5000     10.5915     51.6424      8.3557    143.1134
  1860.7500     10.7621     51.6626      8.4455    144.9365
  1861.0000     10.8786     51.7060      8.5794    145.2760
  1861.2500     10.9431     51.7776      8.7545    143.3802
  1861.5000     10.9651     51.8855      8.9618    137.7484
  1861.7500     10.9521     52.0395      9.1858    132.7693
  1862.0000     10.9143     52.2482      9.4067    124.3019
  1862.2500     10.8790     52.5173      9.6043    118.3764
  1862.5000     10.8916     52.8476      9.7638    110.3790
  1862.7500     10.9970     53.2344      9.8786    106.8340
  1863.0000     11.2134     53.6675      9.9487    105.8090
  1863.2500     11.5167     54.1318      9.9778    108.0545
  1863.5000     11.8441     54.6095      9.9699    114.6554
  1863.7500     12.1159     55.0818      9.9275    120.3037
  1864.0000     12.2653     55.5308      9.8522    129.2247
  1864.2500     12.2631     55.9408      9.7463    134.8577
