~Version Information
VERS.                      2.0: CWLS Log ASCII Standard - VERSION 2.0
WRAP.                       NO: One line per depth step
~Well Information Block
STRT.FT               240.0000: 
STOP.FT              1338.7000: 
STEP.FT                 0.1000: 
NULL.                -999.2500: 
COMP.          Pioneer Natural Resources: COMPANY
WELL.            Hamburg 43-35: WELL
FLD.           Purgatoire River: FIELD
LOC.           2444' FSL & 950' FEL--: LOCATION
PROV.                 Colorado: PROVINCE
CNTY.               Las Animas: COUNTRY
SRVC.                Patterson: SERVICE COMPANY
DATE.          Sun Dec 04 11:50:58 2005: LOG DATE
UWI.           05 071 08607 00: UNIQUE WELL ID
~Curve Information Block
DEPT.FT            0 000 00 00: Depth
DCAL.in                       : CDL Caliper
RHOB.g/cc                     : CDL Bulk Density
RHOC.g/cc                     : CDL Density Correction
DPOR.pu                       : CDL Density Porosity
NPOR.pu                       : Neutron Porosity
GR.GAPI                       : Gamma Ray
~Parameter Information Block
~A  Depth       DCAL        RHOB        RHOC        DPOR        NPOR         GR     
# ...
   806.4000      8.0134      2.3130     -0.0129     20.4227     12.1438     61.8056
   806.5000      8.0130      2.3117      0.0111     20.5019     11.3994     61.7745
   806.6000      8.0130      2.3213      0.0330     19.9194     10.9313     58.4252
   806.7000      8.0130      2.3361      0.0096     19.0230     11.0156     54.3832
   806.8000      8.0123      2.3550      0.0907     17.8785     11.4934     54.6849
   806.9000      8.0123      2.3706      0.0430     16.9338     11.8554     58.2168
   807.0000      8.0130      2.3794      0.0585     16.4018     11.8272     60.4532
   807.1000      8.0130      2.3817      0.0538     16.2611     11.5486     59.7979
   807.2000      8.0130      2.3780      0.0491     16.4820     11.3955     57.5823
   807.3000      8.0149      2.3719      0.0385     16.8551     11.4648     55.1576
   807.4000      8.0149      2.3650      0.0735     17.2715     11.6466     53.2350
   807.5000      8.0159      2.3557      0.0400     17.8354     11.9770     52.0902
   807.6000      8.0159      2.3503      0.0170     18.1616     12.2915     51.6495
   807.7000      8.0159      2.3565      0.0162     17.7893     12.1348     51.9373
   807.8000      8.0181      2.3695      0.0515     16.9974     11.6756     53.3325
   807.9000      8.0181      2.3831      0.0463     16.1773     11.4759     54.8411
   808.0000      8.0200      2.3926      0.0865     15.6019     11.4647     53.8996
   808.1000      8.0200      2.3963      0.0527     15.3764     11.3004     52.0505
   808.2000      8.0200      2.4053      0.0622     14.8306     11.0376     51.3866
   808.3000      8.0177      2.4302      0.0526     13.3195     10.7531     51.6837
   808.4000      8.0177      2.4633      0.1121     11.3156     10.3885     53.8871
   808.5000      8.0144      2.4894      0.0887      9.7361     10.0264     56.6899
   808.6000      8.0144      2.5020      0.1098      8.9692      9.9339     57.5722
   808.7000      8.0144      2.5059      0.0899      8.7305     10.3540     57.6218
   808.8000      8.0137      2.5153      0.0724      8.1655     11.2784     56.4192
   808.9000      8.0137      2.5365      0.0981      6.8810     12.1065     52.0609
   809.0000      8.0178      2.5589      0.1022      5.5190     12.3482     46.9752
   809.1000      8.0178      2.5637      0.1540      5.2288     12.2132     44.9420
   809.2000      8.0178      2.5383      0.0880      6.7672     11.9051     47.5099
   809.3000      8.0237      2.4975      0.0329      9.2400     11.6100     52.3958
   809.4000      8.0237      2.4667      0.0105     11.1065     11.4221     54.8051
   809.5000      8.0295      2.4484      0.0199     12.2171     11.2658     53.8741
   809.6000      8.0295      2.4327      0.0076     13.1707     11.1586     53.9247
   809.7000      8.0295      2.4231      0.0016     13.7537     11.2228     57.9438
   809.8000      8.0361      2.4271      0.0161     13.5107     11.3919     61.7140
   809.9000      8.0361      2.4367      0.0301     12.9279     11.4105     60.2314
   810.0000      8.0378      2.4389      0.0607     12.7956     11.3068     55.8024
   810.1000      8.0378      2.4322      0.0940     13.2027     11.3321     53.1008
   810.2000      8.0378      2.4228      0.0598     13.7717     11.4846     52.8594
   810.3000      8.0316      2.4184      0.0444     14.0334     11.6697     53.5045
   810.4000      8.0316      2.4223      0.0469     13.8002     11.7930     54.3675
   810.5000      8.0212      2.4326      0.0396     13.1749     11.8430     54.6581
   810.6000      8.0212      2.4404      0.0847     12.7034     12.1117     53.5486
   810.7000      8.0212      2.4347      0.0515     13.0498     12.7641     54.0654
   810.8000      8.0143      2.4168      0.0389     14.1305     13.5768     57.1525
   810.9000      8.0143      2.3970     -0.0011     15.3351     14.2076     59.1869
   811.0000      8.0125      2.3897     -0.0321     15.7748     14.4698     60.4496
   811.1000      8.0125      2.4042      0.0326     14.8998     14.7135     63.3203
   811.2000      8.0125      2.4304      0.0376     13.3067     15.2498     68.0168
   811.3000      8.0122      2.4522      0.0716     11.9881     15.7611     74.6423
   811.4000      8.0122      2.4643      0.0666     11.2570     16.1157     81.5292
   811.5000      8.0109      2.4714      0.0752     10.8262     16.4851     87.2684
   811.6000      8.0109      2.4755      0.0890     10.5728     17.0450     94.5997
   811.7000      8.0109      2.4819      0.0595     10.1865     17.8156    106.5180
   811.8000      8.0114      2.5065      0.0431      8.6966     18.7224    120.7765
   811.9000      8.0114      2.5486      0.0958      6.1456     19.7797    129.7418
   812.0000      8.0150      2.5804      0.1092      4.2208     20.8349    131.2844
   812.1000      8.0150      2.5892      0.0837      3.6819     21.5599    131.7457
   812.2000      8.0150      2.5901      0.0774      3.6318     21.9471    135.3500
   812.3000      8.0192      2.5992      0.0579      3.0772     22.4963    141.2027
   812.4000      8.0192      2.6238      0.0263      1.5871     23.1909    144.7061
   812.5000      8.0182      2.6516      0.1165     -0.0947     23.3797    145.5303
   812.6000      8.0182      2.6582      0.1033     -0.4979     23.0815    148.1835
   812.7000      8.0182      2.6460      0.0459      0.2397     22.8668    150.4498
   812.8000      8.0127      2.6330      0.0792      1.0327     22.9547    149.3364
   812.9000      8.0127      2.6182      0.0891      1.9296     23.1386    147.1534
   813.0000      8.0078      2.6035      0.0400      2.8157     23.2432    143.8782
   813.1000      8.0078      2.6017      0.0577      2.9283     23.4788    139.5448
   813.2000      8.0078      2.6106      0.0264      2.3882     23.9203    136.2427
   813.3000      8.0034      2.6138      0.0930      2.1968     24.1236    134.1615
   813.4000      8.0034      2.6027      0.0231      2.8665     23.9177    133.5900
   813.5000      7.9999      2.5870      0.0512      3.8201     23.6802    133.5573
   813.6000      7.9999      2.5764      0.0055      4.4578     23.4151    132.4418
   813.7000      7.9999      2.5797      0.0057      4.2621     22.9793    130.9127
   813.8000      7.9982      2.5938      0.0477      3.4054     22.7742    127.3054
   813.9000      7.9982      2.6008      0.0675      2.9803     23.0793    121.7172
   814.0000      7.9968      2.5970      0.0205      3.2103     23.5630    118.2128
   814.1000      7.9968      2.5947      0.0285      3.3523     23.9156    118.2077
   814.2000      7.9968      2.5939      0.0020      3.3981     23.8285    119.5632
   814.3000      7.9949      2.5888      0.0106      3.7085     23.1356    121.2681
   814.4000      7.9949      2.5858      0.0178      3.8913     22.3431    121.6349
   814.5000      7.9955      2.5919      0.0115      3.5229     22.0975    118.3632
   814.6000      7.9955      2.6021      0.0338      2.9026     22.2749    115.1364
   814.7000      7.9955      2.6085      0.0344      2.5140     22.2762    117.0722
   814.8000      7.9967      2.6091      0.0501      2.4795     22.1010    121.7955
   814.9000      7.9967      2.6074      0.0259      2.5812     21.9999    123.3497
   815.0000      7.9970      2.6050      0.0333      2.7262     21.9235    119.6782
   815.1000      7.9970      2.5972      0.0159      3.2030     21.6472    113.3386
   815.2000      7.9970      2.5878      0.0162      3.7684     21.2564    106.5941
   815.3000      7.9996      2.5870      0.0018      3.8167     21.2696    102.6894
   815.4000      7.9996      2.5899      0.0558      3.6434     21.8056    103.4159
   815.5000      8.0048      2.5867      0.0131      3.8390     22.2372    104.0372
   815.6000      8.0048      2.5791      0.0384      4.2996     21.9129    102.7503
   815.7000      8.0048      2.5706      0.0294      4.8135     20.7740    104.3178
   815.8000      8.0049      2.5690      0.0131      4.9073     19.6725    106.0365
   815.9000      8.0049      2.5813      0.0221      4.1656     19.5093    102.3991
