~Version Information
VERS.                      2.0: CWLS Log ASCII Standard - VERSION 2.0
WRAP.                       NO: One line per depth step
~Well Information Block
STRT.FT                -7.5000: 
STOP.FT              1517.5000: 
STEP.FT                 0.2500: 
NULL.                -999.2500: 
COMP.          Pioneer Natural Resources: COMPANY
WELL.          McClaren 13-34 Tr: WELL
FLD.           Purgatorie River: FIELD
LOC.           1934' FSL & 826' WL--: LOCATION
PROV.                       CO: PROVINCE
CNTY.               Las Animas: COUNTRY
SRVC.          Patterson Wireline: SERVICE COMPANY
DATE.          Fri Jul 15 13:10:35 2005: LOG DATE
UWI.           05 071 08437 00: UNIQUE WELL ID
~Curve Information Block
DEPT.FT            0 000 00 00: Depth
CCL.                          : Casing Collar Locator
TT3.usec                      : CBL 3' Travel Time
AMP3.mV                       : CBL 3' Amplitude
GR.GAPI                       : Gamma Ray
~Parameter Information Block
~A  Depth       CCL         TT3         AMP3         GR     
# ...
  1198.5000      0.0000    345.5078     10.3141    126.5980
  1198.7500      0.0000    367.3488     10.0997    128.9234
  1199.0000      0.0000    407.9864      9.7415    133.1619
  1199.2500      0.0000    464.3638      9.2698    137.3628
  1199.5000      0.0000    523.9858      8.7908    139.5230
  1199.7500      0.0000    571.9903      8.4306    139.0958
  1200.0000      0.0000    601.4340      8.2460    136.9931
  1200.2500      0.0000    613.7239      8.1950    134.2653
  1200.5000      2.0000    610.7273      8.1963    131.0851
  1200.7500      2.0000    593.2347      8.1911    127.3742
  1201.0000      0.0000    568.6520      8.1514    124.3312
  1201.2500      0.0000    554.0091      8.0722    124.4064
  1201.5000      0.0000    565.5024      7.9878    128.9620
  1201.7500      0.0000    604.5042      7.9811    136.4518
  1202.0000      0.0000    656.0997      8.1498    143.7363
  1202.2500      0.0000    701.2988      8.5486    148.8467
  1202.5000      0.0000    728.5895      9.1396    151.6744
  1202.7500      0.0000    734.4207      9.7879    152.4280
  1203.0000      0.0000    717.7087     10.3293    150.7041
  1203.2500      0.0000    679.9579     10.6714    146.4323
  1203.5000      0.0000    632.0814     10.8313    141.0746
  1203.7500      0.0000    595.5934     10.8830    137.2529
  1204.0000      0.0000    589.1252     10.8892    136.8464
  1204.2500      0.0000    611.7018     10.8792    139.3169
  1204.5000      0.0000    642.0565     10.8644    142.1467
  1204.7500      0.0000    654.1212     10.8503    142.8935
  1205.0000      0.0000    632.2621     10.8406    140.3762
  1205.2500      0.0000    577.3453     10.8425    134.1712
  1205.5000      0.0000    505.0375     10.8680    124.3255
  1205.7500      0.0000    436.8761     10.9216    112.1620
  1206.0000      0.0000    387.6327     10.9856    100.3952
  1206.2500      0.0000    358.9612     11.0298     91.4584
  1206.5000      0.0000    343.8572     11.0380     85.7348
  1206.7500      0.0000    334.9906     11.0262     81.7207
  1207.0000      0.0000    328.8367     11.0401     77.7965
  1207.2500      0.0000    325.0074     11.1307     73.6737
  1207.5000      0.0000    324.6877     11.3125     70.4467
  1207.7500      0.0000    330.6127     11.5297     69.5905
  1208.0000      0.0000    346.2486     11.6754     71.7607
  1208.2500      0.0000    371.2763     11.6709     76.2313
  1208.5000      0.0000    396.9466     11.5371     81.3355
  1208.7500      0.0000    409.7786     11.3787     85.4069
  1209.0000      0.0000    403.2563     11.2933     87.6509
  1209.2500      0.0000    384.1194     11.3013     88.8376
  1209.5000      0.0000    365.0186     11.3609     91.3581
  1209.7500      0.0000    353.3530     11.4274     98.0100
  1210.0000      0.0000    348.7098     11.4849    110.0528
  1210.2500      0.0000    347.6120     11.5316    126.0880
  1210.5000      0.0000    347.5781     11.5574    142.7628
  1210.7500      0.0000    347.7231     11.5441    156.7132
  1211.0000      0.0000    347.9106     11.4824    166.1873
  1211.2500      0.0000    348.1566     11.3827    171.1874
  1211.5000      0.0000    348.4418     11.2678    172.3114
  1211.7500      0.0000    348.8419     11.1604    169.6879
  1212.0000      0.0000    349.9817     11.0775    163.2205
  1212.2500      0.0000    353.9949     11.0263    153.6132
  1212.5000      0.0000    365.7405     10.9992    142.7492
  1212.7500      0.0000    392.6877     10.9809    132.9900
  1213.0000      0.0000    441.0822     10.9664    125.9090
  1213.2500      0.0000    509.1625     10.9662    121.4513
  1213.5000      0.0000    583.7686     10.9915    118.4919
  1213.7500      0.0000    645.7988     11.0394    116.3761
  1214.0000      0.0000    679.8263     11.0975    115.5519
  1214.2500      0.0000    678.5723     11.1562    116.5725
  1214.5000      0.0000    642.0110     11.2115    119.0721
  1214.7500      0.0000    577.7552     11.2597    122.1481
  1215.0000      0.0000    502.0689     11.2959    125.3004
  1215.2500      0.0000    434.5223     11.3167    128.4359
  1215.5000      0.0000    387.7187     11.3219    131.2313
  1215.7500      0.0000    362.3483     11.3127    133.2462
  1216.0000      0.0000    351.5471     11.2883    134.7513
  1216.2500      0.0000    347.9861     11.2454    136.7828
  1216.5000      0.0000    347.3354     11.1861    139.8429
  1216.7500      0.0000    348.2678     11.1238    142.9230
  1217.0000      0.0000    352.0047     11.0727    144.3410
  1217.2500      0.0000    362.8566     11.0293    143.3405
  1217.5000      0.0000    388.0300     10.9742    140.7003
  1217.7500      0.0000    433.2685     10.8963    138.2266
  1218.0000      0.0000    494.2836     10.8101    137.6222
  1218.2500      0.0000    552.7239     10.7413    139.0867
  1218.5000      0.0000    586.9402     10.6992    140.7243
  1218.7500      0.0000    591.8662     10.6696    139.6984
  1219.0000      0.0000    585.9163     10.6300    134.1315
  1219.2500      0.0000    593.8868     10.5621    123.9692
  1219.5000      0.0000    624.2826     10.4508    110.6120
  1219.7500      0.0000    666.0005     10.2897     96.3086
  1220.0000      0.0000    703.1500     10.0913     83.5658
  1220.2500      0.0000    727.4876      9.8832     74.3158
  1220.5000      0.0000    739.1735      9.6904     69.1948
  1220.7500      0.0000    742.6560      9.5299     67.6295
  1221.0000      0.0000    743.4919      9.4175     68.4101
  1221.2500      0.0000    745.7961      9.3635     70.0766
  1221.5000      0.0000    750.7452      9.3533     71.2712
  1221.7500      0.0000    757.5683      9.3501     71.2951
  1222.0000      0.0000    765.2274      9.3234     70.3898
  1222.2500      0.0000    772.4233      9.2714     69.2952
  1222.5000      0.0000    776.9966      9.2124     68.4412
  1222.7500      0.0000    776.8782      9.1596     67.4981
  1223.0000      0.0000    772.0385      9.1105     65.6938
  1223.2500      0.0000    764.7736      9.0600     62.6702
  1223.5000      0.0000    757.5565      9.0156     59.1559
  1223.7500      0.0000    750.9460      8.9924     56.8306
  1224.0000      0.0000    743.8118      8.9937     57.5229
  1224.2500      0.0000    735.3235      9.0053     62.4431
  1224.5000      0.0000    726.6129      9.0136     71.7116
  1224.7500      0.0000    720.5322      9.0250     84.1626
  1225.0000      0.0000    719.5962      9.0601     97.6873
  1225.2500      0.0000    723.8530      9.1343    110.0762
  1225.5000      0.0000    730.8682      9.2494    119.5942
  1225.7500      0.0000    737.9271      9.4019    125.1850
  1226.0000      0.0000    744.0889      9.5849    126.8943
  1226.2500      0.0000    749.9540      9.7759    126.0474
  1226.5000      0.0000    755.9474      9.9376    124.2721
  1226.7500      0.0000    761.5649     10.0389    122.2874
  1227.0000      0.0000    766.2366     10.0706    119.9237
  1227.2500      0.0000    770.0580     10.0385    116.8090
  1227.5000      0.0000    773.2096      9.9551    112.6959
  1227.7500      0.0000    774.9250      9.8438    107.7751
  1228.0000      0.0000    773.5215      9.7349    103.1446
  1228.2500      0.0000    767.7595      9.6452    100.5943
  1228.5000      0.0000    758.1909      9.5687    101.4475
  1228.7500      0.0000    746.9928      9.4930    105.3887
  1229.0000      0.0000    736.4508      9.4187    110.5571
  1229.2500      0.0000    727.7183      9.3630    115.0792
  1229.5000      0.0000    720.9257      9.3447    118.4372
  1229.7500      0.0000    715.9688      9.3674    121.2025
  1230.0000      0.0000    712.8469      9.4130    123.7447
  1230.2500      0.0000    711.6895      9.4546    125.6115
  1230.5000      0.0000    713.0082      9.4762    126.0387
  1230.7500      0.0000    717.6359      9.4816    124.7722
  1231.0000      0.0000    725.4932      9.4879    122.4798
  1231.2500      0.0000    734.0867      9.5139    120.6449
  1231.5000      0.0000    739.1154      9.5658    120.9112
  1231.7500      0.0000    737.6296      9.6280    123.9556
