~Version Information
VERS.                      2.0: CWLS Log ASCII Standard - VERSION 2.0
WRAP.                       NO: One line per depth step
~Well Information Block
STRT.FT                -7.2500: 
STOP.FT              1273.5000: 
STEP.FT                 0.2500: 
NULL.                -999.2500: 
COMP.          Pioneer Natural Resources: COMPANY
WELL.            Keiko 14-6 Tr: WELL
FLD.           Purgatorie River: FIELD
LOC.           462' FSL & 1202' FWL--: LOCATION
PROV.                       CO: PROVINCE
CNTY.               Las Animas: COUNTRY
SRVC.          Patterson Wireline: SERVICE COMPANY
DATE.          Wed Jan 04 09:22:19 2006: LOG DATE
UWI.           05 071 08629 00: UNIQUE WELL ID
~Curve Information Block
DEPT.FT            0 000 00 00: Depth
CCL.                          : Casing Collar Locator
TT3.usec                      : CBL 3' Travel Time
AMP3.mV                       : CBL 3' Amplitude
GR.GAPI                       : Gamma Ray
~Parameter Information Block
~A  Depth       CCL         TT3         AMP3         GR     
# ...
   662.7500      0.0000    743.2269     11.7348    129.7577
   663.0000      0.0000    743.0489     11.7432    128.9231
   663.2500      0.0000    740.6121     11.7400    127.8865
   663.5000      0.0000    736.8214     11.7309    125.4868
   663.7500      0.0000    732.5406     11.7284    122.4496
   664.0000      0.0000    729.1353     11.7436    120.8607
   664.2500      0.0000    727.8104     11.7796    121.8058
   664.5000      0.0000    728.0085     11.8245    124.3423
   664.7500      0.0000    728.0561     11.8477    127.1975
   665.0000      0.0000    727.5709     11.8154    130.4939
   665.2500      0.0000    727.4909     11.7193    134.9170
   665.5000      0.0000    727.9525     11.5882    139.7684
   665.7500      0.0000    728.3455     11.4721    142.9498
   666.0000      0.0000    729.5451     11.4151    142.9086
   666.2500      0.0000    733.7553     11.4360    140.0126
   666.5000      0.0000    741.5082     11.5226    136.0091
   666.7500      0.0000    750.3983     11.6450    132.6325
   667.0000      0.0000    757.2963     11.7773    130.8147
   667.2500      0.0000    760.7523     11.9063    130.7330
   667.5000      0.0000    761.1303     12.0237    132.1462
   667.7500      0.0000    759.6060     12.1167    134.6702
   668.0000      0.0000    757.5592     12.1693    137.7571
   668.2500      0.0000    756.0653     12.1733    140.3848
   668.5000      0.0000    754.9700     12.1380    141.2052
   668.7500      0.0000    752.5018     12.0859    139.5690
   669.0000      0.0000    746.6056     12.0336    136.3618
   669.2500      0.0000    737.1946     11.9807    133.4196
   669.5000      0.0000    726.9998     11.9165    132.0868
   669.7500      0.0000    719.8824     11.8364    132.4417
   670.0000      0.0000    718.1984     11.7495    133.7207
   670.2500      0.0000    721.4625     11.6755    135.1516
   670.5000      0.0000    726.7848     11.6313    136.2727
   670.7500      0.0000    730.6747     11.6206    136.8400
   671.0000      0.0000    731.7130     11.6311    136.8817
   671.2500      0.0000    731.9625     11.6403    136.6678
   671.5000      0.0000    734.8466     11.6262    136.2732
   671.7500      0.0000    741.3342     11.5812    135.4776
   672.0000      0.0000    748.9114     11.5194    134.3199
   672.2500      0.0000    754.1885     11.4716    133.1600
   672.5000      0.0000    755.6752     11.4693    132.0509
   672.7500      0.0000    754.1134     11.5280    130.8097
   673.0000      0.0000    751.1116     11.6366    129.8609
   673.2500      0.0000    748.0735     11.7613    130.1803
   673.5000      0.0000    746.2734     11.8664    132.0246
   673.7500      0.0000    747.0018     11.9339    134.1936
   674.0000      0.0000    750.6887     11.9683    134.9969
   674.2500      0.0000    756.0723     11.9905    134.0470
   674.5000      0.0000    761.0206     12.0268    132.8010
   674.7500      0.0000    763.9900     12.0915    132.8734
   675.0000      0.0000    764.1937     12.1706    133.9869
   675.2500      0.0000    760.9753     12.2283    134.3429
   675.5000      0.0000    754.1772     12.2365    132.9612
   675.7500      0.0000    745.4285     12.1979    130.7534
   676.0000      0.0000    738.3660     12.1418    129.1174
   676.2500      0.0000    736.7165     12.1000    128.1516
   676.5000      0.0000    741.4122     12.0794    126.6192
   676.7500      0.0000    749.2756     12.0487    123.4664
   677.0000      0.0000    755.0345     11.9588    119.1927
   677.2500      0.0000    755.3093     11.7846    115.5866
   677.5000      0.0000    751.1209     11.5452    114.1366
   677.7500      0.0000    747.0905     11.2823    114.9598
   678.0000      0.0000    748.1896     11.0296    117.0983
   678.2500      0.0000    756.3233     10.8031    119.1850
   678.5000      0.0000    769.2886     10.6055    119.7041
   678.7500      0.0000    782.7642     10.4339    117.4368
   679.0000      0.0000    793.2955     10.2901    112.1845
   679.2500      0.0000    799.7570     10.1909    104.6864
   679.5000      0.0000    802.7942     10.1646     95.5749
   679.7500      0.0000    803.2047     10.2350     84.8802
   680.0000      0.0000    800.1330     10.4093     72.7513
   680.2500      0.0000    789.6738     10.6793     60.1839
   680.5000      0.0000    765.2370     11.0260     48.7836
   680.7500      0.0000    721.9978     11.4271     39.9577
   681.0000      0.0000    663.5692     11.8673     34.2943
   681.2500      0.0000    602.2775     12.3402     31.5496
   681.5000      0.0000    548.7532     12.8391     31.1507
   681.7500      0.0000    502.8195     13.3483     32.5789
   682.0000      0.0000    458.8731     13.8429     35.2586
   682.2500      0.0000    417.4742     14.2874     38.3542
   682.5000      0.0000    386.4876     14.6295     41.0961
   682.7500      0.0000    373.3288     14.8077     43.6482
   683.0000      0.0000    381.4101     14.7834     47.6267
   683.2500      0.0000    412.9854     14.5754     55.1630
   683.5000      0.0000    469.8222     14.2586     66.8993
   683.7500      0.0000    547.5931     13.9256     80.9652
   684.0000      0.0000    631.1140     13.6447     94.2265
   684.2500      0.0000    699.5797     13.4446    104.5114
   684.5000      0.0000    739.2420     13.3240    111.6060
   684.7500      0.0000    751.0928     13.2606    116.4765
   685.0000      0.0000    746.9371     13.2081    120.0472
   685.2500      0.0000    739.6063     13.1021    122.9355
   685.5000      0.0000    736.1311     12.8945    125.9583
   685.7500      0.0000    737.1698     12.5891    129.9327
   686.0000      0.0000    740.1110     12.2368    134.4569
   686.2500      0.0000    742.0549     11.8949    137.4928
   686.5000      0.0000    741.3734     11.5978    137.0312
   686.7500      0.0000    738.4868     11.3612    133.1597
   687.0000      0.0000    735.8721     11.2002    128.1044
   687.2500      0.0000    736.3530     11.1296    124.3537
   687.5000      0.0000    740.5926     11.1492    122.9777
   687.7500      0.0000    746.3315     11.2372    123.4352
   688.0000      0.0000    750.2518     11.3621    124.6831
   688.2500      0.0000    750.7201     11.5007    126.3924
   688.5000      0.0000    749.0593     11.6422    128.9497
   688.7500      0.0000    748.2629     11.7806    132.3970
   689.0000      0.0000    750.2337     11.9078    135.8919
   689.2500      0.0000    754.2340     12.0151    138.3766
   689.5000      0.0000    757.9485     12.0997    139.3690
   689.7500      0.0000    759.4484     12.1643    138.9632
   690.0000      0.0000    757.9896     12.2119    137.4234
   690.2500      0.0000    753.8867     12.2437    135.0067
   690.5000      0.0000    748.2852     12.2646    131.9851
   690.7500      0.0000    742.4409     12.2834    128.4971
   691.0000      0.0000    736.7094     12.3049    124.3583
   691.2500      0.0000    730.8594     12.3222    119.3896
   691.5000      0.0000    725.6083     12.3236    114.2355
   691.7500      0.0000    722.8947     12.3061    110.5024
   692.0000      0.0000    724.4343     12.2798    109.7355
   692.2500      0.0000    730.7290     12.2587    112.2712
   692.5000      0.0000    741.0458     12.2483    117.0477
   692.7500      0.0000    753.2612     12.2434    122.2508
   693.0000      0.0000    763.9882     12.2337    126.1469
   693.2500      0.0000    769.8542     12.2135    127.6756
   693.5000      0.0000    769.0466     12.1885    126.6680
   693.7500      0.0000    761.8748     12.1725    123.8285
   694.0000      0.0000    750.5196     12.1749    120.4984
   694.2500      0.0000    738.4291     12.1911    118.1460
   694.5000      0.0000    729.0148     12.2108    117.6828
   694.7500      0.0000    723.5967     12.2310    119.0004
   695.0000      0.0000    720.2136     12.2592    121.0634
   695.2500      0.0000    714.1701     12.3028    122.7057
   695.5000      0.0000    700.1810     12.3578    123.7756
   695.7500      0.0000    675.8496     12.4062    125.3660
   696.0000      0.0000    645.3725     12.4252    128.4605
