~Version Information
VERS.                      2.0: CWLS Log ASCII Standard - VERSION 2.0
WRAP.                       NO: One line per depth step
~Well Information Block
STRT.FT               538.0000: 
STOP.FT              1769.0000: 
STEP.FT                 0.1000: 
NULL.                -999.2500: 
COMP.          Pioneer Natural Resources: COMPANY
WELL.            Dude 43-34 Tr: WELL
FLD.           Purgatoire River: FIELD
LOC.           2083' FSL & 1042' FEL: LOCATION
PROV.                 Colorado: PROVINCE
CNTY.               Las Animas: COUNTRY
SRVC.                Patterson: SERVICE COMPANY
DATE.          Thu Jan 26 07:02:09 2006: LOG DATE
UWI.           05 071 08676 00: UNIQUE WELL ID
~Curve Information Block
DEPT.FT            0 000 00 00: Depth
DCAL.in                       : CDL Caliper
RHOB.g/cc                     : CDL Bulk Density
RHOC.g/cc                     : CDL Density Correction
DPOR.pu                       : CDL Density Porosity
GR.GAPI                       : Gamma Ray
~Parameter Information Block
~A  Depth       DCAL        RHOB        RHOC        DPOR         GR     
# ...
  1109.2000      7.9684      2.6620      0.2086     -0.7244    134.1814
  1109.3000      7.9828      2.6849      0.1432     -2.1155    133.9479
  1109.4000      7.9828      2.6978      0.2221     -2.8973    133.4156
  1109.5000      7.9869      2.6858      0.1728     -2.1707    129.3057
  1109.6000      7.9869      2.6556      0.1077     -0.3408    122.1104
  1109.7000      7.9869      2.6338      0.0682      0.9832    115.2801
  1109.8000      8.0036      2.6309      0.0450      1.1572    108.5915
  1109.9000      8.0036      2.6287      0.0954      1.2902    100.5894
  1110.0000      7.9590      2.6151      0.0710      2.1159     93.9142
  1110.1000      7.9590      2.6020      0.0539      2.9114     89.3825
  1110.2000      7.9590      2.5865      0.0822      3.8492     86.3180
  1110.3000      7.9188      2.5535      0.0063      5.8471     84.8948
  1110.4000      7.9188      2.5149     -0.0204      8.1887     84.1484
  1110.5000      7.9156      2.4850      0.0125     10.0003     87.4433
  1110.6000      7.9156      2.4614      0.0079     11.4312     97.3731
  1110.7000      7.9156      2.4479      0.0186     12.2507    110.2194
  1110.8000      7.9263      2.4611      0.0394     11.4492    122.6217
  1110.9000      7.9263      2.5061      0.1255      8.7215    134.1847
  1111.0000      7.9480      2.5515      0.1989      5.9721    142.9475
  1111.1000      7.9480      2.5611      0.2322      5.3850    145.6094
  1111.2000      7.9480      2.5383      0.2040      6.7699    145.1164
  1111.3000      7.9318      2.5173      0.1972      8.0400    145.8469
  1111.4000      7.9318      2.5195      0.2415      7.9102    145.7052
  1111.5000      7.9369      2.5271      0.3038      7.4488    144.9085
  1111.6000      7.9369      2.5063      0.3234      8.7068    147.4747
  1111.7000      7.9369      2.4425      0.2617     12.5785    150.8063
  1111.8000      7.9194      2.3544      0.2059     17.9128    149.0576
  1111.9000      7.9194      2.2734      0.1683     22.8244    143.7607
  1112.0000      7.9278      2.2006      0.2097     27.2354    140.1772
  1112.1000      7.9278      2.1222      0.1020     31.9870    137.9959
  1112.2000      7.9278      2.0515      0.0742     36.2741    134.0261
  1112.3000      7.9607      2.0100      0.0588     38.7891    132.8267
  1112.4000      7.9607      2.0012      0.0506     39.3215    139.3763
  1112.5000      7.9846      2.0138      0.1718     38.5585    147.2785
  1112.6000      7.9846      2.0324      0.1966     37.4274    146.6515
  1112.7000      7.9846      2.0483      0.2073     36.4676    136.3662
  1112.8000      8.0112      2.0593      0.2194     35.8017    125.4075
  1112.9000      8.0112      2.0687      0.2130     35.2302    120.5876
  1113.0000      8.0274      2.0825      0.1807     34.3937    119.2495
  1113.1000      8.0274      2.1030      0.1584     33.1544    115.7628
  1113.2000      8.0274      2.1356      0.0873     31.1732    111.2933
  1113.3000      8.0435      2.1911      0.1058     27.8102    111.7776
  1113.4000      8.0435      2.2688      0.2082     23.1005    118.7386
  1113.5000      8.1377      2.3530      0.2020     17.9985    125.5655
  1113.6000      8.1377      2.4206      0.2605     13.9028    124.5234
  1113.7000      8.1377      2.4567      0.2079     11.7163    120.7526
  1113.8000      8.0010      2.4663      0.1654     11.1349    122.5820
  1113.9000      8.0010      2.4685      0.0755     10.9996    123.1568
  1114.0000      7.9976      2.4881      0.1071      9.8099    111.8979
  1114.1000      7.9976      2.5333      0.1408      7.0725     93.8640
  1114.2000      7.9976      2.5842      0.2211      3.9891     82.1054
  1114.3000      7.9145      2.6155      0.2149      2.0886     79.2191
  1114.4000      7.9145      2.6309      0.1850      1.1576     78.9275
  1114.5000      7.8634      2.6536      0.1835     -0.2185     76.7263
  1114.6000      7.8634      2.6831      0.2019     -2.0076     75.2145
  1114.7000      7.8634      2.6990      0.2612     -2.9683     76.9397
  1114.8000      7.8597      2.6963      0.2010     -2.8036     78.4906
  1114.9000      7.8597      2.6836      0.1960     -2.0385     77.8902
  1115.0000      7.8692      2.6667      0.1423     -1.0123     77.5465
  1115.1000      7.8692      2.6492      0.1330      0.0488     79.0246
  1115.2000      7.8692      2.6302      0.1272      1.1991     82.3627
  1115.3000      7.9140      2.6121      0.1259      2.2996     85.8725
  1115.4000      7.9140      2.6031      0.1163      2.8428     87.8109
  1115.5000      7.9090      2.5954      0.1412      3.3098     87.1149
  1115.6000      7.9090      2.5729      0.1368      4.6756     86.3015
  1115.7000      7.9090      2.5517      0.0605      5.9592     90.0731
  1115.8000      7.9164      2.5741      0.0468      4.5991     96.9981
  1115.9000      7.9164      2.6463      0.0872      0.2233    102.8673
  1116.0000      7.9253      2.7211      0.1039     -4.3119    105.7655
  1116.1000      7.9253      2.7584      0.1622     -6.5721    106.2325
  1116.2000      7.9253      2.7640      0.1481     -6.9078    106.9595
  1116.3000      7.9432      2.7642      0.1542     -6.9187    107.7743
  1116.4000      7.9432      2.7713      0.2021     -7.3523    105.0596
  1116.5000      7.9406      2.7825      0.1385     -8.0292    101.4960
  1116.6000      7.9406      2.7877      0.0860     -8.3434    103.4361
  1116.7000      7.9406      2.7744      0.0293     -7.5369    109.1937
  1116.8000      7.9272      2.7402     -0.0104     -5.4686    114.0503
  1116.9000      7.9272      2.7084     -0.0830     -3.5384    116.4762
  1117.0000      7.9246      2.7108      0.0211     -3.6846    116.3211
  1117.1000      7.9246      2.7396      0.1096     -5.4331    112.5392
  1117.2000      7.9246      2.7614      0.1174     -6.7522    106.8120
  1117.3000      8.0154      2.7620      0.0572     -6.7876    101.4054
  1117.4000      8.0154      2.7469      0.0525     -5.8747     97.2498
  1117.5000      8.0149      2.7285      0.0406     -4.7583     94.9629
  1117.6000      8.0149      2.7123      0.0730     -3.7781     91.9393
  1117.7000      8.0149      2.6932      0.0029     -2.6183     89.1768
  1117.8000      7.9614      2.6699      0.0553     -1.2084     91.3384
  1117.9000      7.9614      2.6441      0.0896      0.3606     98.0354
  1118.0000      7.9834      2.6116      0.1079      2.3252    104.5906
  1118.1000      7.9834      2.5727      0.0556      4.6825    108.8104
  1118.2000      7.9834      2.5440      0.0377      6.4234    112.2209
  1118.3000      7.9309      2.5433      0.0428      6.4650    117.6019
  1118.4000      7.9309      2.5648      0.0937      5.1634    122.7994
  1118.5000      7.9728      2.5872      0.1207      3.8069    124.0976
  1118.6000      7.9728      2.5973      0.0981      3.1918    122.8098
  1118.7000      7.9728      2.5923      0.1199      3.4977    121.8301
  1118.8000      7.9961      2.5814      0.0865      4.1564    124.8422
  1118.9000      7.9961      2.5802      0.1068      4.2301    132.9238
  1119.0000      7.9751      2.5945      0.1372      3.3655    138.3490
  1119.1000      7.9751      2.6215      0.1182      1.7279    134.9496
  1119.2000      7.9751      2.6445      0.1653      0.3357    128.3241
  1119.3000      7.9853      2.6433      0.1043      0.4055    125.9296
  1119.4000      7.9853      2.6249      0.1248      1.5222    128.3283
  1119.5000      7.9886      2.6048      0.1263      2.7403    131.1187
  1119.6000      7.9886      2.5824      0.1292      4.0965    128.4348
  1119.7000      7.9886      2.5557      0.0722      5.7149    121.8852
  1119.8000      7.9982      2.5405      0.0283      6.6349    118.8466
  1119.9000      7.9982      2.5599     -0.0007      5.4604    119.3772
  1120.0000      7.9914      2.6061      0.1126      2.6629    121.7719
  1120.1000      7.9914      2.6349      0.1486      0.9135    126.4160
  1120.2000      7.9914      2.6215      0.0975      1.7267    127.6983
  1120.3000      7.9878      2.5871      0.0533      3.8111    125.1910
