~Version Information
VERS.                      2.0: CWLS Log ASCII Standard - VERSION 2.0
WRAP.                       NO: One line per depth step
~Well Information Block
STRT.FT                -8.2500: 
STOP.FT              1729.7500: 
STEP.FT                 0.2500: 
NULL.                -999.2500: 
COMP.          Pioneer Natural Resources: COMPANY
WELL.            Dude 43-34 Tr: WELL
FLD.           Purgatorie River: FIELD
LOC.           2083' FSL & 1042' FEL--: LOCATION
PROV.                       CO: PROVINCE
CNTY.               Las Animas: COUNTRY
SRVC.          Patterson Wireline: SERVICE COMPANY
DATE.          Tue Jan 31 09:23:54 2006: LOG DATE
UWI.           05 071 08676 00: UNIQUE WELL ID
~Curve Information Block
DEPT.FT            0 000 00 00: Depth
CCL.                          : Casing Collar Locator
TT3.usec                      : CBL 3' Travel Time
AMP3.mV                       : CBL 3' Amplitude
GR.GAPI                       : Gamma Ray
~Parameter Information Block
~A  Depth       CCL         TT3         AMP3         GR     
# ...
   460.7500      0.0000    692.0670      5.5463     90.6670
   461.0000      0.0000    691.9186      5.5320     96.7001
   461.2500      0.0000    691.7622      5.5415    100.1040
   461.5000      0.0000    691.6266      5.5816    100.7369
   461.7500      0.0000    691.5270      5.6433     99.2721
   462.0000      0.0000    691.4703      5.7084     96.3027
   462.2500      0.0000    691.4511      5.7623     92.0096
   462.5000      0.0000    691.4666      5.7999     86.7999
   462.7500      0.0000    691.5400      5.8218     81.6875
   463.0000      0.0000    691.7027      5.8279     77.8604
   463.2500      0.0000    691.9387      5.8191     76.2016
   463.5000      0.0000    692.1743      5.8011     77.1021
   463.7500      0.0000    692.3396      5.7848     80.1241
   464.0000      0.0000    692.4190      5.7828     83.8348
   464.2500      0.0000    692.4341      5.8034     86.6704
   464.5000      0.0000    692.4044      5.8469     88.3319
   464.7500      0.0000    692.3488      5.9029     89.9315
   465.0000      0.0000    692.3041      5.9542     92.5110
   465.2500      0.0000    692.3386      5.9844     95.8517
   465.5000      0.0000    692.5820      5.9867     98.8738
   465.7500      0.0000    693.2949      5.9667    100.7279
   466.0000      0.0000    694.8029      5.9385    101.4328
   466.2500      0.0000    697.0927      5.9167    101.7550
   466.5000      0.0000    699.3661      5.9088    102.2526
   466.7500      0.0000    700.3367      5.9133    102.4171
   467.0000      0.0000    699.3384      5.9240    101.3702
   467.2500      0.0000    697.0178      5.9365     99.3619
   467.5000      0.0000    694.7384      5.9499     97.8368
   467.7500      0.0000    693.5141      5.9646     97.9491
   468.0000      0.0000    693.7041      5.9787     99.5430
   468.2500      0.0000    695.3568      5.9885    101.5204
   468.5000      0.0000    698.3320      5.9909    102.8356
   468.7500      0.0000    701.9718      5.9843    103.1485
   469.0000      0.0000    704.9720      5.9660    102.7027
   469.2500      0.0000    705.8965      5.9271    101.7033
   469.5000      0.0000    703.9618      5.8513     99.8534
   469.7500      0.0000    699.3935      5.7252     96.5744
   470.0000      0.0000    693.3643      5.5545     91.8522
   470.2500      0.0000    687.9516      5.3625     86.8604
   470.5000      0.0000    686.1276      5.1606     83.3349
   470.7500      0.0000    690.7376      4.9310     82.2388
   471.0000      0.0000    702.2874      4.6596     83.3777
   471.2500      0.0000    717.7083      4.3759     86.1622
   471.5000      0.0000    732.1195      4.1369     90.0172
   471.7500      0.0000    741.9764      3.9764     94.1218
   472.0000      0.0000    746.3241      3.8911     97.5681
   472.2500     -2.0000    745.8759      3.8653     99.8558
   472.5000      0.0000    742.2292      3.8993    100.8490
   472.7500      0.0000    737.5347      4.0206    100.4808
   473.0000      0.0000    733.1844      4.2553     98.7402
   473.2500      0.0000    728.6130      4.5721     95.7730
   473.5000      0.0000    722.5599      4.8719     92.0747
   473.7500      0.0000    715.2953      5.0750     88.7765
   474.0000      0.0000    708.4500      5.1971     87.3318
   474.2500      0.0000    702.9933      5.3049     88.4626
   474.5000      0.0000    698.6671      5.4233     91.5229
   474.7500      0.0000    695.1083      5.5209     95.2128
   475.0000      0.0000    692.4685      5.5623     98.8928
   475.2500      0.0000    690.9199      5.5458    102.9724
   475.5000      0.0000    690.2474      5.5003    107.7586
   475.7500      0.0000    690.0221      5.4613    112.1179
   476.0000      0.0000    689.9171      5.4515    113.9650
   476.2500      0.0000    689.8272      5.4729    112.3721
   476.5000      0.0000    689.8410      5.5117    108.7151
   476.7500      0.0000    690.2121      5.5497    105.2473
   477.0000      0.0000    691.4126      5.5780    102.7945
   477.2500      0.0000    694.1812      5.6016    100.4492
   477.5000      0.0000    699.2437      5.6296     97.4077
   477.7500      0.0000    706.6087      5.6599     94.1903
   478.0000      0.0000    715.0752      5.6749     91.8393
   478.2500      0.0000    722.7329      5.6542     90.6617
   478.5000      0.0000    728.1217      5.5942     90.1094
   478.7500      0.0000    730.8177      5.5147     89.3089
   479.0000      0.0000    731.1147      5.4467     87.3846
   479.2500      0.0000    729.6898      5.4121     83.9449
   479.5000      0.0000    727.7097      5.4117     79.7627
   479.7500      0.0000    726.6339      5.4316     76.5291
   480.0000      0.0000    727.2491      5.4569     75.3892
   480.2500      0.0000    728.9170      5.4799     75.9652
   480.5000      0.0000    729.9772      5.4991     77.0878
   480.7500      0.0000    728.7784      5.5158     78.1204
   481.0000      0.0000    724.4530      5.5314     79.4361
   481.2500      0.0000    717.3908      5.5469     81.9655
   481.5000      0.0000    709.3517      5.5625     86.2716
   481.7500      0.0000    702.7524      5.5792     91.6642
   482.0000      0.0000    699.3076      5.5977     96.2167
   482.2500      0.0000    699.0412      5.6159     97.9302
   482.5000      0.0000    700.4138      5.6262     96.2121
   482.7500      0.0000    701.5300      5.6190     92.3410
   483.0000      0.0000    701.7274      5.5873     88.2852
   483.2500      0.0000    702.1585      5.5280     84.9431
   483.5000      0.0000    704.5350      5.4416     81.6938
   483.7500      0.0000    709.0727      5.3359     77.5138
   484.0000      0.0000    713.6989      5.2275     72.1654
   484.2500      0.0000    715.4512      5.1352     66.4441
   484.5000      0.0000    712.8652      5.0694     61.5581
   484.7500      0.0000    707.1052      5.0317     58.1004
   485.0000      0.0000    700.8671      5.0198     55.4235
   485.2500      0.0000    696.4191      5.0306     52.2999
   485.5000      0.0000    694.7232      5.0573     48.3151
   485.7500      0.0000    695.8500      5.0905     44.3692
   486.0000      0.0000    699.3356      5.1227     41.7732
   486.2500      0.0000    703.8208      5.1501     41.0804
   486.5000      0.0000    707.0038      5.1702     41.8631
   486.7500      0.0000    706.9806      5.1840     43.3947
   487.0000      0.0000    703.9831      5.2002     45.2284
   487.2500      0.0000    700.4541      5.2321     47.1867
   487.5000      0.0000    699.2871      5.2851     49.3299
   487.7500      0.0000    702.0163      5.3506     52.1616
   488.0000      0.0000    708.1888      5.4105     56.4015
   488.2500      0.0000    715.8469      5.4497     62.2555
   488.5000      0.0000    722.7200      5.4657     69.1353
   488.7500      0.0000    727.4625      5.4679     76.1574
   489.0000      0.0000    730.0430      5.4690     82.5407
   489.2500      0.0000    731.1681      5.4737     87.4561
   489.5000      0.0000    731.5467      5.4773     89.9681
   489.7500      0.0000    731.6127      5.4740     89.6311
   490.0000      0.0000    731.6041      5.4668     87.3468
   490.2500      0.0000    731.6702      5.4660     85.4882
   490.5000      0.0000    731.8770      5.4803     86.4997
   490.7500      0.0000    732.1854      5.5095     90.7188
   491.0000      0.0000    732.4487      5.5447     95.6928
   491.2500      0.0000    732.3851      5.5708     98.0892
   491.5000      0.0000    731.4655      5.5730     96.3909
   491.7500      0.0000    728.8730      5.5490     91.8556
   492.0000      0.0000    723.8517      5.5137     87.1192
   492.2500      0.0000    716.4877      5.4890     83.8570
   492.5000      0.0000    708.2330      5.4876     81.6822
   492.7500      0.0000    701.3749      5.5108     79.2642
   493.0000      0.0000    697.6674      5.5557     76.0588
   493.2500      0.0000    697.2150      5.6184     72.5398
   493.5000      0.0000    698.4060      5.6884     69.3007
   493.7500      0.0000    698.9814      5.7502     66.8338
   494.0000      0.0000    697.6147      5.7939     65.9181
