~Version Information
VERS.                      2.0: CWLS Log ASCII Standard - VERSION 2.0
WRAP.                       NO: One line per depth step
~Well Information Block
STRT.FT               485.0000: 
STOP.FT              1030.5000: 
STEP.FT                 0.1000: 
NULL.                -999.2500: 
COMP.          Pioneer Natural Resources: COMPANY
WELL.          Red Raider 22-15: WELL
FLD.           Purgatoire River: FIELD
LOC.           1809' FNL & 2107' FWL: LOCATION
CNTY.               Las Animas: COUNTY
SRVC.                Patterson: SERVICE COMPANY
DATE.          Tue Apr 11 10:06:17 2006: LOG DATE
UWI.           05 071 08718 00: UNIQUE WELL ID
STAT.                 Colorado: STATE
~Curve Information Block
DEPT.FT            0 000 00 00: Depth
DCAL.in                       : CDL Caliper
RHOB.g/cc                     : CDL Bulk Density
RHOC.g/cc                     : CDL Density Correction
DPOR.pu                       : CDL Density Porosity
GR.GAPI                       : Gamma Ray
NPOR.pu                       : Neutron Porosity
~Parameter Information Block
~A  Depth       DCAL        RHOB        RHOC        DPOR         GR         NPOR    
# ...
   773.0000      7.9360      2.4974      0.0554      9.2500     64.5012     20.5839
   773.1000      7.9360      2.5030      0.0141      8.9069     61.8098     20.2728
   773.2000      7.9360      2.5205      0.0535      7.8508     56.9255     20.0886
   773.3000      7.9349      2.5438      0.0748      6.4349     53.6488     19.9174
   773.4000      7.9349      2.5586      0.0719      5.5377     53.9796     19.6146
   773.5000      7.9349      2.5559      0.0769      5.7050     57.2485     19.3782
   773.6000      7.9349      2.5380      0.0468      6.7881     61.6847     19.3621
   773.7000      7.9349      2.5199      0.0308      7.8879     67.5551     19.4059
   773.8000      7.9352      2.5187      0.0179      7.9584     72.4170     19.4369
   773.9000      7.9352      2.5351      0.0382      6.9647     74.5068     19.6467
   774.0000      7.9347      2.5452      0.0990      6.3515     77.4883     20.4870
   774.1000      7.9347      2.5362      0.0539      6.8952     82.0263     21.9259
   774.2000      7.9347      2.5318     -0.0105      7.1621     83.5549     23.0591
   774.3000      7.9336      2.5490      0.0900      6.1194     80.0928     23.1840
   774.4000      7.9336      2.5724      0.0866      4.7050     75.2122     22.5496
   774.5000      7.9327      2.5873      0.0743      3.7994     72.7755     22.2998
   774.6000      7.9327      2.5975      0.0906      3.1820     70.3739     23.1526
   774.7000      7.9327      2.6078      0.0994      2.5597     63.3299     24.3255
   774.8000      7.9325      2.6057      0.1235      2.6835     55.9006     24.9300
   774.9000      7.9325      2.5813      0.0500      4.1660     53.4986     24.8812
   775.0000      7.9332      2.5499      0.0508      6.0657     54.1150     24.2127
   775.1000      7.9332      2.5233      0.0659      7.6797     54.8902     23.1199
   775.2000      7.9332      2.5005      0.0051      9.0594     55.4766     21.9674
   775.3000      7.9338      2.4891      0.0218      9.7501     56.4636     20.9262
   775.4000      7.9338      2.4936      0.0344      9.4801     56.8396     19.9818
   775.5000      7.9326      2.5107      0.0354      8.4426     56.2724     19.2576
   775.6000      7.9326      2.5323      0.0717      7.1344     58.2119     19.0724
   775.7000      7.9326      2.5410      0.0891      6.6074     63.7943     19.3109
   775.8000      7.9308      2.5317      0.0497      7.1674     67.0618     19.3420
   775.9000      7.9308      2.5277      0.0500      7.4099     63.3204     18.9513
   776.0000      7.9294      2.5427      0.1038      6.5001     57.0290     18.6217
   776.1000      7.9294      2.5604      0.0942      5.4313     51.4928     18.7256
   776.2000      7.9294      2.5690      0.1069      4.9100     45.6426     19.1032
   776.3000      7.9289      2.5723      0.1493      4.7111     42.2278     19.3977
   776.4000      7.9289      2.5686      0.1361      4.9363     43.6691     19.5992
   776.5000      7.9281      2.5587      0.1086      5.5320     48.2112     19.7439
   776.6000      7.9281      2.5549      0.1011      5.7642     54.7815     19.5311
   776.7000      7.9281      2.5574      0.1128      5.6104     60.5416     19.1451
   776.8000      7.9273      2.5536      0.0897      5.8411     62.9093     19.2146
   776.9000      7.9273      2.5431      0.0557      6.4789     65.5897     19.9404
   777.0000      7.9285      2.5397      0.0218      6.6840     69.7784     21.0447
   777.1000      7.9285      2.5500      0.0711      6.0612     71.5050     21.7221
   777.2000      7.9285      2.5670      0.0769      5.0308     68.5871     21.4970
   777.3000      7.9294      2.5824      0.0948      4.0973     62.7752     20.7119
   777.4000      7.9294      2.5901      0.0893      3.6320     56.6918     20.1521
   777.5000      7.9273      2.5885      0.0854      3.7253     53.1026     20.3861
   777.6000      7.9273      2.5828      0.0510      4.0720     54.3981     21.1134
   777.7000      7.9273      2.5784      0.0608      4.3395     60.7329     21.9468
   777.8000      7.9279      2.5747      0.0708      4.5656     66.4729     22.6617
   777.9000      7.9279      2.5665      0.0577      5.0588     63.5296     22.9989
   778.0000      7.9287      2.5586      0.0445      5.5365     54.3884     22.8333
   778.1000      7.9287      2.5663      0.0395      5.0707     49.6467     22.1885
   778.2000      7.9287      2.5915      0.0745      3.5480     52.6719     21.6401
   778.3000      7.9291      2.6170      0.0842      1.9993     57.1262     21.7929
   778.4000      7.9291      2.6277      0.0647      1.3491     58.8944     22.2484
   778.5000      7.9317      2.6246      0.0541      1.5393     59.5947     22.3236
   778.6000      7.9317      2.6179      0.0480      1.9435     61.3740     22.0386
   778.7000      7.9317      2.6150      0.0271      2.1207     65.6446     21.5519
   778.8000      7.9340      2.6153      0.0554      2.1019     69.9181     21.0517
   778.9000      7.9340      2.6135      0.0318      2.2115     70.4753     20.6504
   779.0000      7.9359      2.6018      0.0332      2.9231     67.6679     20.2134
   779.1000      7.9359      2.5683      0.0563      4.9492     63.4492     19.9405
   779.2000      7.9359      2.5232     -0.0450      7.6819     60.6060     20.1078
   779.3000      7.9368      2.4933     -0.0134      9.4948     60.9760     20.6914
   779.4000      7.9368      2.4748      0.0044     10.6200     61.7208     21.2720
   779.5000      7.9357      2.4587     -0.0541     11.5965     59.3608     21.1930
   779.6000      7.9357      2.4607     -0.0177     11.4698     57.2187     20.5751
   779.7000      7.9357      2.4837     -0.0001     10.0768     59.4579     20.1218
   779.8000      7.9314      2.5100      0.0275      8.4848     64.5037     20.1476
   779.9000      7.9314      2.5314      0.0497      7.1891     71.2004     20.5082
   780.0000      7.9226      2.5510      0.1006      6.0010     79.5493     21.0437
   780.1000      7.9226      2.5689      0.1110      4.9127     86.4053     21.7609
   780.2000      7.9226      2.5828      0.1028      4.0755     89.8595     22.4917
   780.3000      7.9131      2.5901      0.1373      3.6289     89.1179     22.6627
   780.4000      7.9131      2.5910      0.0710      3.5744     82.7520     22.1174
   780.5000      7.9074      2.5876      0.0343      3.7814     77.8984     21.7637
   780.6000      7.9074      2.5746      0.0793      4.5721     82.5301     22.3533
   780.7000      7.9074      2.5487      0.0459      6.1395     89.1275     23.3008
   780.8000      7.9040      2.5260      0.0254      7.5169     88.9976     23.6236
   780.9000      7.9040      2.5196      0.0766      7.9022     87.4875     23.3380
   781.0000      7.9052      2.5267      0.0694      7.4743     89.7779     22.9615
   781.1000      7.9052      2.5399      0.0808      6.6731     91.6909     22.9520
   781.2000      7.9052      2.5472      0.1269      6.2312     92.8518     23.3534
   781.3000      7.9082      2.5448      0.0603      6.3769     99.6595     23.7551
   781.4000      7.9082      2.5416      0.0841      6.5690    112.9551     23.8760
   781.5000      7.9136      2.5419      0.0554      6.5533    123.8647     23.7572
   781.6000      7.9136      2.5458      0.0681      6.3147    126.8942     23.4108
   781.7000      7.9136      2.5526      0.1101      5.9019    124.6685     22.7030
   781.8000      7.9251      2.5610      0.1001      5.3928    119.1665     22.0318
   781.9000      7.9251      2.5671      0.0969      5.0248    113.5039     22.1351
   782.0000      7.9346      2.5680      0.0866      4.9683    113.2150     22.9313
   782.1000      7.9346      2.5733      0.0297      4.6473    116.5845     23.6382
   782.2000      7.9346      2.5912      0.0975      3.5651    118.5078     23.7773
   782.3000      7.9384      2.6139      0.0834      2.1888    117.6554     23.3770
   782.4000      7.9384      2.6248      0.1008      1.5286    114.9939     22.7552
   782.5000      7.9397      2.6070      0.1260      2.6085    113.1177     22.3643
