~Version Information
VERS.                      2.0: CWLS Log ASCII Standard - VERSION 2.0
WRAP.                       NO: One line per depth step
~Well Information Block
STRT.FT               370.0000: 
STOP.FT              1259.0000: 
STEP.FT                 0.1000: 
NULL.                -999.2500: 
COMP.          Pioneer Natural Resources: COMPANY
WELL.           Tennis 7-12 Tr: WELL
FLD.           Purgatoire River: FIELD
LOC.           1794' FNL & 1563' FEL: LOCATION
PROV.                 Colorado: PROVINCE
CNTY.               Las Animas: COUNTRY
SRVC.                Patterson: SERVICE COMPANY
DATE.          Tue Dec 20 13:35:40 2005: LOG DATE
UWI.           05 071 08635 00: UNIQUE WELL ID
~Curve Information Block
DEPT.FT            0 000 00 00: Depth
DCAL.in                       : CDL Caliper
RHOB.g/cc                     : CDL Bulk Density
RHOC.g/cc                     : CDL Density Correction
DPOR.pu                       : CDL Density Porosity
GR.GAPI                       : Gamma Ray
~Parameter Information Block
~A  Depth       DCAL        RHOB        RHOC        DPOR         GR     
# ...
  1243.6000      7.8545      2.5403      0.0340      6.6459   -999.2500
  1243.7000      7.8545      2.5367      0.0432      6.8679   -999.2500
  1243.8000      7.8551      2.5247      0.0084      7.5964   -999.2500
  1243.9000      7.8551      2.5135      0.0073      8.2732   -999.2500
  1244.0000      7.8546      2.5190     -0.0091      7.9367   -999.2500
  1244.1000      7.8546      2.5409      0.0675      6.6093   -999.2500
  1244.2000      7.8546      2.5639      0.0445      5.2183   -999.2500
  1244.3000      7.8538      2.5751      0.0978      4.5418   -999.2500
  1244.4000      7.8538      2.5702      0.0797      4.8372   -999.2500
  1244.5000      7.8537      2.5547      0.0705      5.7776   -999.2500
  1244.6000      7.8537      2.5328      0.0289      7.1004   -999.2500
  1244.7000      7.8537      2.5103      0.0264      8.4671   -999.2500
  1244.8000      7.8548      2.5021      0.0090      8.9645   -999.2500
  1244.9000      7.8548      2.5181      0.0132      7.9946   -999.2500
  1245.0000      7.8557      2.5444      0.0577      6.3984   -999.2500
  1245.1000      7.8557      2.5556      0.0558      5.7215   -999.2500
  1245.2000      7.8557      2.5464      0.0280      6.2804   -999.2500
  1245.3000      7.8558      2.5294      0.0381      7.3100   -999.2500
  1245.4000      7.8558      2.5161      0.0007      8.1154   -999.2500
  1245.5000      7.8550      2.5124      0.0286      8.3386   -999.2500
  1245.6000      7.8550      2.5106      0.0305      8.4482   -999.2500
  1245.7000      7.8550      2.5026      0.0073      8.9360   -999.2500
  1245.8000      7.8564      2.4938     -0.0069      9.4686   -999.2500
  1245.9000      7.8564      2.4914      0.0107      9.6141   -999.2500
  1246.0000      7.8593      2.4988     -0.0305      9.1612   -999.2500
  1246.1000      7.8593      2.5153      0.0569      8.1611   -999.2500
  1246.2000      7.8593      2.5278      0.0557      7.4087   -999.2500
  1246.3000      7.8568      2.5301      0.0145      7.2662   -999.2500
  1246.4000      7.8568      2.5367      0.0107      6.8695   -999.2500
  1246.5000      7.8537      2.5512      0.0367      5.9889   -999.2500
  1246.6000      7.8537      2.5559      0.0425      5.7016   -999.2500
  1246.7000      7.8537      2.5455      0.0048      6.3362   -999.2500
  1246.8000      7.8531      2.5316      0.0629      7.1737   -999.2500
  1246.9000      7.8531      2.5250      0.0193      7.5769   -999.2500
  1247.0000      7.8522      2.5343      0.0369      7.0148   -999.2500
  1247.1000      7.8522      2.5532      0.0566      5.8657   -999.2500
  1247.2000      7.8522      2.5652      0.0486      5.1365   -999.2500
  1247.3000      7.8509      2.5662      0.0667      5.0800   -999.2500
  1247.4000      7.8509      2.5620      0.0457      5.3303   -999.2500
  1247.5000      7.8511      2.5602      0.0367      5.4411   -999.2500
  1247.6000      7.8511      2.5593      0.0500      5.4956   -999.2500
  1247.7000      7.8511      2.5520      0.0224      5.9367   -999.2500
  1247.8000      7.8519      2.5411      0.0252      6.5987   -999.2500
  1247.9000      7.8519      2.5391      0.0079      6.7229   -999.2500
  1248.0000      7.8535      2.5506      0.0285      6.0227   -999.2500
  1248.1000      7.8535      2.5607      0.0810      5.4100   -999.2500
  1248.2000      7.8535      2.5590      0.0274      5.5157   -999.2500
  1248.3000      7.8556      2.5563      0.0411      5.6775   -999.2500
  1248.4000      7.8556      2.5598      0.0408      5.4685   -999.2500
  1248.5000      7.8550      2.5683      0.0069      4.9518   -999.2500
  1248.6000      7.8550      2.5790      0.0697      4.3042   -999.2500
  1248.7000      7.8550      2.5850      0.0364      3.9365   -999.2500
  1248.8000      7.8535      2.5876      0.0463      3.7831   -999.2500
  1248.9000      7.8535      2.5846      0.0999      3.9624   -999.2500
  1249.0000      7.8576      2.5670      0.0300      5.0273   -999.2500
  1249.1000      7.8576      2.5377      0.0538      6.8061   -999.2500
  1249.2000      7.8576      2.5142     -0.0252      8.2316   -999.2500
  1249.3000      7.8625      2.5126      0.0154      8.3279   -999.2500
  1249.4000      7.8625      2.5245      0.0581      7.6043   -999.2500
  1249.5000      7.8560      2.5323      0.0354      7.1329   -999.2500
  1249.6000      7.8560      2.5338      0.0463      7.0419   -999.2500
  1249.7000      7.8560      2.5392      0.0100      6.7139   -999.2500
  1249.8000      7.8465      2.5598      0.0031      5.4694   -999.2500
  1249.9000      7.8465      2.5843      0.0738      3.9796   -999.2500
  1250.0000      7.8432      2.5925      0.0611      3.4873   -999.2500
  1250.1000      7.8432      2.5962      0.0514      3.2580   -999.2500
  1250.2000      7.8432      2.6174      0.0564      1.9770   -999.2500
  1250.3000      7.8408      2.6424      0.1041      0.4594   -999.2500
  1250.4000      7.8408      2.6417      0.0914      0.5048   -999.2500
  1250.5000      7.8352      2.6156      0.0375      2.0825   -999.2500
  1250.6000      7.8352      2.5919      0.0388      3.5232   -999.2500
  1250.7000      7.8352      2.5886      0.0191      3.7195   -999.2500
  1250.8000      7.8315      2.5996      0.0316      3.0551   -999.2500
  1250.9000      7.8315      2.6063      0.0364      2.6511   -999.2500
  1251.0000      7.8310      2.5995      0.0470      3.0589   -999.2500
  1251.1000      7.8310      2.5846      0.0401      3.9613   -999.2500
  1251.2000      7.8310      2.5687      0.0234      4.9302   -999.2500
  1251.3000      7.8317      2.5501      0.0395      6.0572   -999.2500
  1251.4000      7.8317      2.5309      0.0486      7.2187   -999.2500
  1251.5000      7.8339      2.5239      0.0735      7.6444   -999.2500
  1251.6000      7.8339      2.5335      0.0558      7.0631   -999.2500
  1251.7000      7.8339      2.5454      0.0638      6.3409   -999.2500
  1251.8000      7.8376      2.5396      0.0694      6.6880   -999.2500
  1251.9000      7.8376      2.5198      0.0106      7.8888   -999.2500
  1252.0000      7.8414      2.5096      0.0249      8.5113   -999.2500
  1252.1000      7.8414      2.5155      0.0474      8.1498   -999.2500
  1252.2000      7.8414      2.5299      0.0400      7.2814   -999.2500
  1252.3000      7.8416      2.5472      0.0863      6.2280   -999.2500
  1252.4000      7.8416      2.5606      0.1142      5.4177   -999.2500
  1252.5000      7.8430      2.5693      0.0865      4.8927   -999.2500
  1252.6000      7.8430      2.5775      0.1132      4.3954   -999.2500
  1252.7000      7.8430      2.5765      0.1181      4.4555   -999.2500
  1252.8000      7.8513      2.5607      0.0653      5.4120   -999.2500
  1252.9000      7.8513      2.5467      0.0481      6.2613   -999.2500
  1253.0000      7.8593      2.5499      0.0425      6.0650   -999.2500
  1253.1000      7.8593      2.5639      0.0522      5.2176   -999.2500
  1253.2000      7.8593      2.5749      0.0761      4.5538   -999.2500
  1253.3000      7.8591      2.5773      0.0449      4.4091   -999.2500
  1253.4000      7.8591      2.5746      0.0407      4.5711   -999.2500
  1253.5000      7.8543      2.5744      0.0451      4.5833   -999.2500
  1253.6000      7.8543      2.5800      0.0470      4.2401   -999.2500
  1253.7000      7.8543      2.5889      0.0816      3.7054   -999.2500
  1253.8000      7.8493      2.5934      0.0949      3.4288   -999.2500
  1253.9000      7.8493      2.5826      0.0990      4.0835   -999.2500
  1254.0000      7.8512      2.5574      0.0892      5.6150   -999.2500
  1254.1000      7.8512      2.5402      0.0109      6.6532   -999.2500
  1254.2000      7.8512      2.5474      0.0703      6.2160   -999.2500
  1254.3000      7.8636      2.5626      0.1228      5.2950   -999.2500
  1254.4000      7.8636      2.5626      0.1033      5.2958   -999.2500
  1254.5000      7.8765      2.5501      0.0684      6.0519   -999.2500
  1254.6000      7.8765      2.5453      0.0639      6.3451   -999.2500
  1254.7000      7.8765      2.5565      0.0872      5.6683   -999.2500
