~Version Information
VERS.                      2.0: CWLS Log ASCII Standard - VERSION 2.0
WRAP.                       NO: One line per depth step
~Well Information Block
STRT.FT               538.0000: 
STOP.FT              1769.0000: 
STEP.FT                 0.1000: 
NULL.                -999.2500: 
COMP.          Pioneer Natural Resources: COMPANY
WELL.            Dude 43-34 Tr: WELL
FLD.           Purgatoire River: FIELD
LOC.           2083' FSL & 1042' FEL: LOCATION
PROV.                 Colorado: PROVINCE
CNTY.               Las Animas: COUNTRY
SRVC.                Patterson: SERVICE COMPANY
DATE.          Thu Jan 26 07:02:09 2006: LOG DATE
UWI.           05 071 08676 00: UNIQUE WELL ID
~Curve Information Block
DEPT.FT            0 000 00 00: Depth
DCAL.in                       : CDL Caliper
RHOB.g/cc                     : CDL Bulk Density
RHOC.g/cc                     : CDL Density Correction
DPOR.pu                       : CDL Density Porosity
GR.GAPI                       : Gamma Ray
~Parameter Information Block
~A  Depth       DCAL        RHOB        RHOC        DPOR         GR     
# ...
  1030.8000      7.9801      2.6157      0.2021      2.0789    109.3089
  1030.9000      7.9801      2.6615      0.1687     -0.6999    104.0765
  1031.0000      7.9314      2.6821      0.2274     -1.9440    103.5640
  1031.1000      7.9314      2.6802      0.1986     -1.8308    105.5859
  1031.2000      7.9314      2.6718      0.1756     -1.3239    109.2452
  1031.3000      7.9091      2.6695      0.1936     -1.1833    112.2948
  1031.4000      7.9091      2.6730      0.1648     -1.3955    112.4235
  1031.5000      7.9143      2.6740      0.1836     -1.4543    109.7033
  1031.6000      7.9143      2.6626      0.1716     -0.7622    105.8413
  1031.7000      7.9143      2.6501      0.0696     -0.0049    100.8804
  1031.8000      7.9394      2.6607      0.0889     -0.6485     94.7628
  1031.9000      7.9394      2.6864      0.1002     -2.2072     88.9458
  1032.0000      7.9258      2.6976      0.1517     -2.8862     85.2780
  1032.1000      7.9258      2.6895      0.0537     -2.3965     85.1594
  1032.2000      7.9258      2.6754      0.1546     -1.5391     87.6258
  1032.3000      7.9290      2.6625      0.0793     -0.7549     91.5308
  1032.4000      7.9290      2.6607      0.1036     -0.6460     96.1685
  1032.5000      7.9209      2.6739      0.1068     -1.4470    100.9398
  1032.6000      7.9209      2.6921      0.0946     -2.5521    104.2242
  1032.7000      7.9209      2.7041      0.1354     -3.2766    100.6695
  1032.8000      7.9153      2.7115      0.0579     -3.7291     89.1988
  1032.9000      7.9153      2.7170      0.1419     -4.0605     79.2922
  1033.0000      7.9604      2.7119      0.1314     -3.7530     78.7118
  1033.1000      7.9604      2.7037      0.0750     -3.2518     85.1656
  1033.2000      7.9604      2.7044      0.1234     -3.2978     92.0788
  1033.3000      7.9569      2.7109      0.0696     -3.6925     94.4917
  1033.4000      7.9569      2.7077      0.1476     -3.4964     91.3224
  1033.5000      7.9429      2.6798      0.0243     -1.8071     86.9432
  1033.6000      7.9429      2.6436     -0.0111      0.3909     87.7183
  1033.7000      7.9429      2.6156     -0.0627      2.0876     90.2063
  1033.8000      7.9466      2.5912     -0.0056      3.5611     86.5240
  1033.9000      7.9466      2.5781     -0.0907      4.3597     79.2122
  1034.0000      8.0274      2.5866      0.0095      3.8405     74.0671
  1034.1000      8.0274      2.6010      0.0408      2.9688     70.8498
  1034.2000      8.0274      2.6034      0.0643      2.8264     69.1425
  1034.3000      7.9919      2.5955      0.0402      3.3050     71.5866
  1034.4000      7.9919      2.5806      0.0476      4.2041     77.0933
  1034.5000      7.9764      2.5612      0.0226      5.3825     82.3257
  1034.6000      7.9764      2.5558      0.0220      5.7095     88.7336
  1034.7000      7.9764      2.5708      0.1234      4.8020     99.0172
  1034.8000      7.9651      2.5903      0.0695      3.6164    108.4816
  1034.9000      7.9651      2.6091      0.1220      2.4773    111.6456
  1035.0000      8.0032      2.6197      0.1280      1.8374    111.4994
  1035.1000      8.0032      2.6162      0.0804      2.0473    112.6199
  1035.2000      8.0032      2.6192      0.0615      1.8637    116.3797
  1035.3000      7.9954      2.6375      0.0960      0.7561    120.5517
  1035.4000      7.9954      2.6446      0.1321      0.3262    119.7991
  1035.5000      7.9476      2.6256      0.0454      1.4780    114.2137
  1035.6000      7.9476      2.6037     -0.0055      2.8052    107.8136
  1035.7000      7.9476      2.5985      0.0319      3.1200    100.1495
  1035.8000      7.9589      2.5956      0.0796      3.2974     93.0252
  1035.9000      7.9589      2.5741      0.0433      4.6003     91.6941
  1036.0000      7.9466      2.5376      0.0487      6.8143     93.6599
  1036.1000      7.9466      2.5111     -0.0095      8.4202     94.9439
  1036.2000      7.9466      2.5187      0.0121      7.9590     96.4953
  1036.3000      7.9436      2.5492      0.0639      6.1074     99.3232
  1036.4000      7.9436      2.5745      0.0802      4.5746    103.8606
  1036.5000      7.9546      2.5907      0.1108      3.5955    109.4445
  1036.6000      7.9546      2.6009      0.1888      2.9753    115.2034
  1036.7000      7.9546      2.6000      0.1245      3.0311    119.5775
  1036.8000      7.9543      2.5934      0.0806      3.4323    123.0404
  1036.9000      7.9543      2.5918      0.1100      3.5264    129.4794
  1037.0000      7.9719      2.5966      0.1312      3.2387    137.0273
  1037.1000      7.9719      2.6023      0.1079      2.8915    138.7532
  1037.2000      7.9719      2.6049      0.1161      2.7311    134.6482
  1037.3000      8.0011      2.6076      0.0908      2.5704    131.5310
  1037.4000      8.0011      2.6217      0.0583      1.7156    134.1778
  1037.5000      8.0095      2.6468      0.1364      0.1919    140.2655
  1037.6000      8.0095      2.6601      0.1593     -0.6127    145.5587
  1037.7000      8.0095      2.6473      0.1626      0.1657    149.3242
  1037.8000      8.0089      2.6268      0.0800      1.4084    151.0389
  1037.9000      8.0089      2.6241      0.1189      1.5675    146.8218
  1038.0000      8.0021      2.6354      0.1063      0.8826    135.2916
  1038.1000      8.0021      2.6400      0.1355      0.6044    123.1730
  1038.2000      8.0021      2.6321      0.1298      1.0831    116.4349
  1038.3000      7.9690      2.6255      0.1215      1.4867    114.5893
  1038.4000      7.9690      2.6364      0.1433      0.8272    114.1167
  1038.5000      7.9405      2.6673      0.1262     -1.0483    113.4559
  1038.6000      7.9405      2.6984      0.1933     -2.9325    114.9472
  1038.7000      7.9405      2.6982      0.2112     -2.9227    118.0480
  1038.8000      7.9549      2.6669      0.0531     -1.0260    120.0947
  1038.9000      7.9549      2.6306      0.1385      1.1762    122.9152
  1039.0000      7.9795      2.5957      0.0722      3.2913    125.8751
  1039.1000      7.9795      2.5629      0.0353      5.2771    125.3493
  1039.2000      7.9795      2.5410      0.0327      6.6073    122.0808
  1039.3000      7.9907      2.5378     -0.0274      6.8028    119.6468
  1039.4000      7.9907      2.5472      0.0775      6.2298    118.7542
  1039.5000      8.0046      2.5528      0.0502      5.8933    118.2844
  1039.6000      8.0046      2.5501      0.0511      6.0549    117.7377
  1039.7000      8.0046      2.5376      0.0942      6.8144    117.0904
  1039.8000      8.0159      2.5167      0.0680      8.0784    118.9024
  1039.9000      8.0159      2.5047      0.1129      8.8058    126.1242
  1040.0000      8.0291      2.5137      0.0772      8.2582    135.4451
  1040.1000      8.0291      2.5327      0.1368      7.1120    141.2531
  1040.2000      8.0291      2.5415      0.1167      6.5773    144.6859
  1040.3000      8.0287      2.5483      0.1342      6.1654    147.8899
  1040.4000      8.0287      2.5733      0.1735      4.6488    148.7829
  1040.5000      8.0256      2.6083      0.2342      2.5288    146.3879
  1040.6000      8.0256      2.6335      0.2369      1.0024    142.3722
  1040.7000      8.0256      2.6510      0.2212     -0.0580    139.3306
  1040.8000      8.0258      2.6692      0.2130     -1.1658    138.2028
  1040.9000      8.0258      2.6817      0.1738     -1.9211    137.5999
  1041.0000      8.0440      2.6770      0.2054     -1.6350    136.4128
  1041.1000      8.0440      2.6527      0.1591     -0.1639    132.9221
  1041.2000      8.0440      2.6162      0.1504      2.0462    127.8945
  1041.3000      8.0508      2.5761      0.0856      4.4801    127.7495
  1041.4000      8.0508      2.5472      0.0346      6.2319    132.9687
  1041.5000      8.0440      2.5334      0.0846      7.0680    134.9987
  1041.6000      8.0440      2.5120      0.0714      8.3608    132.5070
  1041.7000      8.0440      2.4814     -0.0464     10.2172    132.3972
  1041.8000      8.0412      2.4608      0.0253     11.4645    138.4938
  1041.9000      8.0412      2.4365      0.0788     12.9396    144.6053
