~Version Information
VERS.                      2.0: CWLS Log ASCII Standard - VERSION 2.0
WRAP.                       NO: One line per depth step
~Well Information Block
STRT.FT                10.0000: 
STOP.FT              1458.0000: 
STEP.FT                 0.1000: 
NULL.                -999.2500: 
COMP.          Pioneer Natural Resources: COMPANY
WELL.            Bordeaux 42-2: WELL
FLD.           Purgatorie River: FIELD
LOC.           1963' FNL & 1148' FEL: LOCATION
PROV.                 Colorado: PROVINCE
CNTY.               Las Animas: COUNTRY
SRVC.                Patterson: SERVICE COMPANY
DATE.          Tue Nov 29 07:11:03 2005: LOG DATE
UWI.                          : UNIQUE WELL ID
~Curve Information Block
DEPT.FT            0 000 00 00: Depth
DCAL.in                       : CDL Caliper
RHOB.g/cc                     : CDL Bulk Density
RHOC.g/cc                     : CDL Density Correction
DPOR.pu                       : CDL Density Porosity
GR.GAPI                       : Gamma Ray
NPOR.pu                       : Neutron Porosity
~Parameter Information Block
~A  Depth       DCAL        RHOB        RHOC        DPOR         GR         NPOR    
# ...
  1248.4000      7.8013      2.6076      0.1279      2.5686     78.0405     21.5562
  1248.5000      7.7935      2.5997      0.1364      3.0467     78.6627     21.5109
  1248.6000      7.7935      2.5821      0.0769      4.1122     79.8617     21.5840
  1248.7000      7.7935      2.5731      0.0980      4.6609     80.8638     21.2792
  1248.8000      7.7896      2.5681      0.0772      4.9622     82.8214     20.8601
  1248.9000      7.7896      2.5524      0.0967      5.9178     85.5648     20.8951
  1249.0000      7.8163      2.5327      0.0462      7.1106     87.5315     21.4141
  1249.1000      7.8163      2.5329      0.0409      7.0950     88.4116     22.0597
  1249.2000      7.8163      2.5514      0.1122      5.9744     88.6009     22.4383
  1249.3000      7.8379      2.5592      0.1220      5.5040     88.2980     22.4230
  1249.4000      7.8379      2.5498      0.0809      6.0752     87.0875     22.2277
  1249.5000      7.8225      2.5397      0.1092      6.6845     84.2283     21.9174
  1249.6000      7.8225      2.5338      0.0856      7.0438     81.6327     21.4419
  1249.7000      7.8225      2.5326      0.0713      7.1128     81.7140     21.1552
  1249.8000      7.8115      2.5462      0.0418      6.2887     83.3530     21.2073
  1249.9000      7.8115      2.5770      0.1094      4.4244     84.3026     21.1823
  1250.0000      7.7852      2.6130      0.1474      2.2427     83.6340     20.9151
  1250.1000      7.7852      2.6387      0.1624      0.6829     81.7197     20.6097
  1250.2000      7.7852      2.6345      0.2281      0.9381     80.5599     20.1593
  1250.3000      7.7780      2.5953      0.1307      3.3162     81.7775     19.5689
  1250.4000      7.7780      2.5518      0.0722      5.9490     84.2174     19.3878
  1250.5000      7.7977      2.5288      0.1173      7.3430     86.1446     19.8719
  1250.6000      7.7977      2.5191      0.1098      7.9305     86.8665     20.5343
  1250.7000      7.7977      2.5121      0.0879      8.3599     85.8621     20.9853
  1250.8000      7.8247      2.5074      0.0601      8.6449     82.9273     21.1268
  1250.9000      7.8247      2.5118      0.0907      8.3771     79.2787     20.8776
  1251.0000      7.8439      2.5255      0.1288      7.5451     76.8656     20.4474
  1251.1000      7.8439      2.5401      0.1082      6.6587     76.4391     20.2039
  1251.2000      7.8439      2.5488      0.1512      6.1327     76.6152     20.4890
  1251.3000      7.8057      2.5508      0.1247      6.0131     76.2776     21.2493
  1251.4000      7.8057      2.5522      0.1403      5.9275     75.5477     21.7627
  1251.5000      7.7939      2.5540      0.1670      5.8157     73.8973     21.6276
  1251.6000      7.7939      2.5570      0.1078      5.6372     72.9635     21.1927
  1251.7000      7.7939      2.5696      0.1425      4.8734     74.8713     20.6806
  1251.8000      7.7942      2.5888      0.1588      3.7107     78.4428     20.1853
  1251.9000      7.7942      2.6052      0.1013      2.7129     81.3146     19.9523
  1252.0000      7.8109      2.6156      0.1414      2.0852     83.0807     20.0351
  1252.1000      7.8109      2.6144      0.1521      2.1569     85.3816     20.1662
  1252.2000      7.8109      2.6036      0.1221      2.8103     87.8603     20.1271
  1252.3000      7.8201      2.5900      0.1093      3.6389     87.9296     19.9460
  1252.4000      7.8201      2.5725      0.0629      4.6966     85.1615     19.8198
  1252.5000      7.8541      2.5559      0.0375      5.7043     84.0797     19.9241
  1252.6000      7.8541      2.5537      0.0464      5.8352     88.4607     20.3604
  1252.7000      7.8541      2.5675      0.0960      5.0011     95.1462     21.1031
  1252.8000      7.8483      2.5827      0.0994      4.0803     98.3431     21.7528
  1252.9000      7.8483      2.5864      0.0995      3.8520     95.4984     21.9884
  1253.0000      7.9028      2.5743      0.0959      4.5874     89.7710     21.8955
  1253.1000      7.9028      2.5511      0.0962      5.9935     87.5402     21.6319
  1253.2000      7.9028      2.5290      0.0207      7.3340     90.5834     21.4620
  1253.3000      7.9067      2.5194      0.0202      7.9171     93.9639     21.4736
  1253.4000      7.9067      2.5226      0.0445      7.7191     93.3769     21.5708
  1253.5000      7.9205      2.5320      0.0360      7.1535     89.6621     21.8145
  1253.6000      7.9205      2.5427      0.0910      6.5008     83.9943     22.1839
  1253.7000      7.9205      2.5519      0.0504      5.9476     78.0295     22.4874
  1253.8000      7.9025      2.5551      0.0809      5.7493     75.3553     22.6027
  1253.9000      7.9025      2.5449      0.0919      6.3725     74.9792     22.6424
  1254.0000      7.8603      2.5253      0.0576      7.5549     73.3411     22.7132
  1254.1000      7.8603      2.5163      0.0294      8.1029     70.3649     22.7558
  1254.2000      7.8603      2.5233      0.0805      7.6783     67.8009     22.6329
  1254.3000      7.8693      2.5326      0.0440      7.1171     66.6479     22.2848
  1254.4000      7.8693      2.5336      0.0555      7.0522     66.9621     21.8668
  1254.5000      7.8549      2.5265      0.0322      7.4851     68.4302     21.5063
  1254.6000      7.8549      2.5211      0.0316      7.8131     69.7430     21.2592
  1254.7000      7.8549      2.5285      0.0636      7.3638     69.4948     21.2774
  1254.8000      7.8272      2.5481      0.0897      6.1728     68.0595     21.2623
  1254.9000      7.8272      2.5664      0.1125      5.0649     66.8367     20.6822
  1255.0000      7.8083      2.5761      0.0908      4.4765     66.0475     19.9371
  1255.1000      7.8083      2.5857      0.1274      3.8996     64.9257     19.6943
  1255.2000      7.8083      2.5989      0.1102      3.0964     63.7100     19.7585
  1255.3000      7.8078      2.6080      0.1220      2.5447     63.9192     19.7095
  1255.4000      7.8078      2.6018      0.1113      2.9231     64.8972     19.5988
  1255.5000      7.8286      2.5826      0.0609      4.0851     64.0015     19.5924
  1255.6000      7.8286      2.5620      0.0656      5.3326     61.5131     19.5899
  1255.7000      7.8286      2.5399      0.0654      6.6746     60.2898     19.2944
  1255.8000      7.8377      2.5151      0.0716      8.1770     61.4572     18.7477
  1255.9000      7.8377      2.5053     -0.0166      8.7674     64.0183     18.4374
  1256.0000      7.8176      2.5251      0.0821      7.5668     66.3817     18.5524
  1256.1000      7.8176      2.5498      0.0998      6.0736     67.2032     18.8145
  1256.2000      7.8176      2.5539      0.0851      5.8237     67.3262     18.8251
  1256.3000      7.8101      2.5477      0.0658      6.2000     67.4184     18.4473
  1256.4000      7.8101      2.5519      0.0729      5.9470     66.1785     17.8609
  1256.5000      7.8150      2.5694      0.0809      4.8820     65.0790     17.3306
  1256.6000      7.8150      2.5883      0.0902      3.7377     66.4124     17.0242
  1256.7000      7.8150      2.5975      0.1064      3.1823     68.1356     17.1078
  1256.8000      7.8345      2.5933      0.0863      3.4345     69.0414     17.6032
  1256.9000      7.8345      2.5829      0.0638      4.0681     70.5956     18.0369
  1257.0000      7.8419      2.5771      0.0661      4.4162     72.8675     17.9923
  1257.1000      7.8419      2.5744      0.1125      4.5844     74.6851     17.7523
  1257.2000      7.8419      2.5607      0.0754      5.4121     75.0002     17.7080
  1257.3000      7.8551      2.5372      0.0293      6.8338     73.9681     17.8587
  1257.4000      7.8551      2.5240      0.0437      7.6375     73.3910     18.1406
  1257.5000      7.8550      2.5290      0.0688      7.3306     72.8665     18.4928
  1257.6000      7.8550      2.5371      0.0887      6.8397     70.3522     18.9214
  1257.7000      7.8550      2.5338      0.0589      7.0452     66.3007     19.4511
  1257.8000      7.8811      2.5277      0.0180      7.4128     62.1635     19.9299
  1257.9000      7.8811      2.5316      0.0898      7.1775     59.5108     20.0992
