~Version Information
VERS.                      2.0: CWLS Log ASCII Standard - VERSION 2.0
WRAP.                       NO: One line per depth step
~Well Information Block
STRT.FT               742.7000: 
STOP.FT              1614.5000: 
STEP.FT                 0.1000: 
NULL.                -999.2500: 
COMP.          Pioneer Natural Resources: COMPANY
WELL.           Kermit 32-7 Tr: WELL
FLD.           Purgatoire River: FIELD
LOC.           2009' FNL & 2196' FEL: LOCATION
PROV.                 Colorado: PROVINCE
CNTY.               Las Animas: COUNTRY
SRVC.                Patterson: SERVICE COMPANY
DATE.          Mon Jan 16 13:19:56 2006: LOG DATE
UWI.           05 071 08664 00: UNIQUE WELL ID
~Curve Information Block
DEPT.FT            0 000 00 00: Depth
DCAL.in                       : CDL Caliper
RHOB.g/cc                     : CDL Bulk Density
RHOC.g/cc                     : CDL Density Correction
DPOR.pu                       : CDL Density Porosity
GR.GAPI                       : Gamma Ray
~Parameter Information Block
~A  Depth       DCAL        RHOB        RHOC        DPOR         GR     
# ...
  1213.1000      8.2289      1.9479      0.1633     42.5521     89.1808
  1213.2000      8.2289      2.0976      0.2031     33.4786     90.1812
  1213.3000      8.3292      2.2380      0.2568     24.9674     94.6088
  1213.4000      8.3292      2.3415      0.2502     18.6967    102.9905
  1213.5000      8.1662      2.4152      0.1962     14.2304    109.0769
  1213.6000      8.1662      2.4751      0.0975     10.6008    115.4895
  1213.7000      8.1662      2.5197      0.0595      7.8944    128.5095
  1213.8000      8.0872      2.5465      0.0834      6.2716    146.2600
  1213.9000      8.0872      2.5578      0.1188      5.5893    157.9047
  1214.0000      8.0500      2.5591      0.0967      5.5085    156.3948
  1214.1000      8.0500      2.5575      0.1093      5.6083    149.7345
  1214.2000      8.0500      2.5622      0.0354      5.3242    147.6929
  1214.3000      8.0021      2.5801      0.0876      4.2351    148.1982
  1214.4000      8.0021      2.5976      0.1153      3.1749    144.5985
  1214.5000      7.9265      2.5933      0.1650      3.4358    139.8381
  1214.6000      7.9265      2.5716      0.0594      4.7491    139.5654
  1214.7000      7.9265      2.5574      0.0703      5.6100    143.7791
  1214.8000      7.9134      2.5623      0.0705      5.3148    148.5015
  1214.9000      7.9134      2.5829      0.0578      4.0636    149.0460
  1215.0000      7.9091      2.6075      0.0963      2.5769    147.1031
  1215.1000      7.9091      2.6229      0.0190      1.6433    145.6548
  1215.2000      7.9091      2.6290      0.0685      1.2707    142.4540
  1215.3000      7.9089      2.6314      0.0567      1.1251    139.3947
  1215.4000      7.9089      2.6350      0.0566      0.9062    141.7062
  1215.5000      7.9031      2.6325      0.1169      1.0621    146.0331
  1215.6000      7.9031      2.6098      0.0870      2.4378    144.8085
  1215.7000      7.9031      2.5804     -0.0122      4.2210    138.3715
  1215.8000      7.8897      2.5670      0.0120      5.0298    136.4353
  1215.9000      7.8897      2.5645      0.0300      5.1822    143.2572
  1216.0000      7.8936      2.5653      0.0417      5.1306    150.8935
  1216.1000      7.8936      2.5757      0.0517      4.5048    152.0041
  1216.2000      7.8936      2.5912      0.1001      3.5618    148.2094
  1216.3000      7.8907      2.6020      0.0435      2.9105    144.1947
  1216.4000      7.8907      2.5975      0.1162      3.1847    142.1755
  1216.5000      7.8903      2.5762      0.0111      4.4732    143.5509
  1216.6000      7.8903      2.5646      0.0327      5.1747    144.9359
  1216.7000      7.8903      2.5720      0.0626      4.7301    141.2872
  1216.8000      7.9037      2.5775      0.0503      4.3925    137.5988
  1216.9000      7.9037      2.5734      0.0465      4.6431    139.5309
  1217.0000      7.9301      2.5656      0.0648      5.1136    142.3336
  1217.1000      7.9301      2.5601      0.0297      5.4466    138.9672
  1217.2000      7.9301      2.5609     -0.0299      5.4013    129.3080
  1217.3000      7.9271      2.5669      0.0152      5.0392    118.8134
  1217.4000      7.9271      2.5796      0.0106      4.2678    112.3232
  1217.5000      7.9115      2.6004      0.0490      3.0079    110.0905
  1217.6000      7.9115      2.6215      0.0488      1.7289    109.7509
  1217.7000      7.9115      2.6322      0.0972      1.0760    110.3470
  1217.8000      7.8590      2.6246      0.0866      1.5414    113.7966
  1217.9000      7.8590      2.5994      0.1161      3.0653    121.4629
  1218.0000      7.8512      2.5730      0.0229      4.6659    129.3587
  1218.1000      7.8512      2.5733     -0.0173      4.6487    131.8913
  1218.2000      7.8512      2.6021      0.0773      2.9041    130.3031
  1218.3000      7.8485      2.6200      0.0998      1.8208    128.6207
  1218.4000      7.8485      2.6025      0.0563      2.8782    126.3790
  1218.5000      7.8557      2.5725      0.0218      4.6951    124.1966
  1218.6000      7.8557      2.5681      0.0191      4.9653    124.1463
  1218.7000      7.8557      2.5974      0.0974      3.1881    125.2832
  1218.8000      7.8908      2.6278      0.1073      1.3440    126.5537
  1218.9000      7.8908      2.6279      0.0937      1.3398    124.6522
  1219.0000      7.9082      2.5983      0.0784      3.1350    119.5583
  1219.1000      7.9082      2.5608      0.0348      5.4088    118.3143
  1219.2000      7.9082      2.5408      0.0044      6.6211    121.9492
  1219.3000      7.9254      2.5453      0.0425      6.3434    122.2831
  1219.4000      7.9254      2.5584      0.0546      5.5503    116.2687
  1219.5000      7.9310      2.5685      0.0923      4.9421    107.8077
  1219.6000      7.9310      2.5792      0.0929      4.2893    100.0076
  1219.7000      7.9310      2.5860      0.1528      3.8792     94.8569
  1219.8000      7.8482      2.5799      0.1731      4.2468     93.2900
  1219.9000      7.8482      2.5724      0.1664      4.7013     94.3070
  1220.0000      7.8295      2.5865      0.1029      3.8510     95.2055
  1220.1000      7.8295      2.6333      0.1605      1.0113     94.1516
  1220.2000      7.8295      2.6893      0.2209     -2.3822     92.1071
  1220.3000      7.8418      2.7105      0.1822     -3.6690     91.6789
  1220.4000      7.8418      2.6826      0.1422     -1.9777     94.5329
  1220.5000      7.8634      2.6329      0.0477      1.0391     99.8297
  1220.6000      7.8634      2.5955     -0.0208      3.3041    104.1132
  1220.7000      7.8634      2.5770      0.0684      4.4254    104.1580
  1220.8000      7.8805      2.5689     -0.0259      4.9157     99.0356
  1220.9000      7.8805      2.5784     -0.0446      4.3409     89.9571
  1221.0000      7.8851      2.6071      0.0139      2.6010     81.1312
  1221.1000      7.8851      2.6352      0.0925      0.8984     76.7711
  1221.2000      7.8851      2.6517      0.0664     -0.1022     77.2925
  1221.3000      7.8741      2.6680      0.0800     -1.0895     80.6292
  1221.4000      7.8741      2.6870      0.1310     -2.2445     84.1964
  1221.5000      7.8377      2.6958      0.1016     -2.7728     86.3320
  1221.6000      7.8377      2.6969      0.0640     -2.8438     85.1337
  1221.7000      7.8377      2.7037      0.1371     -3.2548     77.9668
  1221.8000      7.8369      2.7122      0.0688     -3.7667     68.9855
  1221.9000      7.8369      2.7127      0.0641     -3.8024     65.0628
  1222.0000      7.8775      2.7073      0.0608     -3.4701     65.7833
  1222.1000      7.8775      2.7114      0.0531     -3.7199     64.6659
  1222.2000      7.8775      2.7198      0.1462     -4.2317     59.6916
  1222.3000      7.9164      2.7037      0.1091     -3.2549     55.4835
  1222.4000      7.9164      2.6647      0.0290     -0.8938     54.0912
  1222.5000      7.9020      2.6296      0.0201      1.2392     54.1984
  1222.6000      7.9020      2.6122     -0.0049      2.2931     58.5321
  1222.7000      7.9020      2.6108      0.0095      2.3761     67.0528
  1222.8000      7.8822      2.6118      0.0510      2.3131     71.8751
  1222.9000      7.8822      2.6031      0.0510      2.8450     70.3518
  1223.0000      7.9016      2.5931      0.0279      3.4473     68.5165
  1223.1000      7.9016      2.5986      0.0388      3.1150     69.1532
  1223.2000      7.9016      2.6194      0.0049      1.8569     68.6765
  1223.3000      8.0135      2.6466      0.0157      0.2062     64.0564
  1223.4000      8.0135      2.6774      0.0635     -1.6625     58.5335
  1223.5000      8.0471      2.7067      0.1114     -3.4351     57.5956
  1223.6000      8.0471      2.7240      0.1124     -4.4831     60.5975
  1223.7000      8.0471      2.7130      0.1651     -3.8173     63.2982
  1223.8000      7.9681      2.6720      0.0456     -1.3339     65.3225
  1223.9000      7.9681      2.6359      0.0053      0.8520     67.5262
  1224.0000      7.9916      2.6276     -0.0112      1.3563     70.5662
  1224.1000      7.9916      2.6283      0.0487      1.3163     74.9957
  1224.2000      7.9916      2.6193      0.0165      1.8593     79.4039
