~Version Information
VERS.                      2.0: CWLS Log ASCII Standard - VERSION 2.0
WRAP.                       NO: One line per depth step
~Well Information Block
STRT.FT                 2.0000: 
STOP.FT               698.7500: 
STEP.FT                 0.2500: 
NULL.                -999.2500: 
COMP.          XTO Energy Inc.: COMPANY
WELL.          Golden Eagle 20-14: WELL
FLD.           Purgatrorie River: FIELD
LOC.           587' FSL & 2478' FWL--: LOCATION
STAT.                       CO: State
CNTY.               Las Animas: COUNTY
CTRY. USA : Country
SECT. 20 : Section
TOWN. 33S : Township
RANG. 67W : Range
SRVC.          Patterson Wireline: SERVICE COMPANY
DATE.          Sat Dec 10 16:49:08 2005: LOG DATE
API.           05 071 08614 00: UNIQUE WELL ID
~Curve Information Block
DEPT.FT            0 000 00 00: Depth
MINMK.                        : Magnetic Mark Ticks
TEMP.degF                     : Downhole Temperature
DTMP.degF                     : Delta Temperature
~Parameter Information Block
~A  Depth      MINMK        TEMP        DTMP    
     2.0000      0.0000   -999.2500   -999.2500
     2.2500      0.0000     -1.7812   -999.2500
     2.5000      0.0000     53.9766   -999.2500
     2.7500      0.0000     53.9770   -999.2500
     3.0000      0.0000     53.9774   -999.2500
     3.2500      0.0000     53.9777     27.8801
     3.5000      0.0000     53.9781      0.0015
     3.7500      0.0000     53.9784      0.0015
     4.0000      0.0000     53.9788      0.0015
     4.2500      0.0000     53.9791      0.0017
     4.5000      0.0000     53.9795      0.0009
     4.7500      0.0000     53.9800     -0.0003
     5.0000      0.0000     53.9805     -0.0044
     5.2500      0.0000     53.9810     -0.0138
     5.5000      0.0000     53.9800     -0.3291
     5.7500      0.0000     53.9778     -0.5986
     6.0000      0.0000     53.9700     -1.1147
     6.2500      0.0000     53.9516     -1.5532
     6.5000      0.0000     53.3213     -2.3242
     6.7500      0.0000     52.7829     -2.8518
     7.0000      0.0000     51.7512     -3.2919
     7.2500      0.0000     50.8747     -3.5793
     7.5000      0.0000     49.3315     -3.8567
     7.7500      0.0000     48.2743     -4.0896
     8.0000      0.0000     47.3863     -3.9997
     8.2500      0.0000     46.7929     -3.9192
     8.5000      0.0000     45.6080     -3.7559
     8.7500      0.0000     44.6037     -3.6357
     9.0000      0.0000     43.7517     -3.5396
     9.2500      0.0000     43.0363     -3.5359
     9.5000      0.0000     41.8197     -3.1937
     9.7500      0.0000     41.0029     -2.9031
    10.0000      0.0000     40.3070     -2.6612
    10.2500      0.0000     39.7212     -2.4599
    10.5000      0.0000     39.2205     -1.9872
    10.7500      0.0000     38.7974     -1.6953
    11.0000      0.0000     38.4293     -1.4496
    11.2500      0.0000     38.1164     -1.2469
    11.5000      0.0000     37.8454     -1.0767
    11.7500      0.0000     37.6123     -0.9358
    12.0000      0.0000     37.4078     -0.8162
    12.2500      0.0000     37.2274     -0.7174
    12.5000      0.0000     37.0671     -0.6338
    12.7500      0.0000     36.9258     -0.5657
    13.0000      0.0000     36.7968     -0.5083
    13.2500      0.0000     36.6816     -0.4598
    13.5000      0.0000     36.5778     -0.4189
    13.7500      0.0000     36.4810     -0.3853
    14.0000      0.0000     36.3913     -0.3554
    14.2500      0.0000     36.3077     -0.3314
    14.5000      0.0000     36.2293     -0.3112
    14.7500      0.0000     36.1552     -0.2938
    15.0000      0.0000     36.0860     -0.2786
    15.2500      0.0000     36.0189     -0.2660
    15.5000      0.0000     35.9554     -0.2548
    15.7500      0.0000     35.8933     -0.2452
    16.0000      0.0000     35.8342     -0.2374
    16.2500      0.0000     35.7758     -0.2306
    16.5000      0.0000     35.7197     -0.2247
    16.7500      0.0000     35.6649     -0.2192
    17.0000      0.0000     35.6112     -0.2147
    17.2500      0.0000     35.5578     -0.2162
    17.5000      0.0000     35.5060     -0.2124
    17.7500      0.0000     35.4550     -0.2087
    18.0000      0.0000     35.4049     -0.2055
    18.2500      0.0000     35.3435     -0.2022
    18.5000      0.0000     35.2949     -0.1938
    18.7500      0.0000     35.2476     -0.1909
    19.0000      0.0000     35.2002     -0.1884
    19.2500      0.0000     35.1534     -0.1854
    19.5000      0.0000     35.1184     -0.1830
    19.7500      0.0000     35.0733     -0.1806
    20.0000      0.0000     35.0281     -0.1781
    20.2500      0.0000     34.9727     -0.1756
    20.5000      0.0000     34.9290     -0.1785
    20.7500      0.0000     34.8865     -0.1762
    21.0000      0.0000     34.8440     -0.1733
    21.2500      0.0000     34.8021     -0.1653
    21.5000      0.0000     34.7615     -0.1628
    21.7500      0.0000     34.7208     -0.1603
    22.0000      0.0000     34.6815     -0.1579
    22.2500      0.0000     34.6421     -0.1552
    22.5000      0.0000     34.6034     -0.1533
    22.7500      0.0000     34.5658     -0.1508
    23.0000      0.0000     34.5282     -0.1491
    23.2500      0.0000     34.4916     -0.1469
    23.5000      0.0000     34.4550     -0.1448
    23.7500      0.0000     34.4192     -0.1434
    24.0000      0.0000     34.3833     -0.1414
    24.2500      0.0000     34.3483     -0.1400
    24.5000      0.0000     34.3137     -0.1378
    24.7500      0.0000     34.2790     -0.1359
    25.0000      0.0000     34.2453     -0.1337
    25.2500      0.0000     34.2117     -0.1315
    25.5000      0.0000     34.1793     -0.1293
    25.7500      0.0000     34.1475     -0.1268
    26.0000      0.0000     34.1158     -0.1242
    26.2500      0.0000     34.0853     -0.1216
    26.5000      0.0000     34.0551     -0.1191
    26.7500      0.0000     34.0254     -0.1168
    27.0000      0.0000     33.9969     -0.1140
    27.2500      0.0000     33.9685     -0.1118
    27.5000      0.0000     33.9411     -0.1123
    27.7500      0.0000     33.9139     -0.1096
    28.0000      0.0000     33.8878     -0.1045
    28.2500      0.0000     33.8618     -0.1021
    28.5000      0.0000     33.8304     -0.0997
    28.7500      0.0000     33.8062     -0.0974
    29.0000      0.0000     33.7880     -0.0954
    29.2500      0.0000     33.7644     -0.0930
    29.5000      0.0000     33.7416     -0.0903
    29.7500      0.0000     33.7191     -0.0860
    30.0000      0.0000     33.6970     -0.0867
    30.2500      0.0000     33.6758     -0.0847
    30.5000      0.0000     33.6497     -0.0828
    30.7500      0.0000     33.6343     -0.0808
    31.0000      0.0000     33.6145     -0.0787
    31.2500      0.0000     33.5950     -0.0789
    31.5000      0.0000     33.5760     -0.0742
    31.7500      0.0000     33.5576     -0.0746
    32.0000      0.0000     33.5396     -0.0726
    32.2500      0.0000     33.5180     -0.0705
    32.5000      0.0000     33.5013     -0.0683
    32.7500      0.0000     33.4850     -0.0661
    33.0000      0.0000     33.4693     -0.0639
    33.2500      0.0000     33.4541     -0.0596
    33.5000      0.0000     33.4395     -0.0574
    33.7500      0.0000     33.4254     -0.0553
    34.0000      0.0000     33.4118     -0.0531
    34.2500      0.0000     33.3988     -0.0509
    34.5000      0.0000     33.3864     -0.0486
    34.7500      0.0000     33.3745     -0.0463
    35.0000      0.0000     33.3630     -0.0429
    35.2500      0.0000     33.3524     -0.0406
    35.5000      0.0000     33.3423     -0.0381
    35.7500      0.0000     33.3328     -0.0358
    36.0000      0.0000     33.3261     -0.0333
    36.2500      0.0000     33.3177     -0.0310
    36.5000      0.0000     33.3101     -0.0292
    36.7500      0.0000     33.3029     -0.0267
    37.0000      0.0000     33.2964     -0.0253
    37.2500      0.0000     33.2905     -0.0227
    37.5000      0.0000     33.2839     -0.0201
    37.7500      0.0000     33.2793     -0.0174
    38.0000      0.0000     33.2755     -0.0146
    38.2500      0.0000     33.2723     -0.0119
    38.5000      0.0000     33.2699     -0.0085
    38.7500      0.0000     33.2682     -0.0058
    39.0000      0.0000     33.2671     -0.0033
    39.2500      0.0000     33.2667     -0.0009
    39.5000      0.0000     33.2669      0.0013
    39.7500      0.0000     33.2677      0.0033
    40.0000      0.0000     33.2689      0.0051
    40.2500      0.0000     33.2705      0.0066
    40.5000      0.0000     33.2724      0.0085
    40.7500      0.0000     33.2747      0.0094
    41.0000      0.0000     33.2772      0.0106
    41.2500      0.0000     33.2800      0.0118
    41.5000      0.0000     33.2839      0.0131
    41.7500      0.0000     33.2864      0.0146
    42.0000      0.0000     33.2900      0.0163
    42.2500      0.0000     33.2941      0.0181
    42.5000      0.0000     33.2987      0.0197
    42.7500      0.0000     33.3039      0.0225
    43.0000      0.0000     33.3098      0.0250
    43.2500      0.0000     33.3162      0.0276
    43.5000      0.0000     33.3234      0.0303
