~Version Information
VERS.                      2.0: CWLS Log ASCII Standard - VERSION 2.0
WRAP.                       NO: One line per depth step
~Well Information Block
STRT.FT                 0.0000: 
STOP.FT              1426.7500: 
STEP.FT                 0.2500: 
NULL.                -999.2500: 
COMP.          Pioneer Natural Resources: COMPANY
WELL.            Bordeaux 42-2: WELL
FLD.           Purgatorie River: FIELD
LOC.           1963' FNL & 1148' FEL: LOCATION
PROV.                 Colorado: PROVINCE
CNTY.               Las Animas: COUNTRY
SRVC.                Patterson: SERVICE COMPANY
DATE.          Fri Dec 02 09:28:20 2005: LOG DATE
UWI.                          : UNIQUE WELL ID
~Curve Information Block
DEPT.FT            0 000 00 00: Depth
CCL.                          : Casing Collar Locator
TT3.usec                      : CBL 3' Travel Time
AMP3.mV                       : CBL 3' Amplitude
GR.GAPI                       : Gamma Ray
~Parameter Information Block
~A  Depth       CCL         TT3         AMP3         GR     
# ...
   268.0000      0.0000    726.5202      9.2943     99.8135
   268.2500      0.0000    726.9423      9.4974    104.5575
   268.5000      0.0000    727.0744      9.7550    108.9594
   268.7500      0.0000    727.0686     10.0147    110.4928
   269.0000      0.0000    726.8817     10.2368    108.0914
   269.2500      0.0000    726.3621     10.4486    103.1694
   269.5000      0.0000    724.8725     10.7062     98.3983
   269.7500      0.0000    721.4603     11.0235     95.8822
   270.0000      0.0000    716.8451     11.3761     96.5539
   270.2500      0.0000    714.5688     11.7304    100.2347
   270.5000      0.0000    716.9511     12.0342    105.4490
   270.7500      0.0000    721.5185     12.2165    109.8304
   271.0000      0.0000    724.7847     12.2534    111.7567
   271.2500      0.0000    726.1407     12.2063    111.6779
   271.5000      0.0000    726.5429     12.1480    111.4344
   271.7500      0.0000    726.6145     12.1057    112.3772
   272.0000      0.0000    726.5288     12.0792    114.5023
   272.2500      0.0000    726.3443     12.0461    117.1170
   272.5000      0.0000    725.9604     11.9769    119.6112
   272.7500      0.0000    724.7432     11.8847    121.3809
   273.0000      0.0000    721.6779     11.8248    121.6093
   273.2500      0.0000    717.2914     11.8469    119.7825
   273.5000      0.0000    714.9524     11.9584    116.4271
   273.7500      0.0000    717.0377     12.1055    113.0163
   274.0000      0.0000    721.3021     12.1849    111.0176
   274.2500      0.0000    724.4367     12.1118    110.9242
   274.5000      0.0000    725.8205     11.9133    111.9228
   274.7500      0.0000    726.2531     11.7278    112.4286
   275.0000      0.0000    726.2927     11.6762    111.2893
   275.2500      0.0000    726.2419     11.7468    108.6221
   275.5000      0.0000    726.2336     11.8404    105.4119
   275.7500      0.0000    726.0061     11.8931    102.5336
   276.0000      0.0000    724.5388     11.9105    100.3501
   276.2500      0.0000    720.0295     11.9238     98.8632
   276.5000      0.0000    711.8683     11.9488     97.8602
   276.7500      0.0000    703.2944     11.9753     97.1487
   277.0000      0.0000    698.3640     11.9942     96.9361
   277.2500      0.0000    695.9080     11.9913     97.8976
   277.5000      0.0000    692.5020     11.9480    100.7061
   277.7500      0.0000    689.4596     11.9009    105.3387
   278.0000      0.0000    690.9755     11.9161    110.6396
   278.2500      0.0000    698.0313     11.9831    114.5646
   278.5000      0.0000    706.4001     12.0135    115.1934
   278.7500      0.0000    711.3036     11.9564    111.9418
   279.0000      0.0000    713.6149     11.8739    105.9624
   279.2500      0.0000    716.4746     11.8499     99.2558
   279.5000      0.0000    718.7786     11.8820     93.2720
   279.7500      0.0000    718.4578     11.9222     88.1791
   280.0000      0.0000    714.3832     11.9461     83.1933
   280.2500      0.0000    697.7013     11.9057     77.4857
   280.5000      0.0000    655.3572     11.6401     70.9378
   280.7500      0.0000    597.8368     10.9727     64.4281
   281.0000      0.0000    567.1765     10.0033     59.5674
   281.2500      0.0000    595.5145      9.1138     57.8271
   281.5000      0.0000    672.7132      8.5384     59.3341
   281.7500      0.0000    761.5626      8.2349     62.3496
   282.0000      0.0000    819.4389      8.1560     64.3424
   282.2500      0.0000    826.3616      8.2674     63.9629
   282.5000     -2.0000    809.1465      8.4560     61.9836
   282.7500     -2.0000    803.6791      8.6032     60.3267
   283.0000      2.0000    804.6620      8.6633     60.2390
   283.2500      0.0000    786.2360      8.7951     61.3964
   283.5000      0.0000    745.3267      9.4377     62.6306
   283.7500      0.0000    694.1376     10.8838     63.3688
   284.0000      0.0000    639.6553     12.6673     64.2336
   284.2500      0.0000    594.7461     13.8440     66.1370
   284.5000      0.0000    584.3670     14.0021     68.9991
   284.7500      0.0000    613.2854     13.5080     71.9294
   285.0000      0.0000    651.3926     12.8546     74.6275
   285.2500      0.0000    672.8617     12.3237     77.8918
   285.5000      0.0000    679.2539     12.0085     82.6753
   285.7500      0.0000    681.5327     11.8337     89.2446
   286.0000      0.0000    686.1206     11.6886     97.1695
   286.2500      0.0000    694.2236     11.5305    105.4613
   286.5000      0.0000    701.5997     11.3405    112.7234
   286.7500      0.0000    702.2943     11.0961    117.7564
   287.0000      0.0000    697.1606     10.8209    120.3319
   287.2500      0.0000    694.2695     10.5907    121.3817
   287.5000      0.0000    699.2983     10.4657    122.3180
   287.7500      0.0000    709.6830     10.4788    124.0292
   288.0000      0.0000    718.9799     10.6581    126.2915
   288.2500      0.0000    723.9745     10.9600    127.9580
   288.5000      0.0000    725.6946     11.2397    127.7699
   288.7500      0.0000    726.0441     11.3970    125.3453
   289.0000      0.0000    725.9966     11.4944    121.7160
   289.2500      0.0000    725.6894     11.6308    118.8765
   289.5000      0.0000    724.4996     11.7662    118.4693
   289.7500      0.0000    721.4086     11.8154    120.6043
   290.0000      0.0000    717.0310     11.8209    123.8237
   290.2500      0.0000    714.8304     11.8454    126.1912
   290.5000      0.0000    716.9446     11.8518    126.5977
   290.7500      0.0000    720.0156     11.8334    125.1447
   291.0000      0.0000    718.7587     11.8664    122.2831
   291.2500      0.0000    711.9672     11.9756    118.0829
   291.5000      0.0000    703.8999     12.1059    113.0024
   291.7500      0.0000    699.3353     12.2070    108.8677
   292.0000      0.0000    698.0126     12.2613    107.7747
   292.2500      0.0000    698.2395     12.2625    109.8072
   292.5000      0.0000    701.3984     12.2286    112.7918
   292.7500      0.0000    706.8197     12.2135    114.6918
   293.0000      0.0000    710.6360     12.2613    115.5386
   293.2500      0.0000    712.9235     12.3620    116.6209
   293.5000      0.0000    716.6789     12.4738    118.4056
   293.7500      0.0000    721.0937     12.5604    119.9251
   294.0000      0.0000    722.0021     12.6118    119.9340
   294.2500      0.0000    713.5105     12.6493    118.0658
   294.5000      0.0000    689.1076     12.6901    114.7992
   294.7500      0.0000    655.8889     12.7156    110.7117
   295.0000      0.0000    644.0686     12.6959    106.0587
   295.2500      0.0000    672.6190     12.6052    100.9913
   295.5000      0.0000    716.9520     12.3973     95.8571
   295.7500      0.0000    743.3370     12.0193     91.0308
   296.0000      0.0000    748.3461     11.4708     86.3951
   296.2500      0.0000    746.1483     10.8021     81.2339
   296.5000      0.0000    744.6346     10.0630     75.0446
   296.7500      0.0000    742.6240      9.2934     68.3113
   297.0000      0.0000    738.7339      8.5360     61.9972
   297.2500      0.0000    736.2551      7.8028     56.4588
   297.5000      0.0000    738.0721      7.0594     51.4279
   297.7500      0.0000    741.4991      6.2967     46.9288
   298.0000      0.0000    742.0065      5.5572     43.5826
   298.2500      0.0000    738.3159      4.8700     41.8460
   298.5000      0.0000    732.4749      4.2552     41.3154
   298.7500      0.0000    727.3909      3.7662     41.0311
   299.0000      0.0000    724.4274      3.4346     40.2611
   299.2500      0.0000    723.1058      3.2271     38.8527
   299.5000      0.0000    722.4869      3.1061     37.1245
   299.7500      0.0000    721.7994      3.0643     35.6600
   300.0000      0.0000    719.8094      3.0738     34.9714
   300.2500      0.0000    714.2236      3.0881     35.1025
   300.5000      0.0000    703.4370      3.1116     35.6128
   300.7500      0.0000    689.9462      3.1850     36.0080
   301.0000      0.0000    679.3604      3.3011     36.1749
   301.2500      0.0000    675.2090      3.4199     36.4529
