~Version Information
VERS.                      2.0: CWLS Log ASCII Standard - VERSION 2.0
WRAP.                       NO: One line per depth step
~Well Information Block
STRT.FT                -4.2500: 
STOP.FT               745.0000: 
STEP.FT                 0.2500: 
NULL.                -999.2500: 
COMP.          Pioneer Natural Resources: COMPANY
WELL.                Zed 11-23: WELL
FLD.           Purgatoire River: FIELD
LOC.           641' FNL & 952' FWL: LOCATION
CNTY.               Las Animas: COUNTY
SRVC.                         : SERVICE COMPANY
DATE.          Fri Mar 03 16:43:06 2006: LOG DATE
UWI.           05 071 08702 00: UNIQUE WELL ID
STAT.                       CO: STATE
~Curve Information Block
DEPT.FT            0 000 00 00: Depth
GR.GAPI                       : Gamma Ray
CCL.                          : Casing Collar Locator
TT3.usec                      : CBL 3' Travel Time
AMP3.mV                       : CBL 3' Amplitude
~Parameter Information Block
~A  Depth        GR         CCL         TT3         AMP3    
# ...
    96.2500     56.2118      0.0000    785.2144      6.4133
    96.5000     59.0821      0.0000    781.6033      6.6441
    96.7500     62.3831      0.0000    775.0651      6.8842
    97.0000     66.9001      0.0000    764.6006      7.0303
    97.2500     73.3654      0.0000    753.3405      7.0835
    97.5000     82.1795      0.0000    745.0110      7.1126
    97.7500     93.1254      0.0000    741.2192      7.1528
    98.0000    105.0709      0.0000    741.7168      7.1836
    98.2500    116.0029      0.0000    745.7371      7.1791
    98.5000    123.6939      0.0000    752.2943      7.1458
    98.7500    126.4888      0.0000    759.8237      7.1190
    99.0000    123.6541      0.0000    766.4658      7.1339
    99.2500    115.6392      0.0000    770.9860      7.1935
    99.5000    104.4364      0.0000    773.1901      7.2587
    99.7500     93.0890      0.0000    773.3983      7.2800
   100.0000     83.9132      0.0000    771.7580      7.2397
   100.2500     77.0349      0.0000    768.3077      7.1627
   100.5000     70.9868      0.0000    763.6472      7.0888
   100.7500     64.7116      0.0000    759.1628      7.0385
   101.0000     58.7686      0.0000    756.1307      7.0057
   101.2500     54.6742      0.0000    754.5702      6.9771
   101.5000     53.3588      0.0000    753.2641      6.9502
   101.7500     54.3546      0.0000    750.9603      6.9318
   102.0000     56.3073      0.0000    747.4390      6.9267
   102.2500     58.0253      0.0000    743.5067      6.9344
   102.5000     58.9650      0.0000    740.1630      6.9530
   102.7500     59.0053      0.0000    737.8677      6.9812
   103.0000     58.3184      0.0000    736.4946      7.0160
   103.2500     57.6213      0.0000    735.7252      7.0528
   103.5000     58.1470      0.0000    735.3412      7.0879
   103.7500     60.8757      0.0000    735.2405      7.1231
   104.0000     65.6513      0.0000    735.3414      7.1643
   104.2500     71.2160      0.0000    735.5414      7.2135
   104.5000     76.2819      0.0000    735.7354      7.2630
   104.7500     80.5535      0.0000    735.8566      7.3013
   105.0000     84.6166      0.0000    735.8868      7.3217
   105.2500     88.9052      0.0000    735.8318      7.3244
   105.5000     93.0378      0.0000    735.6970      7.3141
   105.7500     96.3140      0.0000    735.4971      7.2999
   106.0000     98.5720      0.0000    735.3099      7.2918
   106.2500    100.1762      0.0000    735.3727      7.2930
   106.5000    101.4259      0.0000    736.2003      7.3007
   106.7500    102.4391      0.0000    738.5872      7.3132
   107.0000    103.3259      0.0000    743.2455      7.3358
   107.2500    103.9443      0.0000    750.1002      7.3743
   107.5000    103.7523      0.0000    757.8950      7.4230
   107.7500    102.4015      0.0000    764.7958      7.4594
   108.0000    100.3988      0.0000    769.5768      7.4592
   108.2500     98.8583      0.0000    772.1934      7.4201
   108.5000     98.5855      0.0000    773.3458      7.3644
   108.7500     99.5064      0.0000    773.7654      7.3155
   109.0000    100.9051      0.0000    773.8990      7.2737
   109.2500    102.1131      0.0000    773.9564      7.2262
   109.5000    102.9560      0.0000    774.0236      7.1740
   109.7500    103.5234      0.0000    774.1302      7.1394
   110.0000    103.5532      0.0000    774.2877      7.1412
   110.2500    102.4583      0.0000    774.4959      7.1722
   110.5000    100.2655      0.0000    774.7277      7.2057
   110.7500     98.0040      0.0000    774.9211      7.2195
   111.0000     96.6318      0.0000    774.9676      7.2120
   111.2500     96.1005      0.0000    774.6417      7.2007
   111.5000     95.9052      0.0000    773.4663      7.2082
   111.7500     95.8425      0.0000    770.6828      7.2440
   112.0000     95.8587      0.0000    765.6052      7.2979
   112.2500     95.9195      0.0000    758.3309      7.3519
   112.5000     96.3942      0.0000    750.1307      7.4006
   112.7500     97.9818      0.0000    742.8475      7.4536
   113.0000    100.9169      0.0000    737.7306      7.5191
   113.2500    104.4255      0.0000    734.8774      7.5919
   113.5000    106.9967      0.0000    733.6406      7.6590
   113.7500    107.1815      0.0000    733.2968      7.7125
   114.0000    104.5166      0.0000    733.3561      7.7513
   114.2500     99.9674      0.0000    733.5436      7.7744
   114.5000     95.2495      0.0000    733.7122      7.7788
   114.7500     91.6014      0.0000    733.7623      7.7655
   115.0000     89.2662      0.0000    733.5101      7.7476
   115.2500     87.7652      0.0000    732.4999      7.7496
   115.5000     86.3260      0.0000    729.9791      7.7901
   115.7500     84.3873      0.0000    725.3601      7.8605
   116.0000     82.0483      0.0000    719.1028      7.9212
   116.2500     79.9739      0.0000    713.1639      7.9235
   116.5000     78.9200      0.0000    710.0641      7.8431
   116.7500     79.3854      0.0000    711.0157      7.6974
   117.0000     81.3551      0.0000    714.9188      7.5324
   117.2500     84.1668      0.0000    719.3937      7.3974
   117.5000     86.9537      0.0000    722.9392      7.3256
   117.7500     89.4230      0.0000    726.1760      7.3233
   118.0000     92.0105      0.0000    730.8892      7.3705
   118.2500     95.1870      0.0000    737.7056      7.4324
   118.5000     98.8624      0.0000    744.8858      7.4793
   118.7500    102.4975      0.0000    749.6573      7.5013
   119.0000    105.4860      0.0000    750.4797      7.5079
   119.2500    107.3358      0.0000    747.8192      7.5168
   119.5000    107.8244      0.0000    743.3289      7.5400
   119.7500    107.2881      0.0000    738.7678      7.5782
   120.0000    106.6851      0.0000    735.3069      7.6238
   120.2500    106.9809      0.0000    733.2661      7.6674
   120.5000    108.2576      0.0000    732.3180      7.6997
   120.7500    109.5221      0.0000    731.9523      7.7111
   121.0000    109.3954      0.0000    731.8069      7.6951
   121.2500    107.0092      0.0000    731.7299      7.6564
   121.5000    102.5998      0.0000    731.6850      7.6124
   121.7500     97.3733      0.0000    731.6672      7.5815
   122.0000     92.4738      0.0000    731.6757      7.5718
   122.2500     88.1032      0.0000    731.7158      7.5848
   122.5000     83.9682      0.0000    731.7813      7.6248
   122.7500     80.3755      0.0000    731.8546      7.6925
   123.0000     78.3753      0.0000    731.9394      7.7705
   123.2500     78.7431      0.0000    732.0824      7.8271
   123.5000     81.1104      0.0000    732.3388      7.8460
   123.7500     84.2041      0.0000    732.7358      7.8416
   124.0000     86.8108      0.0000    733.3172      7.8402
   124.2500     88.5609      0.0000    734.2512      7.8518
   124.5000     89.8897      0.0000    735.7944      7.8704
   124.7500     91.2637      0.0000    737.9681      7.8909
   125.0000     92.5756      0.0000    740.2421      7.9122
   125.2500     93.3093      0.0000    741.8224      7.9295
   125.5000     93.0184      0.0000    742.4402      7.9371
   125.7500     91.6659      0.0000    742.5593      7.9369
   126.0000     89.8298      0.0000    742.5632      7.9346
   126.2500     88.4873      0.0000    742.1570      7.9308
   126.5000     88.0810      0.0000    740.9648      7.9223
   126.7500     87.7059      0.0000    739.4097      7.9081
   127.0000     85.6323      0.0000    738.6340      7.8888
   127.2500     80.8924      0.0000    739.8524      7.8663
   127.5000     74.3134      0.0000    744.1255      7.8452
   127.7500     68.0171      0.0000    752.4583      7.8315
   128.0000     64.0058      0.0000    765.7143      7.8302
   128.2500     63.1282      0.0000    783.9913      7.8461
   128.5000     64.9379      0.0000    805.1196      7.8809
   128.7500     68.1558      0.0000    823.4568      7.9283
   129.0000     71.4842      0.0000    832.2133      7.9765
   129.2500     74.4117      0.0000    828.9914      8.0199
   129.5000     77.1860      0.0000    817.8156      8.0637
