~Version Information
VERS.                      2.0: CWLS Log ASCII Standard - VERSION 2.0
WRAP.                       NO: One line per depth step
~Well Information Block
STRT.FT               230.2000: 
STOP.FT              1518.7000: 
STEP.FT                 0.1000: 
NULL.                -999.2500: 
COMP.          Pioneer Natural Resources: COMPANY
WELL.          Mow 8-14-33-67 Tr: WELL
FLD.           Purgatoire River: FIELD
LOC.           2258' FNL & 929' FEL: LOCATION
PROV.                 Colorado: PROVINCE
CNTY.               Las Animas: COUNTRY
SRVC.                Patterson: SERVICE COMPANY
DATE.          Mon Jan 30 11:22:55 2006: LOG DATE
UWI.           05 071 08684 00: UNIQUE WELL ID
~Curve Information Block
DEPT.FT            0 000 00 00: Depth
DCAL.in                       : CDL Caliper
DPOR.pu                       : CDL Density Porosity
RHOB.g/cc                     : CDL Bulk Density
RHOC.g/cc                     : CDL Density Correction
GR.GAPI                       : Gamma Ray
~Parameter Information Block
~A  Depth       DCAL        DPOR        RHOB        RHOC         GR     
# ...
   756.6000      7.9111      7.2859      2.5298      0.0027     76.8692
   756.7000      7.9111      5.8145      2.5541      0.0667     79.2616
   756.8000      7.9141      4.2028      2.5807      0.1138     84.4010
   756.9000      7.9141      3.6425      2.5899      0.0943     91.4347
   757.0000      7.9184      3.7447      2.5882      0.0539    100.4095
   757.1000      7.9184      3.7881      2.5875      0.0464    107.5998
   757.2000      7.9184      3.9304      2.5851      0.1048    104.0955
   757.3000      7.9159      4.2977      2.5791      0.0610     95.0570
   757.4000      7.9159      4.7737      2.5712      0.0799     93.8205
   757.5000      7.9103      5.9432      2.5519      0.0999    102.0736
   757.6000      7.9103      8.0201      2.5177      0.0583    114.0610
   757.7000      7.9103     10.1440      2.4826      0.0362    125.1165
   757.8000      7.9071     10.6658      2.4740     -0.0401    130.8025
   757.9000      7.9071      8.1187      2.5160      0.0174    127.9384
   758.0000      7.9076      3.1843      2.5975      0.0675    112.2334
   758.1000      7.9076     -2.0584      2.6840      0.1241     87.6563
   758.2000      7.9076     -6.1749      2.7519      0.1165     69.6730
   758.3000      7.9035     -8.5889      2.7917      0.1346     63.7150
   758.4000      7.9035     -9.3292      2.8039      0.1344     65.2194
   758.5000      7.8876     -9.1726      2.8013      0.1340     74.2652
   758.6000      7.8876     -8.8212      2.7956      0.0944     83.9956
   758.7000      7.8876     -7.7863      2.7785      0.0697     84.2251
   758.8000      7.8716     -5.6970      2.7440     -0.0464     77.4789
   758.9000      7.8716     -3.7240      2.7114     -0.1125     70.0281
   759.0000      7.8621     -2.6679      2.6940     -0.0743     64.3959
   759.1000      7.8621     -2.1957      2.6862     -0.0455     62.6197
   759.2000      7.8621     -2.2478      2.6871      0.0322     62.9069
   759.3000      7.8564     -2.4117      2.6898      0.1039     57.3229
   759.4000      7.8564     -1.6278      2.6769      0.1076     50.1250
   759.5000      7.8571      0.1169      2.6481      0.0912     54.0927
   759.6000      7.8571      1.9389      2.6180      0.1138     66.1836
   759.7000      7.8571      3.7235      2.5886      0.0987     76.9327
   759.8000      7.8689      5.6747      2.5564      0.0864     88.9673
   759.9000      7.8689      7.5627      2.5252      0.0909    103.9222
   760.0000      7.8943      9.3603      2.4956      0.0607    110.5517
   760.1000      7.8943     11.1001      2.4668      0.0466    104.8319
   760.2000      7.8943     12.5611      2.4427      0.0528     96.9109
   760.3000      7.9226     13.8070      2.4222      0.0135     93.3871
   760.4000      7.9226     15.2130      2.3990      0.0007     97.5123
   760.5000      7.9439     16.8098      2.3726      0.0160    110.8026
   760.6000      7.9439     18.1388      2.3507      0.0140    122.0673
   760.7000      7.9439     18.7304      2.3409      0.0653    120.4306
   760.8000      7.9627     18.2586      2.3487      0.0500    113.0313
   760.9000      7.9627     16.4069      2.3793      0.0924    104.9736
   761.0000      7.9826     13.7259      2.4235      0.1430     90.9560
   761.1000      7.9826     11.6133      2.4584      0.2461     78.8687
   761.2000      7.9826     10.9195      2.4698      0.3080     80.2137
   761.3000      7.9935     10.6702      2.4739      0.2840     87.1019
   761.4000      7.9935      9.2618      2.4972      0.3065     90.4989
   761.5000      7.9833      7.3863      2.5281      0.3769     94.1902
   761.6000      7.9833      6.5476      2.5420      0.2776     99.4437
   761.7000      7.9833      6.3765      2.5448      0.2370    103.1781
   761.8000      7.9712      6.4281      2.5439      0.1985    106.1340
   761.9000      7.9712      7.0525      2.5336      0.1755    110.8894
   762.0000      7.9755      8.1957      2.5148      0.1679    116.9598
   762.1000      7.9755      9.5642      2.4922      0.1678    122.7231
   762.2000      7.9755     10.8446      2.4711      0.0613    127.6805
   762.3000      7.9766     11.3399      2.4629      0.0745    130.0054
   762.4000      7.9766     10.8973      2.4702      0.0267    130.2830
   762.5000      7.9787     10.4614      2.4774      0.0836    129.7585
   762.6000      7.9787     10.8773      2.4705      0.0742    125.8802
   762.7000      7.9787     11.4061      2.4618      0.0201    123.2831
   762.8000      7.9819     10.9757      2.4689      0.0460    130.2290
   762.9000      7.9819     10.1124      2.4831      0.0740    137.4545
   763.0000      7.9758      9.5949      2.4917      0.0427    131.2309
   763.1000      7.9758      9.3999      2.4949      0.0760    118.4246
   763.2000      7.9758      9.5911      2.4917      0.0570    110.7194
   763.3000      7.9658      9.9346      2.4861      0.0616    103.8007
   763.4000      7.9658     10.0606      2.4840      0.0639     95.6788
   763.5000      7.9615     10.7530      2.4726      0.1549     95.5696
   763.6000      7.9615     12.6980      2.4405      0.0325    104.1061
   763.7000      7.9615     14.5011      2.4107      0.0087    110.2539
   763.8000      7.9595     15.0018      2.4025      0.0351    106.3217
   763.9000      7.9595     14.8825      2.4044      0.0195    100.3484
   764.0000      7.9577     14.8579      2.4048      0.0422    104.3906
   764.1000      7.9577     15.0124      2.4023      0.0799    115.6167
   764.2000      7.9577     15.0530      2.4016      0.0429    123.4546
   764.3000      7.9591     14.5312      2.4102      0.0997    123.5329
   764.4000      7.9591     13.6848      2.4242      0.1179    117.6190
   764.5000      7.9617     12.8865      2.4374      0.1066    113.0711
   764.6000      7.9617     12.0077      2.4519      0.1235    115.6530
   764.7000      7.9617     11.2397      2.4645      0.1447    116.0265
   764.8000      7.9630     11.4303      2.4614      0.1675    106.6182
   764.9000      7.9630     13.1231      2.4335      0.1389    102.0907
   765.0000      7.9601     15.3412      2.3969      0.0436    111.0824
   765.1000      7.9601     16.4526      2.3785      0.0662    118.2102
   765.2000      7.9601     16.3019      2.3810      0.0726    116.5599
   765.3000      7.9516     15.8684      2.3882      0.0870    117.8321
   765.4000      7.9516     15.3451      2.3968      0.0389    127.3279
   765.5000      7.9400     14.3540      2.4132      0.1327    136.4605
   765.6000      7.9400     13.3186      2.4302      0.1379    140.6096
   765.7000      7.9400     12.3083      2.4469      0.1605    139.9373
   765.8000      7.9291     11.0566      2.4676      0.1884    131.1243
   765.9000      7.9291     10.0429      2.4843      0.2027    118.6200
   766.0000      7.9253      9.3697      2.4954      0.1344    112.7836
   766.1000      7.9253      8.6348      2.5075      0.1900    112.6100
   766.2000      7.9253      8.3272      2.5126      0.1913    114.5240
   766.3000      7.9402      9.2039      2.4981      0.1683    118.3630
   766.4000      7.9402     11.0102      2.4683      0.1292    118.5732
   766.5000      7.9533     12.6945      2.4405      0.1031    114.6858
   766.6000      7.9533     13.6106      2.4254      0.1047    114.0569
   766.7000      7.9533     14.1836      2.4160      0.0990    116.4096
   766.8000      7.9449     14.9510      2.4033      0.0728    115.1507
   766.9000      7.9449     15.3606      2.3965      0.0320    112.5909
   767.0000      7.9413     14.6189      2.4088      0.0476    113.2041
   767.1000      7.9413     13.2207      2.4319      0.0787    111.4667
   767.2000      7.9413     12.3874      2.4456      0.1328    107.3624
   767.3000      7.9404     12.8118      2.4386      0.1388    107.1657
   767.4000      7.9404     14.3858      2.4126      0.1642    106.1216
   767.5000      7.9355     16.0333      2.3855      0.1025    101.8348
   767.6000      7.9355     16.2434      2.3820      0.1175    106.3497
   767.7000      7.9355     14.9234      2.4038      0.1536    121.7508
