~Version Information
 VERS.                                  2.0 : CWLS LAS VERSION
 WRAP.                                   NO : WRAPING MODE
 SWARE .                 MController 2.5.0N : SOFTWARE VERSION
~Well Information
 WELL.                      Pavillion 44-25 : WELL
 COMP.    Pioneer Natural Resouces USA Inc. : COMPANY
 FLD.                      Purgatoire River : FIELD
 LOC.             SW/SW Sec 25 , T34S, R65W : LOCATION
 DATE.                             12/13/05 : DATE(S) LOGGED
 SRVC.       BLANCO Geological Services LLC : SERVICE COMPANY
 STAT.                                   CO : STATE
 CNTY.                           Las Animas : COUNTY
 CTRY.                                  USA : COUNTRY
 API.                          05-071-08624 : API NUMBER
 STRT.FT                             258.00 : START DEPTH
 STOP.FT                            1100.00 : STOP DEPTH
 STEP.FT                               1.00 : DEPTH INCREMENT
 NULL.                                -9999 : NULL VALUE
~Curve information
 DEPTH.FT                                   :
 ROP.MIN/FT                                 :
 GAS.UNITS                                  :
~ASCII Log data    
# ...
       458.0         0.37          1.4 
       459.0         0.33          1.8 
       460.0         0.37          1.6 
       461.0         0.35          1.8 
       462.0         0.27          1.7 
       463.0         0.23          1.6 
       464.0         0.20          1.9 
       465.0         0.27          1.6 
       466.0         0.23          1.5 
       467.0         0.33          1.6 
       468.0         0.30          1.7 
       469.0         0.27          1.1 
       470.0         0.30          1.6 
       471.0         3.25          1.8 
       472.0         0.30          1.0 
       473.0         0.33          1.6 
       474.0         0.27          1.5 
       475.0         0.28          1.6 
       476.0         0.27          1.1 
       477.0         0.30          1.5 
       478.0         0.30          1.9 
       479.0         0.30          1.6 
       480.0         0.27          1.2 
       481.0         0.30          1.6 
       482.0         0.33          1.8 
       483.0         0.30          1.6 
       484.0         0.33          1.6 
       485.0         0.33          1.8 
       486.0         0.35          1.9 
       487.0         0.33          1.7 
       488.0         0.30          2.2 
       489.0         0.30          2.0 
       490.0         0.33          2.2 
       491.0         0.27          1.9 
       492.0         0.30          2.1 
       493.0         0.27          1.6 
       494.0         0.27          1.8 
       495.0         0.27          1.1 
       496.0         0.30          1.5 
       497.0         0.28          1.4 
       498.0         0.27          1.3 
       499.0         0.30          1.6 
       500.0         0.33          2.0 
       501.0         2.72         27.3 
       502.0         0.17          0.4 
       503.0         0.53          0.9 
       504.0         0.40          1.4 
       505.0         0.40          1.5 
       506.0         0.33          1.2 
       507.0         0.33          1.5 
       508.0         0.37          1.8 
       509.0         0.33          1.3 
       510.0         0.35          1.2 
       511.0         0.30          1.3 
       512.0         0.30          1.2 
       513.0         0.33          1.6 
       514.0         0.27          1.8 
       515.0         0.27          1.5 
       516.0         0.27          1.2 
       517.0         0.30          1.4 
       518.0         0.33          1.6 
       519.0         0.27          1.2 
       520.0         0.30          1.3 
       521.0         0.35          1.5 
       522.0         0.30          1.6 
       523.0         0.27          1.2 
       524.0         0.30          1.7 
       525.0         0.27          1.8 
       526.0         0.23          1.9 
       527.0         0.20          2.0 
       528.0         0.20          1.4 
       529.0         0.37          1.8 
       530.0         0.37          1.4 
       531.0         2.48          1.8 
       532.0         0.40          1.4 
       533.0         0.43          1.7 
       534.0         0.47          1.5 
       535.0         0.52          1.5 
       536.0         0.33          1.3 
       537.0         0.30          1.6 
       538.0         0.33          1.7 
       539.0         0.30          1.5 
       540.0         0.30          1.3 
       541.0         0.33          1.9 
       542.0         0.33          1.4 
       543.0         0.30          1.7 
       544.0         0.33          1.4 
       545.0         0.38          1.7 
       546.0         0.30          1.6 
       547.0         0.30          1.7 
       548.0         0.33          1.7 
       549.0         0.33          1.4 
       550.0         0.40          1.8 
       551.0         0.37          1.7 
       552.0         0.33          1.5 
       553.0         0.37          1.5 
       554.0         0.40          1.8 
       555.0         0.45          1.7 
       556.0         0.37          1.4 
       557.0         0.30          1.6 
       558.0         0.43          1.5 
       559.0         0.37          1.4 
       560.0         0.33          1.6 
       561.0         2.62          1.9 
       562.0         0.30          1.4 
       563.0         0.43          1.4 
       564.0         0.33          1.6 
       565.0         0.37          1.4 
       566.0         0.40          1.6 
       567.0         0.52          1.8 
       568.0         0.43          2.0 
       569.0         0.47          1.9 
       570.0         0.47          1.5 
       571.0         0.47          1.8 
       572.0         0.47          1.8 
       573.0         0.43          1.8 
       574.0         0.48          2.0 
       575.0         0.43          1.8 
       576.0         0.33          1.6 
       577.0         0.30          1.7 
       578.0         0.37          1.4 
       579.0         0.33          1.9 
       580.0         0.30          1.5 
       581.0         0.30          1.3 
       582.0         0.37          1.9 
       583.0         0.32          2.1 
       584.0         0.27          1.8 
       585.0         0.27          2.0 
       586.0         0.30          1.6 
       587.0         0.27          2.1 
       588.0         0.33          2.3 
       589.0         0.30          2.3 
       590.0         0.40          1.8 
       591.0         3.05          1.9 
       592.0         0.37          1.8 
       593.0         0.27          1.6 
       594.0         0.27          1.6 
       595.0         0.20          1.6 
       596.0         0.20          1.8 
       597.0         0.42          2.0 
       598.0         0.97          1.7 
       599.0         0.63          1.9 
       600.0         0.53          1.6 
       601.0         0.53          1.9 
       602.0         0.58          1.7 
       603.0         0.37          2.0 
       604.0         0.23          1.4 
       605.0         0.23          1.6 
       606.0         0.33          1.6 
       607.0         0.27          1.4 
       608.0         0.27          1.9 
       609.0         0.30          1.9 
       610.0         0.30          2.9 
       611.0         0.30          1.4 
       612.0         0.30          1.2 
       613.0         0.35          1.3 
       614.0         0.30          1.6 
       615.0         0.33          1.5 
       616.0         0.30          1.7 
       617.0         0.23          1.3 
       618.0         0.33          2.2 
       619.0         0.33         75.7 
       620.0         0.10         75.7 
       621.0         2.98         16.0 
       622.0         0.37          1.1 
       623.0         0.40          1.1 
       624.0         0.43          1.1 
       625.0         0.43          1.6 
       626.0         0.38          2.0 
       627.0         0.23          2.5 
       628.0         0.23          2.6 
       629.0         0.33          1.0 
       630.0         0.23          1.3 
       631.0         0.43          1.7 
       632.0         0.40          1.4 
       633.0         0.23          1.7 
       634.0         0.27          1.5 
       635.0         0.23          2.1 
       636.0         0.30          1.5 
       637.0         0.25          1.3 
       638.0         0.27          0.8 
       639.0         0.23          1.4 
       640.0         0.27          1.5 
       641.0         0.23          1.7 
       642.0         0.27          1.2 
       643.0         0.23          1.7 
       644.0         0.23          2.2 
       645.0         0.30          1.4 
       646.0         0.37          1.6 
       647.0         0.37          1.7 
       648.0         0.33          2.0 
       649.0         0.32          3.5 
       650.0         0.10          1.5 
       651.0         2.80          2.1 
       652.0         0.38          2.3 
       653.0         0.33          2.3 
       654.0         0.33          2.2 
       655.0         0.27          2.1 
       656.0         0.30          1.9 
       657.0         0.27          1.7 
