~Version Information
 VERS.                                  2.0 : CWLS LAS VERSION
 WRAP.                                   NO : WRAPING MODE
 SWARE .                 MController 2.5.0J : SOFTWARE VERSION
~Well Information
 WELL.                    McClaren 13 34 TR : WELL
 COMP.    Pioneer Natural Resources USA Inc : COMPANY
 FLD.                      Purgatoire River : FIELD
 LOC.                NW/SW Sec 34 T32S R67W : LOCATION
 DATE.                             07/12/05 : DATE(S) LOGGED
 SRVC.       BLANCO Geological Services LLC : SERVICE COMPANY
 STAT.                                   CO : STATE
 CNTY.                           Las Animas : COUNTY
 CTRY.                                  USA : COUNTRY
 API.                       05-071-08437-00 : API NUMBER
 STRT.FT                             595.00 : START DEPTH
 STOP.FT                            1555.00 : STOP DEPTH
 STEP.FT                               1.00 : DEPTH INCREMENT
 NULL.                                -9999 : NULL VALUE
~Curve information
 DEPTH.FT                                   :
 ROP.MIN/FT                                 :
 GAS.UNITS                                  :
~ASCII Log data
# ...
       795.0         0.13         28.4 
       796.0         0.13         28.0 
       797.0         0.17         27.7 
       798.0         0.20         27.6 
       799.0         0.17         27.0 
       800.0         0.17         26.3 
       801.0         0.17         25.5 
       802.0         0.17         24.8 
       803.0         0.23         24.2 
       804.0         0.27         22.3 
       805.0         0.33         22.4 
       806.0         1.78         39.4 
       807.0         0.40         25.3 
       808.0         0.33         21.9 
       809.0         0.27         21.0 
       810.0         0.27         20.6 
       811.0         0.27         20.4 
       812.0         0.30         19.4 
       813.0        15.77         22.8 
       814.0         0.37         19.2 
       815.0         0.23         19.1 
       816.0         0.32         18.9 
       817.0         0.27         18.8 
       818.0         0.37         19.0 
       819.0         0.20         19.2 
       820.0         0.23         18.7 
       821.0         0.23         18.8 
       822.0         0.27         19.7 
       823.0         0.23         21.0 
       824.0         0.20         21.3 
       825.0         0.17         20.8 
       826.0         0.13         20.0 
       827.0         0.17         20.1 
       828.0         0.20         19.5 
       829.0         0.17         19.5 
       830.0         0.20         19.5 
       831.0         0.22         19.4 
       832.0         0.17         19.0 
       833.0         0.17         19.1 
       834.0         0.17         19.5 
       835.0         0.17         18.5 
       836.0         3.95         28.7 
       837.0         0.27         19.8 
       838.0         0.17         25.1 
       839.0         0.20         49.2 
       840.0         0.17         82.5 
       841.0         0.17        110.7 
       842.0         0.17        131.0 
       843.0         0.27        149.5 
       844.0         0.17        153.2 
       845.0         0.20        153.1 
       846.0         0.18        145.9 
       847.0         0.17        131.0 
       848.0         0.23        118.7 
       849.0         0.20        105.2 
       850.0         0.23        116.1 
       851.0         0.27        138.0 
       852.0        13.60        203.2 
       853.0         0.37        194.0 
       854.0         0.40        194.1 
       855.0         0.27        179.0 
       856.0         0.20        163.3 
       857.0         0.20        153.7 
       858.0         0.22        144.9 
       859.0         0.20        135.7 
       860.0         0.23        130.2 
       861.0         0.20        125.2 
       862.0         0.33        109.4 
       863.0         0.20         82.7 
       864.0         0.23         86.7 
       865.0         0.17        107.5 
       866.0         1.92        473.9 
       867.0         0.20        251.4 
       868.0         0.30        215.1 
       869.0         0.27        173.5 
       870.0         0.23        146.9 
       871.0         0.17        135.4 
       872.0         0.13        135.4 
       873.0         0.23        135.2 
       874.0         0.13        132.7 
       875.0         0.23        129.7 
       876.0         0.20        123.7 
       877.0         0.17        119.2 
       878.0         0.17        117.0 
       879.0         0.23        118.4 
       880.0         0.20        120.0 
       881.0         0.22        120.6 
       882.0         0.20        119.9 
       883.0         0.17        119.3 
       884.0         0.13        118.0 
       885.0         0.20        117.3 
       886.0         0.20        115.8 
       887.0         0.17        114.5 
       888.0         0.20        113.4 
       889.0         0.13        112.4 
       890.0         0.20        111.8 
       891.0         0.23        110.9 
       892.0         0.20        109.5 
       893.0         0.20        102.6 
       894.0         0.20         86.6 
       895.0         0.17         75.5 
       896.0        15.63        297.5 
       897.0         0.27        138.1 
       898.0         0.23        126.8 
       899.0         0.40        119.4 
       900.0         0.20        110.6 
       901.0         0.17        107.3 
       902.0         0.20        104.2 
       903.0         0.17        101.1 
       904.0         0.17        100.3 
       905.0         0.17        100.1 
       906.0         0.23         99.5 
       907.0         0.20         98.6 
       908.0         0.20         97.9 
       909.0         0.23         97.4 
       910.0         0.25         96.7 
       911.0         0.17         96.0 
       912.0         0.13         95.7 
       913.0         0.20         95.7 
       914.0         0.20         95.4 
       915.0         0.20         95.4 
       916.0         0.20         95.4 
       917.0         0.23         95.0 
       918.0         0.17         90.8 
       919.0         0.20         82.8 
       920.0         0.20         72.3 
       921.0         0.20         75.9 
       922.0         0.33        116.6 
       923.0         0.23        171.3 
       924.0         0.15        215.9 
       925.0         0.27        259.8 
       926.0         0.97        269.2 
       927.0         0.33        172.2 
       928.0         0.27        141.0 
       929.0         0.27        126.4 
       930.0         0.27        119.5 
       931.0         0.23        114.8 
       932.0         0.20        110.8 
       933.0         0.22        107.6 
       934.0         0.20        104.3 
       935.0         0.20        101.7 
       936.0         0.20         99.5 
       937.0         0.20         97.6 
       938.0         0.17         96.2 
       939.0         0.23         95.9 
       940.0         0.23         94.7 
       941.0         0.23         94.7 
       942.0         0.20         95.7 
       943.0         0.13         96.0 
       944.0         0.13         96.7 
       945.0         0.13         97.5 
       946.0         0.20         98.4 
       947.0         0.17         98.6 
       948.0         0.22         98.4 
       949.0         0.23         97.0 
       950.0         0.20         90.2 
       951.0         0.17         78.9 
       952.0         0.20         70.5 
       953.0         0.23         67.7 
       954.0         0.20         77.0 
       955.0         0.13         85.5 
       956.0         1.92        346.4 
       957.0         0.27        181.2 
       958.0         0.23        153.5 
       959.0         0.33        138.0 
       960.0         0.13        127.8 
       961.0         0.13        125.3 
       962.0         0.13        123.4 
       963.0         0.13        121.2 
       964.0         0.17        119.1 
       965.0         0.17        116.0 
       966.0         0.23        113.0 
       967.0         0.23        108.7 
       968.0         0.23        104.8 
       969.0         0.20        101.5 
       970.0         0.17         99.4 
       971.0         0.20         97.8 
       972.0         0.22         96.7 
       973.0         0.20         95.9 
       974.0         0.20         95.1 
       975.0         0.13         94.3 
       976.0         0.17         93.4 
       977.0         0.17         92.4 
       978.0         0.20         91.3 
       979.0         0.20         86.0 
       980.0         0.20         75.7 
       981.0         0.20         68.6 
       982.0         0.20         68.3 
       983.0         0.17         72.2 
       984.0         0.23         83.1 
       985.0         0.20        100.7 
       986.0         1.52        299.5 
       987.0         0.30        208.4 
       988.0         0.37        161.6 
       989.0         0.33        131.4 
       990.0         0.37        113.8 
       991.0         0.37        100.8 
       992.0         0.27         94.0 
       993.0         0.30         91.8 
       994.0         0.32         90.4 
