~Version Information
VERS.                      2.0: CWLS Log ASCII Standard - VERSION 2.0
WRAP.                       NO: One line per depth step
~Well Information Block
STRT.FT               840.0000: 
STOP.FT              1913.5000: 
STEP.FT                 0.2500: 
NULL.                -999.2500: 
COMP.          Petrogulf Corporation: COMPANY
WELL.             Kraft 17-23R: WELL
FLD.           Purgatorie River: FIELD
LOC.           1509' FSL & 1673' FWL: LOCATION
PROV.                 Colorado: PROVINCE
CNTY.               Las Animas: COUNTRY
SRVC.                Patterson: SERVICE COMPANY
DATE.          Tue Oct 11 13:03:25 2005: LOG DATE
UWI.                          : UNIQUE WELL ID
~Curve Information Block
DEPT.FT            0 000 00 00: Depth
SP.mV                         : DIL Spontaneous Potential
RILD.Ohm-m                    : DIL Deep Resistivity
RILM.Ohm-m                    : DIL Medium Resistivity
RLL3.Ohm-m                    : DIL Shallow Resistivity
GR.GAPI                       : Gamma Ray
~Parameter Information Block
~A  Depth        SP         RILD        RILM        RLL3         GR     
# ...
   896.0000    158.3794     11.3953     11.0805     13.3204    134.6745
   896.2500    158.3180     11.3355     11.0003     13.0490    135.2796
   896.5000    158.2664     11.2896     10.9329     12.8422    136.9433
   896.7500    158.2250     11.2611     10.8821     12.8023    137.4730
   897.0000    158.1952     11.2500     10.8503     12.9874    135.5989
   897.2500    158.1807     11.2547     10.8384     13.3747    132.3444
   897.5000    158.1905     11.2744     10.8453     13.8504    125.8701
   897.7500    158.2376     11.3120     10.8690     14.2621    121.9575
   898.0000    158.3326     11.3733     10.9082     14.5059    118.7654
   898.2500    158.4726     11.4664     10.9637     14.5741    118.6818
   898.5000    158.6370     11.6000     11.0390     14.5378    120.5125
   898.7500    158.7901     11.7819     11.1413     14.4891    122.0514
   899.0000    158.8885     12.0189     11.2802     14.4912    123.4920
   899.2500    158.8889     12.3149     11.4672     14.5660    123.5272
   899.5000    158.7594     12.6700     11.7145     14.7363    122.5303
   899.7500    158.4895     13.0783     12.0343     15.1053    121.6934
   900.0000    158.0929     13.5299     12.4375     15.9223    120.7611
   900.2500    157.5989     14.0141     12.9330     17.5589    120.1904
   900.5000    157.0411     14.5258     13.5263     20.3224    118.4476
   900.7500    156.4516     15.0682     14.2181     24.1332    116.1148
   901.0000    155.8605     15.6537     15.0037     28.2927    110.7085
   901.2500    155.2943     16.2999     15.8729     31.6614    106.4527
   901.5000    154.7710     17.0260     16.8126     33.2870    100.6805
   901.7500    154.2960     17.8504     17.8106     33.0478     97.8242
   902.0000    153.8648     18.7890     18.8615     31.7866     95.0592
   902.2500    153.4716     19.8550     19.9696     30.8508     94.0060
   902.5000    153.1153     21.0570     21.1509     31.4071     93.3767
   902.7500    152.8011     22.3959     22.4288     33.9342     93.5037
   903.0000    152.5356     23.8588     23.8291     38.1024     94.0555
   903.2500    152.3199     25.4151     25.3725     43.0500     94.1212
   903.5000    152.1429     27.0184     27.0687     47.8806     92.6232
   903.7500    151.9781     28.6201     28.9142     52.0780     90.0829
   904.0000    151.7898     30.1889     30.8933     55.6370     84.1026
   904.2500    151.5462     31.7241     32.9829     58.9563     79.4623
   904.5000    151.2337     33.2489     35.1595     62.6620     73.5118
   904.7500    150.8623     34.7848     37.4042     67.4949     71.0659
   905.0000    150.4608     36.3278     39.7035     74.2627     69.6247
   905.2500    150.0652     37.8489     42.0438     83.6421     69.2538
   905.5000    149.7092     39.3218     44.4012     95.5891     67.5194
   905.7500    149.4225     40.7500     46.7323    108.5931     64.8512
   906.0000    149.2290     42.1660     48.9703    119.6151     59.2978
   906.2500    149.1427     43.6022     51.0320    125.3167     55.9322
   906.5000    149.1631     45.0651     52.8367    123.9793     53.4445
   906.7500    149.2765     46.5330     54.3283    116.5927     53.6962
   907.0000    149.4613     47.9735     55.4933    106.1820     55.9309
   907.2500    149.6933     49.3607     56.3630     96.0091     57.8986
   907.5000    149.9502     50.6789     57.0011     88.1114     60.3615
   907.7500    150.2170     51.9148     57.4827     83.0187     61.1098
   908.0000    150.4873     53.0500     57.8750     80.3536     60.8961
   908.2500    150.7579     54.0582     58.2253     79.5446     60.6183
   908.5000    151.0223     54.9161     58.5584     80.1785     61.4354
   908.7500    151.2689     55.6260     58.8800     81.9904     62.8993
   909.0000    151.4899     56.2277     59.1845     84.6948     65.3049
   909.2500    151.6899     56.7826     59.4625     87.8196     66.1945
   909.5000    151.8885     57.3323     59.7074     90.6558     65.4957
   909.7500    152.1129     57.8708     59.9191     92.3980     63.5251
   910.0000    152.3901     58.3550     60.1045     92.4614     59.0109
   910.2500    152.7407     58.7429     60.2767     90.8024     55.8758
   910.5000    153.1746     59.0244     60.4502     88.0457     52.4926
   910.7500    153.6887     59.2169     60.6348     85.3567     51.5040
   911.0000    154.2684     59.3385     60.8284     84.1190     52.0266
   911.2500    154.8942     59.3869     61.0091     85.4720     53.7862
   911.5000    155.5506     59.3421     61.1314     89.7272     58.3912
   911.7500    156.2324     59.1876     61.1275     95.8223     62.1056
   912.0000    156.9440     58.9296     60.9164    101.3156     66.6907
   912.2500    157.6924     58.5974     60.4233    103.4385     68.1637
   912.5000    158.4777     58.2241     59.6022    100.8014     67.8421
   912.7500    159.2844     57.8254     58.4548     94.2705     66.6302
   913.0000    160.0792     57.3970     57.0369     86.0453     64.8553
   913.2500    160.8196     56.9319     55.4484     77.8716     64.3921
   913.5000    161.4715     56.4367     53.8122     70.1966     65.5792
   913.7500    162.0193     55.9286     52.2515     62.8138     67.9520
   914.0000    162.4643     55.4171     50.8714     55.9473     73.9719
   914.2500    162.8142     54.8913     49.7475     50.5889     79.2740
   914.5000    163.0767     54.3259     48.9199     47.8772     88.0782
   914.7500    163.2616     53.7045     48.3914     48.1657     93.8101
   915.0000    163.3865     53.0382     48.1292     50.5958    100.9969
   915.2500    163.4750     52.3654     48.0698     53.5580    104.1213
   915.5000    163.5506     51.7324     48.1303     55.6902    105.2100
   915.7500    163.6306     51.1733     48.2243     56.6042    103.3214
   916.0000    163.7271     50.7045     48.2802     56.8201     97.5550
   916.2500    163.8523     50.3366     48.2563     57.1090     92.8995
   916.5000    164.0217     50.0902     48.1456     57.8608     86.1802
   916.7500    164.2520     49.9950     47.9695     58.9253     81.9712
   917.0000    164.5545     50.0666     47.7656     59.9012     75.6594
   917.2500    164.9269     50.2765     47.5724     60.5214     71.4882
   917.5000    165.3465     50.5477     47.4196     60.8223     65.7858
   917.7500    165.7666     50.7865     47.3238     61.0560     62.5465
   918.0000    166.1227     50.9325     47.2891     61.4840     58.6110
   918.2500    166.3476     50.9858     47.3103     62.1985     56.7112
   918.5000    166.3913     50.9905     47.3776     63.0679     55.2963
   918.7500    166.2329     50.9921     47.4783     63.8241     55.3906
   919.0000    165.8798     51.0068     47.5987     64.2060     56.6434
   919.2500    165.3567     51.0219     47.7260     64.0629     57.6608
   919.5000    164.6943     51.0221     47.8505     63.4121     58.4395
   919.7500    163.9224     51.0112     47.9693     62.4704     58.0736
   920.0000    163.0685     51.0098     48.0884     61.6141     56.1814
   920.2500    162.1608     51.0296     48.2205     61.2308     54.5140
   920.5000    161.2343     51.0540     48.3800     61.5394     52.8179
   920.7500    160.3313     51.0464     48.5762     62.5026     52.8340
   921.0000    159.4955     50.9821     48.8075     63.8657     54.3762
   921.2500    158.7622     50.8743     49.0610     65.2690     55.6718
   921.5000    158.1504     50.7733     49.3169     66.3688     56.7256
   921.7500    157.6615     50.7459     49.5568     66.9354     56.6013
   922.0000    157.2797     50.8471     49.7717     66.9248     55.7335
   922.2500    156.9747     51.1003     49.9667     66.5223     55.1725
   922.5000    156.7060     51.4936     50.1611     66.1225     54.6776
   922.7500    156.4336     51.9972     50.3847     66.1889     54.4878
   923.0000    156.1323     52.5913     50.6708     67.0260     54.2870
   923.2500    155.8004     53.2809     51.0492     68.6252     54.2590
   923.5000    155.4554     54.0843     51.5407     70.7212     54.3970
   923.7500    155.1227     55.0062     52.1530     73.0166     54.4042
