~Version Information
VERS.                      2.0: CWLS Log ASCII Standard - VERSION 2.0
WRAP.                       NO: One line per depth step
~Well Information Block
STRT.FT                -8.5000: 
STOP.FT              2591.0000: 
STEP.FT                 0.2500: 
NULL.                -999.2500: 
COMP.          Pioneer Natural Resources: COMPANY
WELL.             Aviator 12-4: WELL
FLD.           Purgatorie River: FIELD
LOC.           1969' FNL & 732' FWL--: LOCATION
CNTY.               Las Animas: COUNTY
SRVC.          Patterson Wireline: SERVICE COMPANY
DATE.          Wed Apr 19 09:09:26 2006: LOG DATE
UWI.           05 071 08714 00: UNIQUE WELL ID
STAT.                       CO: STATE
~Curve Information Block
DEPT.FT            0 000 00 00: Depth
CCL.                          : Casing Collar Locator
TT3.usec                      : CBL 3' Travel Time
AMP3.mV                       : CBL 3' Amplitude
GR.GAPI                       : Gamma Ray
~Parameter Information Block
~A  Depth       CCL         TT3         AMP3         GR     
# ...
   862.5000      0.0000    595.2175     10.3006    141.9732
   862.7500      0.0000    551.4737     10.7090    141.9883
   863.0000      0.0000    493.0397     11.0353    142.2636
   863.2500      0.0000    435.3040     11.2636    142.9695
   863.5000      0.0000    391.7810     11.4211    143.3913
   863.7500      0.0000    365.8575     11.5557    142.1650
   864.0000      0.0000    353.1595     11.7014    138.4350
   864.2500      0.0000    347.7476     11.8629    133.1232
   864.5000      0.0000    345.5298     12.0281    128.5585
   864.7500      0.0000    344.5252     12.1868    126.3658
   865.0000      0.0000    343.9521     12.3387    126.1828
   865.2500      0.0000    343.5309     12.4939    126.8235
   865.5000      0.0000    343.1388     12.6628    128.0456
   865.7500      0.0000    342.7377     12.8388    130.4398
   866.0000      0.0000    342.3473     12.9917    133.8366
   866.2500      0.0000    342.0341     13.0872    136.5953
   866.5000      0.0000    341.9059     13.1106    136.8056
   866.7500      0.0000    342.1823     13.0637    133.9370
   867.0000      0.0000    343.5511     12.9434    129.1519
   867.2500      0.0000    348.0240     12.7407    124.4429
   867.5000      0.0000    359.9162     12.4592    121.7411
   867.7500      0.0000    385.3330     12.1269    122.1061
   868.0000      0.0000    427.9871     11.7885    124.9323
   868.2500      0.0000    483.4092     11.4890    128.0447
   868.5000      0.0000    539.2919     11.2582    129.1175
   868.7500      0.0000    585.1375     11.1034    127.2086
   869.0000      0.0000    620.5456     11.0155    123.0230
   869.2500      0.0000    651.0829     10.9806    117.8896
   869.5000      0.0000    678.6205     10.9894    112.6700
   869.7500      0.0000    699.5398     11.0407    107.7648
   870.0000      0.0000    709.6165     11.1437    103.7396
   870.2500      0.0000    705.7198     11.3145    101.2111
   870.5000      0.0000    683.5079     11.5665     99.9898
   870.7500      0.0000    638.3419     11.8986     98.7165
   871.0000      0.0000    571.7855     12.2897     95.5336
   871.2500      0.0000    496.1906     12.7016     89.1844
   871.5000      0.0000    429.4197     13.0873     79.6494
   871.7500      0.0000    383.4991     13.4011     67.9412
   872.0000      0.0000    358.9020     13.6092     55.6454
   872.2500      0.0000    348.6473     13.6979     44.7720
   872.5000      0.0000    345.3217     13.6806     37.3756
   872.7500      0.0000    344.4583     13.5992     34.4546
   873.0000      0.0000    344.2128     13.5143     35.1890
   873.2500      0.0000    344.0500     13.4840     37.6906
   873.5000      0.0000    343.8937     13.5408     40.4423
   873.7500      0.0000    343.7615     13.6813     42.7191
   874.0000      0.0000    343.6568     13.8786     44.0036
   874.2500      0.0000    343.5383     14.0997     43.9113
   874.5000      0.0000    343.3678     14.3125     42.8788
   874.7500      0.0000    343.1598     14.4886     42.2565
   875.0000      0.0000    342.9655     14.6182     43.4406
   875.2500      0.0000    342.8144     14.7166     47.1636
   875.5000      0.0000    342.6971     14.7995     53.5108
   875.7500      0.0000    342.6034     14.8467     62.1299
   876.0000      0.0000    342.5487     14.8078     72.2364
   876.2500      0.0000    342.5528     14.6511     82.6832
   876.5000      0.0000    342.6187     14.3967     92.4061
   876.7500      0.0000    342.7463     14.0935    100.9344
   877.0000      0.0000    342.9431     13.7797    108.0663
   877.2500      0.0000    343.1992     13.4726    112.8454
   877.5000      0.0000    343.4578     13.1817    113.5931
   877.7500      0.0000    343.6324     12.9249    109.4958
   878.0000      0.0000    343.6861     12.7303    101.7488
   878.2500      0.0000    343.7014     12.6185     92.8300
   878.5000      0.0000    344.1411     12.5796     84.9321
   878.7500      0.0000    346.3626     12.5726     79.0435
   879.0000      0.0000    353.3825     12.5565     74.9466
   879.2500      0.0000    369.7868     12.5167     71.7518
   879.5000      0.0000    399.5800     12.4588     68.6287
   879.7500      0.0000    443.0699     12.3800     65.4361
   880.0000      0.0000    496.1800     12.2599     62.8649
   880.2500      0.0000    552.7789     12.0797     61.8683
   880.5000      0.0000    606.5972     11.8484     62.7996
   880.7500      0.0000    651.8281     11.6032     65.1883
   881.0000      0.0000    684.7365     11.3809     68.2880
   881.2500      0.0000    705.3719     11.1902     71.4791
   881.5000      0.0000    716.7087     11.0112     74.0464
   881.7500      0.0000    722.2485     10.8203     75.1298
   882.0000      0.0000    724.6322     10.6069     74.4412
   882.2500      0.0000    725.5223     10.3697     72.8455
   882.5000      0.0000    725.8553     10.1108     71.8402
   882.7500      0.0000    726.0391      9.8441     72.4069
   883.0000      0.0000    726.2132      9.6034     74.4247
   883.2500      0.0000    726.4012      9.4269     77.0971
   883.5000      0.0000    726.6088      9.3305     79.9376
   883.7500      0.0000    726.8240      9.2984     83.5364
   884.0000      0.0000    726.9953      9.3013     89.3967
   884.2500      0.0000    727.0549      9.3182     98.5108
   884.5000      0.0000    726.9793      9.3449    109.6594
   884.7500      0.0000    726.8161      9.3824    119.3838
   885.0000      0.0000    726.6324      9.4216    123.9753
   885.2500      0.0000    726.4522      9.4425    121.5565
   885.5000      0.0000    726.2653      9.4299    112.7797
   885.7500      0.0000    726.1091      9.3877    100.4880
   886.0000      0.0000    726.1564      9.3370     88.9855
   886.2500      0.0000    726.7608      9.2994     82.9059
   886.5000      0.0000    728.3099      9.2837     85.5794
   886.7500      0.0000    730.7539      9.2907     97.2496
   887.0000      0.0000    733.1811      9.3288    114.1952
   887.2500      0.0000    734.2172      9.4184    130.1025
   887.5000      0.0000    733.2047      9.5750    139.5941
   887.7500      0.0000    730.8306      9.7870    141.3398
   888.0000      0.0000    728.3855     10.0158    137.9550
   888.2500      0.0000    726.6859     10.2176    132.8892
   888.5000      0.0000    725.9191     10.3620    127.3244
   888.7500      0.0000    726.2259     10.4312    119.7433
   889.0000      0.0000    728.0402     10.4139    108.3754
   889.2500      0.0000    731.7904     10.3100     94.1960
   889.5000      0.0000    737.3937     10.1433     81.4406
   889.7500      0.0000    744.1924      9.9579     74.9485
   890.0000      0.0000    751.3157      9.7941     76.9471
   890.2500      0.0000    757.8064      9.6620     86.0125
   890.5000      0.0000    762.4022      9.5365     98.2956
   890.7500      0.0000    763.6506      9.3809    109.5360
   891.0000      0.0000    760.7296      9.1760    116.8271
   891.2500      0.0000    754.4360      8.9299    119.6959
   891.5000      0.0000    747.2401      8.6633    120.1025
   891.7500      0.0000    741.8135      8.3931    121.0770
   892.0000      0.0000    739.3210      8.1330    124.6463
   892.2500      0.0000    739.6288      7.9022    130.5692
   892.5000      0.0000    742.8643      7.7255    136.7445
   892.7500      0.0000    749.5676      7.6189    140.7471
   893.0000      0.0000    758.8722      7.5792    141.5488
   893.2500      0.0000    767.6210      7.5890    140.5112
   893.5000      0.0000    772.5915      7.6320    140.4780
   893.7500      0.0000    773.7974      7.6985    142.9232
   894.0000      0.0000    774.7462      7.7796    145.9727
   894.2500      0.0000    778.9413      7.8614    146.2630
   894.5000      0.0000    786.6970      7.9284    142.9969
   894.7500      0.0000    795.5643      7.9719    139.0430
   895.0000      0.0000    802.6852      7.9926    137.4559
   895.2500      0.0000    806.0409      7.9935    138.0688
   895.5000      0.0000    804.6101      7.9722    138.5303
   895.7500      0.0000    798.6853      7.9227    137.8407
