~Version Information
VERS.                      2.0: CWLS Log ASCII Standard - VERSION 2.0
WRAP.                       NO: One line per depth step
~Well Information Block
STRT.FT                 0.0000: 
STOP.FT              1923.5000: 
STEP.FT                 0.2500: 
NULL.                -999.2500: 
COMP.          Petrogulf Corporation: COMPANY
WELL.            Montoya 7-14R: WELL
FLD.           Purgatorie River: FIELD
LOC.           628' FSL & 454' FWL: LOCATION
STAT.                 Colorado: State
CNTY.               Las Animas: COUNTY
CTRY. USA : Country
SECT. 7 : Section
TOWN. 33S : Township
RANG. 67W : Range
SRVC.                Patterson: SERVICE COMPANY
DATE.          Wed Nov 09 12:02:27 2005: LOG DATE
API. 05-071-08554                         : UNIQUE WELL ID
~Curve Information Block
DEPT.FT            0 000 00 00: Depth
CCL.                          : Casing Collar Locator
TT3.usec                      : CBL 3' Travel Time
AMP3.mV                       : CBL 3' Amplitude
GR.GAPI                       : Gamma Ray
~Parameter Information Block
~A  Depth       CCL         TT3         AMP3         GR     
     0.0000   -999.2500   1197.0000      1.1107     40.7976
     0.2500      0.0000   1197.0000      1.0677     51.7821
     0.5000      0.0000   1197.0000      1.0329     54.9556
     0.7500      0.0000   1197.0000      0.9899     56.7336
     1.0000      0.0000   1197.0000      0.9470     58.1946
     1.2500      0.0000   1197.0000      0.9162     59.7032
     1.5000      0.0000   1197.0000      0.8946     60.3847
     1.7500      0.0000   1197.0000      0.8650     59.3324
     2.0000      0.0000   1197.0000      0.8342     56.9074
     2.2500      0.0000   1197.0000      0.8326     54.3671
     2.5000      0.0000   1197.0000      0.8609     52.5006
     2.7500      0.0000   1197.0000      0.8786     51.1134
     3.0000      0.0000   1197.0000      0.8495     49.7401
     3.2500      0.0000   1197.0000      0.7804     48.4206
     3.5000      0.0000   1197.0000      0.7089     47.5845
     3.7500      0.0000   1197.0000      0.6686     47.4939
     4.0000      0.0000   1197.0000      0.6696     48.1440
     4.2500      0.0000   1197.0000      0.6995     49.4925
     4.5000      2.0000   1197.0000      0.7371     51.4363
     4.7500      0.0000   1197.0000      0.7652     53.6903
     5.0000      0.0000   1197.0000      0.7837     55.8871
     5.2500      0.0000   1197.0000      0.8080     57.7218
     5.5000     -2.0000   1197.0000      0.8304     58.9483
     5.7500      2.0000   1197.0000      0.8104     59.3498
     6.0000      0.0000   1197.0000      0.7456     58.7677
     6.2500      0.0000   1197.0000      0.6971     57.1578
     6.5000      0.0000   1197.0000      0.7112     54.6436
     6.7500      0.0000   1197.0000      0.7748     51.6128
     7.0000      0.0000   1197.0000      0.8501     48.7345
     7.2500      0.0000   1197.0000      0.9084     46.6788
     7.5000      0.0000   1197.0000      0.9329     45.5701
     7.7500      0.0000   1197.0000      0.9152     44.7652
     8.0000      0.0000   1197.0000      0.8755     43.4589
     8.2500      0.0000   1197.0000      0.8640     41.6158
     8.5000      0.0000   1197.0000      0.9092     40.0608
     8.7500      0.0000   1196.9690      0.9896     39.6024
     9.0000      0.0000   1196.5590      1.0704     40.3121
     9.2500      0.0000   1193.3103      1.1833     41.6600
     9.5000      0.0000   1176.3038      1.6907     43.0014
     9.7500      0.0000   1116.9921      3.9846     43.9177
    10.0000      0.0000    978.2336     10.8898     44.3986
    10.2500      0.0000    759.7118     24.2905     44.7316
    10.5000      0.0000    528.2870     41.0350     45.0745
    10.7500      0.0000    364.3271     54.5504     45.3152
    11.0000      0.0000    287.2182     61.6669     45.4369
    11.2500      0.0000    263.3430     64.1874     45.7747
    11.5000      0.0000    258.5092     64.8852     46.6665
    11.7500      0.0000    257.8803     65.1847     47.9318
    12.0000      0.0000    257.8508     65.4669     48.9457
    12.2500      0.0000    257.8780     65.7303     49.2705
    12.5000      0.0000    257.8894     65.9306     48.9981
    12.7500      0.0000    257.8833     66.0761     48.4440
    13.0000      0.0000    257.8726     66.1865     47.8936
    13.2500      0.0000    257.8607     66.2474     47.8505
    13.5000      0.0000    257.8492     66.2361     49.1369
    13.7500      0.0000    257.8511     66.1759     52.2778
    14.0000      0.0000    257.8679     66.1214     56.8559
    14.2500      0.0000    257.8789     66.1027     61.6721
    14.5000      0.0000    257.8639     66.1242     65.4323
    14.7500      0.0000    257.8242     66.1971     67.3533
    15.0000      0.0000    257.7827     66.3304     67.4761
    15.2500      0.0000    257.7601     66.4826     66.5444
    15.5000      0.0000    257.7540     66.5769     65.3876
    15.7500      0.0000    257.7545     66.5857     64.2910
    16.0000      0.0000    257.7614     66.5532     63.0909
    16.2500      0.0000    257.7744     66.5444     62.0322
    16.5000      0.0000    257.7802     66.6065     62.2970
    16.7500      0.0000    257.7669     66.7711     65.1401
    17.0000      0.0000    257.7439     67.0434     70.3151
    17.2500      0.0000    257.7277     67.3422     75.7389
    17.5000      0.0000    257.7192     67.5133     78.9799
    17.7500      0.0000    257.7138     67.4806     78.8806
    18.0000      0.0000    257.7182     67.3520     75.8320
    18.2500      0.0000    257.7404     67.3161     71.1616
    18.5000      0.0000    257.7697     67.4548     66.5779
    18.7500      0.0000    257.7828     67.7097     63.6092
    19.0000      0.0000    257.7715     67.9784     62.8674
    19.2500      0.0000    257.7508     68.1804     63.8302
    19.5000      0.0000    257.7408     68.2848     65.5836
    19.7500      0.0000    257.7498     68.3074     67.7172
    20.0000      0.0000    257.7711     68.2560     70.3253
    20.2500      0.0000    257.7903     68.1223     73.3343
    20.5000      0.0000    257.7929     67.9370     76.2405
    20.7500      0.0000    257.7657     67.7615     78.5531
    21.0000      0.0000    257.7006     67.6282     80.2175
    21.2500      0.0000    257.6208     67.5546     81.4981
    21.5000      0.0000    257.5891     67.5804     82.5885
    21.7500      0.0000    257.6394     67.6846     83.3992
    22.0000      0.0000    257.7273     67.7545     83.6047
    22.2500      0.0000    257.7979     67.7497     82.8394
    22.5000      0.0000    257.8453     67.7552     80.9654
    22.7500      0.0000    257.8753     67.8313     78.3101
    23.0000      0.0000    257.8776     67.9408     75.6971
    23.2500      0.0000    257.8536     68.0185     74.0390
    23.5000      0.0000    257.8250     68.0429     73.6728
    23.7500      0.0000    257.8053     68.0198     74.2137
    24.0000      0.0000    257.7862     67.9620     75.2274
    24.2500      0.0000    257.7616     67.9418     76.8816
    24.5000      0.0000    257.7532     68.0438     79.7383
    24.7500      0.0000    257.7820     68.2312     84.1322
    25.0000      0.0000    257.8242     68.3941     89.8319
    25.2500      0.0000    257.8375     68.5167     95.8600
    25.5000      0.0000    257.8138     68.6464    100.5798
    25.7500      0.0000    257.7857     68.7824    102.5254
    26.0000      0.0000    257.7858     68.9004    101.4097
    26.2500      0.0000    257.8141     68.9756     98.2934
    26.5000      0.0000    257.8418     68.9963     95.0507
    26.7500      0.0000    257.8461     68.9967     93.6441
    27.0000      0.0000    257.8341     69.0155     95.0223
    27.2500      0.0000    257.8177     69.0591     98.0755
    27.5000      0.0000    257.7926     69.1257    100.1779
    27.7500      0.0000    257.7675     69.2030     99.4107
    28.0000      0.0000    257.7642     69.2801     96.1270
    28.2500      0.0000    257.7821     69.4008     92.2176
    28.5000      0.0000    257.8069     69.6303     89.2542
    28.7500      0.0000    257.8355     69.9333     87.6957
    29.0000      0.0000    257.8644     70.1622     87.6168
    29.2500      0.0000    257.8778     70.2319     89.3782
    29.5000      0.0000    257.8658     70.2215     92.9935
    29.7500      0.0000    257.8410     70.2293     97.3222
    30.0000      0.0000    257.8240     70.2373    100.8566
    30.2500      0.0000    257.8214     70.1960    103.2772
    30.5000      0.0000    257.8300     70.1425    105.5069
    30.7500      0.0000    257.8492     70.1561    108.2656
    31.0000      0.0000    257.8737     70.2341    111.2755
    31.2500      0.0000    257.8858     70.2905    113.8789
    31.5000      0.0000    257.8684     70.2867    115.7946
    31.7500      0.0000    257.8337     70.2816    117.1603
    32.0000      0.0000    257.8661     70.2516    118.3113
    32.2500      0.0000    258.2938     69.7379    119.6023
    32.5000      0.0000    260.1010     67.6201    120.8539
    32.7500      0.0000    264.8176     62.9092    120.8752
    33.0000      0.0000    272.3744     56.7076    118.3231
    33.2500      0.0000    279.3323     51.9879    113.3815
