~Version Information
VERS.                      2.0: CWLS Log ASCII Standard - VERSION 2.0
WRAP.                       NO: One line per depth step
~Well Information Block
STRT.FT               -10.7500: 
STOP.FT              1466.2500: 
STEP.FT                 0.2500: 
NULL.                -999.2500: 
COMP.          Pioneer Natural Resources: COMPANY
WELL.             Andrew 23-15: WELL
FLD.           Purgatorie River: FIELD
LOC.           2137' FSL & 2292' FWL--: LOCATION
PROV.                       CO: PROVINCE
CNTY.               Las Animas: COUNTRY
SRVC.          Patterson Wireline: SERVICE COMPANY
DATE.          Thu Aug 18 11:51:45 2005: LOG DATE
UWI.           05 071 08460 00: UNIQUE WELL ID
~Curve Information Block
DEPT.FT            0 000 00 00: Depth
CCL.                          : Casing Collar Locator
TT3.usec                      : CBL 3' Travel Time
AMP3.mV                       : CBL 3' Amplitude
GR.GAPI                       : Gamma Ray
~Parameter Information Block
~A  Depth       CCL         TT3         AMP3         GR     
# ...
   759.7500      0.0000    821.7179      9.8248    126.5186
   760.0000      0.0000    813.9066      9.8684    122.5800
   760.2500      0.0000    806.3165      9.8646    120.0780
   760.5000      0.0000    798.3688      9.8262    118.9144
   760.7500      0.0000    790.1612      9.7780    118.4902
   761.0000      0.0000    783.5020      9.7409    117.3798
   761.2500      0.0000    780.9980      9.7233    114.1342
   761.5000      0.0000    783.5882      9.7242    109.2104
   761.7500      0.0000    789.4932      9.7395    105.2859
   762.0000      0.0000    796.3259      9.7630    104.7804
   762.2500      0.0000    803.4764      9.7881    107.5843
   762.5000      0.0000    811.5437      9.8128    111.5886
   762.7500      0.0000    820.0408      9.8416    114.7723
   763.0000      0.0000    826.1644      9.8745    116.4383
   763.2500      0.0000    824.9532      9.8996    117.0761
   763.5000      0.0000    810.6475      9.9007    117.4817
   763.7500      0.0000    780.9740      9.8718    117.8910
   764.0000      0.0000    743.4020      9.8226    117.8123
   764.2500      0.0000    715.2784      9.7706    116.6634
   764.5000      0.0000    711.5709      9.7300    114.4599
   764.7500      0.0000    729.5662      9.7032    111.9135
   765.0000      0.0000    749.1977      9.6792    109.8815
   765.2500      0.0000    751.3272      9.6417    108.9375
   765.5000      0.0000    734.7202      9.5756    109.6733
   765.7500      0.0000    714.6120      9.4517    112.8947
   766.0000      0.0000    707.1544      9.2190    118.4856
   766.2500      0.0000    717.1779      8.8503    124.1392
   766.5000      0.0000    738.5685      8.4105    126.5439
   766.7500      0.0000    761.7255      8.0327    124.5096
   767.0000      0.0000    780.0026      7.8040    120.2477
   767.2500      2.0000    792.4605      7.7032    117.1669
   767.5000      0.0000    802.5845      7.6560    116.7640
   767.7500     -2.0000    813.5994      7.6207    117.6829
   768.0000      0.0000    824.3981      7.6213    117.3492
   768.2500      0.0000    830.9370      7.7288    114.4257
   768.5000      0.0000    831.3666      7.9983    109.9899
   768.7500      0.0000    827.7531      8.3906    106.6186
   769.0000      0.0000    823.0102      8.7762    106.2740
   769.2500      0.0000    818.3893      9.0549    108.8573
   769.5000      0.0000    814.1420      9.2442    112.5960
   769.7500      0.0000    810.4922      9.4117    115.6584
   770.0000      0.0000    807.4867      9.5669    117.3041
   770.2500      0.0000    805.0046      9.6647    117.7423
   770.5000      0.0000    803.1472      9.6798    117.3514
   770.7500      0.0000    802.2504      9.6397    116.1838
   771.0000      0.0000    802.7706      9.6009    113.9967
   771.2500      0.0000    805.3567      9.6077    110.7400
   771.5000      0.0000    810.6314      9.6660    107.0591
   771.7500      0.0000    818.4296      9.7445    104.0466
   772.0000      0.0000    827.2805      9.8044    102.3123
   772.2500      0.0000    835.0161      9.8267    101.4920
   772.5000      0.0000    839.9986      9.8151    100.8009
   772.7500      0.0000    841.6127      9.7811     99.9275
   773.0000      0.0000    839.7197      9.7321     99.3046
   773.2500      0.0000    834.2528      9.6733     99.6078
   773.5000      0.0000    825.8226      9.6128    101.0307
   773.7500      0.0000    816.6321      9.5570    102.9879
   774.0000      0.0000    810.2248      9.4971    104.5694
   774.2500      0.0000    809.6164      9.4070    105.3869
   774.5000      0.0000    815.1597      9.2619    105.9711
   774.7500      0.0000    824.1616      9.0593    107.1151
   775.0000      0.0000    832.7712      8.8202    108.6175
   775.2500      0.0000    838.3308      8.5731    108.7224
   775.5000      0.0000    840.0665      8.3361    104.9772
   775.7500      0.0000    838.1821      8.1069     95.8460
   776.0000      0.0000    833.1470      7.8655     81.8456
   776.2500      0.0000    826.1670      7.5912     65.4490
   776.5000      0.0000    819.7867      7.2821     49.8991
   776.7500      0.0000    817.0236      6.9592     37.8310
   777.0000      0.0000    819.2852      6.6546     30.6475
   777.2500      0.0000    825.2257      6.4010     28.6382
   777.5000      0.0000    831.8951      6.2352     31.0915
   777.7500      0.0000    836.9357      6.2035     36.1955
   778.0000      0.0000    839.6843      6.3515     41.4245
   778.2500      0.0000    840.7032      6.6984     44.7031
   778.5000      0.0000    840.8421      7.2227     45.4566
   778.7500      0.0000    840.7276      7.8813     44.6978
   779.0000      0.0000    840.6524      8.6412     44.3248
   779.2500      0.0000    840.4873      9.4935     46.2429
   779.5000      0.0000    839.2041     10.4400     51.6757
   779.7500      0.0000    833.8047     11.4743     60.7336
   780.0000      0.0000    818.0412     12.5801     72.2469
   780.2500      0.0000    783.3032     13.7479     84.0187
   780.5000      0.0000    724.7942     14.9802     93.7779
   780.7500      0.0000    651.3789     16.2494    100.4138
   781.0000      0.0000    588.8619     17.4362    104.4536
   781.2500      0.0000    566.9451     18.3344    107.2949
   781.5000      0.0000    597.0091     18.7582    110.0272
   781.7500      0.0000    662.4224     18.6641    112.8476
   782.0000      0.0000    732.3174     18.1675    115.1437
   782.2500      0.0000    784.1088     17.4501    116.0818
   782.5000      0.0000    813.2543     16.6550    115.6556
   782.7500      0.0000    826.9204     15.8507    115.2694
   783.0000      0.0000    833.5737     15.0599    116.7287
   783.2500      0.0000    837.8046     14.3012    120.4155
   783.5000      0.0000    840.6954     13.6053    124.6753
   783.7500      0.0000    842.0849     13.0042    127.2127
   784.0000      0.0000    841.8893     12.5122    127.1764
   784.2500      0.0000    840.2859     12.1190    125.7886
   784.5000      0.0000    837.7703     11.8006    124.9348
   784.7500      0.0000    835.5452     11.5417    125.3493
   785.0000      0.0000    835.4642     11.3421    126.3404
   785.2500      0.0000    839.1956     11.2037    126.9743
   785.5000      0.0000    847.1881     11.1135    126.8525
   785.7500      0.0000    857.7595     11.0430    125.4129
   786.0000      0.0000    866.6453     10.9611    121.2233
   786.2500      0.0000    868.6381     10.8497    113.0412
   786.5000      0.0000    861.7555     10.7121    101.5965
   786.7500      0.0000    849.8754     10.5666     89.5618
   787.0000      0.0000    839.8371     10.4292     79.7034
   787.2500      0.0000    835.7493     10.3018     73.6434
   787.5000      0.0000    836.6916     10.1806     72.0228
   787.7500      0.0000    839.1599     10.0708     74.7550
   788.0000      0.0000    840.2539      9.9874     80.8932
   788.2500      0.0000    838.5870      9.9406     88.8047
   788.5000      0.0000    833.7612      9.9268     96.7648
   788.7500      0.0000    826.2504      9.9355    103.5329
   789.0000      0.0000    817.6013      9.9577    108.6362
   789.2500      0.0000    809.8768      9.9841    112.2620
   789.5000      0.0000    804.3508     10.0008    114.8204
   789.7500      0.0000    800.7335      9.9930    116.5575
   790.0000      0.0000    797.4565      9.9554    117.4913
   790.2500      0.0000    792.5401      9.8976    117.6003
   790.5000      0.0000    784.6940      9.8415    117.0653
   790.7500      0.0000    774.4591      9.8077    116.3191
   791.0000      0.0000    764.5131      9.7999    115.7587
   791.2500      0.0000    758.3990      9.8011    115.5097
   791.5000      0.0000    758.5019      9.7887    115.4893
   791.7500      0.0000    764.7576      9.7528    115.3204
   792.0000      0.0000    774.6889      9.6989    114.0021
   792.2500      0.0000    784.7804      9.6388    110.3969
   792.5000      0.0000    792.5749      9.5834    104.5940
   792.7500      0.0000    797.9622      9.5445     98.4519
   793.0000      0.0000    802.6746      9.5333     94.4888
