~Version Information
VERS.                      2.0: CWLS Log ASCII Standard - VERSION 2.0
WRAP.                       NO: One line per depth step
~Well Information Block
STRT.FT                -8.7500: 
STOP.FT              2331.5000: 
STEP.FT                 0.2500: 
NULL.                -999.2500: 
COMP.          Pioneer Natural Resources: COMPANY
WELL.          Sparrowhawk 22-12: WELL
FLD.           Purgatorie River: FIELD
LOC.           2049' FNL & 2060' FWL--: LOCATION
CNTY.               Las Animas: COUNTY
SRVC.          Patterson Wireline: SERVICE COMPANY
DATE.          Wed Apr 12 08:53:41 2006: LOG DATE
UWI.           05 071 08484 00: UNIQUE WELL ID
STAT.                       CO: STATE
~Curve Information Block
DEPT.FT            0 000 00 00: Depth
CCL.                          : Casing Collar Locator
TT3.usec                      : CBL 3' Travel Time
AMP3.mV                       : CBL 3' Amplitude
GR.GAPI                       : Gamma Ray
~Parameter Information Block
MAXAMPL.mV              0.0000: Maximum Amplitude
~A  Depth       CCL         TT3         AMP3         GR     
# ...
  1230.7500      0.0000    264.7784     74.5955     82.2863
  1231.0000      0.0000    264.7756     74.5513     88.3779
  1231.2500      0.0000    264.7757     74.5825     96.4857
  1231.5000      0.0000    264.7785     74.7090    103.0772
  1231.7500      0.0000    264.7823     74.9089    106.6703
  1232.0000      0.0000    264.7850     75.1295    108.3465
  1232.2500      0.0000    264.7853     75.3182    109.9393
  1232.5000      0.0000    264.7834     75.4427    112.1187
  1232.7500      0.0000    264.7797     75.4918    114.0713
  1233.0000      0.0000    264.7755     75.4697    114.5724
  1233.2500      0.0000    264.7720     75.3929    113.2577
  1233.5000      0.0000    264.7701     75.2842    111.0645
  1233.7500      0.0000    264.7692     75.1689    109.6767
  1234.0000      0.0000    264.7679     75.0747    110.7323
  1234.2500      0.0000    264.7644     75.0295    115.3375
  1234.5000      0.0000    264.7590     75.0510    123.7022
  1234.7500      0.0000    264.7534     75.1325    134.7995
  1235.0000      0.0000    264.7496     75.2398    146.3873
  1235.2500      0.0000    264.7477     75.3245    155.7129
  1235.5000      0.0000    264.7459     75.3488    160.7400
  1235.7500      0.0000    264.7427     75.3083    161.1404
  1236.0000      0.0000    264.7380     75.2406    158.3912
  1236.2500      0.0000    264.7338     75.2077    154.8977
  1236.5000      0.0000    264.7315     75.2573    152.5459
  1236.7500      0.0000    264.7313     75.3921    151.5601
  1237.0000      0.0000    264.7315     75.5734    150.7852
  1237.2500      0.0000    264.7305     75.7453    149.4088
  1237.5000      0.0000    264.7274     75.8533    148.2636
  1237.7500      0.0000    264.7217     75.8450    148.9712
  1238.0000      0.0000    264.7143     75.6699    151.9426
  1238.2500      0.0000    264.7099     75.2856    155.6467
  1238.5000      0.0000    264.7269     74.6672    157.6042
  1238.7500      0.0000    264.8127     73.8061    155.7521
  1239.0000      0.0000    265.0565     72.6843    149.3420
  1239.2500      0.0000    265.5722     71.2539    139.3589
  1239.5000      0.0000    266.4405     69.4342    128.4763
  1239.7500      0.0000    267.6405     67.0826    120.4387
  1240.0000      0.0000    269.0213     63.9949    118.4143
  1240.2500      0.0000    270.3357     60.1386    122.5414
  1240.5000      0.0000    271.3388     55.9833    129.1333
  1240.7500      0.0000    271.9144     52.3729    133.4215
  1241.0000      0.0000    272.1293     49.9079    133.6065
  1241.2500      0.0000    272.1510     48.5643    132.0628
  1241.5000     -2.0000    272.1117     47.9498    132.6349
  1241.7500      0.0000    272.0441     47.7851    137.0504
  1242.0000      0.0000    271.8988     48.1918    143.8994
  1242.2500      0.0000    271.5799     49.7271    150.3809
  1242.5000      0.0000    270.9790     53.0930    154.2668
  1242.7500      0.0000    270.0328     58.4588    154.4821
  1243.0000      0.0000    268.7950     64.9116    151.0003
  1243.2500      0.0000    267.4547     70.8295    144.8186
  1243.5000      0.0000    266.2563     74.9871    137.3618
  1243.7500      0.0000    265.3751     77.2378    129.1795
  1244.0000      0.0000    264.8452     78.2049    119.6467
  1244.2500      0.0000    264.5866     78.5880    108.5661
  1244.5000      0.0000    264.4855     78.7895     97.6311
  1244.7500      0.0000    264.4555     78.9372     89.5035
  1245.0000      0.0000    264.4507     79.0437     85.3957
  1245.2500      0.0000    264.4513     79.1105     83.8896
  1245.5000      0.0000    264.4489     79.1496     82.2401
  1245.7500      0.0000    264.4410     79.1688     78.7628
  1246.0000      0.0000    264.4274     79.1776     74.1351
  1246.2500      0.0000    264.4089     79.2016     70.5413
  1246.5000      0.0000    264.3889     79.2659     69.3995
  1246.7500      0.0000    264.3743     79.3397     69.8617
  1247.0000      0.0000    264.3741     79.3115     69.6519
  1247.2500      0.0000    264.3930     79.0596     67.3009
  1247.5000      0.0000    264.4264     78.5686     63.3889
  1247.7500      0.0000    264.4639     77.9547     59.7217
  1248.0000      0.0000    264.4974     77.3722     57.6135
  1248.2500      0.0000    264.5246     76.9209     57.0086
  1248.5000      0.0000    264.5456     76.6326     56.9525
  1248.7500      0.0000    264.5605     76.4949     56.5660
  1249.0000      0.0000    264.5690     76.4696     55.4928
  1249.2500      0.0000    264.5713     76.5042     53.7605
  1249.5000      0.0000    264.5685     76.5491     51.6635
  1249.7500      0.0000    264.5623     76.5704     49.7937
  1250.0000      0.0000    264.5553     76.5570     48.8737
  1250.2500      0.0000    264.5502     76.5196     49.3213
  1250.5000      0.0000    264.5490     76.4776     50.8885
  1250.7500      0.0000    264.5526     76.4405     52.7664
  1251.0000      0.0000    264.5598     76.3995     54.1936
  1251.2500      0.0000    264.5681     76.3401     54.9653
  1251.5000      0.0000    264.5738     76.2583     55.2686
  1251.7500      0.0000    264.5750     76.1613     55.2764
  1252.0000      0.0000    264.5720     76.0585     55.3474
  1252.2500      0.0000    264.5673     75.9609     56.5813
  1252.5000      0.0000    264.5633     75.8820     60.5413
  1252.7500      0.0000    264.5609     75.8307     68.0297
  1253.0000      0.0000    264.5600     75.8035     78.4295
  1253.2500      0.0000    264.5597     75.7861     90.6619
  1253.5000      0.0000    264.5597     75.7608    104.3217
  1253.7500      0.0000    264.5598     75.7152    118.8908
  1254.0000      0.0000    264.5590     75.6579    132.0094
  1254.2500      0.0000    264.5555     75.6249    140.1168
  1254.5000      0.0000    264.5490     75.6594    141.6826
  1254.7500      0.0000    264.5417     75.7773    138.8332
  1255.0000      0.0000    264.5369     75.9566    135.0102
  1255.2500      0.0000    264.5357     76.1573    132.0242
  1255.5000      0.0000    264.5371     76.3425    130.1765
  1255.7500      0.0000    264.5395     76.4843    130.0215
  1256.0000      0.0000    264.5422     76.5613    132.4914
  1256.2500      0.0000    264.5445     76.5580    137.5106
  1256.5000      0.0000    264.5437     76.4721    143.4146
  1256.7500      0.0000    264.5347     76.3232    147.8351
  1257.0000      0.0000    264.5140     76.1565    148.9397
  1257.2500      0.0000    264.4844     76.0301    146.2709
  1257.5000      0.0000    264.4544     75.9909    140.9102
  1257.7500      0.0000    264.4330     76.0526    134.8931
  1258.0000      0.0000    264.4235     76.1864    130.1980
  1258.2500      0.0000    264.4235     76.3317    127.7863
  1258.5000      0.0000    264.4276     76.4221    127.0738
  1258.7500      0.0000    264.4314     76.4135    126.4867
  1259.0000      0.0000    264.4325     76.3005    125.1520
  1259.2500      0.0000    264.4307     76.1164    124.0399
  1259.5000      0.0000    264.4272     75.9202    124.8695
  1259.7500      0.0000    264.4230     75.7666    127.9413
  1260.0000      0.0000    264.4187     75.6778    131.6287
  1260.2500      0.0000    264.4147     75.6500    133.9603
  1260.5000      0.0000    264.4109     75.6813    134.2248
  1260.7500      0.0000    264.4066     75.7728    132.9988
  1261.0000      0.0000    264.4020     75.9009    130.7965
  1261.2500      0.0000    264.3988     76.0081    127.0228
  1261.5000      0.0000    264.4016     76.0344    120.9683
  1261.7500      0.0000    264.4199     75.9615    113.9959
  1262.0000      0.0000    264.4733     75.8325    109.7580
  1262.2500      0.0000    264.5862     75.7359    111.4642
  1262.5000      0.0000    264.7594     75.7551    119.2608
  1262.7500      0.0000    264.9374     75.9097    130.3907
  1263.0000      0.0000    265.0280     76.1404    141.0310
  1263.2500      0.0000    264.9800     76.3584    147.7820
  1263.5000      0.0000    264.8328     76.5086    148.7028
  1263.7500      0.0000    264.6749     76.5857    144.2525
  1264.0000      0.0000    264.5670     76.6110    137.3770
