~Version Information
VERS.                      2.0: CWLS Log ASCII Standard - VERSION 2.0
WRAP.                       NO: One line per depth step
~Well Information Block
STRT.FT                -5.2500: 
STOP.FT              1184.2500: 
STEP.FT                 0.2500: 
NULL.                -999.2500: 
COMP.          Pioneer Natural Resources: COMPANY
WELL.          Lucky Lady 42-29: WELL
FLD.           Purgatoire River: FIELD
LOC.           2482' FNL & 662' FEL: LOCATION
CNTY.               Las Animas: COUNTY
SRVC.                         : SERVICE COMPANY
DATE.          Tue Mar 14 14:47:22 2006: LOG DATE
UWI.           05 071 08659 00: UNIQUE WELL ID
STAT.                       CO: STATE
~Curve Information Block
DEPT.FT            0 000 00 00: Depth
GR.GAPI                       : Gamma Ray
CCL.                          : Casing Collar Locator
TT3.usec                      : CBL 3' Travel Time
AMP3.mV                       : CBL 3' Amplitude
~Parameter Information Block
~A  Depth        GR         CCL         TT3         AMP3    
# ...
   765.2500     88.7222      0.0000    742.0043      9.6161
   765.5000    100.4227      0.0000    732.4466      9.6322
   765.7500    110.8763      0.0000    718.3191      9.6837
   766.0000    118.2902      0.0000    705.0441      9.7324
   766.2500    121.6429      0.0000    696.7325      9.7584
   766.5000    120.8759      0.0000    694.6576      9.7413
   766.7500    116.9325      0.0000    697.6658      9.6368
   767.0000    111.7579      0.0000    703.3142      9.3981
   767.2500    107.8681      0.0000    709.3916      9.0371
   767.5000    107.1238      0.0000    715.3914      8.6511
   767.7500    109.3110      0.0000    722.1354      8.3619
   768.0000    112.0809      0.0000    729.7377      8.2275
   768.2500    112.8349      0.0000    737.1717      8.2181
   768.5000    110.9409      0.0000    744.0375      8.2610
   768.7500    108.0214     -1.3394    750.6508      8.2938
   769.0000    106.0011     -2.0000    755.7014      8.2884
   769.2500    104.9948      0.0000    756.0948      8.2598
   769.5000    103.3982      0.0000    750.5307      8.2759
   769.7500     99.9873      0.0000    741.7886      8.4435
   770.0000     95.3744      0.0000    734.3622      8.8261
   770.2500     91.0929      0.0000    731.0186      9.3420
   770.5000     87.6784      0.0000    732.3484      9.7860
   770.7500     84.3038      0.0000    737.8954      9.9991
   771.0000     80.1869      0.0000    746.0640      9.9938
   771.2500     75.7213      0.0000    753.7720      9.8957
   771.5000     72.1879      0.0000    757.7873      9.8131
   771.7500     70.8752      0.0000    756.8331      9.7854
   772.0000     72.4922      0.0000    752.1111      9.8047
   772.2500     76.7556      0.0000    745.5698      9.8435
   772.5000     82.1652      0.0000    737.8169      9.8725
   772.7500     86.4954      0.0000    728.3640      9.8798
   773.0000     87.9929      0.0000    718.0161      9.8816
   773.2500     86.2735      0.0000    709.7440      9.9111
   773.5000     82.2878      0.0000    706.2646      9.9961
   773.7500     77.6972      0.0000    707.4174     10.1460
   774.0000     74.1920      0.0000    710.6949     10.3544
   774.2500     72.9088      0.0000    713.8384     10.5986
   774.5000     74.1238      0.0000    716.0359     10.8336
   774.7500     77.3058      0.0000    717.0432     11.0005
   775.0000     81.3636      0.0000    716.6734     11.0678
   775.2500     85.0280      0.0000    715.3846     11.0661
   775.5000     87.3220      0.0000    714.1223     11.0667
   775.7500     87.9082      0.0000    713.0385     11.1182
   776.0000     87.1888      0.0000    711.2874     11.2108
   776.2500     86.1653      0.0000    708.8585     11.2973
   776.5000     86.0256      0.0000    707.8792     11.3273
   776.7500     87.7246      0.0000    710.7463     11.2678
   777.0000     91.8485      0.0000    716.7557     11.1186
   777.2500     98.4833      0.0000    721.5261     10.9190
   777.5000    106.9671      0.0000    720.6282     10.7272
   777.7500    115.8497      0.0000    713.7626     10.5882
   778.0000    123.1258      0.0000    704.9663     10.5204
   778.2500    126.6838      0.0000    699.2526     10.5230
   778.5000    125.1751      0.0000    699.6942     10.5883
   778.7500    118.9916      0.0000    706.6862     10.7058
   779.0000    110.4207      0.0000    717.9555     10.8643
   779.2500    102.5896      0.0000    728.9186     11.0554
   779.5000     97.8939      0.0000    734.9276     11.2751
   779.7500     96.9920      0.0000    734.8331     11.5135
   780.0000     98.9288      0.0000    731.9345     11.7399
   780.2500    102.1607      0.0000    730.4441     11.9142
   780.5000    105.6386      0.0000    731.4000     12.0168
   780.7500    109.1132      0.0000    732.9380     12.0548
   781.0000    112.7707      0.0000    733.7426     12.0384
   781.2500    116.9608      0.0000    734.5345     11.9750
   781.5000    122.1479      0.0000    736.2267     11.8874
   781.7500    128.5481      0.0000    738.2009     11.8130
   782.0000    135.4664      0.0000    739.3333     11.7724
   782.2500    141.1100      0.0000    739.8914     11.7478
   782.5000    143.4483      0.0000    740.8856     11.6928
   782.7500    141.5609      0.0000    741.6935     11.5637
   783.0000    136.0635      0.0000    740.4866     11.3510
   783.2500    128.1957      0.0000    737.8599     11.0879
   783.5000    119.0036      0.0000    738.0981     10.8278
   783.7500    109.5525      0.0000    745.1885     10.6084
   784.0000    101.3442      0.0000    758.1494     10.4372
   784.2500     96.2164      0.0000    771.3238     10.3043
   784.5000     95.8280      0.0000    779.1676     10.2062
   784.7500    100.7048      0.0000    780.3306     10.1539
   785.0000    109.2960      0.0000    777.4026     10.1582
   785.2500    118.4029      0.0000    773.7704     10.2099
   785.5000    125.2528      0.0000    771.2504     10.2821
   785.7500    129.1961      0.0000    769.9960     10.3525
   786.0000    131.3434      0.0000    769.5303     10.4159
   786.2500    133.0013      0.0000    769.4633     10.4783
   786.5000    134.7153      0.0000    769.6000     10.5490
   786.7500    136.3426      0.0000    769.7159     10.6418
   787.0000    137.4497      0.0000    769.2990     10.7672
   787.2500    137.5943      0.0000    767.3439     10.9135
   787.5000    136.5334      0.0000    762.4268     11.0409
   787.7500    134.3699      0.0000    753.5822     11.1043
   788.0000    131.6565      0.0000    742.0531     11.0941
   788.2500    129.4140      0.0000    732.3512     11.0583
   788.5000    128.7168      0.0000    730.3549     11.0830
   788.7500    129.8061      0.0000    738.8394     11.2306
   789.0000    131.6627      0.0000    754.3314     11.4777
   789.2500    132.8008      0.0000    768.8770     11.7106
   789.5000    132.3810      0.0000    775.7659     11.8040
   789.7500    130.3105      0.0000    774.2383     11.7219
   790.0000    126.6833      0.0000    768.9400     11.5407
   790.2500    121.5714      0.0000    765.0243     11.3710
   790.5000    115.1650      0.0000    764.1861     11.2613
   790.7500    107.9011      0.0000    765.1232     11.1783
   791.0000    100.6538      0.0000    766.4376     11.0618
   791.2500     94.8230      0.0000    768.0605     10.8864
   791.5000     91.8555      0.0000    770.3615     10.6752
   791.7500     92.2539      0.0000    772.6696     10.4714
   792.0000     94.9454      0.0000    773.0195     10.3030
   792.2500     97.9167      0.0000    769.5948     10.1728
   792.5000     99.7271      0.0000    762.6450     10.0768
   792.7500    100.2525      0.0000    754.7651     10.0203
   793.0000     99.9011      0.0000    748.7648     10.0090
   793.2500     98.6233      0.0000    745.1083     10.0370
   793.5000     96.0841      0.0000    741.6582     10.0917
   793.7500     92.5188      0.0000    736.1088     10.1627
   794.0000     88.9694      0.0000    728.5493     10.2431
   794.2500     86.7645      0.0000    721.3104     10.3304
   794.5000     86.8800      0.0000    716.3672     10.4244
   794.7500     89.3727      0.0000    713.2942     10.5094
   795.0000     93.0093      0.0000    709.8710     10.5431
   795.2500     95.7940      0.0000    703.8975     10.4839
   795.5000     96.4950      0.0000    694.3391     10.3296
   795.7500     95.7329      0.0000    682.1083     10.1189
   796.0000     95.4081      0.0000    670.7946      9.8953
   796.2500     97.2234      0.0000    664.8614      9.6834
   796.5000    101.7473      0.0000    664.4744      9.4966
   796.7500    108.3150      0.0000    662.8970      9.3489
   797.0000    115.3241      0.0000    652.5432      9.2518
   797.2500    120.8757      0.0000    635.1897      9.2043
   797.5000    123.6336      0.0000    624.2408      9.1924
   797.7500    123.1085      0.0000    633.6686      9.1966
   798.0000    119.1462      0.0000    664.1744      9.1999
   798.2500    112.0029      0.0000    702.4366      9.1877
   798.5000    103.5330      0.0000    733.5625      9.1497
