~Version Information
VERS.                      2.0: CWLS Log ASCII Standard - VERSION 2.0
WRAP.                       NO: One line per depth step
~Well Information Block
STRT.FT                -8.2500: 
STOP.FT              1580.5000: 
STEP.FT                 0.2500: 
NULL.                -999.2500: 
COMP.          Pioneer Natural Resources: COMPANY
WELL.          Daytona 31-14 Tr: WELL
FLD.           Purgatorie River: FIELD
LOC.           683' FNL & 1943' FEL--: LOCATION
CNTY.               Las Animas: COUNTY
SRVC.          Patterson Wireline: SERVICE COMPANY
DATE.          Thu Feb 02 08:47:22 2006: LOG DATE
UWI.           05 071 08681 00: UNIQUE WELL ID
STAT.                       CO: STATE
~Curve Information Block
DEPT.FT            0 000 00 00: Depth
CCL.                          : Casing Collar Locator
TT3.usec                      : CBL 3' Travel Time
AMP3.mV                       : CBL 3' Amplitude
GR.GAPI                       : Gamma Ray
~Parameter Information Block
~A  Depth       CCL         TT3         AMP3         GR     
# ...
   695.2500      0.0000    401.7909      6.3454    146.9550
   695.5000      0.0000    414.3518      6.2684    150.1878
   695.7500      0.0000    432.4342      6.1904    150.4865
   696.0000      0.0000    458.3333      6.0817    147.6846
   696.2500      0.0000    494.9712      5.9188    142.6796
   696.5000      0.0000    541.8724      5.7090    136.7066
   696.7500      0.0000    591.9010      5.4948    130.6193
   697.0000      0.0000    634.5177      5.3252    124.3500
   697.2500      0.0000    663.0485      5.2246    116.7737
   697.5000      0.0000    677.9851      5.1865    106.2827
   697.7500      0.0000    684.0682      5.1891     92.1626
   698.0000      0.0000    685.9141      5.2116     76.0530
   698.2500      0.0000    686.1643      5.2407     61.9857
   698.5000      0.0000    685.9194      5.2667     54.2876
   698.7500      0.0000    685.6454      5.2768     54.8995
   699.0000      0.0000    685.6205      5.2580     62.3758
   699.2500      0.0000    685.9558      5.2110     73.1852
   699.5000      0.0000    686.5518      5.1581     84.0305
   699.7500      0.0000    687.1753      5.1323     93.3793
   700.0000      0.0000    687.5761      5.1552    101.2609
   700.2500      0.0000    687.4490      5.2231    108.0380
   700.5000      0.0000    686.1229      5.3106    113.6970
   700.7500      0.0000    682.0247      5.3897    118.2515
   701.0000      0.0000    672.6174      5.4485    122.3527
   701.2500      0.0000    655.9946      5.4956    127.2099
   701.5000      0.0000    634.1025      5.5461    133.6405
   701.7500      0.0000    614.4553      5.6061    140.9333
   702.0000      0.0000    606.6169      5.6692    146.8601
   702.2500      0.0000    615.0283      5.7237    149.5611
   702.5000      0.0000    635.2646      5.7595    149.4688
   702.7500      0.0000    657.9418      5.7727    148.5768
   703.0000      0.0000    676.0391      5.7695    147.8082
   703.2500      0.0000    688.4143      5.7667    146.0820
   703.5000      0.0000    697.6915      5.7819    141.9537
   703.7500      0.0000    706.3155      5.8212    135.0921
   704.0000      0.0000    714.5596      5.8761    126.2167
   704.2500      0.0000    721.1465      5.9318    116.8715
   704.5000      0.0000    724.8470      5.9775    109.3616
   704.7500      0.0000    725.3213      6.0101    105.8149
   705.0000      0.0000    722.9597      6.0306    106.7278
   705.2500      0.0000    718.4678      6.0376    110.5463
   705.5000      0.0000    712.6350      6.0269    114.7853
   705.7500      0.0000    706.2178      5.9993    117.7422
   706.0000      0.0000    699.9652      5.9683    119.3100
   706.2500      0.0000    694.6550      5.9530    120.3265
   706.5000      0.0000    690.8569      5.9606    121.4772
   706.7500      0.0000    688.6182      5.9775    122.9967
   707.0000      0.0000    687.5182      5.9792    124.7895
   707.2500      0.0000    687.0232      5.9474    126.4088
   707.5000      0.0000    686.7659      5.8804    127.4734
   707.7500      0.0000    686.6019      5.7925    128.1847
   708.0000      0.0000    686.5213      5.7040    128.8324
   708.2500      0.0000    686.5338      5.6303    129.1116
   708.5000      0.0000    686.6050      5.5767    128.6195
   708.7500      0.0000    686.6822      5.5381    127.6547
   709.0000      0.0000    686.7502      5.5007    126.9408
   709.2500      0.0000    686.8839      5.4479    127.0041
   709.5000      0.0000    687.3219      5.3693    128.0444
   709.7500      0.0000    688.5541      5.2681    129.7229
   710.0000      0.0000    691.2343      5.1598    130.7869
   710.2500      0.0000    695.6180      5.0621    129.2698
   710.5000      0.0000    700.7304      4.9845    123.3273
   710.7500      0.0000    704.3308      4.9282    112.2248
   711.0000      0.0000    704.3962      4.8926     97.0208
   711.2500      0.0000    700.8955      4.8770     80.4365
   711.5000      0.0000    695.7980      4.8761     65.6918
   711.7500      0.0000    691.3285      4.8785     55.1265
   712.0000      0.0000    688.5034      4.8760     49.6902
   712.2500      0.0000    687.1264      4.8710     49.2366
   712.5000      0.0000    686.5656      4.8715     52.7588
   712.7500      0.0000    686.3277      4.8816     58.4813
   713.0000      0.0000    686.1967      4.9016     64.3454
   713.2500      0.0000    686.1739      4.9330     68.9682
   713.5000      0.0000    686.4089      4.9788     72.3381
   713.7500      0.0000    687.1962      5.0404     75.4293
   714.0000      0.0000    688.9228      5.1156     79.0334
   714.2500      0.0000    691.7869      5.1958     83.1966
   714.5000      0.0000    695.3679      5.2664     87.9004
   714.7500      0.0000    698.4865      5.3141     93.7205
   715.0000      0.0000    699.2278      5.3405    101.1617
   715.2500      0.0000    695.0509      5.3617    109.4700
   715.5000      0.0000    684.3212      5.3922    116.6235
   715.7500      0.0000    669.5184      5.4331    120.6175
   716.0000      0.0000    657.7657      5.4762    120.6060
   716.2500      0.0000    655.3898      5.5169    117.0598
   716.5000      0.0000    662.0593      5.5578    111.3247
   716.7500      0.0000    671.9423      5.6020    105.1216
   717.0000      0.0000    679.7069      5.6469     99.8606
   717.2500      0.0000    683.8609      5.6827     95.8493
   717.5000      0.0000    685.5197      5.6986     92.2748
   717.7500      0.0000    686.0901      5.6891     88.2961
   718.0000      0.0000    686.3167      5.6586     84.0845
   718.2500      0.0000    686.4266      5.6190     80.5124
   718.5000      0.0000    686.4526      5.5841     77.9593
   718.7500      0.0000    686.4125      5.5653     75.8945
   719.0000      0.0000    686.3342      5.5684     73.6318
   719.2500      0.0000    686.2529      5.5912     71.1110
   719.5000      0.0000    686.1895      5.6249     69.0126
   719.7500      0.0000    686.1276      5.6591     68.4175
   720.0000      0.0000    685.9785      5.6847     70.0530
   720.2500      0.0000    685.5122      5.6924     73.4539
   720.5000      0.0000    684.2689      5.6735     77.0355
   720.7500      0.0000    681.6192      5.6272     79.3433
   721.0000      0.0000    677.2837      5.5680     80.1970
   721.2500      0.0000    672.1810      5.5239     80.5049
   721.5000      0.0000    668.5446      5.5234     81.0500
   721.7500      0.0000    668.4525      5.5789     81.6253
   722.0000      0.0000    671.9558      5.6804     81.5102
   722.2500      0.0000    677.0211      5.8043     80.7443
   722.5000      0.0000    681.3562      5.9258     80.5679
   722.7500      0.0000    683.8788      6.0261     82.2541
   723.0000      0.0000    684.4818      6.0943     85.6064
   723.2500      0.0000    682.8946      6.1300     88.9661
   723.5000      0.0000    678.1122      6.1428     90.6778
   723.7500      0.0000    669.1783      6.1479     90.2851
   724.0000      0.0000    656.9339      6.1557     88.4207
   724.2500      0.0000    644.8668      6.1594     86.1414
   724.5000      0.0000    637.2296      6.1312     84.4516
   724.7500      0.0000    635.7174      6.0439     83.8659
   725.0000      0.0000    638.5123      5.9092     84.1292
   725.2500      0.0000    642.7162      5.7869     84.7130
   725.5000      0.0000    646.5051      5.7326     85.4879
   725.7500      0.0000    648.5065      5.7413     86.4129
   726.0000      0.0000    646.6250      5.7656     86.9067
   726.2500      0.0000    638.9402      5.7794     86.3905
   726.5000      0.0000    625.7256      5.7961     85.3275
   726.7500      0.0000    610.0596      5.8352     84.8459
   727.0000     -2.0000    596.0027      5.8954     85.1255
   727.2500      0.0000    586.3481      5.9633     84.8823
   727.5000      0.0000    583.0373      6.0394     82.9293
   727.7500      0.0000    588.6119      6.1543     79.8559
   728.0000      0.0000    604.2618      6.3413     77.5055
   728.2500      0.0000    626.5827      6.5751     76.9436
   728.5000      0.0000    648.9550      6.7553     77.5469
