~Version Information
VERS.                      2.0: CWLS Log ASCII Standard - VERSION 2.0
WRAP.                       NO: One line per depth step
~Well Information Block
STRT.FT                 0.0000: 
STOP.FT              2086.0000: 
STEP.FT                 0.2500: 
NULL.                -999.2500: 
COMP.          Petrogulf Corporation: COMPANY
WELL.               YWAM 7-32R: WELL
FLD.           Purgatorie River: FIELD
LOC.           2355' FNL & 2376' FEL: LOCATION
STAT.                 Colorado: State
CNTY.               Las Animas: COUNTY
CTRY. USA : Country
SECT. 7 : Section
TOWN. 33S : Township
RANG. 67W : Range
SRVC.                Patterson: SERVICE COMPANY
DATE.          Wed Nov 09 16:33:59 2005: LOG DATE
API. 05-071-08518                         : UNIQUE WELL ID
~Curve Information Block
DEPT.FT            0 000 00 00: Depth
CCL.                          : Casing Collar Locator
TT3.usec                      : CBL 3' Travel Time
AMP3.mV                       : CBL 3' Amplitude
GR.GAPI                       : Gamma Ray
~Parameter Information Block
~A  Depth       CCL         TT3         AMP3         GR     
# ...
   670.0000      0.0000    442.4337      6.0402     83.9934
   670.2500      0.0000    417.9949      6.1092     81.8421
   670.5000      0.0000    407.9189      6.1268     79.7985
   670.7500      0.0000    404.8307      6.1334     78.9396
   671.0000      0.0000    403.8096      6.1806     79.8175
   671.2500      0.0000    403.2188      6.2748     82.1469
   671.5000      0.0000    402.7481      6.3679     85.0610
   671.7500      0.0000    402.4110      6.4087     87.9368
   672.0000      0.0000    402.2492      6.3918     90.7283
   672.2500      0.0000    402.0672      6.3375     93.2828
   672.5000      0.0000    401.0762      6.2658     94.7868
   672.7500      0.0000    397.7968      6.2013     94.3848
   673.0000      0.0000    391.3852      6.1549     92.1640
   673.2500      0.0000    383.9288      6.1293     89.1354
   673.5000      0.0000    379.4782      6.1428     86.3262
   673.7500      0.0000    379.1630      6.1978     84.2162
   674.0000      0.0000    379.6990      6.2576     82.8935
   674.2500      0.0000    378.7682      6.2923     82.3278
   674.5000      0.0000    378.9383      6.3189     82.4095
   674.7500      0.0000    383.4492      6.3869     82.8927
   675.0000      0.0000    391.0417      6.5253     83.3630
   675.2500      0.0000    397.6866      6.7016     83.3861
   675.5000      0.0000    401.3327      6.8626     82.8773
   675.7500      0.0000    402.6945      6.9922     82.2243
   676.0000      0.0000    403.0457      7.0869     81.9160
   676.2500      0.0000    403.0891      7.1364     82.1943
   676.5000      0.0000    402.9437      7.1451     82.9862
   676.7500      0.0000    401.9327      7.1250     83.9201
   677.0000      0.0000    398.5396      7.0987     84.5564
   677.2500      0.0000    391.9072      7.1124     84.7110
   677.5000      0.0000    384.3467      7.1802     84.2429
   677.7500      0.0000    380.7477      7.2473     82.6697
   678.0000      0.0000    383.8066      7.2590     79.7145
   678.2500      0.0000    391.0214      7.2189     76.3064
   678.5000      0.0000    397.5990      7.1595     74.3718
   678.7500      0.0000    401.1235      7.0970     75.3022
   679.0000      0.0000    402.1657      7.0490     78.7420
   679.2500      0.0000    402.0666      7.0503     82.8426
   679.5000      0.0000    401.7053      7.1189     85.5823
   679.7500      0.0000    401.4398      7.2228     86.0103
   680.0000      0.0000    401.2884      7.2881     84.7131
   680.2500      0.0000    401.1494      7.2520     83.4040
   680.5000      0.0000    400.8073      7.1308     83.7406
   680.7500      0.0000    399.5430      7.0117     85.9890
   681.0000      0.0000    395.8860      6.9538     88.8662
   681.2500      0.0000    388.8205      6.9473     90.8858
   681.5000      0.0000    379.8885      6.9632     91.5541
   681.7500      0.0000    372.4505      6.9735     91.2059
   682.0000      0.0000    368.2647      6.9537     90.3255
   682.2500      0.0000    366.6167      6.9195     89.2681
   682.5000      0.0000    366.2650      6.9064     88.2074
   682.7500      0.0000    366.5808      6.8956     87.2318
   683.0000      0.0000    367.4550      6.8332     86.6973
   683.2500      0.0000    368.9478      6.7149     87.1902
   683.5000      0.0000    370.8378      6.5859     88.6526
   683.7500      0.0000    372.7633      6.4842     89.7311
   684.0000      0.0000    375.9558      6.4184     88.5618
   684.2500      0.0000    386.6294      6.3841     84.5884
   684.5000      0.0000    416.6908      6.4108     79.6087
   684.7500      0.0000    470.5983      6.5901     76.7348
   685.0000      0.0000    527.1525      6.9733     77.9338
   685.2500      0.0000    556.6573      7.3994     82.4054
   685.5000      0.0000    562.8228      7.5376     87.3537
   685.7500      0.0000    577.2263      7.2125     90.3807
   686.0000      0.0000    611.4224      6.7131     91.0823
   686.2500      0.0000    645.6955      6.5656     90.4456
   686.5000      0.0000    666.8304      6.8756     89.2643
   686.7500     -2.0000    691.6209      7.2234     87.6806
   687.0000      2.0000    736.6927      7.2493     86.0821
   687.2500      0.0000    781.6380      6.9873     85.6878
   687.5000      0.0000    791.5779      6.6557     87.6519
   687.7500      0.0000    762.5539      6.4094     91.6330
   688.0000      0.0000    721.3094      6.3079     95.7152
   688.2500      0.0000    693.2258      6.3381     98.0950
   688.5000      0.0000    684.3130      6.3811     98.6615
   688.7500      0.0000    687.1105      6.3265     98.6815
   689.0000      0.0000    693.0371      6.2425     99.0905
   689.2500      0.0000    698.8257      6.1943     99.5623
   689.5000      0.0000    704.9793      6.0585     99.3572
   689.7500      0.0000    710.7958      5.7360     98.6185
   690.0000      0.0000    714.0533      5.3136     98.3672
   690.2500      0.0000    716.8110      4.9270     99.3088
   690.5000      0.0000    724.4901      4.6364    100.8566
   690.7500      0.0000    733.2485      4.4531    101.4024
   691.0000      0.0000    731.5905      4.3772     99.7484
   691.2500      0.0000    716.8857      4.3836     96.4186
   691.5000      0.0000    699.7201      4.4188     93.2380
   691.7500      0.0000    691.6567      4.4443     91.4413
   692.0000      0.0000    687.6987      4.4525     90.5037
   692.2500      0.0000    664.6566      4.4359     88.8664
   692.5000      0.0000    607.4715      4.3985     85.4160
   692.7500      0.0000    539.2206      4.3713     80.2534
   693.0000      0.0000    510.3367      4.3642     74.4610
   693.2500      0.0000    545.6080      4.3408     69.3633
   693.5000      0.0000    615.5748      4.2720     65.9580
   693.7500      0.0000    674.7771      4.1724     64.8747
   694.0000      0.0000    709.5430      4.0704     66.4009
   694.2500      0.0000    730.6248      3.9728     70.0376
   694.5000      0.0000    744.0540      3.8696     74.1931
   694.7500      0.0000    744.9464      3.7676     77.0434
   695.0000      0.0000    727.7051      3.6899     78.0482
   695.2500      0.0000    698.0223      3.6570     78.3394
   695.5000      0.0000    671.3690      3.6768     79.3962
   695.7500      0.0000    657.2827      3.7312     81.7069
   696.0000      0.0000    654.1135      3.7966     84.7718
   696.2500      0.0000    659.0509      3.8669     87.6660
   696.5000      0.0000    675.0671      3.9471     89.3019
   696.7500      0.0000    704.6251      4.0374     88.8761
   697.0000      0.0000    736.8309      4.1145     86.5471
   697.2500      0.0000    750.4387      4.1483     83.2668
   697.5000      0.0000    738.3342      4.1409     79.7841
   697.7500      0.0000    719.5932      4.1286     76.3280
   698.0000      0.0000    715.0919      4.1482     73.2944
   698.2500      0.0000    722.0994      4.1887     71.4606
   698.5000      0.0000    727.2234      4.1966     71.2073
   698.7500      0.0000    727.9935      4.1401     72.0915
   699.0000      0.0000    729.3214      4.0431     73.4399
   699.2500      0.0000    730.9526      3.9529     74.8190
   699.5000      0.0000    725.2289      3.8910     75.6932
   699.7500      0.0000    706.8533      3.8487     75.2464
   700.0000      0.0000    682.2431      3.8171     73.1192
   700.2500      0.0000    662.9131      3.8065     70.1693
   700.5000      0.0000    652.5521      3.8408     68.0219
   700.7500      0.0000    646.5035      3.9282     67.7564
   701.0000      0.0000    639.7582      4.0232     69.2367
   701.2500      0.0000    631.2208      4.0533     71.6059
   701.5000      0.0000    621.5565      3.9909     73.9599
   701.7500      0.0000    610.5262      3.8655     75.4950
   702.0000      0.0000    599.0459      3.7392     75.5261
   702.2500      0.0000    587.5743      3.6844     73.8737
   702.5000      0.0000    566.5043      3.7229     71.3249
   702.7500      0.0000    521.8395      3.8091     69.5125
   703.0000      0.0000    460.1355      3.8933     69.9901
   703.2500      0.0000    407.8092      3.9404     73.1998
