~Version Information
VERS.                      2.0: CWLS Log ASCII Standard - VERSION 2.0
WRAP.                       NO: One line per depth step
~Well Information Block
STRT.FT               452.0000: 
STOP.FT              1726.5000: 
STEP.FT                 0.1000: 
NULL.                -999.2500: 
COMP.          Pioneer Natural Resources: COMPANY
WELL.          Parrothead 31-31 Tr: WELL
FLD.           Purgatoire River: FIELD
LOC.           496' FNL & 1546' FEL: LOCATION
PROV.                 Colorado: PROVINCE
CNTY.               Las Animas: COUNTRY
SRVC.                Patterson: SERVICE COMPANY
DATE.          Thu Nov 10 07:29:36 2005: LOG DATE
UWI.           05 071 08610 00: UNIQUE WELL ID
~Curve Information Block
DEPT.FT            0 000 00 00: Depth
DCAL.in                       : CDL Caliper
RHOB.g/cc                     : CDL Bulk Density
RHOC.g/cc                     : CDL Density Correction
DPOR.pu                       : CDL Density Porosity
GR.GAPI                       : Gamma Ray
NPOR.pu                       : Neutron Porosity
~Parameter Information Block
~A  Depth       DCAL        RHOB        RHOC        DPOR         GR         NPOR    
# ...
  1287.2000      7.9966      2.4110      0.0223     14.4860     45.7362     16.0024
  1287.3000      7.9648      2.3973      0.0122     15.3122     48.1785     16.0618
  1287.4000      7.9648      2.3947      0.0303     15.4743     51.5605     16.6864
  1287.5000      7.9511      2.3972      0.0497     15.3215     52.8444     17.7230
  1287.6000      7.9511      2.4024      0.0159     15.0057     52.7238     18.8171
  1287.7000      7.9511      2.4171      0.0386     14.1156     53.1024     19.7185
  1287.8000      7.9318      2.4436      0.0518     12.5109     53.5815     20.4833
  1287.9000      7.9318      2.4843      0.0139     10.0444     54.0229     21.2083
  1288.0000      7.9205      2.5349      0.0830      6.9767     57.2244     21.6757
  1288.1000      7.9205      2.5730      0.1152      4.6673     63.8605     21.9135
  1288.2000      7.9205      2.5850      0.0859      3.9404     72.3749     22.0989
  1288.3000      7.9107      2.5782      0.0910      4.3526     80.0002     22.0802
  1288.4000      7.9107      2.5550      0.0896      5.7550     83.0426     21.7472
  1288.5000      7.8924      2.5162      0.0363      8.1079     82.2199     21.3021
  1288.6000      7.8924      2.4790      0.0313     10.3657     82.5914     20.9830
  1288.7000      7.8924      2.4531      0.0296     11.9313     83.0608     20.5953
  1288.8000      7.8723      2.4287      0.0694     13.4148     78.6070     19.9595
  1288.9000      7.8723      2.4075      0.0279     14.6973     73.9058     19.3404
  1289.0000      7.8760      2.4104      0.0881     14.5216     75.5328     18.6618
  1289.1000      7.8760      2.4412      0.0913     12.6573     78.9038     17.9581
  1289.2000      7.8760      2.4774      0.1486     10.4601     77.3085     17.4595
  1289.3000      7.8493      2.5035      0.1326      8.8761     71.5840     16.9952
  1289.4000      7.8493      2.5209      0.1982      7.8267     65.9639     16.6778
  1289.5000      7.8657      2.5283      0.1681      7.3748     62.4764     16.7954
  1289.6000      7.8657      2.5256      0.1769      7.5418     61.6989     17.2332
  1289.7000      7.8657      2.5127      0.1705      8.3198     62.1967     17.7038
  1289.8000      7.8916      2.4978      0.1102      9.2245     61.8948     18.1289
  1289.9000      7.8916      2.4936      0.1271      9.4806     62.2684     18.3294
  1290.0000      7.9138      2.4940      0.1389      9.4549     64.7295     18.1010
  1290.1000      7.9138      2.4834      0.1143     10.0960     67.0833     17.5682
  1290.2000      7.9138      2.4650      0.0527     11.2134     66.2187     17.1537
  1290.3000      7.9447      2.4586      0.0575     11.5990     63.0900     17.1341
  1290.4000      7.9447      2.4704      0.1019     10.8838     61.0674     17.2064
  1290.5000      7.9386      2.4859      0.1217      9.9429     61.0028     17.1165
  1290.6000      7.9386      2.4888      0.1154      9.7668     59.7228     17.1287
  1290.7000      7.9386      2.4768      0.0975     10.4987     56.9372     17.3716
  1290.8000      7.9232      2.4636      0.0612     11.2981     57.1621     17.5606
  1290.9000      7.9232      2.4641      0.0609     11.2695     60.2671     17.6594
  1291.0000      7.9040      2.4765      0.1328     10.5175     62.1484     17.8917
  1291.1000      7.9040      2.4899      0.1137      9.7052     61.4844     18.2458
  1291.2000      7.9040      2.4966      0.1102      9.2982     60.7694     18.4519
  1291.3000      7.9023      2.4951      0.0967      9.3906     61.6342     18.3179
  1291.4000      7.9023      2.4939      0.0850      9.4584     64.3470     18.0874
  1291.5000      7.8996      2.4982      0.0898      9.2026     69.2925     18.2335
  1291.6000      7.8996      2.4972      0.1063      9.2635     75.1115     18.6942
  1291.7000      7.8996      2.4770      0.1003     10.4827     76.4841     18.7889
  1291.8000      7.8729      2.4501      0.0286     12.1177     70.0330     18.4279
  1291.9000      7.8729      2.4495      0.0366     12.1488     61.3082     18.0538
  1292.0000      7.8975      2.4761      0.1008     10.5395     57.2053     17.6328
  1292.1000      7.8975      2.4950      0.1127      9.3950     57.9082     17.1543
  1292.2000      7.8975      2.4909      0.0969      9.6419     61.2253     16.9013
  1292.3000      7.9165      2.4777      0.1262     10.4451     65.7505     16.7446
  1292.4000      7.9165      2.4670      0.1098     11.0918     67.5724     16.4379
  1292.5000      7.9270      2.4593      0.0823     11.5601     65.6075     16.1710
  1292.6000      7.9270      2.4467      0.0896     12.3202     63.7283     16.0510
  1292.7000      7.9270      2.4286      0.0232     13.4154     63.5175     15.9611
  1292.8000      7.9551      2.4200      0.0366     13.9375     65.4977     16.0322
  1292.9000      7.9551      2.4247      0.0403     13.6519     69.4334     16.6040
  1293.0000      7.9628      2.4302      0.1009     13.3219     72.7170     17.4787
  1293.1000      7.9628      2.4371      0.0438     12.9044     73.7186     17.9796
  1293.2000      7.9628      2.4533      0.0950     11.9210     75.7698     17.9927
  1293.3000      7.9762      2.4639      0.1078     11.2809     84.9692     17.9400
  1293.4000      7.9762      2.4545      0.0730     11.8499     98.9992     18.1142
  1293.5000      7.9548      2.4325      0.1213     13.1823    106.0778     18.7440
  1293.6000      7.9548      2.4156      0.1079     14.2049    103.5772     19.8112
  1293.7000      7.9548      2.4199      0.1603     13.9460    104.7957     20.7638
  1293.8000      7.9312      2.4429      0.1824     12.5490    116.1604     21.4711
  1293.9000      7.9312      2.4756      0.1688     10.5724    125.9685     22.1004
  1294.0000      7.8132      2.5167      0.1583      8.0772    125.2160     22.3783
  1294.1000      7.8132      2.5613      0.2048      5.3748    120.5418     22.3177
  1294.2000      7.8132      2.5984      0.2392      3.1281    121.8646     22.4391
  1294.3000      7.7948      2.6276      0.2365      1.3577    126.9522     22.9529
  1294.4000      7.7948      2.6505      0.2499     -0.0302    126.0216     23.7023
  1294.5000      7.8374      2.6530      0.2786     -0.1833    120.5509     24.5228
  1294.6000      7.8374      2.6292      0.2142      1.2598    117.3348     25.1919
  1294.7000      7.8374      2.5998      0.1652      3.0450    114.9449     25.1685
  1294.8000      7.8739      2.5853      0.1017      3.9237    111.0971     24.3268
  1294.9000      7.8739      2.5837      0.0755      4.0203    105.4923     23.4343
  1295.0000      7.8799      2.5788      0.0738      4.3136     99.6775     22.6547
  1295.1000      7.8799      2.5602      0.0579      5.4436     97.4820     21.7026
  1295.2000      7.8799      2.5333      0.0635      7.0722     98.4284     20.8520
  1295.3000      7.8857      2.5024      0.0668      8.9483     99.3865     20.0854
  1295.4000      7.8857      2.4483      0.1000     12.2264     97.7694     19.0317
  1295.5000      7.9077      2.3581      0.0517     17.6907     94.3239     17.7009
  1295.6000      7.9077      2.2607     -0.0228     23.5932     92.5781     16.3837
  1295.7000      7.9077      2.1943     -0.0853     27.6182     95.1255     15.6099
  1295.8000      7.9218      2.1575     -0.0010     29.8502    101.2792     15.6080
  1295.9000      7.9218      2.1268     -0.0187     31.7076    105.6072     15.6593
  1296.0000      7.9155      2.1101     -0.0296     32.7222    105.5481     15.3638
  1296.1000      7.9155      2.1200      0.1104     32.1237    104.9326     15.0804
  1296.2000      7.9155      2.1231      0.2248     31.9346    106.4816     14.8368
  1296.3000      7.8840      2.0878      0.2605     34.0751    106.9665     14.5611
  1296.4000      7.8840      2.0263      0.2631     37.8005    105.3879     14.6010
  1296.5000      7.8650      1.9633      0.2271     41.6210    105.0287     15.2971
  1296.6000      7.8650      1.9144      0.1557     44.5792    104.7363     16.6177
  1296.7000      7.8650      1.8845      0.1655     46.3937    102.1337     18.4015
