~Version Information
VERS.                      2.0: CWLS Log ASCII Standard - VERSION 2.0
WRAP.                       NO: One line per depth step
~Well Information Block
STRT.FT               240.0000: 
STOP.FT              1252.5000: 
STEP.FT                 0.2500: 
NULL.                -999.2500: 
COMP.          Pioneer Natural Resources: COMPANY
WELL.             Margaux 11-1: WELL
FLD.           Purgatoire River: FIELD
LOC.           1154' FNL & 472' FWL: LOCATION
PROV.                 Colorado: PROVINCE
CNTY.               Las Animas: COUNTRY
SRVC.                Patterson: SERVICE COMPANY
DATE.          Mon Dec 19 04:21:59 2005: LOG DATE
UWI.           05 071 08639 00: UNIQUE WELL ID
~Curve Information Block
DEPT.FT            0 000 00 00: Depth
SN.Ohm-m                      : IEL Short Normal
SP.mV                         : IEL Spontaneous Potential
DIR.Ohm-m                     : IEL Induction Resistivity
GR.GAPI                       : Gamma Ray
~Parameter Information Block
~A  Depth        SN          SP         DIR          GR     
# ...
   441.0000   2000.0000   2000.0000     58.7377     42.5019
   441.2500   2000.0000   2000.0000     58.7265     42.2377
   441.5000   2000.0000   2000.0000     58.3366     42.9709
   441.7500   2000.0000   2000.0000     57.7226     43.8541
   442.0000   2000.0000   2000.0000     57.1542     45.0022
   442.2500   2000.0000   2000.0000     56.8823     45.3585
   442.5000   2000.0000   2000.0000     56.9754     45.0410
   442.7500   2000.0000   2000.0000     57.2315     44.1739
   443.0000   2000.0000   2000.0000     57.2260     41.9423
   443.2500   2000.0000   2000.0000     56.4963     40.1507
   443.5000   2000.0000   2000.0000     54.7799     38.0344
   443.7500   2000.0000   2000.0000     52.1437     37.5539
   444.0000   2000.0000   2000.0000     48.9083     38.3893
   444.2500   2000.0000   2000.0000     45.4587     39.6793
   444.5000   2000.0000   2000.0000     42.0953     42.5639
   444.7500   2000.0000   2000.0000     38.9889     45.7350
   445.0000   2000.0000   2000.0000     36.1991     54.2218
   445.2500   2000.0000   2000.0000     33.7131     63.1158
   445.5000   2000.0000   2000.0000     31.4883     80.7637
   445.7500   2000.0000   2000.0000     29.4885     94.0004
   446.0000   2000.0000   2000.0000     27.6985    112.9408
   446.2500   2000.0000   2000.0000     26.1136    123.4900
   446.5000   2000.0000   2000.0000     24.7229    135.1946
   446.7500   2000.0000   2000.0000     23.5054    140.5347
   447.0000   2000.0000   2000.0000     22.4400    146.0117
   447.2500   2000.0000   2000.0000     21.5145    148.5510
   447.5000   2000.0000   2000.0000     20.7300    151.0738
   447.7500   2000.0000   2000.0000     20.0972    151.8634
   448.0000   2000.0000   2000.0000     19.6308    151.7873
   448.2500   2000.0000   2000.0000     19.3401    151.2633
   448.5000   2000.0000   2000.0000     19.2208    150.7067
   448.7500   2000.0000   2000.0000     19.2551    150.8001
   449.0000   2000.0000   2000.0000     19.4179    151.2015
   449.2500   2000.0000   2000.0000     19.6858    150.9137
   449.5000   2000.0000   2000.0000     20.0390    148.4050
   449.7500   2000.0000   2000.0000     20.4567    145.0065
   450.0000   2000.0000   2000.0000     20.9088    137.2693
   450.2500   2000.0000   2000.0000     21.3532    130.4304
   450.5000   2000.0000   2000.0000     21.7462    118.3842
   450.7500   2000.0000   2000.0000     22.0630    110.3327
   451.0000   2000.0000   2000.0000     22.3175    101.0703
   451.2500   2000.0000   2000.0000     22.5627     97.9926
   451.5000   2000.0000   2000.0000     22.8649     98.0324
   451.7500   2000.0000   2000.0000     23.2638    100.1211
   452.0000   2000.0000   2000.0000     23.7344    104.0969
   452.2500   2000.0000   2000.0000     24.1689    106.2710
   452.5000   2000.0000   2000.0000     24.3998    107.8709
   452.7500   2000.0000   2000.0000     24.2713    107.8669
   453.0000   2000.0000   2000.0000     23.7233    107.2748
   453.2500   2000.0000   2000.0000     22.8174    107.3185
   453.5000   2000.0000   2000.0000     21.6871    109.1191
   453.7500   2000.0000   2000.0000     20.4671    111.7485
   454.0000   2000.0000   2000.0000     19.2568    117.7144
   454.2500   2000.0000   2000.0000     18.1183    122.6061
   454.5000   2000.0000   2000.0000     17.0886    130.1200
   454.7500   2000.0000   2000.0000     16.1885    134.5835
   455.0000   2000.0000   2000.0000     15.4266    139.7731
   455.2500   2000.0000   2000.0000     14.8005    142.0725
   455.5000   2000.0000   2000.0000     14.2982    143.9349
   455.7500   2000.0000   2000.0000     13.9012    144.5156
   456.0000   2000.0000   2000.0000     13.5869    145.3156
   456.2500   2000.0000   2000.0000     13.3294    146.1100
   456.5000   2000.0000   2000.0000     13.1008    147.3799
   456.7500   2000.0000   2000.0000     12.8757    147.7014
   457.0000   2000.0000   2000.0000     12.6386    146.4831
   457.2500   2000.0000   2000.0000     12.3909    144.5189
   457.5000   2000.0000   2000.0000     12.1492    140.9080
   457.7500   2000.0000   2000.0000     11.9340    138.9343
   458.0000   2000.0000   2000.0000     11.7572    137.5704
   458.2500   2000.0000   2000.0000     11.6147    137.7061
   458.5000   2000.0000   2000.0000     11.4911    138.7230
   458.7500   2000.0000   2000.0000     11.3690    139.4233
   459.0000   2000.0000   2000.0000     11.2361    140.0411
   459.2500   2000.0000   2000.0000     11.0857    140.2103
   459.5000   2000.0000   2000.0000     10.9124    140.4715
   459.7500   2000.0000   2000.0000     10.7114    140.9355
   460.0000   2000.0000   2000.0000     10.4841    142.5841
   460.2500   2000.0000   2000.0000     10.2425    144.4370
   460.5000   2000.0000   2000.0000     10.0086    147.7145
   460.7500   2000.0000   2000.0000      9.8053    149.4313
   461.0000   2000.0000   2000.0000      9.6498    150.1750
   461.2500   2000.0000   2000.0000      9.5519    149.5215
   461.5000   2000.0000   2000.0000      9.5180    148.2968
   461.7500   2000.0000   2000.0000      9.5535    148.2652
   462.0000   2000.0000   2000.0000      9.6625    149.6078
   462.2500   2000.0000   2000.0000      9.8438    150.7343
   462.5000   2000.0000   2000.0000     10.0869    151.8395
   462.7500   2000.0000   2000.0000     10.3723    152.4799
   463.0000   2000.0000   2000.0000     10.6751    154.5297
   463.2500   2000.0000   2000.0000     10.9703    156.8661
   463.5000   2000.0000   2000.0000     11.2398    160.6076
   463.7500   2000.0000   2000.0000     11.4768    161.8267
   464.0000   2000.0000   2000.0000     11.6894    159.1185
   464.2500   2000.0000   2000.0000     11.8968    153.4135
   464.5000   2000.0000   2000.0000     12.1209    139.9397
   464.7500   2000.0000   2000.0000     12.3736    129.7012
   465.0000   2000.0000   2000.0000     12.6494    116.6348
   465.2500   2000.0000   2000.0000     12.9258    110.9553
   465.5000   2000.0000   2000.0000     13.1712    107.0736
   465.7500   2000.0000   2000.0000     13.3542    106.8240
   466.0000   2000.0000   2000.0000     13.4526    108.7672
   466.2500   2000.0000   2000.0000     13.4569    111.0656
   466.5000   2000.0000   2000.0000     13.3715    114.7341
   466.7500   2000.0000   2000.0000     13.2124    116.4394
   467.0000   2000.0000   2000.0000     13.0031    117.1079
   467.2500   2000.0000   2000.0000     12.7712    116.6015
   467.5000   2000.0000   2000.0000     12.5434    115.7348
   467.7500   2000.0000   2000.0000     12.3412    115.7373
   468.0000   2000.0000   2000.0000     12.1777    116.7640
   468.2500   2000.0000   2000.0000     12.0593    117.7305
   468.5000   2000.0000   2000.0000     11.9884    119.0047
   468.7500   2000.0000   2000.0000     11.9648    119.8656
   469.0000   2000.0000   2000.0000     11.9843    122.0555
   469.2500   2000.0000   2000.0000     12.0367    124.5640
   469.5000   2000.0000   2000.0000     12.1083    129.7152
   469.7500   2000.0000   2000.0000     12.1872    133.2931
   470.0000   2000.0000   2000.0000     12.2648    137.3199
   470.2500   2000.0000   2000.0000     12.3321    138.8649
   470.5000   2000.0000   2000.0000     12.3753    140.4227
   470.7500   2000.0000   2000.0000     12.3804    141.5620
   471.0000   2000.0000   2000.0000     12.3437    143.1131
   471.2500   2000.0000   2000.0000     12.2810    143.0296
   471.5000   2000.0000   2000.0000     12.2232    139.5479
   471.7500   2000.0000   2000.0000     12.2035    135.1771
   472.0000   2000.0000   2000.0000     12.2443    128.5443
   472.2500   2000.0000   2000.0000     12.3528    126.3027
   472.5000   2000.0000   2000.0000     12.5235    127.8416
   472.7500   2000.0000   2000.0000     12.7445    131.2248
   473.0000   2000.0000   2000.0000     12.9998    136.7345
   473.2500   2000.0000   2000.0000     13.2669    139.2643
   473.5000   2000.0000   2000.0000     13.5126    140.4392
   473.7500   2000.0000   2000.0000     13.6937    139.5769
   474.0000   2000.0000   2000.0000     13.7666    136.4739
   474.2500   2000.0000   2000.0000     13.7041    133.7096
