~Version Information
VERS.                      2.0: CWLS Log ASCII Standard - VERSION 2.0
WRAP.                       NO: One line per depth step
~Well Information Block
STRT.FT               490.0000: 
STOP.FT              2303.5000: 
STEP.FT                 0.1000: 
NULL.                -999.2500: 
COMP.          Pioneer Natural Resources: COMPANY
WELL.             Baa Baa 34-1: WELL
FLD.           Purgatoire River: FIELD
LOC.           617' FSL & 2289' FEL: LOCATION
STAT.                 Colorado: State
CNTY.               Las Animas: COUNTY
CTRY. USA : Country
SECT. 1 : Section
TOWN. 33S : Township
RANG. 67W : Range
SRVC.                Patterson: SERVICE COMPANY
DATE.          Thu Sep 08 09:44:32 2005: LOG DATE
API.           05 071 08502 00: UNIQUE WELL ID
~Curve Information Block
DEPT.FT            0 000 00 00: Depth
DCAL.in                       : CDL Caliper
RHOB.g/cc                     : CDL Bulk Density
RHOC.g/cc                     : CDL Density Correction
DPOR.pu                       : CDL Density Porosity
GR.GAPI                       : Gamma Ray
NPOR.pu                       : Neutron Porosity
~Parameter Information Block
~A  Depth       DCAL        RHOB        RHOC        DPOR         GR         NPOR    
# ...
  1690.0000      7.9257      2.4932     -0.0083      9.5028     27.6675     16.1977
  1690.1000      7.9257      2.5157      0.0327      8.1421     24.9475     16.4397
  1690.2000      7.9257      2.5388      0.0450      6.7364     22.7836     16.7637
  1690.3000      7.9246      2.5499      0.0425      6.0667     22.1322     16.8679
  1690.4000      7.9246      2.5421      0.0449      6.5371     23.3430     16.9955
  1690.5000      7.9222      2.5305      0.0258      7.2451     27.3541     17.4292
  1690.6000      7.9222      2.5393      0.0357      6.7077     34.7909     17.9341
  1690.7000      7.9222      2.5651      0.1044      5.1442     44.2348     18.1485
  1690.8000      7.9155      2.5882      0.0648      3.7482     55.7888     18.1311
  1690.9000      7.9155      2.6009      0.0853      2.9752     69.4566     18.0797
  1691.0000      7.9115      2.5972      0.0948      3.2012     80.3627     18.2901
  1691.1000      7.9115      2.5746      0.0694      4.5688     83.5789     18.9106
  1691.2000      7.9115      2.5402      0.0064      6.6551     90.9359     19.4899
  1691.3000      7.9092      2.4994      0.0191      9.1283     93.7956     19.8028
  1691.4000      7.9092      2.4619     -0.0543     11.3970    102.0909     20.0182
  1691.5000      7.9162      2.4543     -0.1094     11.8585    112.5265     20.1443
  1691.6000      7.9162      2.4853     -0.0072      9.9818    121.5675     20.3326
  1691.7000      7.9162      2.5260      0.0542      7.5136    127.1242     20.8664
  1691.8000      7.9236      2.5513      0.0082      5.9839    130.4552     21.6488
  1691.9000      7.9236      2.5535      0.0647      5.8458    134.6021     22.3934
  1692.0000      7.9552      2.5378      0.0577      6.8030    140.5649     22.8335
  1692.1000      7.9552      2.5273      0.0522      7.4361    144.3959     23.0563
  1692.2000      7.9552      2.5373      0.0958      6.8319    156.3601     23.3981
  1692.3000      7.9662      2.5517      0.1387      5.9551    153.5340     23.8621
  1692.4000      7.9662      2.5492      0.0929      6.1078    151.8012     24.1061
  1692.5000      7.9804      2.5313      0.0638      7.1939    147.2687     23.9748
  1692.6000      7.9804      2.5099      0.0684      8.4927    140.7693     23.7370
  1692.7000      7.9804      2.4937      0.0409      9.4705    140.0750     23.6645
  1692.8000      7.9862      2.4951      0.0174      9.3876    142.4358     23.6585
  1692.9000      7.9862      2.5161      0.0774      8.1161    142.0010     23.5900
  1693.0000      7.9704      2.5393      0.0932      6.7111    142.9688     23.5839
  1693.1000      7.9704      2.5510      0.0990      5.9981    147.8728     23.7141
  1693.2000      7.9704      2.5575      0.0397      5.6086    149.1100     23.7666
  1693.3000      7.9800      2.5611      0.1640      5.3853    140.8852     23.7234
  1693.4000      7.9800      2.5500      0.1139      6.0600    128.9183     23.8557
  1693.5000      7.9847      2.5323      0.0890      7.1343    123.2869     24.1557
  1693.6000      7.9847      2.5284      0.0387      7.3668    124.7911     24.2591
  1693.7000      7.9847      2.5372      0.0704      6.8392    121.9882     23.8799
  1693.8000      7.9911      2.5467      0.0647      6.2578    111.3923     23.3057
  1693.9000      7.9911      2.5605      0.0484      5.4257    102.5460     22.9331
  1694.0000      7.9931      2.5801      0.0754      4.2351     98.2986     22.6371
  1694.1000      7.9931      2.5924      0.0822      3.4936     93.3173     22.2101
  1694.2000      7.9931      2.5900      0.0245      3.6345     89.1411     21.7872
  1694.3000      7.9779      2.5774      0.0325      4.4018     89.2242     21.6845
  1694.4000      7.9779      2.5639      0.0248      5.2164     89.2619     22.0087
  1694.5000      7.9673      2.5660      0.0244      5.0900     87.5675     22.5173
  1694.6000      7.9673      2.5887      0.0410      3.7137     88.4501     22.8153
  1694.7000      7.9673      2.6082      0.0482      2.5303     92.2164     22.8203
  1694.8000      7.9647      2.5987      0.1039      3.1084     94.3246     22.7075
  1694.9000      7.9647      2.5778     -0.0050      4.3786     94.5566     22.6260
  1695.0000      7.9644      2.5897      0.0306      3.6538     96.0960     22.6586
  1695.1000      7.9644      2.6339      0.0815      0.9743     96.8642     22.6118
  1695.2000      7.9644      2.6622      0.1094     -0.7389     92.7152     22.3944
  1695.3000      7.9642      2.6510      0.0318     -0.0577     85.2179     22.1881
  1695.4000      7.9642      2.6227      0.0063      1.6526     82.4707     21.9331
  1695.5000      7.9687      2.5956      0.0056      3.2988     88.5182     21.6128
  1695.6000      7.9687      2.5740     -0.0264      4.6082     97.7778     21.3441
  1695.7000      7.9687      2.5656     -0.0177      5.1178    103.1368     21.0479
  1695.8000      7.9624      2.5732      0.0214      4.6572    101.7851     20.6984
  1695.9000      7.9624      2.5919      0.0503      3.5199     95.6414     20.5351
  1696.0000      7.9650      2.6092      0.0907      2.4717     86.9421     20.6271
  1696.1000      7.9650      2.6147      0.0308      2.1376     79.4348     20.7763
  1696.2000      7.9650      2.6092      0.0698      2.4733     77.9126     20.7208
  1696.3000      7.9688      2.5924      0.0603      3.4919     80.5712     20.4168
  1696.4000      7.9688      2.5701      0.0231      4.8436     83.1205     20.0958
  1696.5000      7.9808      2.5552      0.0352      5.7434     85.8276     19.8837
  1696.6000      7.9808      2.5452      0.0698      6.3529     87.8226     19.8854
  1696.7000      7.9808      2.5358      0.0302      6.9200     86.1811     20.0657
  1696.8000      7.9864      2.5354      0.0165      6.9438     81.5759     20.0500
  1696.9000      7.9864      2.5361      0.0299      6.9046     77.0652     19.8885
  1697.0000      7.9894      2.5212      0.0570      7.8032     73.7325     19.9471
  1697.1000      7.9894      2.5036     -0.0218      8.8713     70.5683     20.1354
  1697.2000      7.9894      2.5083      0.0114      8.5872     68.4025     20.1984
  1697.3000      7.9888      2.5302      0.0693      7.2613     68.6635     19.9660
  1697.4000      7.9888      2.5474      0.0492      6.2207     67.9466     19.5428
  1697.5000      7.9750      2.5580      0.0222      5.5784     65.4459     19.3446
  1697.6000      7.9750      2.5631      0.1132      5.2684     64.5123     19.6113
  1697.7000      7.9750      2.5586      0.0440      5.5420     64.4303     20.0720
  1697.8000      7.9685      2.5584      0.0370      5.5542     64.0286     20.2434
  1697.9000      7.9685      2.5712      0.0564      4.7746     65.9572     20.1219
  1698.0000      7.9552      2.5817      0.0486      4.1421     72.6276     19.7893
  1698.1000      7.9552      2.5776      0.0478      4.3869     82.1582     19.2724
  1698.2000      7.9552      2.5703      0.0143      4.8278     85.9947     18.9862
  1698.3000      7.9592      2.5758      0.0363      4.4977     79.1635     19.1001
  1698.4000      7.9592      2.5810      0.0597      4.1817     71.6531     19.3573
  1698.5000      7.9614      2.5635      0.0489      5.2444     74.1483     19.6827
  1698.6000      7.9614      2.5417     -0.0609      6.5656     83.3133     20.0897
  1698.7000      7.9614      2.5429      0.0485      6.4920     92.4265     20.4454
  1698.8000      7.9622      2.5579      0.0328      5.5831     95.2682     20.6605
  1698.9000      7.9622      2.5709      0.0659      4.7959     86.3712     20.6625
  1699.0000      7.9657      2.5716      0.0437      4.7542     75.2675     20.5619
  1699.1000      7.9657      2.5540      0.0261      5.8158     74.7946     20.6259
  1699.2000      7.9657      2.5306     -0.0474      7.2388     81.7274     20.7578
  1699.3000      7.9575      2.5156      0.0341      8.1451     85.7546     20.6786
  1699.4000      7.9575      2.5024      0.0103      8.9453     84.5750     20.5084
  1699.5000      7.9565      2.4857      0.0018      9.9605     82.9587     20.6240
