~Version Information
VERS.                      2.0: CWLS Log ASCII Standard - VERSION 2.0
WRAP.                       NO: One line per depth step
~Well Information Block
STRT.FT                 0.0000: 
STOP.FT              1426.7500: 
STEP.FT                 0.2500: 
NULL.                -999.2500: 
COMP.          Pioneer Natural Resources: COMPANY
WELL.            Bordeaux 42-2: WELL
FLD.           Purgatorie River: FIELD
LOC.           1963' FNL & 1148' FEL: LOCATION
PROV.                 Colorado: PROVINCE
CNTY.               Las Animas: COUNTRY
SRVC.                Patterson: SERVICE COMPANY
DATE.          Fri Dec 02 09:28:20 2005: LOG DATE
UWI.                          : UNIQUE WELL ID
~Curve Information Block
DEPT.FT            0 000 00 00: Depth
CCL.                          : Casing Collar Locator
TT3.usec                      : CBL 3' Travel Time
AMP3.mV                       : CBL 3' Amplitude
GR.GAPI                       : Gamma Ray
~Parameter Information Block
~A  Depth       CCL         TT3         AMP3         GR     
# ...
   837.5000      0.0000    723.6914     12.3103    121.2598
   837.7500      0.0000    723.2564     12.4539    127.4411
   838.0000      0.0000    722.6996     12.4783    131.1214
   838.2500      0.0000    722.1893     12.4072    131.4577
   838.5000      0.0000    721.8823     12.3282    128.6769
   838.7500      0.0000    721.8628     12.3069    124.7171
   839.0000      0.0000    722.1272     12.3295    122.2145
   839.2500      0.0000    722.5770     12.3326    122.5334
   839.5000      0.0000    723.0388     12.2677    124.9111
   839.7500      0.0000    723.3823     12.1543    127.7653
   840.0000      0.0000    723.6213     12.0479    130.5606
   840.2500      0.0000    723.7883     11.9587    133.9146
   840.5000      0.0000    723.8408     11.8634    137.8420
   840.7500      0.0000    724.0452     11.7732    140.4158
   841.0000      0.0000    725.5629     11.7338    138.8356
   841.2500      0.0000    730.4767     11.8103    132.0855
   841.5000      0.0000    740.0872     12.0673    122.2502
   841.7500      0.0000    752.1351     12.4744    113.0332
   842.0000      0.0000    761.8353     12.8794    107.1188
   842.2500      0.0000    766.7528     13.1677    104.9993
   842.5000      0.0000    767.8796     13.3744    105.7882
   842.7500      0.0000    765.3896     13.5953    108.5473
   843.0000      0.0000    753.8733     13.8537    112.8977
   843.2500      0.0000    723.7663     14.0829    118.9631
   843.5000      0.0000    677.9349     14.2254    126.9468
   843.7500      0.0000    641.9659     14.3180    136.2638
   844.0000      0.0000    631.5642     14.4477    144.9094
   844.2500      0.0000    632.2924     14.6337    150.3537
   844.5000      0.0000    639.5911     14.7787    151.2997
   844.7500      0.0000    664.4659     14.7724    148.0549
   845.0000      0.0000    696.2412     14.6196    141.5867
   845.2500      0.0000    715.2014     14.4067    133.3934
   845.5000      0.0000    718.6636     14.1889    126.0184
   845.7500      0.0000    709.4891     13.9469    122.0255
   846.0000      0.0000    684.1313     13.5740    121.7643
   846.2500      0.0000    645.2778     12.9169    122.7959
   846.5000      0.0000    612.7390     12.0521    121.9308
   846.7500      0.0000    606.3738     11.3627    117.6647
   847.0000      0.0000    632.4184     10.8842    110.6711
   847.2500      0.0000    684.0710     10.2033    102.4550
   847.5000      0.0000    736.0024      9.3801     94.1524
   847.7500      0.0000    761.8284      8.8949     86.6934
   848.0000      2.0000    758.9480      8.8406     81.4254
   848.2500      0.0000    744.0468      8.9611     79.7946
   848.5000     -2.0000    736.9041      9.0669     82.3297
   848.7500      0.0000    744.3641      9.1071     88.1533
   849.0000      0.0000    754.4184      9.1480     95.4203
   849.2500      0.0000    747.9511      9.4794    102.2495
   849.5000      0.0000    709.9908     10.5122    107.5046
   849.7500      0.0000    645.0688     12.1660    110.7120
   850.0000      0.0000    587.4575     13.6617    111.2751
   850.2500      0.0000    569.8351     14.5033    108.4634
   850.5000      0.0000    587.8778     14.9890    102.6269
   850.7500      0.0000    604.9282     15.3916     95.8220
   851.0000      0.0000    587.1569     15.6301     90.5898
   851.2500      0.0000    550.8762     15.6819     88.1900
   851.5000      0.0000    542.9154     15.6499     88.1557
   851.7500      0.0000    559.0743     15.6117     89.3631
   852.0000      0.0000    546.7138     15.6056     91.3200
   852.2500      0.0000    490.8203     15.6490     94.4227
   852.5000      0.0000    430.1626     15.7497     99.2822
   852.7500      0.0000    395.3460     15.9241    106.0562
   853.0000      0.0000    383.2427     16.1591    114.1090
   853.2500      0.0000    380.5256     16.3606    121.8731
   853.5000      0.0000    380.1731     16.4180    127.3035
   853.7500      0.0000    380.5276     16.3117    128.9641
   854.0000      0.0000    382.8333     16.0973    126.7039
   854.2500      0.0000    392.5909     15.8147    121.2794
   854.5000      0.0000    417.8000     15.4758    113.6485
   854.7500      0.0000    453.7804     15.0912    104.7582
   855.0000      0.0000    474.8420     14.6946     95.7499
   855.2500      0.0000    469.4501     14.3432     88.0693
   855.5000      0.0000    471.5659     14.0510     83.0329
   855.7500      0.0000    518.9498     13.7677     81.0459
   856.0000      0.0000    599.5854     13.4587     81.3781
   856.2500      0.0000    669.9820     13.1593     82.8785
   856.5000      0.0000    708.0641     12.9255     84.8429
   856.7500      0.0000    723.2756     12.7826     87.3492
   857.0000      0.0000    730.0330     12.7363     90.9588
   857.2500      0.0000    732.6566     12.7658     95.7371
   857.5000      0.0000    730.0820     12.8152    100.2702
   857.7500      0.0000    720.1786     12.8593    102.1318
   858.0000      0.0000    697.3398     12.9292     99.9096
   858.2500      0.0000    663.1649     13.0387     94.8156
   858.5000      0.0000    641.8433     13.1485     90.1416
   858.7500      0.0000    654.6047     13.2359     89.0113
   859.0000      0.0000    686.4761     13.3423     92.4825
   859.2500      0.0000    710.2748     13.5139     99.3869
   859.5000      0.0000    717.8254     13.7628    107.5263
   859.7500      0.0000    708.8255     14.0855    115.1373
   860.0000      0.0000    674.5349     14.4290    121.8824
   860.2500      0.0000    611.3923     14.6714    128.7561
   860.5000      0.0000    545.2709     14.7182    136.7749
   860.7500      0.0000    509.9406     14.6091    145.6276
   861.0000      0.0000    502.7245     14.4748    153.6653
   861.2500      0.0000    509.4928     14.3653    159.0007
   861.5000      0.0000    544.3718     14.2035    160.5669
   861.7500      0.0000    611.4223     13.9347    158.4988
   862.0000      0.0000    679.3080     13.6075    153.7901
   862.2500      0.0000    722.8715     13.3107    147.6002
   862.5000      0.0000    743.4371     13.0923    140.8304
   862.7500      0.0000    750.7518     12.9345    134.1367
   863.0000      0.0000    753.4603     12.7971    127.9474
   863.2500      0.0000    757.3867     12.6495    122.4444
   863.5000      0.0000    762.4092     12.4757    117.9479
   863.7500      0.0000    765.2010     12.3023    115.3929
   864.0000      0.0000    763.8213     12.1905    116.0554
   864.2500      0.0000    759.3371     12.1761    120.6170
   864.5000      0.0000    755.2432     12.2494    128.5363
   864.7500      0.0000    752.5516     12.3728    138.0621
   865.0000      0.0000    747.5813     12.5011    146.5299
   865.2500      0.0000    738.9818     12.6141    151.1393
   865.5000      0.0000    730.8220     12.7209    150.6405
   865.7500      0.0000    726.2858     12.8267    146.6098
   866.0000      0.0000    724.6929     12.9309    142.2682
   866.2500      0.0000    724.3845     13.0423    139.6286
   866.5000      0.0000    724.4706     13.1555    138.3351
   866.7500      0.0000    724.5057     13.2509    137.2992
   867.0000      0.0000    724.3080     13.3465    136.4142
   867.2500      0.0000    723.9864     13.4840    136.2870
   867.5000      0.0000    723.6605     13.6736    137.0780
   867.7500      0.0000    723.2806     13.8923    138.1081
   868.0000      0.0000    722.7733     14.0986    138.4070
   868.2500      0.0000    722.1549     14.2426    137.6335
   868.5000      0.0000    721.5695     14.3000    136.5431
   868.7500      0.0000    721.2166     14.3003    136.2424
   869.0000      0.0000    721.1386     14.3003    136.8709
   869.2500      0.0000    721.2073     14.3147    137.5284
   869.5000      0.0000    721.3401     14.2955    137.8004
   869.7500      0.0000    721.6309     14.2061    138.7556
   870.0000      0.0000    722.3806     14.0800    141.7579
   870.2500      0.0000    724.3524     13.9756    146.4818
   870.5000      0.0000    729.1052     13.9164    150.8253
   870.7500      0.0000    737.8505     13.8890    152.9923
