~Version Information
VERS.                      2.0: CWLS Log ASCII Standard - VERSION 2.0
WRAP.                       NO: One line per depth step
~Well Information Block
STRT.FT                 0.0000: 
STOP.FT              1426.7500: 
STEP.FT                 0.2500: 
NULL.                -999.2500: 
COMP.          Pioneer Natural Resources: COMPANY
WELL.            Bordeaux 42-2: WELL
FLD.           Purgatorie River: FIELD
LOC.           1963' FNL & 1148' FEL: LOCATION
PROV.                 Colorado: PROVINCE
CNTY.               Las Animas: COUNTRY
SRVC.                Patterson: SERVICE COMPANY
DATE.          Fri Dec 02 09:28:20 2005: LOG DATE
UWI.                          : UNIQUE WELL ID
~Curve Information Block
DEPT.FT            0 000 00 00: Depth
CCL.                          : Casing Collar Locator
TT3.usec                      : CBL 3' Travel Time
AMP3.mV                       : CBL 3' Amplitude
GR.GAPI                       : Gamma Ray
~Parameter Information Block
~A  Depth       CCL         TT3         AMP3         GR     
# ...
   368.5000      0.0000    733.1838      7.1884    122.4329
   368.7500      0.0000    741.5909      6.8518    121.7986
   369.0000      0.0000    748.1459      6.5126    120.2342
   369.2500      0.0000    751.5445      6.0749    117.0369
   369.5000      0.0000    756.7757      5.5555    112.6708
   369.7500      0.0000    763.2367      5.0658    108.3341
   370.0000      0.0000    762.9103      4.7144    104.7440
   370.2500      0.0000    756.5087      4.5099    101.9368
   370.5000      0.0000    755.3218      4.3665    100.0066
   370.7500      0.0000    763.2765      4.2335     99.2104
   371.0000      0.0000    770.2553      4.1686     99.2934
   371.2500      0.0000    766.2465      4.2525     99.4421
   371.5000      0.0000    754.3450      4.4841     99.2115
   371.7500      0.0000    744.4367      4.7925     99.0731
   372.0000      0.0000    738.9294      5.1275     99.8525
   372.2500      0.0000    733.6550      5.5022    102.0859
   372.5000      0.0000    726.9769      5.9436    106.0965
   372.7500      0.0000    719.1031      6.4339    112.0251
   373.0000      0.0000    709.8755      6.9117    119.2743
   373.2500      0.0000    702.6365      7.3438    126.2348
   373.5000      0.0000    702.8515      7.7935    131.0345
   373.7500      0.0000    710.1594      8.3566    132.5369
   374.0000      0.0000    718.2518      9.0614    130.6349
   374.2500      0.0000    722.8453      9.8696    126.0447
   374.5000      0.0000    724.4911     10.6645    120.0567
   374.7500      0.0000    725.1226     11.2859    114.0822
   375.0000      0.0000    725.6594     11.6802    109.1419
   375.2500      0.0000    726.1271     11.9314    105.8726
   375.5000      0.0000    725.5236     12.1327    104.8212
   375.7500      0.0000    719.3891     12.3261    106.0145
   376.0000      0.0000    698.7719     12.5551    107.9557
   376.2500      0.0000    662.1381     12.8823    107.8687
   376.5000      0.0000    625.8492     13.3090    103.8944
   376.7500      0.0000    596.7567     13.7347     97.1046
   377.0000      0.0000    553.2026     14.0486     90.9183
   377.2500      0.0000    488.4134     14.1864     88.3668
   377.5000      0.0000    431.9729     14.1198     89.8564
   377.7500      0.0000    412.1012     13.9106     93.4199
   378.0000      0.0000    438.4927     13.6984     96.9750
   378.2500      0.0000    508.8919     13.5622    100.1585
   378.5000      0.0000    599.5168     13.4766    103.9734
   378.7500      0.0000    672.3173     13.4041    108.9891
   379.0000      0.0000    709.7130     13.3332    114.1575
   379.2500      0.0000    722.1431     13.2330    117.3266
   379.5000      0.0000    724.9572     13.0678    116.9759
   379.7500      0.0000    725.4793     12.8574    113.6963
   380.0000      0.0000    725.5432     12.6717    109.8532
   380.2500      0.0000    725.2493     12.5863    107.6118
   380.5000      0.0000    723.9592     12.6387    107.5593
   380.7500      0.0000    720.7123     12.7979    109.1912
   381.0000      0.0000    715.9818     12.9687    111.8389
   381.2500      0.0000    712.4751     13.0420    114.7026
   381.5000      0.0000    711.4255     12.9767    116.7815
   381.7500      0.0000    710.8767     12.8095    117.4946
   382.0000      0.0000    710.0834     12.5736    117.1426
   382.2500      0.0000    708.9539     12.2808    116.4372
   382.5000      0.0000    704.6262     11.9607    115.8435
   382.7500      0.0000    696.2455     11.6548    115.5880
   383.0000      0.0000    687.9014     11.4107    115.8722
   383.2500      0.0000    683.0057     11.2718    116.5530
   383.5000      0.0000    681.2010     11.2407    116.8622
   383.7500      0.0000    681.0047     11.2819    116.0195
   384.0000      0.0000    682.3812     11.3449    114.2240
   384.2500      0.0000    687.1245     11.3775    112.6820
   384.5000      0.0000    696.6729     11.3494    112.4638
   384.7500      0.0000    708.7820     11.2550    113.4102
   385.0000      0.0000    718.5912     11.1014    114.3540
   385.2500      0.0000    723.6649     10.9226    114.3690
   385.5000      0.0000    725.0871     10.7772    113.5358
   385.7500      0.0000    724.1722     10.6933    112.4338
   386.0000      0.0000    720.8852     10.6323    111.2648
   386.2500      0.0000    716.0380     10.5281    109.7384
   386.5000      0.0000    713.0080     10.3506    107.6471
   386.7500      0.0000    714.4368     10.1299    105.3686
   387.0000      0.0000    720.0946      9.9190    103.8962
   387.2500      0.0000    728.8765      9.7486    104.2776
   387.5000      0.0000    736.5213      9.6151    106.7353
   387.7500      0.0000    736.6348      9.4855    110.3441
   388.0000      0.0000    729.0931      9.3348    113.7657
   388.2500      0.0000    720.3994      9.1937    116.2200
   388.5000      0.0000    717.9866      9.1101    117.6036
   388.7500      0.0000    725.6227      9.0731    118.0082
   389.0000      0.0000    739.2706      9.0373    117.6454
   389.2500      0.0000    749.9197      8.9977    117.0923
   389.5000      0.0000    753.3684      8.9971    117.0887
   389.7500      0.0000    753.2138      9.0665    117.8220
   390.0000      0.0000    753.2677      9.1701    118.5552
   390.2500      0.0000    753.6052      9.2292    118.2512
   390.5000      0.0000    753.5052      9.2083    116.6797
   390.7500      0.0000    753.0519      9.1512    114.5645
   391.0000      0.0000    752.6118      9.1303    112.4482
   391.2500      0.0000    752.4119      9.1746    109.9719
   391.5000      0.0000    752.6248      9.2512    106.7925
   391.7500      0.0000    754.1271      9.3185    103.7554
   392.0000      0.0000    758.8815      9.3686    102.5434
   392.2500      0.0000    767.4423      9.3979    104.2559
   392.5000      0.0000    775.3757      9.3773    108.5192
   392.7500      0.0000    776.8646      9.2822    113.7962
   393.0000      0.0000    773.3633      9.1392    118.2824
   393.2500      0.0000    771.7596      9.0109    120.5848
   393.5000      0.0000    774.4960      8.9385    119.9710
   393.7500      0.0000    778.7727      8.9248    116.4338
   394.0000      0.0000    780.8180      8.9542    110.6416
   394.2500      0.0000    777.1112      9.0086    103.7768
   394.5000      0.0000    768.1628      9.0684     97.4624
   394.7500      0.0000    759.2977      9.1125     93.5065
   395.0000      0.0000    754.1827      9.1354     92.9580
   395.2500      0.0000    752.1819      9.1606     94.9935
   395.5000      0.0000    751.5700      9.2289     96.9722
   395.7500      0.0000    751.4415      9.3576     96.0855
   396.0000      0.0000    751.5758      9.5129     91.4011
   396.2500      0.0000    752.6178      9.6482     84.5589
   396.5000      0.0000    755.8721      9.7582     78.5115
   396.7500      0.0000    760.8750      9.8755     75.3856
   397.0000      0.0000    763.7754     10.0125     75.2576
   397.2500      0.0000    761.8129     10.1177     76.6480
   397.5000      0.0000    757.7191     10.1218     77.9100
   397.7500      0.0000    756.0671     10.0317     78.1925
   398.0000      0.0000    758.8246      9.9314     77.4943
   398.2500      0.0000    765.1077      9.8928     76.2636
   398.5000      0.0000    772.2443      9.9299     75.1550
   398.7500      0.0000    778.2011     10.0227     75.0157
   399.0000      0.0000    781.9816     10.1316     76.7259
   399.2500      0.0000    782.2704     10.1978     80.6136
   399.5000      0.0000    779.7549     10.1845     85.8038
   399.7500      0.0000    777.0042     10.1266     90.4134
   400.0000      0.0000    774.4973     10.0957     92.9436
   400.2500      0.0000    770.6716     10.1146     93.5465
   400.5000      0.0000    765.8092     10.1652     93.4244
   400.7500      0.0000    764.0593     10.2517     92.9553
   401.0000      0.0000    768.7064     10.3906     91.0471
   401.2500      0.0000    776.6428     10.5802     86.5490
   401.5000      0.0000    779.8813     10.8393     79.7801
   401.7500      0.0000    767.9395     11.2225     72.4122
