~Version Information
 VERS.                                  2.0 : CWLS LAS VERSION
 WRAP.                                   NO : WRAPING MODE
 SWARE .                 MController 2.5.0J : SOFTWARE VERSION
~Well Information
 WELL.                         State 16-44R : WELL
 COMP.                Petrogulf Corporation : COMPANY
 FLD.                      Purgatoire River : FIELD
 LOC.                SE/SE Sec 16 T33S R67W : LOCATION
 DATE.                          10/20-21/05 : DATE(S) LOGGED
 SRVC.       BLANCO Geological Services LLC : SERVICE COMPANY
 STAT.                                   CO : STATE
 CNTY.                           Las Animas : COUNTY
 CTRY.                                  USA : COUNTRY
 API.                       05-071-08457-00 : API NUMBER
 STRT.FT                               1.00 : START DEPTH
 STOP.FT                            1629.00 : STOP DEPTH
 STEP.FT                               1.00 : DEPTH INCREMENT
 NULL.                                -9999 : NULL VALUE
~Curve information
 DEPTH.FT                                   :
 ROP.MIN/FT                                 :
 GAS.UNITS                                  :
~ASCII Log data
# ...
      1001.0         0.40        487.3 
      1002.0         0.35        499.7 
      1003.0         0.33        508.6 
      1004.0         0.27        509.2 
      1005.0         0.40        504.8 
      1006.0         0.43        501.9 
      1007.0         0.40        490.5 
      1008.0         0.43        496.5 
      1009.0         0.27        496.2 
      1010.0         0.20        486.7 
      1011.0         0.27        481.0 
      1012.0         0.23        456.9 
      1013.0         0.25        440.0 
      1014.0         0.20         61.4 
      1015.0         0.20         95.0 
      1016.0         1.83       1511.8 
      1017.0         0.40        783.5 
      1018.0         0.27        618.7 
      1019.0         0.22        636.8 
      1020.0         0.17        642.9 
      1021.0         0.20        646.7 
      1022.0         0.20        640.6 
      1023.0         0.20        606.7 
      1024.0         0.23        561.6 
      1025.0         0.23        538.4 
      1026.0         0.33        518.1 
      1027.0         0.23        484.5 
      1028.0         0.23        507.6 
      1029.0         0.27        513.4 
      1030.0         0.20        513.4 
      1031.0         0.10        510.2 
      1032.0         0.13        506.7 
      1033.0         0.13        500.7 
      1034.0         0.15        499.1 
      1035.0         0.23        498.8 
      1036.0         0.33        497.8 
      1037.0         0.20        496.9 
      1038.0         0.27        495.0 
      1039.0         0.30        497.2 
      1040.0         0.27        498.4 
      1041.0         0.27        495.9 
      1042.0         0.27        497.2 
      1043.0         0.28        457.5 
      1044.0         0.20        440.0 
      1045.0         0.33        106.3 
      1046.0         1.80       1354.7 
      1047.0         0.40        764.7 
      1048.0         0.62        662.2 
      1049.0         0.23        656.8 
      1050.0         0.27        619.7 
      1051.0         0.37        575.9 
      1052.0         0.23        554.6 
      1053.0         0.17        529.9 
      1054.0         0.13        510.2 
      1055.0         0.13        500.0 
      1056.0         0.27        504.8 
      1057.0         0.27        502.9 
      1058.0         0.27        496.9 
      1059.0         0.27        487.0 
      1060.0         0.23        483.8 
      1061.0         0.22        486.7 
      1062.0         0.20        490.8 
      1063.0         0.17        490.8 
      1064.0         0.17        493.0 
      1065.0         0.20        494.6 
      1066.0         0.33        497.8 
      1067.0         0.27        496.2 
      1068.0         0.30        495.0 
      1069.0         0.23        492.1 
      1070.0         0.27        492.4 
      1071.0         0.28        488.9 
      1072.0         0.23        465.4 
      1073.0         0.20        441.9 
      1074.0         0.33        523.8 
      1075.0         0.27        717.4 
      1076.0         2.02       1570.2 
      1077.0         0.50        648.9 
      1078.0         0.27        624.8 
      1079.0         0.27        632.7 
      1080.0         0.30        630.8 
      1081.0         0.30        606.7 
      1082.0         0.20        569.9 
      1083.0         0.40        551.1 
      1084.0         0.27        518.4 
      1085.0         0.28        512.4 
      1086.0         0.23        500.0 
      1087.0         0.27        502.6 
      1088.0         0.27        505.7 
      1089.0         0.27        505.4 
      1090.0         0.30        494.3 
      1091.0         0.43        538.4 
      1092.0         0.17        546.1 
      1093.0         0.13        550.2 
      1094.0         0.15        551.8 
      1095.0         0.13        548.0 
      1096.0         0.27        550.5 
      1097.0         0.33        549.2 
      1098.0         0.30        548.0 
      1099.0         0.30        542.2 
      1100.0         0.30        531.8 
      1101.0         0.30        519.4 
      1102.0         0.30        485.7 
      1103.0         0.30        443.2 
      1104.0         0.27        440.0 
      1105.0         0.25        127.1 
      1106.0         1.93       1484.9 
      1107.0         0.53        755.2 
      1108.0         0.40        638.1 
      1109.0         0.35        629.5 
      1110.0         0.40        603.2 
      1111.0         0.40        582.9 
      1112.0         0.37        564.5 
      1113.0         0.33        544.5 
      1114.0         0.33        523.8 
      1115.0         0.33        502.9 
      1116.0         0.27        493.0 
      1117.0         0.27        497.5 
      1118.0         0.27        494.3 
      1119.0         0.28        499.1 
      1120.0         0.30        504.5 
      1121.0         0.27        506.4 
      1122.0         0.30        505.1 
      1123.0         0.27        500.7 
      1124.0         0.27        499.7 
      1125.0         0.23        499.7 
      1126.0         0.33        496.5 
      1127.0         0.27        492.1 
      1128.0         0.30        496.5 
      1129.0         0.33        495.9 
      1130.0         0.35        491.1 
      1131.0         0.33        479.7 
      1132.0         0.33        440.0 
      1133.0         0.13         49.2 
      1134.0         0.27         80.1 
      1135.0         0.23        143.7 
      1136.0         1.80       1395.4 
      1137.0         0.25        729.2 
      1138.0         0.27        634.6 
      1139.0         0.33        611.7 
      1140.0         0.23        614.9 
      1141.0         0.40        640.6 
      1142.0         0.37        635.6 
      1143.0         0.20        616.5 
      1144.0         0.20        608.3 
      1145.0         0.33        592.1 
      1146.0         0.37        549.2 
      1147.0         0.30        516.2 
      1148.0         0.25        507.0 
      1149.0         0.30        510.5 
      1150.0         0.53        509.2 
      1151.0         0.27        500.0 
      1152.0         0.23        501.3 
      1153.0         0.37        507.3 
      1154.0         0.30        507.0 
      1155.0         0.23        502.6 
      1156.0         0.33        501.0 
      1157.0         0.20        503.5 
      1158.0         0.17        512.4 
      1159.0         0.25        523.8 
      1160.0         0.20        525.4 
      1161.0         0.23        518.8 
      1162.0         0.33        488.3 
      1163.0         0.37        494.0 
      1164.0         0.20        579.4 
      1165.0         0.13        687.6 
      1166.0         1.78       1370.3 
      1167.0         0.30        771.1 
      1168.0         0.30        653.3 
      1169.0         0.27        655.2 
      1170.0         0.23        653.3 
      1171.0         0.40        655.9 
      1172.0         0.37        642.9 
      1173.0         0.40        584.5 
      1174.0         0.28        542.2 
      1175.0         0.20        527.0 
      1176.0         0.13        524.5 
      1177.0         0.20        526.7 
      1178.0         0.27        530.2 
      1179.0         0.30        523.2 
      1180.0         0.33        522.6 
      1181.0         0.30        522.6 
      1182.0         0.30        512.7 
      1183.0         0.33        510.5 
      1184.0         0.33        495.9 
      1185.0         0.22        505.1 
      1186.0         0.20        510.8 
      1187.0         0.17        510.5 
      1188.0         0.27        510.2 
      1189.0         0.27        512.1 
      1190.0         0.37        509.9 
      1191.0         0.33        500.7 
      1192.0         0.27        499.7 
      1193.0         0.33        483.8 
      1194.0         0.30        446.7 
      1195.0         0.27        534.9 
      1196.0         2.45       1389.0 
      1197.0         0.43        648.2 
      1198.0         0.40        620.3 
      1199.0         0.37        594.9 
      1200.0         0.38        585.7 
