~Version Information
VERS.                      2.0: CWLS Log ASCII Standard - VERSION 2.0
WRAP.                       NO: One line per depth step
~Well Information Block
STRT.FT               330.0000: 
STOP.FT              1923.5000: 
STEP.FT                 0.1000: 
NULL.                -999.2500: 
COMP.          Pioneer Natural Resources: COMPANY
WELL.          State Wildlife 32-16 Tr: WELL
FLD.           Purgatoire River: FIELD
LOC.           1838' FNL & 1850' FEL: LOCATION
STAT.                 Colorado: State
CNTY.               Las Animas: COUNTY
CTRY. USA : Country
SECT. 16 : Section
TOWN. 32S : Township
RANG. 66W : Range
SRVC.                Patterson: SERVICE COMPANY
DATE.          Mon Nov 14 07:20:48 2005: LOG DATE
API.           05 071 08568 00: UNIQUE WELL ID
~Curve Information Block
DEPT.FT            0 000 00 00: Depth
DCAL.in                       : CDL Caliper
RHOB.g/cc                     : CDL Bulk Density
RHOC.g/cc                     : CDL Density Correction
DPOR.pu                       : CDL Density Porosity
GR.GAPI                       : Gamma Ray
NPOR.pu                       : Neutron Porosity
~Parameter Information Block
~A  Depth       DCAL        RHOB        RHOC        DPOR         GR         NPOR    
# ...
  1587.6000      8.0402      2.5096      0.0617      8.5093    125.6175     26.6079
  1587.7000      8.0402      2.5180      0.1016      8.0024    125.7771     25.0968
  1587.8000      7.9998      2.5398      0.0983      6.6772    129.7449     24.2941
  1587.9000      7.9998      2.5567      0.1288      5.6545    134.6724     23.7540
  1588.0000      8.0098      2.5459      0.1516      6.3103    137.9068     24.1392
  1588.1000      8.0098      2.5078      0.0800      8.6165    137.8479     26.1024
  1588.2000      8.0098      2.4707      0.0841     10.8641    134.0375     28.0246
  1588.3000      7.9960      2.4520      0.0569     12.0009    129.1109     28.1461
  1588.4000      7.9960      2.4499      0.0430     12.1276    127.5169     27.5641
  1588.5000      8.0009      2.4539      0.0709     11.8859    127.3104     27.6895
  1588.6000      8.0009      2.4526      0.0436     11.9639    127.3373     28.1583
  1588.7000      8.0009      2.4522      0.0416     11.9862    130.5522     27.8090
  1588.8000      8.0646      2.4654      0.1244     11.1899    135.5858     26.9183
  1588.9000      8.0646      2.4920      0.1705      9.5776    137.4116     26.6950
  1589.0000      8.0276      2.5234      0.2114      7.6729    135.6214     27.1047
  1589.1000      8.0276      2.5423      0.2574      6.5271    135.0669     27.1272
  1589.2000      8.0276      2.5382      0.1574      6.7743    135.8087     26.5852
  1589.3000      7.9817      2.5262      0.1103      7.5040    135.5801     26.1314
  1589.4000      7.9817      2.5188      0.1457      7.9510    134.9578     25.7908
  1589.5000      7.9759      2.5095      0.1449      8.5142    132.2675     25.8129
  1589.6000      7.9759      2.5015      0.1010      9.0025    127.5931     26.9395
  1589.7000      7.9759      2.5092      0.1156      8.5332    122.4479     28.6997
  1589.8000      7.9972      2.5239      0.1443      7.6421    116.7894     29.8654
  1589.9000      7.9972      2.5194      0.1335      7.9167    112.9958     30.2045
  1590.0000      8.0180      2.4987      0.0693      9.1713    112.9787     29.9332
  1590.1000      8.0180      2.4954      0.0520      9.3672    112.3779     29.1819
  1590.2000      8.0180      2.5217      0.0943      7.7759    106.4626     28.7852
  1590.3000      7.9961      2.5579      0.1108      5.5796     99.8977     28.7972
  1590.4000      7.9961      2.5888      0.0988      3.7093     99.3688     28.4368
  1590.5000      8.0641      2.6123      0.1127      2.2847    101.9538     28.1428
  1590.6000      8.0641      2.6284      0.1101      1.3115    103.6292     28.3469
  1590.7000      8.0641      2.6338      0.1339      0.9801    105.2931     28.6103
  1590.8000      8.1222      2.6266      0.0590      1.4207    106.6143     28.8513
  1590.9000      8.1222      2.6118      0.0565      2.3163    105.9168     29.1771
  1591.0000      8.0617      2.5938      0.1083      3.4031    103.4077     28.9782
  1591.1000      8.0617      2.5745      0.0358      4.5728    101.0447     27.5843
  1591.2000      8.0617      2.5619      0.0296      5.3372    100.2136     25.7904
  1591.3000      8.0004      2.5541      0.0349      5.8112     98.9105     25.0290
  1591.4000      8.0004      2.5449     -0.0141      6.3703     95.3948     25.2398
  1591.5000      7.9748      2.5417      0.0127      6.5609     91.6885     25.5967
  1591.6000      7.9748      2.5447      0.0755      6.3839     90.0761     26.2001
  1591.7000      7.9748      2.5475      0.0431      6.2140     92.3479     26.8777
  1591.8000      7.9673      2.5583      0.0638      5.5597     98.2494     26.7409
  1591.9000      7.9673      2.5746      0.1017      4.5684    103.7575     26.0792
  1592.0000      7.9372      2.5777      0.1135      4.3817    105.2242     25.9383
  1592.1000      7.9372      2.5692      0.0714      4.8939    103.5032     26.2712
  1592.2000      7.9372      2.5693      0.0615      4.8886    103.7583     26.7544
  1592.3000      7.9343      2.5788      0.1107      4.3137    109.2345     27.5942
  1592.4000      7.9343      2.5837      0.1105      4.0154    118.1577     28.6934
  1592.5000      7.9412      2.5818      0.0907      4.1334    127.7559     29.0223
  1592.6000      7.9412      2.5800      0.0603      4.2397    131.7395     28.5699
  1592.7000      7.9412      2.5752      0.1264      4.5320    124.4906     28.5315
  1592.8000      7.9536      2.5680      0.0602      4.9724    113.2856     28.4799
  1592.9000      7.9536      2.5813      0.0564      4.1648    107.2566     27.1088
  1593.0000      7.9540      2.6197      0.0859      1.8352    108.1533     25.1024
  1593.1000      7.9540      2.6522      0.1709     -0.1341    117.0737     24.0991
  1593.2000      7.9540      2.6604      0.0939     -0.6313    130.4130     24.5749
  1593.3000      7.9532      2.6648      0.0769     -0.8995    136.9857     25.6886
  1593.4000      7.9532      2.6845      0.0903     -2.0902    131.2206     26.1397
  1593.5000      7.9366      2.7044      0.1080     -3.2991    122.5479     25.7632
  1593.6000      7.9366      2.6979      0.1224     -2.9047    119.4466     25.4787
  1593.7000      7.9366      2.6630      0.0703     -0.7857    119.6300     25.9501
  1593.8000      7.9201      2.6298     -0.0237      1.2266    122.3741     27.0066
  1593.9000      7.9201      2.6177      0.0547      1.9596    127.9216     27.3919
  1594.0000      7.9261      2.6072      0.0208      2.5960    131.4736     26.7399
  1594.1000      7.9261      2.5830      0.0653      4.0601    129.4946     26.4284
  1594.2000      7.9261      2.5592     -0.0153      5.5014    125.4321     26.8454
  1594.3000      7.9466      2.5499      0.0223      6.0694    124.6531     27.1971
  1594.4000      7.9466      2.5460      0.0394      6.3031    126.9392     27.4314
  1594.5000      7.9664      2.5449     -0.0149      6.3673    128.5408     28.0499
  1594.6000      7.9664      2.5551      0.0373      5.7520    129.0517     28.7860
  1594.7000      7.9664      2.5674      0.0747      5.0085    128.4774     28.8262
  1594.8000      7.9592      2.5720     -0.0104      4.7284    127.9320     27.5421
  1594.9000      7.9592      2.5645      0.1034      5.1807    131.0380     26.0581
  1595.0000      7.9735      2.5383      0.0423      6.7712    133.9901     26.0536
  1595.1000      7.9735      2.5034      0.0124      8.8835    131.7662     27.0401
  1595.2000      7.9735      2.4795     -0.0022     10.3303    127.9591     27.2845
  1595.3000      7.9805      2.4805     -0.0060     10.2749    127.7269     26.9545
  1595.4000      7.9805      2.4982      0.0456      9.2023    130.3388     27.0834
  1595.5000      8.0053      2.5033      0.0173      8.8881    131.9740     27.5091
  1595.6000      8.0053      2.4904     -0.0195      9.6720    131.0687     28.2445
  1595.7000      8.0053      2.4810      0.0240     10.2402    130.6245     28.9705
  1595.8000      8.0008      2.4841      0.0057     10.0555    132.7877     28.3216
  1595.9000      8.0008      2.4993      0.0040      9.1361    133.7062     27.3237
  1596.0000      7.9765      2.5282      0.0206      7.3799    130.0282     27.9258
  1596.1000      7.9765      2.5614      0.0457      5.3721    125.1179     28.8692
  1596.2000      7.9765      2.5815      0.0349      4.1496    122.1422     27.9254
  1596.3000      7.9694      2.5856      0.0177      3.9035    118.0725     25.7940
  1596.4000      7.9694      2.5841      0.0654      3.9928    110.4919     24.2780
  1596.5000      7.9521      2.5854      0.0242      3.9181    103.9843     24.1081
  1596.6000      7.9521      2.5837      0.0894      4.0193    103.6872     25.1589
  1596.7000      7.9521      2.5688      0.0167      4.9217    106.0100     26.6302
  1596.8000      7.9360      2.5464      0.0570      6.2769    105.6420     27.8659
  1596.9000      7.9360      2.5250      0.0398      7.5772    105.2366     28.0747
  1597.0000      7.9288      2.5066     -0.0016      8.6891    108.4390     27.1635
  1597.1000      7.9288      2.4946      0.0303      9.4170    110.9814     25.9242
