~Version Information
VERS.                      2.0: CWLS Log ASCII Standard - VERSION 2.0
WRAP.                       NO: One line per depth step
~Well Information Block
STRT.FT               460.0000: 
STOP.FT              2311.7500: 
STEP.FT                 0.2500: 
NULL.                -999.2500: 
COMP.          Pioneer Natural Resources: COMPANY
WELL.          McDonald 33-31 R: WELL
FLD.           Purgatoire River: FIELD
LOC.           1386' FSL & 1926' FEL: LOCATION
STAT.                 Colorado: State
CNTY.               Las Animas: COUNTY
CTRY.                      USA: Country
SECT.                       31: Section
TOWN.                      32S: Township
RANG.                      66W: Range
SRVC.                Patterson: SERVICE COMPANY
DATE.          Fri Sep 23 00:08:18 2005: LOG DATE
API.           05 071 08533 00: API#
~Curve Information Block
DEPT.FT            0 000 00 00: Depth
SN.Ohm-m                      : IEL Short Normal
SP.mV                         : IEL Spontaneous Potential
DIR.Ohm-m                     : IEL Induction Resistivity
GR.GAPI                       : Gamma Ray
~Parameter Information Block
~A  Depth        SN          SP         DIR          GR     
# ...
  1297.5000      2.1090   -395.2375     18.4206    113.0983
  1297.7500      2.2355   -395.0647     18.1943    114.9485
  1298.0000      2.4172   -394.6628     17.8843    116.1969
  1298.2500      2.5994   -394.1064     17.5629    116.2605
  1298.5000      2.7016   -393.4868     17.2893    115.7283
  1298.7500      2.6748   -392.8846     17.0988    115.3194
  1299.0000      2.5429   -392.3458     17.0013    115.0478
  1299.2500      2.3818   -391.8709     16.9886    114.9485
  1299.5000      2.2551   -391.4225     17.0457    114.0597
  1299.7500      2.1727   -390.9487     17.1606    112.5658
  1300.0000      2.1093   -390.4110     17.3271    109.1645
  1300.2500      2.0521   -389.8073     17.5395    106.6421
  1300.5000      2.0207   -389.1795     17.7821    103.2114
  1300.7500      2.0440   -388.6047     18.0205    101.1806
  1301.0000      2.1204   -388.1745     18.2013     98.2752
  1301.2500      2.2081   -387.9693     18.2660     96.6624
  1301.5000      2.2562   -388.0387     18.1734     95.9453
  1301.7500      2.2465   -388.3893     17.9179     97.1905
  1302.0000      2.2003   -388.9812     17.5325    101.4029
  1302.2500      2.1523   -389.7333     17.0726    105.0479
  1302.5000      2.1267   -390.5337     16.5945    110.4939
  1302.7500      2.1300   -391.2559     16.1382    113.6168
  1303.0000      2.1513   -391.7790     15.7224    117.0370
  1303.2500      2.1711   -392.0085     15.3491    118.3411
  1303.5000      2.1804   -391.8925     15.0116    118.9526
  1303.7500      2.1901   -391.4272     14.7004    118.7082
  1304.0000      2.2164   -390.6506     14.4061    117.8912
  1304.2500      2.2665   -389.6259     14.1203    117.3730
  1304.5000      2.3461   -388.4226     13.8367    117.2740
  1304.7500      2.4651   -387.1010     13.5514    118.0438
  1305.0000      2.6179   -385.7075     13.2627    120.8588
  1305.2500      2.7631   -384.2786     12.9701    123.8536
  1305.5000      2.8457   -382.8497     12.6718    129.7627
  1305.7500      2.8493   -381.4635     12.3626    134.3350
  1306.0000      2.8125   -380.1721     12.0333    141.1206
  1306.2500      2.7859   -379.0342     11.6728    144.8125
  1306.5000      2.7850   -378.1068     11.2738    148.3538
  1306.7500      2.7912   -377.4352     10.8393    149.7447
  1307.0000      2.7879   -377.0461     10.3859    151.9292
  1307.2500      2.7753   -376.9392      9.9424    154.0661
  1307.5000      2.7549   -377.0841      9.5431    157.7334
  1307.7500      2.7244   -377.4205      9.2201    159.4775
  1308.0000      2.6902   -377.8652      8.9969    159.5530
  1308.2500      2.6683   -378.3267      8.8865    157.7064
  1308.5000      2.6649   -378.7232      8.8910    152.6658
  1308.7500      2.6674   -379.0011      9.0024    148.0947
  1309.0000      2.6598   -379.1458      9.2037    139.0825
  1309.2500      2.6411   -379.1819      9.4693    131.1832
  1309.5000      2.6243   -379.1624      9.7672    116.8156
  1309.7500      2.6205   -379.1511     10.0636    106.9207
  1310.0000      2.6296   -379.2036     10.3297     95.1262
  1310.2500      2.6483   -379.3557     10.5446     91.0265
  1310.5000      2.6849   -379.6193     10.6922     91.7283
  1310.7500      2.7579   -379.9860     10.7555     96.3842
  1311.0000      2.8749   -380.4346     10.7161    107.5410
  1311.2500      3.0111   -380.9399     10.5622    116.0401
  1311.5000      3.1177   -381.4792     10.2995    127.6366
  1311.7500      3.1555   -382.0351      9.9543    133.6948
  1312.0000      3.1237   -382.5954      9.5665    140.2094
  1312.2500      3.0570   -383.1506      9.1790    143.2517
  1312.5000      2.9904   -383.6896      8.8293    146.3509
  1312.7500      2.9263   -384.1942      8.5454    147.5155
  1313.0000      2.8374   -384.6356      8.3446    148.2993
  1313.2500      2.7023   -384.9734      8.2348    148.6472
  1313.5000      2.5281   -385.1617      8.2174    149.3582
  1313.7500      2.3372   -385.1606      8.2912    149.6210
  1314.0000      2.1468   -384.9510      8.4551    148.3511
  1314.2500      1.9662   -384.5483      8.7093    145.6889
  1314.5000      1.8040   -384.0098      9.0546    138.4904
  1314.7500      1.6636   -383.4313      9.4895    131.6624
  1315.0000      1.5375   -382.9308     10.0075    119.2400
  1315.2500      1.4154   -382.6245     10.5939    110.6043
  1315.5000      1.2994   -382.6016     11.2252     99.7106
  1315.7500      1.2067   -382.9044     11.8721     94.8994
  1316.0000      1.1568   -383.5185     12.5055     91.2422
  1316.2500      1.1582   -384.3774     13.1010     90.3313
  1316.5000      1.2027   -385.3775     13.6383     90.1260
  1316.7500      1.2631   -386.4007     14.0968     90.6750
  1317.0000      1.3006   -387.3393     14.4549     92.8781
  1317.2500      1.2888   -388.1176     14.6952     95.4262
  1317.5000      1.2388   -388.7058     14.8135    100.7814
  1317.7500      1.1952   -389.1216     14.8235    105.0353
  1318.0000      1.2003   -389.4204     14.7554    111.3911
  1318.2500      1.2616   -389.6750     14.6478    114.8625
  1318.5000      1.3500   -389.9498     14.5395    117.8026
  1318.7500      1.4259   -390.2783     14.4635    117.9250
  1319.0000      1.4674   -390.6510     14.4441    115.7213
  1319.2500      1.4800   -391.0175     14.4953    113.3338
  1319.5000      1.4827   -391.3030     14.6191    109.4583
  1319.7500      1.4897   -391.4366     14.8066    106.8629
  1320.0000      1.5055   -391.3776     15.0412    102.7726
  1320.2500      1.5326   -391.1363     15.3028    100.0068
  1320.5000      1.5766   -390.7786     15.5717     96.5960
  1320.7500      1.6414   -390.4138     15.8323     95.3124
  1321.0000      1.7213   -390.1681     16.0771     95.0853
  1321.2500      1.8036   -390.1492     16.3080     95.8619
  1321.5000      1.8754   -390.4123     16.5340     97.9431
  1321.7500      1.9293   -390.9309     16.7658     99.5946
  1322.0000      1.9653   -391.5849     17.0124    101.5180
  1322.2500      1.9926   -392.1703     17.2765    101.8185
  1322.5000      2.0260   -392.4344     17.5483    100.2912
  1322.7500      2.0744   -392.1341     17.8001     98.1142
  1323.0000      2.1311   -391.1057     17.9880     94.0157
  1323.2500      2.1766   -389.3274     18.0639     91.5352
  1323.5000      2.1823   -386.9515     17.9939     89.8052
  1323.7500      2.1132   -384.2879     17.7718     90.7791
  1324.0000      1.9511   -381.7400     17.4197     95.8737
  1324.2500      1.7378   -379.7069     16.9760    101.1774
  1324.5000      1.5719   -378.4848     16.4771    110.0667
  1324.7500      1.5299   -378.1974     15.9464    115.4406
  1325.0000      1.5954   -378.7800     15.3927    121.5960
  1325.2500      1.6888   -380.0170     14.8173    124.4037
  1325.5000      1.7474   -381.6170     14.2236    126.9692
  1325.7500      1.7549   -383.2954     13.6248    127.6903
  1326.0000      1.7176   -384.8385     13.0475    127.6329
  1326.2500      1.6454   -386.1330     12.5271    127.4355
  1326.5000      1.5574   -387.1597     12.0998    128.4844
  1326.7500      1.4861   -387.9624     11.7942    130.6937
  1327.0000      1.4555   -388.6091     11.6253    135.5359
  1327.2500      1.4571   -389.1595     11.5926    138.4012
  1327.5000      1.4567   -389.6478     11.6803    139.8058
  1327.7500      1.4283   -390.0814     11.8623    138.2197
  1328.0000      1.3758   -390.4481     12.1109    132.5462
  1328.2500      1.3242   -390.7302     12.4071    127.4877
  1328.5000      1.3033   -390.9129     12.7467    120.1133
  1328.7500      1.3361   -390.9901     13.1367    116.4204
  1329.0000      1.4318   -390.9653     13.5849    113.4105
  1329.2500      1.5765   -390.8511     14.0887    112.7396
  1329.5000      1.7329   -390.6663     14.6283    112.4718
  1329.7500      1.8579   -390.4341     15.1663    112.1434
  1330.0000      1.9278   -390.1816     15.6571    111.1578
  1330.2500      1.9478   -389.9372     16.0641    110.4563
  1330.5000      1.9397   -389.7295     16.3781    109.7760
  1330.7500      1.9258   -389.5861     16.6241    109.4660
