~Version Information
VERS.                      2.0: CWLS Log ASCII Standard - VERSION 2.0
WRAP.                       NO: One line per depth step
~Well Information Block
STRT.FT               460.0000: 
STOP.FT              1349.5000: 
STEP.FT                 0.2500: 
NULL.                -999.2500: 
COMP.          Pioneer Natural Resources: COMPANY
WELL.              Dicks 32-5R: WELL
FLD.           Purgatorie River: FIELD
LOC.           1485' FNL & 1684' FEL: LOCATION
PROV.                 Colorado: PROVINCE
CNTY.               Las Animas: COUNTRY
SRVC.                Patterson: SERVICE COMPANY
DATE.          Thu Dec 08 23:11:15 2005: LOG DATE
UWI.                          : UNIQUE WELL ID
~Curve Information Block
DEPT.FT            0 000 00 00: Depth
SN.Ohm-m                      : IEL Short Normal
SP.mV                         : IEL Spontaneous Potential
DIR.Ohm-m                     : IEL Induction Resistivity
GR.GAPI                       : Gamma Ray
~Parameter Information Block
~A  Depth        SN          SP         DIR          GR     
# ...
   929.0000      9.2227    212.9122      8.7144    141.6497
   929.2500      9.0390    213.1113      8.7387    142.7093
   929.5000      8.8845    213.3078      8.7644    144.1983
   929.7500      8.8160    213.4729      8.7899    144.8946
   930.0000      8.8569    213.5660      8.8143    144.9288
   930.2500      8.9980    213.5441      8.8376    144.2290
   930.5000      9.1856    213.3765      8.8597    142.9792
   930.7500      9.3557    213.0524      8.8809    142.7808
   931.0000      9.4841    212.5793      8.9017    144.0230
   931.2500      9.5781    211.9750      8.9234    145.4897
   931.5000      9.6507    211.2608      8.9476    147.2525
   931.7500      9.7208    210.4647      8.9750    147.4857
   932.0000      9.7846    209.6317      9.0052    146.3359
   932.2500      9.7773    208.8216      9.0377    145.0986
   932.5000      9.6637    208.0895      9.0725    143.7946
   932.7500      9.5340    207.4694      9.1102    143.7798
   933.0000      9.5045    206.9799      9.1517    144.9463
   933.2500      9.5738    206.6368      9.1976    146.0987
   933.5000      9.6338    206.4550      9.2482    147.9068
   933.7500      9.6166    206.4386      9.3043    149.1696
   934.0000      9.5831    206.5741      9.3685    151.0491
   934.2500      9.6313    206.8300      9.4450    151.9016
   934.5000      9.7956    207.1610      9.5389    151.7860
   934.7500     10.0458    207.5104      9.6545    150.7452
   935.0000     10.3268    207.8158      9.7944    148.6537
   935.2500     10.6194    208.0261      9.9601    147.5084
   935.5000     10.9363    208.1230     10.1526    146.2628
   935.7500     11.2379    208.1254     10.3732    145.3068
   936.0000     11.4718    208.0688     10.6241    143.0124
   936.2500     11.6688    207.9795     10.9082    140.8800
   936.5000     11.8952    207.8664     11.2293    137.2934
   936.7500     12.1813    207.7281     11.5927    135.1439
   937.0000     12.5412    207.5633     12.0076    133.1004
   937.2500     12.9844    207.3809     12.4888    132.6977
   937.5000     13.4929    207.2048     13.0556    133.1151
   937.7500     14.0654    207.0669     13.7270    133.6117
   938.0000     14.7691    206.9920     14.5138    133.9951
   938.2500     15.6822    206.9897     15.4130    133.8045
   938.5000     16.8392    207.0578     16.4068    132.8255
   938.7500     18.2234    207.1933     17.4672    131.7564
   939.0000     19.7610    207.3924     18.5645    129.2799
   939.2500     21.3651    207.6369     19.6762    126.5998
   939.5000     22.9810    207.8843     20.7966    120.3024
   939.7500     24.5468    208.0793     21.9409    114.7255
   940.0000     25.9672    208.1794     23.1396    105.7823
   940.2500     27.1587    208.1743     24.4194    100.4318
   940.5000     28.0971    208.0833     25.7783     93.8311
   940.7500     28.8218    207.9387     27.1707     89.9139
   941.0000     29.3970    207.7706     28.5167     83.8796
   941.2500     29.8537    207.6015     29.7309     79.7910
   941.5000     30.1726    207.4456     30.7541     74.5885
   941.7500     30.3508    207.3090     31.5719     72.4627
   942.0000     30.4761    207.1929     32.2204     71.8671
   942.2500     30.7051    207.0998     32.7782     73.0025
   942.5000     31.1622    207.0366     33.3413     76.2695
   942.7500     31.8802    207.0096     33.9909     79.2102
   943.0000     32.8370    207.0133     34.7744     84.5889
   943.2500     34.0314    207.0271     35.7097     88.5831
   943.5000     35.5036    207.0230     36.8013     94.0626
   943.7500     37.2720    206.9779     38.0483     96.3846
   944.0000     39.2954    206.8761     39.4432     96.4302
   944.2500     41.5228    206.7033     40.9654     93.9432
   944.5000     43.9271    206.4413     42.5806     87.1752
   944.7500     46.4814    206.0773     44.2566     81.4054
   945.0000     49.1218    205.6228     46.0073     72.3100
   945.2500     51.6942    205.1255     47.9463     66.7765
   945.5000     53.9655    204.6523     50.2873     60.2446
   945.7500     55.8225    204.2587     53.2356     57.0971
   946.0000     57.4008    203.9745     56.7910     53.3597
   946.2500     58.8675    203.8139     60.5681     50.9291
   946.5000     60.1801    203.7883     63.8057     46.9726
   946.7500     61.1500    203.9076     65.6882     44.3689
   947.0000     61.6206    204.1785     65.8053     41.2666
   947.2500     61.5336    204.6069     64.3178     39.9844
   947.5000     60.9100    205.1959     61.7186     39.0680
   947.7500     59.7900    205.9380     58.5020     38.8365
   948.0000     58.1820    206.8079     55.0107     38.5916
   948.2500     56.0650    207.7655     51.4627     38.2950
   948.5000     53.4258    208.7638     48.0332     37.5204
   948.7500     50.3226    209.7523     44.8882     36.9536
   949.0000     46.9420    210.6749     42.1527     36.6901
   949.2500     43.5563    211.4750     39.8573     37.3255
   949.5000     40.3808    212.1104     37.9268     40.1371
   949.7500     37.4886    212.5666     36.2193     43.6124
   950.0000     34.8597    212.8565     34.5917     51.6083
   950.2500     32.4715    213.0117     32.9546     58.6578
   950.5000     30.3264    213.0717     31.2880     70.8820
   950.7500     28.4440    213.0724     29.6236     79.3212
   951.0000     26.8660    213.0370     28.0138     90.8195
   951.2500     25.6355    212.9760     26.5072     96.8307
   951.5000     24.7399    212.9001     25.1345    102.5249
   951.7500     24.0812    212.8327     23.9076    104.3355
   952.0000     23.5161    212.8114     22.8304    105.6986
   952.2500     22.9566    212.8764     21.9120    106.8879
   952.5000     22.4149    213.0592     21.1721    110.2369
   952.7500     21.9343    213.3743     20.6307    113.3450
   953.0000     21.5396    213.8121     20.2928    118.1466
   953.2500     21.2450    214.3347     20.1390    120.7321
   953.5000     21.0481    214.8840     20.1299    122.8166
   953.7500     20.9231    215.4042     20.2171    122.7793
   954.0000     20.8347    215.8644     20.3512    121.0035
   954.2500     20.7619    216.2623     20.4868    119.4431
   954.5000     20.7157    216.6107     20.5882    118.0808
   954.7500     20.7322    216.9225     20.6415    118.3197
   955.0000     20.8488    217.2090     20.6642    120.1195
   955.2500     21.0704    217.4848     20.7018    121.6725
   955.5000     21.3553    217.7657     20.8057    123.4655
   955.7500     21.6556    218.0571     21.0024    123.8910
   956.0000     21.9509    218.3488     21.2755    123.0989
   956.2500     22.2289    218.6283     21.5767    121.7506
   956.5000     22.4850    218.8974     21.8658    119.1097
   956.7500     22.7463    219.1777     22.1554    117.1706
   957.0000     23.0633    219.5000     22.5149    113.7134
   957.2500     23.4701    219.8870     23.0243    110.7100
   957.5000     23.9530    220.3391     23.7053    105.2790
   957.7500     24.4674    220.8279     24.4831    101.8235
   958.0000     24.9906    221.3004     25.2214     98.9532
   958.2500     25.5521    221.6930     25.8271     99.4373
   958.5000     26.2144    221.9529     26.3351    103.3776
   958.7500     27.0106    222.0575     26.8746    106.9145
   959.0000     27.8942    222.0150     27.5434    111.0805
   959.2500     28.7867    221.8531     28.3163    112.1187
   959.5000     29.6600    221.6105     29.0669    110.5464
   959.7500     30.5030    221.3350     29.6885    107.5353
   960.0000     31.2474    221.0736     30.2017    100.6392
   960.2500     31.8075    220.8563     30.7389     95.0431
   960.5000     32.1442    220.6911     31.4193     86.6731
   960.7500     32.2551    220.5700     32.2292     82.0681
   961.0000     32.1599    220.4782     32.9849     77.8001
   961.2500     31.8927    220.4065     33.4007     77.0124
   961.5000     31.4813    220.3633     33.2415     78.8102
   961.7500     30.9878    220.3762     32.4759     81.6102
   962.0000     30.5336    220.4734     31.3094     87.2233
   962.2500     30.2035    220.6498     30.0628     91.3214
