~Version Information
VERS.                      2.0: CWLS Log ASCII Standard - VERSION 2.0
WRAP.                       NO: One line per depth step
~Well Information Block
STRT.FT                 0.0000: 
STOP.FT              2792.7500: 
STEP.FT                 0.2500: 
NULL.                -999.2500: 
COMP.          Pioneer Natural Resources: COMPANY
WELL.          Black Cat 13-32: WELL
FLD.           Purgatorie River: FIELD
LOC.           1865' FSL & 1120' FWL: LOCATION
PROV.                 Colorado: PROVINCE
CNTY.               Las Animas: COUNTRY
SRVC.                Patterson: SERVICE COMPANY
DATE.          Fri Aug 19 09:19:21 2005: LOG DATE
UWI.                          : UNIQUE WELL ID
~Curve Information Block
DEPT.FT            0 000 00 00: Depth
CCL.                          : Casing Collar Locator
TT3.usec                      : CBL 3' Travel Time
AMP3.mV                       : CBL 3' Amplitude
GR.GAPI                       : Gamma Ray
~Parameter Information Block
~A  Depth       CCL         TT3         AMP3         GR     
# ...
   737.0000      0.0000    738.5580      5.9489    114.3492
   737.2500      0.0000    715.5703      5.9809    117.9941
   737.5000      0.0000    679.6112      5.8886    123.0974
   737.7500      0.0000    636.6777      5.7415    129.0969
   738.0000      0.0000    604.7894      5.6520    135.0859
   738.2500      0.0000    601.2498      5.6443    140.0744
   738.5000      0.0000    619.1356      5.6536    143.5747
   738.7500      0.0000    630.0012      5.6370    145.2985
   739.0000      0.0000    617.1660      5.6205    144.7590
   739.2500      0.0000    594.0648      5.6446    141.9696
   739.5000      0.0000    583.1580      5.7198    138.1004
   739.7500      0.0000    588.3220      5.8283    134.7108
   740.0000      0.0000    604.5268      5.9090    132.4884
   740.2500      0.0000    635.7044      5.8856    131.0164
   740.5000      0.0000    677.7682      5.7709    129.5230
   740.7500      0.0000    708.8320      5.6866    127.5924
   741.0000      0.0000    714.3680      5.7464    125.3423
   741.2500      0.0000    702.1786      5.9489    123.1891
   741.5000      0.0000    688.2427      6.1845    121.5033
   741.7500      0.0000    680.4677      6.3503    120.3859
   742.0000      0.0000    677.8161      6.4471    119.7692
   742.2500      0.0000    677.2272      6.5318    119.8095
   742.5000      0.0000    677.2273      6.6099    121.0365
   742.7500      0.0000    678.0415      6.6226    123.8126
   743.0000      0.0000    681.6094      6.5243    127.7128
   743.2500      0.0000    690.6439      6.3401    131.6101
   743.5000      0.0000    703.2094      6.1481    134.1674
   743.7500      0.0000    709.3668      6.0089    134.1807
   744.0000      0.0000    702.4179      5.9124    131.0611
   744.2500      0.0000    689.2654      5.8172    125.5665
   744.5000      0.0000    679.8300      5.7316    119.8640
   744.7500      0.0000    675.4787      5.7119    116.3519
   745.0000      0.0000    672.0418      5.7868    116.0591
   745.2500      0.0000    665.8424      5.9073    118.0024
   745.5000      0.0000    657.6056      5.9860    120.1471
   745.7500      0.0000    653.4182      5.9967    121.0409
   746.0000      0.0000    657.3616      6.0013    120.5081
   746.2500      0.0000    665.1992      6.0550    119.0636
   746.5000      0.0000    670.8015      6.1251    117.0715
   746.7500      0.0000    673.0527      6.1323    114.4981
   747.0000      0.0000    673.7135      6.0583    111.3544
   747.2500      0.0000    674.0038      5.9736    108.3122
   747.5000      0.0000    674.2987      5.9336    106.7805
   747.7500      0.0000    674.7352      5.9048    108.0955
   748.0000      0.0000    675.3531      5.8550    112.2068
   748.2500      0.0000    676.0038      5.8435    117.1166
   748.5000      0.0000    676.4527      5.9302    120.3524
   748.7500      0.0000    676.6133      6.0661    121.4389
   749.0000      0.0000    676.6101      6.1602    122.2745
   749.2500      0.0000    676.6263      6.1930    124.7964
   749.5000      0.0000    676.7241      6.1941    129.0324
   749.7500      0.0000    676.8262      6.1556    133.6578
   750.0000      0.0000    676.8643      6.0487    137.6199
   750.2500      0.0000    676.8633      5.9105    140.7793
   750.5000      0.0000    676.8516      5.8199    143.4232
   750.7500      0.0000    676.7993      5.7938    145.5875
   751.0000      0.0000    676.6887      5.7903    147.0173
   751.2500      0.0000    676.5576      5.8004    147.6997
   751.5000      0.0000    676.4749      5.8470    147.9892
   751.7500      0.0000    676.5154      5.9082    148.0036
   752.0000      0.0000    676.6736      5.9335    147.2627
   752.2500      0.0000    676.7932      5.9265    145.2077
   752.5000      0.0000    676.6929      5.9337    142.0292
   752.7500      0.0000    676.3373      5.9633    139.0393
   753.0000      0.0000    675.8712      5.9862    138.2297
   753.2500      0.0000    675.6313      6.0041    140.9243
   753.5000      0.0000    676.3928      6.0329    146.3001
   753.7500      0.0000    680.0963      6.0432    151.3079
   754.0000      0.0000    689.3716      6.0051    152.4461
   754.2500      0.0000    702.2842      5.9522    148.0336
   754.5000      0.0000    708.6979      5.9356    139.2717
   754.7500      0.0000    700.8596      5.9562    129.4418
   755.0000      0.0000    683.8412      5.9888    121.8283
   755.2500      0.0000    667.1783      6.0315    117.8666
   755.5000      0.0000    655.0480      6.0884    116.9653
   755.7500      0.0000    647.0852      6.1429    117.8593
   756.0000      0.0000    642.5373      6.1909    119.8853
   756.2500      0.0000    642.3151      6.2504    123.0058
   756.5000      0.0000    646.3574      6.3213    127.0602
   756.7500      0.0000    653.1793      6.3810    131.3495
   757.0000      0.0000    661.8957      6.4242    134.9999
   757.2500      0.0000    671.7529      6.4636    137.5732
   757.5000      0.0000    683.6221      6.4737    139.1568
   757.7500      0.0000    699.1156      6.4029    139.9571
   758.0000      0.0000    714.7131      6.2789    140.0691
   758.2500      0.0000    724.1164      6.1988    139.5803
   758.5000      0.0000    725.7573      6.2003    138.5795
   758.7500      0.0000    719.6913      6.2500    137.0725
   759.0000      0.0000    705.9874      6.3293    135.0888
   759.2500      0.0000    690.6101      6.4327    132.9218
   759.5000      0.0000    680.5962      6.5288    131.1859
   759.7500      0.0000    676.5271      6.5837    130.5619
   760.0000      0.0000    675.5559      6.5800    131.4059
   760.2500      0.0000    675.7657      6.5013    133.6278
   760.5000      0.0000    676.3218      6.3504    136.9473
   760.7500      0.0000    676.7284      6.1785    141.0531
   761.0000      0.0000    676.7714      6.0594    145.5310
   761.2500      0.0000    676.5536      6.0242    150.0181
   761.5000      0.0000    676.2351      5.9978    154.5746
   761.7500      0.0000    675.9073      5.8107    159.4451
   762.0000      0.0000    675.8104      5.3760    164.2388
   762.2500      0.0000    676.3585      4.9136    168.0247
   762.5000      0.0000    678.1316      4.7845    170.5011
   762.7500      0.0000    683.1105      4.9818    172.0352
   763.0000      0.0000    695.8052      5.1816    171.8426
   763.2500      0.0000    719.3582      5.2789    167.2427
   763.5000      0.0000    748.0627      5.3672    155.9699
   763.7500      0.0000    769.6301      5.4378    139.0660
   764.0000      2.0000    781.4067      5.4505    121.0559
   764.2500     -2.0000    797.4156      5.4550    107.4080
   764.5000      0.0000    829.3135      5.4896    101.4995
   764.7500      0.0000    862.6214      5.5116    103.1351
   765.0000      0.0000    866.0836      5.5623    109.5772
   765.2500      0.0000    832.5492      5.7808    118.0464
   765.5000      0.0000    790.4388      6.0697    127.1321
   765.7500      0.0000    768.8239      6.1812    136.0770
   766.0000      0.0000    770.9431      6.1448    143.6443
   766.2500      0.0000    779.8547      6.1229    148.3153
   766.5000      0.0000    778.8220      6.1353    149.5234
   766.7500      0.0000    766.1481      6.1364    148.4807
   767.0000      0.0000    754.5762      6.0984    147.5006
   767.2500      0.0000    754.1422      6.0284    148.2414
   767.5000      0.0000    755.9731      5.9616    150.6706
   767.7500      0.0000    744.0978      5.9092    153.7256
   768.0000      0.0000    719.5917      5.8583    156.5828
   768.2500      0.0000    699.4393      5.8033    159.1613
   768.5000      0.0000    695.7108      5.7547    161.6501
   768.7500      0.0000    704.2194      5.7413    163.6017
   769.0000      0.0000    709.8488      5.7797    163.7217
   769.2500      0.0000    703.2652      5.8467    161.1559
   769.5000      0.0000    690.6439      5.8995    157.0419
   769.7500      0.0000    681.7635      5.9081    153.9680
   770.0000      0.0000    678.3354      5.8742    153.4317
   770.2500      0.0000    677.4982      5.8335    154.3559
