~Version Information
VERS.                      2.0: CWLS Log ASCII Standard - VERSION 2.0
WRAP.                       NO: One line per depth step
~Well Information Block
STRT.FT                 0.0000: 
STOP.FT              1238.2500: 
STEP.FT                 0.2500: 
NULL.                -999.2500: 
COMP.          Pioneer Natural Resources: COMPANY
WELL.                 Ray 34-6: WELL
FLD.           Purgatoire River: FIELD
LOC.           684' FSL & 2254' FEL: LOCATION
CNTY.               Las Animas: COUNTY
SRVC.                         : SERVICE COMPANY
DATE.          Fri Jun 23 09:23:24 2006: LOG DATE
UWI.           05 071 08695 00: UNIQUE WELL ID
STAT.                       CO: STATE
~Curve Information Block
DEPT.FT            0 000 00 00: Depth
GR.GAPI                       : Gamma Ray
CCL.                          : Casing Collar Locator
TT3.usec                      : CBL 3' Travel Time
AMP3.mV                       : CBL 3' Amplitude
~Parameter Information Block
~A  Depth        GR         CCL         TT3         AMP3    
# ...
   569.5000     85.4844      0.0000    579.6130      6.3701
   569.7500     83.9444      0.0000    614.6873      6.3930
   570.0000     83.1076      0.0000    654.0732      6.3821
   570.2500     82.0643      0.0000    692.4054      6.3814
   570.5000     80.9262      0.0000    725.0603      6.4200
   570.7500     81.8439      0.0000    746.7870      6.4816
   571.0000     88.0938      0.0000    752.6838      6.5203
   571.2500    101.9301      0.0000    742.4860      6.5082
   571.5000    122.7026      0.0000    722.7210      6.4607
   571.7500    146.3556      0.0000    703.4874      6.4195
   572.0000    166.9814      0.0000    693.0655      6.4170
   572.2500    179.6966      0.0000    694.4664      6.4552
   572.5000    182.5929      0.0000    704.4544      6.5115
   572.7500    176.5810      0.0000    714.9300      6.5581
   573.0000    164.2228      0.0000    717.8590      6.5771
   573.2500    148.7537      0.0000    711.2007      6.5647
   573.5000    133.3033      0.0000    699.9085      6.5294
   573.7500    120.3877      0.0000    691.1565      6.4879
   574.0000    111.9878      0.0000    689.5404      6.4583
   574.2500    109.7979      0.0000    695.8047      6.4542
   574.5000    114.8300      0.0000    707.2315      6.4814
   574.7500    126.3991      0.0000    718.3002      6.5365
   575.0000    141.4171      0.0000    722.9788      6.6071
   575.2500    155.1092      0.0000    718.5184      6.6789
   575.5000    163.1870      0.0000    707.3425      6.7421
   575.7500    163.9082      0.0000    694.7842      6.7860
   576.0000    158.2692      0.0000    684.9619      6.7913
   576.2500    148.5967      0.0000    678.7222      6.7426
   576.5000    137.3923      0.0000    674.7714      6.6552
   576.7500    127.3486      0.0000    672.1082      6.5790
   577.0000    121.5220      0.0000    671.6349      6.5616
   577.2500    122.2508      0.0000    675.8430      6.6043
   577.5000    129.4986      0.0000    686.6991      6.6560
   577.7500    140.9450      0.0000    703.4737      6.6562
   578.0000    153.9714      0.0000    722.7208      6.5855
   578.2500    166.6809      0.0000    740.5394      6.4789
   578.5000    176.9508      0.0000    754.5984      6.3966
   578.7500    182.2736      0.0000    763.8268      6.3846
   579.0000    181.6815      0.0000    767.1586      6.4500
   579.2500    177.1127      0.0000    764.1816      6.5600
   579.5000    172.1784      0.0000    757.1493      6.6663
   579.7500    169.6633      0.0000    750.6849      6.7392
   580.0000    169.9013      0.0000    748.3657      6.7848
   580.2500    170.8734      0.0000    750.1653      6.8286
   580.5000    169.8883      0.0000    753.6750      6.8831
   580.7500    165.8072      0.0000    756.9778      6.9344
   581.0000    159.9970      0.0000    759.7909      6.9640
   581.2500    154.9140      0.0000    762.4773      6.9726
   581.5000    151.6183      0.0000    764.7626      6.9769
   581.7500    148.8058      0.0000    765.6757      6.9858
   582.0000    144.3583      0.0000    764.6338      6.9906
   582.2500    137.6507      0.0000    762.2134      6.9755
   582.5000    130.1065      0.0000    759.6351      6.9374
   582.7500    123.6705      0.0000    757.7267      6.8940
   583.0000    119.3476      0.0000    756.5189      6.8724
   583.2500    117.5257      0.0000    755.4292      6.8849
   583.5000    119.1619      0.0000    753.4296      6.9199
   583.7500    125.6565      0.0000    749.2199      6.9606
   584.0000    137.0491      0.0000    741.8685      7.0064
   584.2500    150.6367      0.0000    731.7023      7.0612
   584.5000    161.9852      0.0000    720.3446      7.1023
   584.7500    167.4423      0.0000    709.5705      7.0848
   585.0000    165.5696      0.0000    700.4581      6.9899
   585.2500    156.8483      0.0000    693.8978      6.8524
   585.5000    143.3501      0.0000    691.1274      6.7322
   585.7500    128.8287      0.0000    692.8890      6.6672
   586.0000    117.6690      0.0000    698.3459      6.6565
   586.2500    112.5295      0.0000    705.3402      6.6732
   586.5000    113.0944      0.0000    711.6290      6.6882
   586.7500    117.4723      0.0000    715.7692      6.6960
   587.0000    124.3131      0.0000    717.3825      6.7245
   587.2500    132.9286      0.0000    717.0135      6.8091
   587.5000    141.8923      0.0000    715.4692      6.9495
   587.7500    148.9563      0.0000    712.9980      7.0981
   588.0000    152.8608      0.0000    709.2057      7.1930
   588.2500    154.4600      0.0000    703.8572      7.2017
   588.5000    155.4508      0.0000    697.7346      7.1358
   588.7500    156.1901      0.0000    692.7166      7.0315
   589.0000    155.0524      0.0000    690.8706      6.9209
   589.2500    150.1171      0.0000    693.0397      6.8180
   589.5000    141.5008      0.0000    698.0905      6.7247
   589.7500    131.8498      0.0000    703.6939      6.6431
   590.0000    124.4289      0.0000    707.9914      6.5824
   590.2500    120.8820      0.0000    710.5568      6.5568
   590.5000    120.8294      0.0000    712.1018      6.5726
   590.7500    123.0777      0.0000    713.6244      6.6161
   591.0000    126.6200      0.0000    715.8019      6.6590
   591.2500    130.6176      0.0000    718.6606      6.6818
   591.5000    134.2138      0.0000    721.4996      6.6914
   591.7500    136.9780      0.0000    723.2003      6.7113
   592.0000    139.3313      0.0000    722.7950      6.7539
   592.2500    142.0532      0.0000    719.7583      6.8050
   592.5000    145.2909      0.0000    714.0229      6.8393
   592.7500    148.2872      0.0000    706.1992      6.8428
   593.0000    150.3161      0.0000    697.7697      6.8167
   593.2500    151.9874      0.0000    690.7118      6.7630
   593.5000    155.0887      0.0000    686.7289      6.6775
   593.7500    160.4158      0.0000    686.6711      6.5601
   594.0000    166.0201      0.0000    690.5132      6.4285
   594.2500    168.7103      0.0000    697.8486      6.3193
   594.5000    167.7767      0.0000    708.1725      6.2694
   594.7500    166.6041      0.0000    720.3398      6.2957
   595.0000    169.6322      0.0000    732.0023      6.3900
   595.2500    177.4632      0.0000    740.4576      6.5295
   595.5000    185.7097      0.0000    744.5652      6.6839
   595.7500    189.2727      0.0000    745.6431      6.8188
   596.0000    187.1666      0.0000    746.2875      6.9078
   596.2500    182.5134      0.0000    748.2432      6.9485
   596.5000    178.4290      0.0000    751.3646      6.9578
   596.7500    174.9034      0.0000    754.2082      6.9487
   597.0000    169.7438      0.0000    755.0660      6.9181
   597.2500    161.7917      0.0000    752.5397      6.8598
   597.5000    152.5713      0.0000    745.7384      6.7817
   597.7500    144.8553      0.0000    733.9050      6.7035
   598.0000    140.0240      0.0000    715.7283      6.6411
   598.2500    137.0194      0.0000    690.6386      6.6012
   598.5000    133.6722      0.0000    662.2133      6.5848
   598.7500    128.6421      0.0000    638.6187      6.5888
   599.0000    121.9945      0.0000    627.2583      6.6032
   599.2500    114.4828      0.0000    629.5783      6.6170
   599.5000    107.0155      0.0000    642.1235      6.6280
   599.7500    100.7886      0.0000    660.6945      6.6475
   600.0000     97.0509      0.0000    681.8641      6.6904
   600.2500     96.0284      0.0000    702.3806      6.7629
   600.5000     96.2244      0.0000    719.5812      6.8564
   600.7500     95.4222      0.0000    732.4568      6.9534
   601.0000     92.6918      0.0000    741.5026      7.0370
   601.2500     89.0774      0.0000    747.5721      7.0948
   601.5000     86.1409      0.0000    751.2552      7.1196
   601.7500     84.3497      0.0000    753.0663      7.1141
   602.0000     83.1415      0.0000    753.5897      7.0953
   602.2500     82.0306      0.0000    753.3190      7.0804
   602.5000     81.1343      0.0000    752.5145      7.0637
   602.7500     80.8739      0.0000    751.4421      7.0123
