~Version Information
VERS.                      2.0: CWLS Log ASCII Standard - VERSION 2.0
WRAP.                       NO: One line per depth step
~Well Information Block
STRT.FT               547.0000: 
STOP.FT              1685.5000: 
STEP.FT                 0.2500: 
NULL.                -999.2500: 
COMP.          Pioneer Natural Resources: COMPANY
WELL.           Pedri 42-33 Tr: WELL
FLD.           Purgatorie River: FIELD
LOC.           1933' FNL & 662' FEL: LOCATION
PROV.                 Colorado: PROVINCE
CNTY.               Las Animas: COUNTRY
SRVC.                Patterson: SERVICE COMPANY
DATE.          Mon Dec 19 10:09:44 2005: LOG DATE
UWI.                          : UNIQUE WELL ID
~Curve Information Block
DEPT.FT            0 000 00 00: Depth
DIR.Ohm-m                     : IEL Induction Resistivity
GR.GAPI                       : Gamma Ray
~Parameter Information Block
~A  Depth       DIR          GR     
# ...
  1327.5000      9.8883    134.6759
  1327.7500     10.1786    136.6163
  1328.0000     10.4265    138.3525
  1328.2500     10.6087    136.4099
  1328.5000     10.7193    126.6162
  1328.7500     10.7719    115.8794
  1329.0000     10.7898     96.6885
  1329.2500     10.7907     84.4374
  1329.5000     10.7767     70.8222
  1329.7500     10.7330     66.2942
  1330.0000     10.6355     66.8404
  1330.2500     10.4619     71.6046
  1330.5000     10.2013     83.7574
  1330.7500      9.8598     93.9548
  1331.0000      9.4606    109.8927
  1331.2500      9.0367    119.6316
  1331.5000      8.6221    131.6742
  1331.7500      8.2439    137.8129
  1332.0000      7.9200    144.0788
  1332.2500      7.6595    146.2361
  1332.5000      7.4651    146.9191
  1332.7500      7.3356    146.5196
  1333.0000      7.2679    146.5990
  1333.2500      7.2576    147.9065
  1333.5000      7.2997    151.4264
  1333.7500      7.3868    153.5263
  1334.0000      7.5093    153.5737
  1334.2500      7.6551    150.7579
  1334.5000      7.8115    143.2997
  1334.7500      7.9670    137.6600
  1335.0000      8.1138    130.6088
  1335.2500      8.2484    127.5427
  1335.5000      8.3712    125.2808
  1335.7500      8.4853    124.8853
  1336.0000      8.5960    125.1437
  1336.2500      8.7085    125.2178
  1336.5000      8.8267    123.5728
  1336.7500      8.9502    120.8285
  1337.0000      9.0740    115.7889
  1337.2500      9.1885    113.6614
  1337.5000      9.2811    114.4843
  1337.7500      9.3397    117.6588
  1338.0000      9.3556    124.9719
  1338.2500      9.3272    130.6307
  1338.5000      9.2609    138.5650
  1338.7500      9.1703    142.4291
  1339.0000      9.0732    145.1847
  1339.2500      8.9867    145.3385
  1339.5000      8.9229    144.2777
  1339.7500      8.8863    143.1839
  1340.0000      8.8758    141.2340
  1340.2500      8.8889    139.8529
  1340.5000      8.9241    138.1532
  1340.7500      8.9811    137.7365
  1341.0000      9.0574    138.9632
  1341.2500      9.1483    140.9855
  1341.5000      9.2493    144.3441
  1341.7500      9.3610    145.5986
  1342.0000      9.4901    145.1052
  1342.2500      9.6459    143.5697
  1342.5000      9.8346    140.5582
  1342.7500     10.0573    138.5215
  1343.0000     10.3118    135.8090
  1343.2500     10.5976    134.1750
  1343.5000     10.9190    131.4207
  1343.7500     11.2839    129.1385
  1344.0000     11.7010    125.4287
  1344.2500     12.1766    123.3288
  1344.5000     12.7126    121.3842
  1344.7500     13.3065    120.6421
  1345.0000     13.9524    118.9520
  1345.2500     14.6429    116.7323
  1345.5000     15.3703    112.1330
  1345.7500     16.1270    109.2771
  1346.0000     16.9058    106.8012
  1346.2500     17.6978    106.2666
  1346.5000     18.4915    105.7692
  1346.7500     19.2733    104.9273
  1347.0000     20.0323    102.5733
  1347.2500     20.7651    100.3964
  1347.5000     21.4746     96.2747
  1347.7500     22.1602     92.8560
  1348.0000     22.8078     86.7622
  1348.2500     23.3899     82.3799
  1348.5000     23.8789     76.3981
  1348.7500     24.2639     73.6303
  1349.0000     24.5549     72.5739
  1349.2500     24.7715     74.1003
  1349.5000     24.9261     78.6470
  1349.7500     25.0199     82.1709
  1350.0000     25.0517     87.1152
  1350.2500     25.0317     90.1523
  1350.5000     24.9845     94.3977
  1350.7500     24.9430     96.6711
  1351.0000     24.9360     98.4116
  1351.2500     24.9765     98.4557
  1351.5000     25.0539     97.8148
  1351.7500     25.1346     97.4349
  1352.0000     25.1772     96.8060
  1352.2500     25.1582     95.8480
  1352.5000     25.0897     93.1805
  1352.7500     25.0125     90.9883
  1353.0000     24.9689     88.5918
  1353.2500     24.9784     88.3430
  1353.5000     25.0355     90.0845
  1353.7500     25.1243     92.0354
  1354.0000     25.2327     94.9058
  1354.2500     25.3525     96.4227
  1354.5000     25.4691     98.2109
  1354.7500     25.5558     99.3011
  1355.0000     25.5821    100.9520
  1355.2500     25.5324    102.0554
  1355.5000     25.4212    103.9296
  1355.7500     25.2922    105.4857
  1356.0000     25.2012    107.7928
  1356.2500     25.1925    108.5706
  1356.5000     25.2858    107.6926
  1356.7500     25.4811    105.9396
  1357.0000     25.7722    102.7431
  1357.2500     26.1531    100.7179
  1357.5000     26.6123     97.5131
  1357.7500     27.1273     94.8382
  1358.0000     27.6721     90.4216
  1358.2500     28.2365     88.1308
  1358.5000     28.8361     86.6442
  1358.7500     29.4995     86.4521
  1359.0000     30.2453     85.4798
  1359.2500     31.0657     83.6609
  1359.5000     31.9285     79.5788
  1359.7500     32.7928     76.8665
  1360.0000     33.6268     74.2218
  1360.2500     34.4179     73.6103
  1360.5000     35.1670     73.7261
  1360.7500     35.8724     73.8565
  1361.0000     36.5141     73.2258
  1361.2500     37.0514     71.9926
  1361.5000     37.4330     69.1927
  1361.7500     37.6153     67.3635
  1362.0000     37.5841     66.3733
  1362.2500     37.3690     67.6766
  1362.5000     37.0347     72.4793
  1362.7500     36.6487     76.5303
  1363.0000     36.2493     81.6516
  1363.2500     35.8348     83.8213
  1363.5000     35.3819     85.5994
  1363.7500     34.8771     86.1821
  1364.0000     34.3419     86.1480
  1364.2500     33.8363     85.3010
  1364.5000     33.4367     82.7070
  1364.7500     33.2016     80.2854
  1365.0000     33.1497     76.1026
  1365.2500     33.2569     73.2340
  1365.5000     33.4724     69.2193
  1365.7500     33.7363     66.7297
  1366.0000     33.9918     62.6786
  1366.2500     34.1907     59.4880
  1366.5000     34.2964     54.6741
  1366.7500     34.2849     52.3983
  1367.0000     34.1441     51.2636
  1367.2500     33.8803     51.5613
  1367.5000     33.5357     52.0394
  1367.7500     33.1990     51.8524
  1368.0000     32.9848     50.8751
  1368.2500     32.9822     49.9910
  1368.5000     33.2081     48.6448
  1368.7500     33.5913     47.8888
  1369.0000     34.0016     47.0114
  1369.2500     34.3061     46.4204
  1369.5000     34.4206     45.2254
  1369.7500     34.3304     44.3171
  1370.0000     34.0819     43.3564
  1370.2500     33.7621     43.2918
  1370.5000     33.4720     44.1523
  1370.7500     33.2910     45.1761
  1371.0000     33.2404     47.0250
  1371.2500     33.2680     48.3227
  1371.5000     33.2725     49.9657
  1371.7500     33.1657     50.4765
  1372.0000     32.9301     50.0007
  1372.2500     32.6286     49.0783
  1372.5000     32.3598     47.6100
  1372.7500     32.2073     46.9941
  1373.0000     32.2141     47.0487
  1373.2500     32.3880     47.7896
  1373.5000     32.7137     49.4511
  1373.7500     33.1527     50.3586
  1374.0000     33.6295     50.7280
  1374.2500     34.0227     50.3576
  1374.5000     34.1961     49.5523
  1374.7500     34.0734     49.3857
  1375.0000     33.7031     50.5274
  1375.2500     33.2413     52.5277
  1375.5000     32.8639     57.6574
  1375.7500     32.6834     62.6405
  1376.0000     32.7226     72.4436
  1376.2500     32.9350     79.8902
  1376.5000     33.2464     89.7794
  1376.7500     33.5930     93.5259
  1377.0000     33.9444     92.4574
  1377.2500     34.3015     87.2797
  1377.5000     34.6785     75.3786
  1377.7500     35.0818     66.8985
  1378.0000     35.5030     56.2767
  1378.2500     35.9286     51.1561
  1378.5000     36.3588     45.8600
  1378.7500     36.8201     43.3494
  1379.0000     37.3581     40.5513
  1379.2500     38.0064     39.3001
  1379.5000     38.7493     38.4259
  1379.7500     39.5113     38.3951
  1380.0000     40.1874     38.7190
  1380.2500     40.6976     39.0520
  1380.5000     41.0253     39.9770
  1380.7500     41.2153     40.9472
  1381.0000     41.3457     42.2613
  1381.2500     41.4992     42.4081
  1381.5000     41.7393     41.1243
  1381.7500     42.0927     39.7306
  1382.0000     42.5423     38.3595
  1382.2500     43.0416     38.6115
  1382.5000     43.5459     40.5930
  1382.7500     44.0341     42.1932
  1383.0000     44.4995     43.6021
