~Version Information
VERS.                      2.0: CWLS Log ASCII Standard - VERSION 2.0
WRAP.                       NO: One line per depth step
~Well Information Block
STRT.FT                -7.2500: 
STOP.FT              1221.7500: 
STEP.FT                 0.2500: 
NULL.                -999.2500: 
COMP.          Pioneer Natural Resources: COMPANY
WELL.           Tennis 7-12 Tr: WELL
FLD.           Purgatorie River: FIELD
LOC.           1794' FNL & 1563' FEL--: LOCATION
PROV.                       CO: PROVINCE
CNTY.               Las Animas: COUNTRY
SRVC.          Patterson Wireline: SERVICE COMPANY
DATE.          Tue Dec 27 14:16:59 2005: LOG DATE
UWI.           05 071 008635 00: UNIQUE WELL ID
~Curve Information Block
DEPT.FT            0 000 00 00: Depth
CCL.                          : Casing Collar Locator
TT3.usec                      : CBL 3' Travel Time
AMP3.mV                       : CBL 3' Amplitude
GR.GAPI                       : Gamma Ray
~Parameter Information Block
~A  Depth       CCL         TT3         AMP3         GR     
# ...
   863.7500      0.0000    755.9320      6.3903     60.1628
   864.0000      0.0000    755.9131      6.3795     63.9236
   864.2500      0.0000    753.6194      6.4022     64.7333
   864.5000      0.0000    746.5745      6.4366     63.3902
   864.7500      0.0000    737.2700      6.4926     60.7871
   865.0000      0.0000    727.4337      6.6023     57.7656
   865.2500      0.0000    717.2513      6.7684     55.3954
   865.5000      0.0000    708.4589      6.9547     54.7501
   865.7500      0.0000    703.9741      7.1177     56.5174
   866.0000      0.0000    704.3505      7.2295     61.0969
   866.2500      0.0000    707.0334      7.2793     68.8145
   866.5000      0.0000    709.0659      7.2721     79.5731
   866.7500      0.0000    709.1870      7.2260     92.2864
   867.0000      0.0000    707.8956      7.1636    104.9689
   867.2500      0.0000    707.0187      7.1026    115.6938
   867.5000      0.0000    709.1330      7.0497    123.6483
   867.7500      0.0000    716.0073      6.9989    129.2401
   868.0000      0.0000    727.1264      6.9338    133.1468
   868.2500      0.0000    740.1555      6.8318    135.3538
   868.5000      0.0000    752.6713      6.6630    135.1870
   868.7500      0.0000    762.5916      6.3881    132.2656
   869.0000      0.0000    767.1461      5.9711    127.3248
   869.2500      0.0000    763.2156      5.4078    121.9090
   869.5000      0.0000    750.0605      4.7430    117.2563
   869.7500      0.0000    731.4385      4.0595    113.6837
   870.0000      0.0000    713.9364      3.4417    110.9808
   870.2500      0.0000    702.8377      2.9406    108.9373
   870.5000      0.0000    699.5116      2.5614    107.1796
   870.7500      0.0000    701.8018      2.2812    104.7771
   871.0000      0.0000    706.0250      2.0740    100.5205
   871.2500      0.0000    709.6487      1.9233     93.8715
   871.5000      0.0000    713.2978      1.8236     85.7026
   871.7500      0.0000    719.0225      1.7809     78.1282
   872.0000      0.0000    725.8608      1.8063     73.3801
   872.2500      0.0000    729.4351      1.9041     72.5034
   872.5000      0.0000    727.5673      2.0689     75.0056
   872.7500      0.0000    723.9553      2.2960     79.7266
   873.0000      0.0000    724.4343      2.5904     85.8718
   873.2500      0.0000    731.3997      2.9580     93.0892
   873.5000      0.0000    743.2172      3.3923    100.7460
   873.7500      0.0000    757.1448      3.8699    107.5133
   874.0000      0.0000    770.9625      4.3520    111.9920
   874.2500      0.0000    782.8123      4.7886    113.7181
   874.5000      0.0000    791.3461      5.1332    113.2762
   874.7500      0.0000    796.4045      5.3630    111.2980
   875.0000      0.0000    798.9587      5.4884    107.4475
   875.2500      0.0000    800.2421      5.5425    100.5588
   875.5000      0.0000    801.0219      5.5615     90.0837
   875.7500      0.0000    801.4620      5.5690     77.5067
   876.0000      0.0000    801.3495      5.5733     65.8492
   876.2500      0.0000    800.2573      5.5760     57.3858
   876.5000      0.0000    797.6270      5.5793     52.0486
   876.7500      0.0000    792.9304      5.5870     48.2471
   877.0000      0.0000    785.9082      5.6052     44.8349
   877.2500      0.0000    776.6733      5.6466     41.9333
   877.5000      0.0000    765.9731      5.7308     40.1229
   877.7500      0.0000    755.9481      5.8729     39.3476
   878.0000      0.0000    750.2781      6.0636     38.8170
   878.2500      0.0000    752.1982      6.2640     37.9333
   878.5000      0.0000    761.6313      6.4294     37.2544
   878.7500      0.0000    774.7397      6.5419     38.4091
   879.0000      0.0000    786.6865      6.6178     42.9517
   879.2500      0.0000    794.6198      6.6806     51.2449
   879.5000      0.0000    798.1046      6.7343     62.3375
   879.7500      0.0000    797.4234      6.7661     74.6124
   880.0000      0.0000    792.1291      6.7652     86.4085
   880.2500      0.0000    781.4782      6.7329     96.4483
   880.5000      0.0000    766.2786      6.6791    104.3612
   880.7500      0.0000    749.8002      6.6163    111.0292
   881.0000      0.0000    735.8304      6.5580    118.0317
   881.2500      0.0000    725.4243      6.5173    126.1294
   881.5000      0.0000    716.3928      6.5026    133.9981
   881.7500      0.0000    706.5949      6.5138    138.8884
   882.0000      0.0000    696.5250      6.5421    139.4136
   882.2500      0.0000    687.3634      6.5756    137.5499
   882.5000      0.0000    677.5922      6.6060    136.8950
   882.7500      0.0000    663.7405      6.6307    139.1071
   883.0000      0.0000    644.3818      6.6507    143.1962
   883.2500      0.0000    622.5682      6.6694    147.7141
   883.5000      0.0000    605.1583      6.6902    151.7401
   883.7500      0.0000    599.4698      6.7116    153.9634
   884.0000      0.0000    608.0424      6.7261    152.9304
   884.2500      0.0000    626.1420      6.7243    148.6760
   884.5000      0.0000    646.1079      6.7011    142.8354
   884.7500      0.0000    663.6938      6.6558    136.7561
   885.0000      0.0000    678.8672      6.5927    130.3466
   885.2500      0.0000    692.3232      6.5237    123.1030
   885.5000      0.0000    704.0191      6.4681    115.4615
   885.7500      0.0000    714.5142      6.4430    108.5524
   886.0000      0.0000    725.3669      6.4524    103.1443
   886.2500      0.0000    737.4419      6.4874     99.3352
   886.5000      0.0000    749.3381      6.5335     97.0184
   886.7500      0.0000    757.8558      6.5772     96.2904
   887.0000      0.0000    760.1521      6.6085     97.4398
   887.2500      0.0000    756.0626      6.6241    100.4773
   887.5000      0.0000    748.5467      6.6255    104.4273
   887.7500      0.0000    741.3810      6.6179    107.2749
   888.0000      0.0000    735.9136      6.6107    107.1553
   888.2500      0.0000    730.0512      6.6185    103.7079
   888.5000      0.0000    720.7819      6.6537     98.0915
   888.7500      0.0000    708.4747      6.7136     91.8121
   889.0000      0.0000    698.6197      6.7779     85.6696
   889.2500      0.0000    697.4891      6.8207     79.5866
   889.5000      0.0000    704.8463      6.8264     73.2823
   889.7500      0.0000    712.9341      6.7976     67.0597
   890.0000      0.0000    715.4380      6.7518     61.7156
   890.2500      0.0000    715.9943      6.7152     57.7675
   890.5000      0.0000    724.0774      6.7138     55.3038
   890.7500      0.0000    743.0189      6.7618     54.6720
   891.0000      0.0000    765.7166      6.8547     56.6489
   891.2500      0.0000    781.6860      6.9735     61.5893
   891.5000      0.0000    784.8740      7.0964     68.7481
   891.7500      0.0000    775.3105      7.2109     76.5709
   892.0000      0.0000    757.1888      7.3170     83.3765
   892.2500      0.0000    735.5505      7.4193     87.7352
   892.5000      0.0000    711.1429      7.5169     88.8506
   892.7500      0.0000    677.9492      7.6030     87.3474
   893.0000      0.0000    629.6750      7.6721     85.6023
   893.2500      0.0000    570.0234      7.7236     86.4216
   893.5000      0.0000    513.5360      7.7594     90.9718
   893.7500      0.0000    474.8407      7.7804     98.3184
   894.0000      0.0000    457.9635      7.7884    106.7541
   894.2500      0.0000    454.9505      7.7854    114.6767
   894.5000      0.0000    453.1679      7.7695    120.1872
   894.7500      0.0000    445.2373      7.7342    121.2458
   895.0000      0.0000    434.0053      7.6773    117.1479
   895.2500      0.0000    428.3760      7.6109    109.3875
   895.5000      0.0000    434.7643      7.5547    100.5538
   895.7500      0.0000    452.7107      7.5196     92.7285
   896.0000      0.0000    477.2033      7.4989     87.0100
   896.2500      0.0000    503.2506      7.4782     83.7109
   896.5000      0.0000    527.9333      7.4492     82.4673
   896.7500      0.0000    549.5338      7.4168     82.6700
   897.0000      0.0000    566.5807      7.3941     84.2437
