~Version Information
VERS.                      2.0: CWLS Log ASCII Standard - VERSION 2.0
WRAP.                       NO: One line per depth step
~Well Information Block
STRT.FT               620.0000: 
STOP.FT              3067.2500: 
STEP.FT                 0.2500: 
NULL.                -999.2500: 
COMP.          Pioneer Natural Resources: COMPANY
WELL.          Interceptor 43-13 Kv: WELL
FLD.           Purgatoire River: FIELD
LOC.           2073' FSL & 519' FEL--: LOCATION
PROV.                 Colorado: PROVINCE
CNTY.               Las Animas: COUNTRY
SRVC.                Patterson: SERVICE COMPANY
DATE.          Sat Jan 14 19:35:17 2006: LOG DATE
UWI.           05 071 08655 00: UNIQUE WELL ID
~Curve Information Block
DEPT.FT            0 000 00 00: Depth
SN.Ohm-m                      : IEL Short Normal
SP.mV                         : IEL Spontaneous Potential
DIR.Ohm-m                     : IEL Induction Resistivity
GR.GAPI                       : Gamma Ray
~Parameter Information Block
~A  Depth        SN          SP         DIR          GR     
# ...
  1591.5000     28.0393   -112.2881     17.6217     90.6528
  1591.7500     32.2722   -113.9660     19.4881     91.3385
  1592.0000     37.1726   -115.8081     21.6487     90.2923
  1592.2500     41.9881   -117.7516     23.9463     87.2682
  1592.5000     46.1072   -119.7167     26.1337     79.6782
  1592.7500     49.2956   -121.6136     27.9566     73.9173
  1593.0000     51.6926   -123.3529     29.2812     67.0811
  1593.2500     53.6054   -124.8543     30.1605     64.8505
  1593.5000     55.2621   -126.0543     30.7807     65.2020
  1593.7500     56.6648   -126.9082     31.3411     67.2360
  1594.0000     57.6043   -127.3883     31.9614     71.3885
  1594.2500     57.8078   -127.4793     32.6471     74.1005
  1594.5000     57.1000   -127.1749     33.2961     77.4435
  1594.7500     55.4717   -126.4768     33.7392     79.2185
  1595.0000     53.0707   -125.3988     33.8094     81.4886
  1595.2500     50.1821   -123.9723     33.4216     82.9282
  1595.5000     47.1888   -122.2529     32.6165     85.7471
  1595.7500     44.4690   -120.3222     31.5373     88.9588
  1596.0000     42.2661   -118.2829     30.3594     97.3874
  1596.2500     40.6217   -116.2481     29.2259    105.6230
  1596.5000     39.4098   -114.3258     28.2187    120.1624
  1596.7500     38.4377   -112.6034     27.3590    129.4560
  1597.0000     37.5463   -111.1362     26.6230    139.8261
  1597.2500     36.6605   -109.9428     25.9615    143.4581
  1597.5000     35.7776   -109.0076     25.3278    144.1748
  1597.7500     34.9278   -108.2909     24.7051    142.4067
  1598.0000     34.1506   -107.7421     24.1223    138.5794
  1598.2500     33.4930   -107.3133     23.6426    136.3953
  1598.5000     33.0006   -106.9708     23.3319    134.6160
  1598.7500     32.6885   -106.6997     23.2254    134.3104
  1599.0000     32.5210   -106.5031     23.3109    134.4254
  1599.2500     32.4272   -106.3971     23.5352    134.4090
  1599.5000     32.3475   -106.4025     23.8306    133.2516
  1599.7500     32.2756   -106.5373     24.1493    130.9763
  1600.0000     32.2712   -106.8113     24.4820    124.3406
  1600.2500     32.4417   -107.2239     24.8521    117.9186
  1600.5000     32.8966   -107.7633     25.2951    107.2271
  1600.7500     33.6889   -108.4062     25.8413    101.1368
  1601.0000     34.7663   -109.1161     26.5039     95.8962
  1601.2500     35.9583   -109.8425     27.2647     95.1363
  1601.5000     37.0152   -110.5210     28.0538     96.2316
  1601.7500     37.6846   -111.0788     28.7402     97.0004
  1602.0000     37.7930   -111.4458     29.1622     96.8192
  1602.2500     37.3058   -111.5683     29.2046     96.0902
  1602.5000     36.3486   -111.4233     28.8727     96.0869
  1602.7500     35.1638   -111.0257     28.2951     98.1284
  1603.0000     34.0006   -110.4277     27.6481    105.3721
  1603.2500     32.9950   -109.7074     27.0704    112.7085
  1603.5000     32.1258   -108.9533     26.6203    125.4742
  1603.7500     31.2753   -108.2474     26.2826    133.2119
  1604.0000     30.3436   -107.6534     26.0026    140.0374
  1604.2500     29.3309   -107.2105     25.7244    140.1808
  1604.5000     28.3437   -106.9327     25.4195    134.4177
  1604.7500     27.5381   -106.8099     25.0918    128.2608
  1605.0000     27.0430   -106.8117     24.7669    119.2395
  1605.2500     26.8921   -106.8913     24.4740    115.2221
  1605.5000     26.9951   -106.9938     24.2319    113.6769
  1605.7500     27.1760   -107.0672     24.0407    115.2384
  1606.0000     27.2646   -107.0761     23.8787    119.3412
  1606.2500     27.1783   -107.0123     23.7071    122.0240
  1606.5000     26.9390   -106.8999     23.4809    125.1131
  1606.7500     26.6229   -106.7905     23.1661    126.6470
  1607.0000     26.2917   -106.7487     22.7557    128.0074
  1607.2500     25.9568   -106.8330     22.2749    127.5730
  1607.5000     25.5878   -107.0768     21.7686    123.4772
  1607.7500     25.1481   -107.4771     21.2799    118.3434
  1608.0000     24.6318   -107.9944     20.8329    108.6982
  1608.2500     24.0805   -108.5629     20.4320    102.5959
  1608.5000     23.5660   -109.1097     20.0702     96.6892
  1608.7500     23.1502   -109.5760     19.7376     96.0377
  1609.0000     22.8486   -109.9331     19.4230    100.3383
  1609.2500     22.6222   -110.1886     19.1105    105.7691
  1609.5000     22.3990   -110.3815     18.7766    114.9324
  1609.7500     22.1109   -110.5659     18.3922    120.4452
  1610.0000     21.7250   -110.7932     17.9309    127.4971
  1610.2500     21.2548   -111.0948     17.3835    131.8816
  1610.5000     20.7485   -111.4745     16.7706    138.6091
  1610.7500     20.2609   -111.9088     16.1392    143.2225
  1611.0000     19.8281   -112.3563     15.5460    150.1181
  1611.2500     19.4547   -112.7695     15.0372    154.4087
  1611.5000     19.1174   -113.1080     14.6393    159.4234
  1611.7500     18.7801   -113.3474     14.3610    161.2005
  1612.0000     18.4133   -113.4843     14.2013    161.1958
  1612.2500     18.0133   -113.5363     14.1557    159.8817
  1612.5000     17.6176   -113.5374     14.2215    157.3277
  1612.7500     17.3108   -113.5312     14.4006    155.8442
  1613.0000     17.2146   -113.5634     14.7028    154.0928
  1613.2500     17.4590   -113.6728     15.1450    152.9107
  1613.5000     18.1392   -113.8865     15.7460    150.3396
  1613.7500     19.2775   -114.2167     16.5161    147.7414
  1614.0000     20.8205   -114.6603     17.4484    142.3426
  1614.2500     22.6945   -115.2023     18.5183    137.9712
  1614.5000     24.8791   -115.8207     19.6967    131.0986
  1614.7500     27.4162   -116.4915     20.9710    126.8426
  1615.0000     30.3211   -117.1933     22.3575    121.5628
  1615.2500     33.4770   -117.9097     23.8925    118.9337
  1615.5000     36.6250   -118.6298     25.5985    116.2707
  1615.7500     39.4684   -119.3453     27.4464    115.0249
  1616.0000     41.8002   -120.0479     29.3395    112.7286
  1616.2500     43.5614   -120.7258     31.1474    110.0391
  1616.5000     44.8149   -121.3629     32.7821    103.4389
  1616.7500     45.6777   -121.9395     34.2572     97.6399
  1617.0000     46.2653   -122.4354     35.6720     88.5151
  1617.2500     46.6634   -122.8342     37.1276     83.2007
  1617.5000     46.9224   -123.1257     38.6441     77.3947
  1617.7500     47.0638   -123.3077     40.1326     75.0377
  1618.0000     47.0944   -123.3857     41.4374     73.4336
  1618.2500     47.0176   -123.3704     42.4216     73.4369
  1618.5000     46.8371   -123.2751     43.0340     74.8497
  1618.7500     46.5618   -123.1134     43.3085     76.6076
  1619.0000     46.2200   -122.8974     43.3152     79.9606
  1619.2500     45.8634   -122.6370     43.1249     82.2332
  1619.5000     45.5432   -122.3412     42.8125     84.9965
  1619.7500     45.2760   -122.0184     42.4617     86.0999
  1620.0000     45.0349   -121.6790     42.1432     86.3877
  1620.2500     44.7718   -121.3357     41.8806     85.8062
  1620.5000     44.4484   -121.0041     41.6391     84.5658
  1620.7500     44.0528   -120.7012     41.3471     83.9987
  1621.0000     43.5989   -120.4430     40.9285     83.7664
  1621.2500     43.1194   -120.2417     40.3258     83.7033
  1621.5000     42.6593   -120.1031     39.5156     83.1203
  1621.7500     42.2700   -120.0257     38.5270     82.4426
  1622.0000     41.9954   -120.0022     37.4511     81.7593
  1622.2500     41.8528   -120.0226     36.4253     81.9251
  1622.5000     41.8208   -120.0787     35.5899     82.9136
  1622.7500     41.8520   -120.1671     35.0386     83.4602
  1623.0000     41.9039   -120.2912     34.7893     83.0484
  1623.2500     41.9629   -120.4613     34.7881     81.7294
  1623.5000     42.0406   -120.6907     34.9508     78.4791
  1623.7500     42.1541   -120.9911     35.2199     75.7281
  1624.0000     42.3110   -121.3674     35.5983     70.9768
  1624.2500     42.5077   -121.8141     36.1271     67.5262
  1624.5000     42.7346   -122.3125     36.8289     62.5829
  1624.7500     42.9826   -122.8320     37.6663     60.0891
