~Version Information
VERS.                      2.0: CWLS Log ASCII Standard - VERSION 2.0
WRAP.                       NO: One line per depth step
~Well Information Block
STRT.FT                10.0000: 
STOP.FT              1350.5000: 
STEP.FT                 0.1000: 
NULL.                -999.2500: 
COMP.          Pioneer Natural Resources: COMPANY
WELL.              Dicks 32-5R: WELL
FLD.           Purgatorie River: FIELD
LOC.           1485' FNL & 1684' FEL: LOCATION
PROV.                 Colorado: PROVINCE
CNTY.               Las Animas: COUNTRY
SRVC.                Patterson: SERVICE COMPANY
DATE.          Fri Dec 09 10:06:15 2005: LOG DATE
UWI.                          : UNIQUE WELL ID
~Curve Information Block
DEPT.FT            0 000 00 00: Depth
DCAL.in                       : CDL Caliper
RHOB.g/cc                     : CDL Bulk Density
RHOC.g/cc                     : CDL Density Correction
DPOR.pu                       : CDL Density Porosity
GR.GAPI                       : Gamma Ray
NPOR.pu                       : Neutron Porosity
~Parameter Information Block
~A  Depth       DCAL        RHOB        RHOC        DPOR         GR         NPOR    
# ...
    96.4000     -3.1029      2.2572      2.3750     -0.0079     87.7080     22.2833
    96.5000     -3.1029      2.2570      2.3621     -0.0079     90.2527     22.2959
    96.6000     -3.1029      2.2491      2.3739     -0.0080     90.5194     22.6926
    96.7000     -3.1029      2.2316      2.3354     -0.0084     88.1496     23.1395
    96.8000     -3.1029      2.2129      2.3519     -0.0087     85.4797     23.2162
    96.9000     -3.1029      2.1961      2.3177     -0.0091     85.0698     22.6488
    97.0000     -3.1029      2.1782      2.3088     -0.0094     88.0092     21.6764
    97.1000     -3.1029      2.1581      2.3034     -0.0098     93.6690     20.9801
    97.2000     -3.1029      2.1415      2.2807     -0.0102     99.3027     21.1199
    97.3000     -3.1029      2.1371      2.2790     -0.0103    100.5656     21.8263
    97.4000     -3.1029      2.1473      2.2963     -0.0101     96.1561     22.1727
    97.5000     -3.1029      2.1726      2.3059     -0.0096     89.2329     21.9309
    97.6000     -3.1029      2.2150      2.3453     -0.0087     84.5058     22.0877
    97.7000     -3.1029      2.2732      2.3580     -0.0075     84.2998     23.2503
    97.8000     -3.1029      2.3409      2.3770     -0.0062     87.2357     24.9084
    97.9000     -3.1029      2.4045      2.3996     -0.0049     89.5181     26.4362
    98.0000     -3.1029      2.4415      2.4874     -0.0042     88.5758     27.7038
    98.1000     -3.1029      2.4498      2.3821     -0.0040     86.6764     28.9324
    98.2000     -3.1029      2.4560      2.4236     -0.0039     87.6305     30.1639
    98.3000     -3.1029      2.4757      2.4302     -0.0035     90.6319     31.1652
    98.4000     -3.1029      2.5051      2.4555     -0.0029     91.7632     31.5943
    98.5000     -3.1029      2.5307      2.5075     -0.0024     90.1929     31.2356
    98.6000     -3.1029      2.5356      2.5309     -0.0023     88.8078     30.0462
    98.7000     -3.1029      2.5157      2.4829     -0.0027     89.1844     28.2566
    98.8000     -3.1029      2.4696      2.5156     -0.0036     89.9545     26.5148
    98.9000     -3.1029      2.3954      2.4291     -0.0051     89.2289     25.3114
    99.0000     -3.1029      2.3149      2.4265     -0.0067     89.3203     24.5644
    99.1000     -3.1029      2.2533      2.4249     -0.0079     93.9385     23.8759
    99.2000     -3.1029      2.2159      2.4152     -0.0087     98.9247     23.3611
    99.3000     -3.1029      2.1987      2.4584     -0.0090     99.3561     23.3347
    99.4000     -3.1029      2.1948      2.4306     -0.0091     99.1083     23.3896
    99.5000     -3.1029      2.1961      2.4684     -0.0091    101.3541     22.8960
    99.6000     -3.1029      2.1927      2.4924     -0.0092    102.7043     21.9527
    99.7000     -3.1029      2.1901      2.4006     -0.0092    100.4608     21.2335
    99.8000     -3.1029      2.2098      2.4467     -0.0088     95.3556     21.1219
    99.9000     -3.1029      2.2482      2.5001     -0.0080     90.5129     21.4641
   100.0000     -3.1029      2.2804      2.5059     -0.0074     87.0818     21.9271
   100.1000     -3.1029      2.2951      2.5108     -0.0071     83.2577     22.1108
   100.2000     -3.1029      2.2951      2.5035     -0.0071     79.2438     21.9973
   100.3000     -3.1029      2.2837      2.4964     -0.0073     78.3288     22.0188
   100.4000     -3.1029      2.2590      2.4839     -0.0078     81.0260     22.0724
   100.5000     -3.1029      2.2217      2.4113     -0.0086     83.2020     21.8861
   100.6000     -3.1029      2.1817      2.3810     -0.0094     83.7773     21.6807
   100.7000     -3.1029      2.1514      2.3293     -0.0100     85.8655     21.7800
   100.8000     -3.1029      2.1390      2.3385     -0.0102     90.5154     22.0587
   100.9000     -3.1029      2.1398      2.3482     -0.0102     95.5746     22.0823
   101.0000     -3.1029      2.1438      2.3460     -0.0101     98.2995     21.7601
   101.1000     -3.1029      2.1534      2.3628     -0.0099     96.9493     21.4845
   101.2000     -3.1029      2.1738      2.4116     -0.0095     93.1884     21.4195
   101.3000     -3.1029      2.2011      2.4288     -0.0090     91.8630     21.2992
   101.4000     -3.1029      2.2293      2.4301     -0.0084     93.3085     21.1549
   101.5000     -3.1029      2.2481      2.4911     -0.0080     92.9831     21.2043
   101.6000     -3.1029      2.2507      2.4403     -0.0080     90.8294     21.1925
   101.7000     -3.1029      2.2457      2.4763     -0.0081     90.4545     20.9932
   101.8000     -3.1029      2.2381      2.4739     -0.0082     93.0722     21.0008
   101.9000     -3.1029      2.2272      2.4394     -0.0085     96.1542     21.2703
   102.0000     -3.1029      2.2166      2.4268     -0.0087     95.2596     21.3854
   102.1000     -3.1029      2.2079      2.4496     -0.0088     91.7062     21.4306
   102.2000     -3.1029      2.2002      2.4251     -0.0090     91.9199     21.6302
   102.3000     -3.1029      2.1969      2.4163     -0.0091     95.7756     21.6480
   102.4000     -3.1029      2.2020      2.4410     -0.0090     97.5397     21.4132
   102.5000     -3.1029      2.2115      2.4751     -0.0088     94.1802     21.0630
   102.6000     -3.1029      2.2189      2.4441     -0.0086     88.8520     20.5303
   102.7000     -3.1029      2.2283      2.4315     -0.0084     86.2042     20.0353
   102.8000     -3.1029      2.2477      2.4532     -0.0081     85.5513     19.9699
   102.9000     -3.1029      2.2706      2.5175     -0.0076     85.0137     20.1699
   103.0000     -3.1029      2.2823      2.4929     -0.0074     85.2548     20.1227
   103.1000     -3.1029      2.2833      2.4574     -0.0073     85.3822     19.9693
   103.2000     -3.1029      2.2804      2.4955     -0.0074     83.9894     19.9912
   103.3000     -3.1029      2.2702      2.4804     -0.0076     82.7117     19.8480
   103.4000     -3.1029      2.2545      2.4480     -0.0079     83.4855     19.4794
   103.5000     -3.1029      2.2427      2.4482     -0.0082     84.7379     19.4375
   103.6000     -3.1029      2.2390      2.4114     -0.0082     84.5034     19.7687
   103.7000     -3.1029      2.2441      2.4474     -0.0081     84.7688     20.1269
   103.8000     -3.1029      2.2570      2.4571     -0.0079     87.3467     20.3698
   103.9000     -3.1029      2.2772      2.4359     -0.0075     90.1451     20.4686
   104.0000     -3.1029      2.3017      2.4794     -0.0070     91.0092     20.2974
   104.1000     -3.1029      2.3233      2.4766     -0.0065     90.9942     19.6794
   104.2000     -3.1029      2.3387      2.4884     -0.0062     89.3810     18.8858
   104.3000     -3.1029      2.3455      2.4919     -0.0061     85.4955     18.5361
   104.4000     -3.1029      2.3441      2.4723     -0.0061     82.3951     18.8481
   104.5000     -3.1029      2.3396      2.4877     -0.0062     81.1660     19.2545
   104.6000     -3.1029      2.3356      2.4669     -0.0063     79.8909     19.2209
   104.7000     -3.1029      2.3345      2.4584     -0.0063     78.0845     18.9547
   104.8000     -3.1029      2.3325      2.4745     -0.0064     76.8127     18.9746
   104.9000     -3.1029      2.3216      2.4652     -0.0066     76.6976     19.4626
   105.0000     -3.1029      2.3010      2.4584     -0.0070     77.0308     19.8235
   105.1000     -3.1029      2.2805      2.4338     -0.0074     78.0985     19.5774
   105.2000     -3.1029      2.2728      2.4122     -0.0075     79.6525     19.0602
   105.3000     -3.1029      2.2795      2.4510     -0.0074     79.1784     18.6569
   105.4000     -3.1029      2.2863      2.4693     -0.0073     77.3306     18.6494
   105.5000     -3.1029      2.2828      2.4457     -0.0073     77.6824     18.9595
   105.6000     -3.1029      2.2770      2.4348     -0.0075     80.7817     18.9557
   105.7000     -3.1029      2.2768      2.4558     -0.0075     85.8158     18.6038
   105.8000     -3.1029      2.2740      2.4606     -0.0075     91.8858     18.4192
   105.9000     -3.1029      2.2639      2.4465     -0.0077     94.5214     18.4773
