~Version Information
VERS.                      2.0: CWLS Log ASCII Standard - VERSION 2.0
WRAP.                       NO: One line per depth step
~Well Information Block
STRT.FT               650.0000: 
STOP.FT              2053.7000: 
STEP.FT                 0.1000: 
NULL.                -999.2500: 
COMP.          Pioneer Natural Resources: COMPANY
WELL.           Alabaster 11-8: WELL
FLD.           Purgatoire River: FIELD
LOC.           1249' FNL & 215' FWL--: LOCATION
PROV.                 Colorado: PROVINCE
CNTY.               Las Animas: COUNTRY
SRVC.                Patterson: SERVICE COMPANY
DATE.          Thu Jan 19 09:16:54 2006: LOG DATE
UWI.           05 071 08642 00: UNIQUE WELL ID
~Curve Information Block
DEPT.FT            0 000 00 00: Depth
DCAL.in                       : CDL Caliper
RHOB.g/cc                     : CDL Bulk Density
RHOC.g/cc                     : CDL Density Correction
DPOR.pu                       : CDL Density Porosity
NPOR.pu                       : Neutron Porosity
GR.GAPI                       : Gamma Ray
~Parameter Information Block
~A  Depth       DCAL        RHOB        RHOC        DPOR        NPOR         GR     
# ...
  1293.2000      8.1451      2.6786      0.1398     -1.7354     21.1426    103.4082
  1293.3000      8.1448      2.6671      0.0898     -1.0358     21.6682     97.6083
  1293.4000      8.1448      2.6415      0.0328      0.5141     21.9075     95.6411
  1293.5000      8.1430      2.6249      0.0749      1.5237     21.9985     99.1788
  1293.6000      8.1430      2.6155      0.0089      2.0900     22.5363     99.9268
  1293.7000      8.1430      2.6048      0.0605      2.7395     23.0726     94.6423
  1293.8000      8.1421      2.5976     -0.0255      3.1769     22.9300     88.5752
  1293.9000      8.1421      2.6112      0.0421      2.3540     22.4816     83.1469
  1294.0000      8.1420      2.6347      0.0653      0.9278     22.2688     77.9526
  1294.1000      8.1420      2.6401      0.0510      0.5989     22.2763     77.0377
  1294.2000      8.1420      2.6261      0.0061      1.4492     22.3336     82.6771
  1294.3000      8.1428      2.6048      0.0413      2.7374     22.4471     90.6984
  1294.4000      8.1428      2.5831     -0.0160      4.0566     22.4060     94.0036
  1294.5000      8.1435      2.5687      0.0191      4.9299     22.1074     91.8897
  1294.6000      8.1435      2.5631     -0.0046      5.2686     21.9359     92.1825
  1294.7000      8.1435      2.5650      0.0077      5.1518     21.9269     97.9421
  1294.8000      8.1435      2.5733      0.0147      4.6500     21.7349    104.2237
  1294.9000      8.1435      2.5812      0.0180      4.1681     21.4408    105.9954
  1295.0000      8.1419      2.5825     -0.0045      4.0920     21.4569    102.3190
  1295.1000      8.1419      2.5796     -0.0022      4.2658     21.6193     97.2473
  1295.2000      8.1419      2.5796      0.0078      4.2694     21.2581     94.2071
  1295.3000      8.1404      2.5889     -0.0078      3.7048     20.5170     97.6638
  1295.4000      8.1404      2.6055      0.0813      2.6956     20.0368    109.7763
  1295.5000      8.1410      2.6175      0.0533      1.9681     19.9266    119.7899
  1295.6000      8.1410      2.6259      0.0177      1.4624     20.0034    116.8772
  1295.7000      8.1410      2.6344      0.0654      0.9432     20.1874    108.4424
  1295.8000      8.1421      2.6378      0.0453      0.7416     20.4881    106.7462
  1295.9000      8.1421      2.6382      0.0431      0.7165     20.7841    109.8534
  1296.0000      8.1433      2.6384      0.0342      0.7009     21.1373    110.9124
  1296.1000      8.1433      2.6323      0.0192      1.0748     21.8518    108.5507
  1296.2000      8.1433      2.6181      0.0322      1.9305     22.7040    102.4078
  1296.3000      8.1432      2.6046      0.0020      2.7502     23.1953     94.9384
  1296.4000      8.1432      2.6028     -0.0208      2.8585     23.4482     91.4616
  1296.5000      8.1428      2.6177     -0.0202      1.9556     23.6587     92.2223
  1296.6000      8.1428      2.6368      0.0365      0.7987     23.7057     92.8253
  1296.7000      8.1428      2.6422      0.0457      0.4699     23.9438     91.0318
  1296.8000      8.1436      2.6354      0.0046      0.8847     24.8014     88.2868
  1296.9000      8.1436      2.6263      0.0502      1.4339     25.8792     88.7025
  1297.0000      8.1440      2.6192      0.0042      1.8647     26.5768     93.2876
  1297.1000      8.1440      2.6125      0.0327      2.2721     26.9821     97.0716
  1297.2000      8.1440      2.5977     -0.0199      3.1715     27.2439     98.9093
  1297.3000      8.1447      2.5801     -0.0052      4.2354     27.3291    103.0381
  1297.4000      8.1447      2.5706     -0.0026      4.8107     27.3455    110.7106
  1297.5000      8.1459      2.5681      0.0011      4.9659     27.3489    120.6386
  1297.6000      8.1459      2.5645      0.0365      5.1821     27.2956    130.1086
  1297.7000      8.1459      2.5522      0.0272      5.9270     27.0638    135.8733
  1297.8000      8.1495      2.5317      0.0438      7.1694     26.4913    139.2395
  1297.9000      8.1495      2.5095      0.0045      8.5149     25.7812    146.0885
  1298.0000      8.1584      2.4980      0.0307      9.2131     25.2696    155.6421
  1298.1000      8.1584      2.5065      0.0218      8.6985     25.0523    162.4634
  1298.2000      8.1584      2.5360      0.0172      6.9110     24.9586    167.4796
  1298.3000      8.1687      2.5850      0.0745      3.9416     24.6919    168.5502
  1298.4000      8.1687      2.6424      0.1184      0.4601     24.3359    159.8791
  1298.5000      8.1740      2.6902      0.1187     -2.4349     24.1496    148.8070
  1298.6000      8.1740      2.7198      0.1384     -4.2310     24.0781    145.6557
  1298.7000      8.1740      2.7307      0.1545     -4.8910     24.1357    145.8187
  1298.8000      8.1778      2.7170      0.1228     -4.0625     24.6138    140.6870
  1298.9000      8.1778      2.6813      0.0703     -1.8993     25.6114    133.9958
  1299.0000      8.1806      2.6512      0.0223     -0.0725     26.5983    134.4016
  1299.1000      8.1806      2.6467      0.0958      0.2018     27.2215    139.4025
  1299.2000      8.1806      2.6457      0.0895      0.2619     27.7756    141.7931
  1299.3000      8.1793      2.6252      0.0173      1.5030     27.9352    140.7034
  1299.4000      8.1793      2.6011     -0.0396      2.9639     27.4444    138.4006
  1299.5000      8.1759      2.5951      0.0087      3.3247     27.1479    137.2033
  1299.6000      8.1759      2.6015     -0.0365      2.9374     27.4057    137.0631
  1299.7000      8.1759      2.5990      0.0372      3.0897     27.4266    135.1320
  1299.8000      8.1751      2.5857     -0.0066      3.8958     26.8285    129.3322
  1299.9000      8.1751      2.5850      0.0032      3.9390     26.1279    123.9427
  1300.0000      8.1766      2.6057      0.0317      2.6856     25.6655    122.7473
  1300.1000      8.1766      2.6263      0.0308      1.4351     25.5009    123.3315
  1300.2000      8.1766      2.6231      0.0433      1.6281     25.6213    123.2523
  1300.3000      8.1766      2.6015      0.0149      2.9417     25.7521    123.9958
  1300.4000      8.1766      2.5838     -0.0091      4.0104     25.6233    125.8520
  1300.5000      8.1730      2.5740      0.0227      4.6060     25.1403    127.2151
  1300.6000      8.1730      2.5528      0.0337      5.8903     24.5391    130.8648
  1300.7000      8.1730      2.5082     -0.0025      8.5932     24.1402    137.9626
  1300.8000      8.1700      2.4678     -0.0656     11.0438     23.8117    144.6872
  1300.9000      8.1700      2.4660     -0.0238     11.1527     23.4816    153.1029
  1301.0000      8.1708      2.4921     -0.0105      9.5697     23.3140    167.2611
  1301.1000      8.1708      2.5279     -0.0472      7.4000     23.2801    177.9839
  1301.2000      8.1708      2.5762      0.0162      4.4699     23.3254    176.7620
  1301.3000      8.1738      2.6243      0.0809      1.5593     23.3016    170.6116
  1301.4000      8.1738      2.6423      0.1268      0.4682     23.2806    167.5664
  1301.5000      8.1757      2.6206      0.0947      1.7789     23.6744    164.4695
  1301.6000      8.1757      2.5796      0.0498      4.2679     24.3017    155.9411
  1301.7000      8.1757      2.5490      0.0331      6.1194     24.6140    147.5692
  1301.8000      8.1750      2.5428      0.0314      6.4961     24.7039    146.8681
  1301.9000      8.1750      2.5486      0.0796      6.1483     24.9184    150.2643
  1302.0000      8.1763      2.5551      0.0017      5.7519     25.3325    151.4909
  1302.1000      8.1763      2.5761     -0.0179      4.4769     25.8895    152.4918
  1302.2000      8.1763      2.6153      0.0692      2.1045     26.3580    156.7660
  1302.3000      8.1780      2.6422      0.0800      0.4721     26.5339    160.4840
  1302.4000      8.1780      2.6395      0.0402      0.6369     26.6225    157.7628
  1302.5000      8.1766      2.6278      0.0101      1.3463     26.9938    148.0190
  1302.6000      8.1766      2.6219      0.0668      1.7022     27.4859    135.9593
  1302.7000      8.1766      2.6155      0.0435      2.0925     27.6781    128.0826
