~Version Information
VERS.                      2.0: CWLS Log ASCII Standard - VERSION 2.0
WRAP.                       NO: One line per depth step
~Well Information Block
STRT.FT                 0.0000: 
STOP.FT               683.5000: 
STEP.FT                 0.2500: 
NULL.                -999.2500: 
COMP.          Pioneer Natural Resources: COMPANY
WELL.           Belvedere 14-7: WELL
FLD.           Purgatorie River: FIELD
LOC.           786' FSL & 1283' FWL: LOCATION
PROV.                 Colorado: PROVINCE
CNTY.               Las Animas: COUNTRY
SRVC.                Patterson: SERVICE COMPANY
DATE.          Fri Dec 02 12:52:31 2005: LOG DATE
UWI.           05-071-08557               : UNIQUE WELL ID
~Curve Information Block
DEPT.FT            0 000 00 00: Depth
CCL.                          : Casing Collar Locator
TT3.usec                      : CBL 3' Travel Time
AMP3.mV                       : CBL 3' Amplitude
GR.GAPI                       : Gamma Ray
~Parameter Information Block
~A  Depth       CCL         TT3         AMP3         GR     
     0.0000   -999.2500   1197.0000     -0.0283     44.9372
     0.2500   -999.2500   1197.0000     -0.0033     42.9823
     0.5000   -999.2500   1197.0000     -0.0284     42.9755
     0.7500   -999.2500   1197.0000     -0.0502     42.5704
     1.0000   -999.2500   1197.0000     -0.0688     40.7216
     1.2500   -999.2500   1197.0000     -0.0779     37.8161
     1.5000   -999.2500   1197.0000     -0.0694     34.7497
     1.7500   -999.2500   1197.0000     -0.0450     32.3915
     2.0000   -999.2500   1197.0000     -0.0136     31.3221
     2.2500   -999.2500   1197.0000      0.0103     31.5693
     2.5000      0.0000   1197.0000      0.0304     32.6364
     2.7500      0.0000   1197.0000      0.0574     34.0975
     3.0000      0.0000   1197.0000      0.0704     36.1834
     3.2500      0.0000   1197.0000      0.0459     39.5506
     3.5000      0.0000   1197.0000     -0.0021     44.4329
     3.7500      0.0000   1197.0000     -0.0470     50.2027
     4.0000      0.0000   1197.0000     -0.0840     55.7996
     4.2500      0.0000   1197.0000     -0.1164     60.3457
     4.5000      0.0000   1197.0000     -0.1314     63.4109
     4.7500      0.0000   1197.0000     -0.1153     65.2190
     5.0000      0.0000   1197.0000     -0.0811     66.7076
     5.2500      0.0000   1197.0000     -0.0712     68.7502
     5.5000      0.0000   1197.0000     -0.1059     71.0035
     5.7500      0.0000   1196.9658     -0.1430     71.9480
     6.0000      0.0000   1196.5225     -0.1097     70.4113
     6.2500      0.0000   1193.0424      0.1034     66.8670
     6.5000      0.0000   1175.0432      0.9351     63.0372
     6.7500      0.0000   1113.2091      4.0152     60.3829
     7.0000      0.0000    971.0381     12.7265     59.2132
     7.2500      0.0000    751.1796     29.4163     58.9969
     7.5000      0.0000    522.3433     50.3488     59.0046
     7.7500      0.0000    362.6528     67.4475     58.6339
     8.0000      0.0000    288.4785     76.6454     57.7586
     8.2500      0.0000    265.7513     80.0593     57.0315
     8.5000      0.0000    261.2048     81.1165     57.3949
     8.7500      0.0000    260.6238     81.5810     59.0459
     9.0000      0.0000    260.5844     81.9427     61.2921
     9.2500      0.0000    260.5867     82.2771     63.5608
     9.5000      0.0000    260.5884     82.6007     65.8130
     9.7500      0.0000    260.5934     82.9378     67.6129
    10.0000      0.0000    260.5956     83.2523     67.7082
    10.2500      0.0000    260.5888     83.4465     65.2653
    10.5000      0.0000    260.5764     83.5190     60.9500
    10.7500      0.0000    260.5697     83.5824     56.2201
    11.0000      0.0000    260.5758     83.7084     51.9996
    11.2500      0.0000    260.5906     83.8930     48.4787
    11.5000      0.0000    260.6080     84.1333     45.7945
    11.7500      0.0000    260.6261     84.4143     44.3528
    12.0000      0.0000    260.6436     84.6520     44.6319
    12.2500      0.0000    260.6556     84.7746     46.9915
    12.5000      0.0000    260.6578     84.8096     51.5839
    12.7500      0.0000    260.6549     84.8210     58.2369
    13.0000      0.0000    260.6560     84.8451     66.3218
    13.2500      0.0000    260.6624     84.9032     74.5397
    13.5000      0.0000    260.6684     84.9868     80.9561
    13.7500      0.0000    260.6701     85.0576     83.9754
    14.0000      0.0000    260.6651     85.1006     83.7425
    14.2500      0.0000    260.6514     85.1310     82.2433
    14.5000      0.0000    260.6316     85.1753     81.6499
    14.7500      0.0000    260.6130     85.2546     82.7003
    15.0000      0.0000    260.6028     85.3608     84.6676
    15.2500      0.0000    260.6129     85.4738     86.4244
    15.5000      0.0000    260.6606     85.5847     87.2008
    15.7500      0.0000    260.7362     85.6782     86.5364
    16.0000      0.0000    260.7849     85.7448     84.0744
    16.2500      0.0000    260.7700     85.8127     79.9484
    16.5000      0.0000    260.7251     85.9089     75.4107
    16.7500      0.0000    260.6974     86.0216     72.4640
    17.0000      0.0000    260.6947     86.1378     72.2967
    17.2500      0.0000    260.7120     86.2602     74.1384
    17.5000      0.0000    260.7547     86.3563     75.9436
    17.7500      0.0000    260.8095     86.3894     76.1327
    18.0000      0.0000    260.8270     86.4071     74.5325
    18.2500      0.0000    260.7796     86.4811     71.9286
    18.5000      0.0000    260.7070     86.5882     69.1669
    18.7500      0.0000    260.6566     86.6598     66.7196
    19.0000      0.0000    260.6312     86.6870     64.7213
    19.2500      0.0000    260.6122     86.6544     63.1107
    19.5000      0.0000    260.5865     86.3443     61.6991
    19.7500      0.0000    260.5532     85.2981     60.2851
    20.0000      0.0000    260.5275     83.0810     58.8399
    20.2500      0.0000    260.5403     79.5371     57.5313
    20.5000      0.0000    260.6430     74.7544     56.4857
    20.7500      0.0000    260.9162     68.9889     55.5763
    21.0000      0.0000    261.5880     62.7094     54.5249
    21.2500      0.0000    263.4619     56.4316     53.1819
    21.5000      0.0000    268.1963     50.3842     51.7255
    21.7500      0.0000    276.9278     44.5428     50.7050
    22.0000      0.0000    288.0963     38.9684     50.8334
    22.2500      0.0000    300.1651     33.8653     52.4939
    22.5000      0.0000    320.6254     29.3671     55.3293
    22.7500      0.0000    369.7974     25.5086     58.4034
    23.0000      0.0000    462.1331     22.3222     60.8224
    23.2500      0.0000    576.5843     19.8249     62.2030
    23.5000      0.0000    667.9554     17.9939     62.6493
    23.7500      0.0000    714.7549     16.7598     62.4831
    24.0000      0.0000    730.1184     15.9897     61.9684
    24.2500      0.0000    733.2908     15.5123     61.0291
    24.5000      0.0000    733.5191     15.1727     59.1931
    24.7500      0.0000    733.2021     14.8865     56.0840
    25.0000      0.0000    732.7878     14.6537     52.0984
    25.2500      0.0000    732.4241     14.5088     48.4252
    25.5000      0.0000    732.1980     14.4464     46.2652
    25.7500      0.0000    732.1169     14.3853     46.0353
    26.0000      0.0000    732.0872     14.2341     47.3230
    26.2500      0.0000    731.9969     14.0073     49.5199
    26.5000      0.0000    731.8367     13.8141     52.3449
    26.7500      0.0000    731.6825     13.7354     55.6331
    27.0000      0.0000    731.5815     13.7564     58.7718
    27.2500      0.0000    731.5252     13.8084     60.7023
    27.5000      0.0000    731.4958     13.8422     60.6804
    27.7500      0.0000    731.4765     13.8679     58.9710
    28.0000      0.0000    731.4245     13.9443     56.6923
    28.2500      0.0000    731.0673     14.1157     54.9219
    28.5000      0.0000    728.5106     14.3323     54.0571
    28.7500      0.0000    716.4109     14.4756     54.1517
    29.0000      0.0000    680.9699     14.5089     55.6348
    29.2500      0.0000    619.2036     14.5306     59.2289
    29.5000      0.0000    564.4599     14.6257     64.9527
    29.7500      0.0000    564.2260     14.7445     71.3532
    30.0000      0.0000    618.4859     14.7630     76.0754
    30.2500      0.0000    679.8463     14.6291     77.5328
    30.5000      0.0000    715.1232     14.4263     76.0947
    30.7500      0.0000    727.2872     14.2860     73.5862
    31.0000      0.0000    729.9914     14.2527     71.7668
    31.2500      0.0000    730.4724     14.2488     71.3121
    31.5000      0.0000    730.5768     14.1506     71.8378
    31.7500      0.0000    730.5610     13.8999     72.4210
    32.0000      0.0000    730.5295     13.5599     72.2236
    32.2500      0.0000    730.6053     13.2732     71.0253
    32.5000      0.0000    730.7848     13.1404     69.2751
    32.7500      0.0000    730.8832     13.1214     67.5552
    33.0000      0.0000    730.7419     13.0586     66.0852
    33.2500      0.0000    730.4284     12.8292     64.7455
