~Version Information
VERS.                      2.0: CWLS Log ASCII Standard - VERSION 2.0
WRAP.                       NO: One line per depth step
~Well Information Block
STRT.FT               505.0000: 
STOP.FT               772.0000: 
STEP.FT                 0.2500: 
NULL.                -999.2500: 
COMP.          Pioneer Natural Resources: COMPANY
WELL.                Zed 11-23: WELL
FLD.           Purgatoire River: FIELD
LOC.           641' FNL & 952' FWL: LOCATION
CNTY.               Las Animas: COUNTY
SRVC.                Patterson: SERVICE COMPANY
DATE.          Sun Feb 26 18:39:19 2006: LOG DATE
UWI.           05 071 08702 00: UNIQUE WELL ID
STAT.                 Colorado: STATE
~Curve Information Block
DEPT.FT            0 000 00 00: Depth
SN.Ohm-m                      : IEL Short Normal
SP.mV                         : IEL Spontaneous Potential
DIR.Ohm-m                     : IEL Induction Resistivity
GR.GAPI                       : Gamma Ray
~Parameter Information Block
~A  Depth        SN          SP         DIR          GR     
# ...
   538.5000   2000.0000   2000.0000     30.5912     56.0880
   538.7500   2000.0000   2000.0000     31.1690     56.9542
   539.0000   2000.0000   2000.0000     31.3913     58.2133
   539.2500   2000.0000   2000.0000     31.1737     59.0127
   539.5000   2000.0000   2000.0000     30.5936     59.8207
   539.7500   2000.0000   2000.0000     29.7837     59.9659
   540.0000   2000.0000   2000.0000     28.8468     59.7192
   540.2500   2000.0000   2000.0000     27.8575     59.4477
   540.5000   2000.0000   2000.0000     26.8966     59.3313
   540.7500   2000.0000   2000.0000     26.0573     59.9195
   541.0000   2000.0000   2000.0000     25.4181     63.2055
   541.2500   2000.0000   2000.0000     25.0210     67.8105
   541.5000   2000.0000   2000.0000     24.8701     78.0938
   541.7500   2000.0000   2000.0000     24.9422     85.5799
   542.0000   2000.0000   2000.0000     25.1934     93.6303
   542.2500   2000.0000   2000.0000     25.5606     95.0177
   542.5000   2000.0000   2000.0000     25.9663     90.4439
   542.7500   2000.0000   2000.0000     26.3321     83.8965
   543.0000   2000.0000   2000.0000     26.5964     71.5073
   543.2500   2000.0000   2000.0000     26.7266     63.1194
   543.5000   2000.0000   2000.0000     26.7234     52.5702
   543.7500   2000.0000   2000.0000     26.6200     47.9470
   544.0000   2000.0000   2000.0000     26.4730     46.2624
   544.2500   2000.0000   2000.0000     26.3379     49.3746
   544.5000   2000.0000   2000.0000     26.2392     60.3436
   544.7500   2000.0000   2000.0000     26.1572     70.5463
   545.0000   2000.0000   2000.0000     26.0451     86.0656
   545.2500   2000.0000   2000.0000     25.8673     94.0658
   545.5000   2000.0000   2000.0000     25.6215    100.3440
   545.7500   2000.0000   2000.0000     25.3267    101.1383
   546.0000   2000.0000   2000.0000     24.9936     99.9338
   546.2500   2000.0000   2000.0000     24.6140     99.1377
   546.5000   2000.0000   2000.0000     24.1760     99.2488
   546.7500   2000.0000   2000.0000     23.6798    100.1187
   547.0000   2000.0000   2000.0000     23.1338    102.0168
   547.2500   2000.0000   2000.0000     22.5367    103.3315
   547.5000   2000.0000   2000.0000     21.8751    104.4409
   547.7500   2000.0000   2000.0000     21.1437    103.6917
   548.0000   2000.0000   2000.0000     20.3715     98.7471
   548.2500   2000.0000   2000.0000     19.6221     92.6307
   548.5000   2000.0000   2000.0000     18.9666     80.7398
   548.7500   2000.0000   2000.0000     18.4530     72.8806
   549.0000   2000.0000   2000.0000     18.0961     64.6774
   549.2500   2000.0000   2000.0000     17.8860     62.8290
   549.5000   2000.0000   2000.0000     17.8006     65.4157
   549.7500   2000.0000   2000.0000     17.8092     69.7507
   550.0000   2000.0000   2000.0000     17.8682     78.1325
   550.2500   2000.0000   2000.0000     17.9203     83.8813
   550.5000   2000.0000   2000.0000     17.9038     90.9455
   550.7500   2000.0000   2000.0000     17.7740     93.5749
   551.0000   2000.0000   2000.0000     17.5238     93.2762
   551.2500   2000.0000   2000.0000     17.1840     90.5978
   551.5000   2000.0000   2000.0000     16.8031     85.5752
   551.7500   2000.0000   2000.0000     16.4220     83.6681
   552.0000   2000.0000   2000.0000     16.0628     85.3408
   552.2500   2000.0000   2000.0000     15.7342     89.5188
   552.5000   2000.0000   2000.0000     15.4403     98.5069
   552.7500   2000.0000   2000.0000     15.1835    104.6270
   553.0000   2000.0000   2000.0000     14.9598    111.1188
   553.2500   2000.0000   2000.0000     14.7567    112.6235
   553.5000   2000.0000   2000.0000     14.5583    110.9504
   553.7500   2000.0000   2000.0000     14.3535    108.5814
   554.0000   2000.0000   2000.0000     14.1423    106.2076
   554.2500   2000.0000   2000.0000     13.9351    106.5672
   554.5000   2000.0000   2000.0000     13.7476    109.7709
   554.7500   2000.0000   2000.0000     13.5949    112.5867
   555.0000   2000.0000   2000.0000     13.4888    116.1404
   555.2500   2000.0000   2000.0000     13.4378    117.8249
   555.5000   2000.0000   2000.0000     13.4498    119.8017
   555.7500   2000.0000   2000.0000     13.5324    120.9119
   556.0000   2000.0000   2000.0000     13.6904    121.8088
   556.2500   2000.0000   2000.0000     13.9202    121.4409
   556.5000   2000.0000   2000.0000     14.2047    119.0622
   556.7500   2000.0000   2000.0000     14.5127    116.4139
   557.0000   2000.0000   2000.0000     14.8053    111.3049
   557.2500   2000.0000   2000.0000     15.0519    107.1246
   557.5000   2000.0000   2000.0000     15.2454     99.0807
   557.7500   2000.0000   2000.0000     15.4082     92.4329
   558.0000   2000.0000   2000.0000     15.5790     82.1715
   558.2500   2000.0000   2000.0000     15.7900     77.0655
   558.5000   2000.0000   2000.0000     16.0476     74.7848
   558.7500   2000.0000   2000.0000     16.3274     76.9001
   559.0000   2000.0000   2000.0000     16.5879     82.7779
   559.2500   2000.0000   2000.0000     16.7903     86.4006
   559.5000   2000.0000   2000.0000     16.9105     89.3532
   559.7500   2000.0000   2000.0000     16.9330     89.8349
   560.0000   2000.0000   2000.0000     16.8439     89.9854
   560.2500   2000.0000   2000.0000     16.6369     90.6406
   560.5000   2000.0000   2000.0000     16.3291     93.0868
   560.7500   2000.0000   2000.0000     15.9655     95.5865
   561.0000   2000.0000   2000.0000     15.6026    100.2118
   561.2500   2000.0000   2000.0000     15.2858    103.5193
   561.5000   2000.0000   2000.0000     15.0365    107.8626
   561.7500   2000.0000   2000.0000     14.8508    109.8098
   562.0000   2000.0000   2000.0000     14.7075    110.9894
   562.2500   2000.0000   2000.0000     14.5772    110.6993
   562.5000   2000.0000   2000.0000     14.4326    108.8981
   562.7500   2000.0000   2000.0000     14.2591    107.0883
   563.0000   2000.0000   2000.0000     14.0624    104.4431
   563.2500   2000.0000   2000.0000     13.8658    103.2997
   563.5000   2000.0000   2000.0000     13.6971    102.8157
   563.7500   2000.0000   2000.0000     13.5766    103.1046
   564.0000   2000.0000   2000.0000     13.5105    103.9837
   564.2500   2000.0000   2000.0000     13.4950    104.6605
   564.5000   2000.0000   2000.0000     13.5221    105.5153
   564.7500   2000.0000   2000.0000     13.5853    105.8767
   565.0000   2000.0000   2000.0000     13.6793    106.1877
   565.2500   2000.0000   2000.0000     13.7973    106.3810
   565.5000   2000.0000   2000.0000     13.9272    106.9260
   565.7500   2000.0000   2000.0000     14.0542    107.5760
   566.0000   2000.0000   2000.0000     14.1693    108.8305
   566.2500   2000.0000   2000.0000     14.2753    109.6415
   566.5000   2000.0000   2000.0000     14.3835    111.0160
   566.7500   2000.0000   2000.0000     14.5039    112.6543
   567.0000   2000.0000   2000.0000     14.6376    117.0744
   567.2500   2000.0000   2000.0000     14.7791    120.9438
   567.5000   2000.0000   2000.0000     14.9225    125.9092
   567.7500   2000.0000   2000.0000     15.0645    127.3473
   568.0000   2000.0000   2000.0000     15.2031    126.0381
   568.2500   2000.0000   2000.0000     15.3366    123.4620
   568.5000   2000.0000   2000.0000     15.4669    118.8391
   568.7500   2000.0000   2000.0000     15.6020    116.1652
   569.0000   2000.0000   2000.0000     15.7526    113.3150
   569.2500   2000.0000   2000.0000     15.9260    111.8589
   569.5000   2000.0000   2000.0000     16.1205    109.6194
   569.7500   2000.0000   2000.0000     16.3258    108.2038
   570.0000   2000.0000   2000.0000     16.5272    107.1665
   570.2500   2000.0000   2000.0000     16.7104    107.5160
   570.5000   2000.0000   2000.0000     16.8654    108.7834
   570.7500   2000.0000   2000.0000     16.9886    109.0014
   571.0000   2000.0000   2000.0000     17.0844    106.6413
   571.2500   2000.0000   2000.0000     17.1674    103.2170
   571.5000   2000.0000   2000.0000     17.2644     97.2370
   571.7500   2000.0000   2000.0000     17.4096     94.0938
