~Version Information
VERS.                      2.0: CWLS Log ASCII Standard - VERSION 2.0
WRAP.                       NO: One line per depth step
~Well Information Block
STRT.FT               410.0000: 
STOP.FT              1530.5000: 
STEP.FT                 0.1000: 
NULL.                -999.2500: 
COMP.          Pioneer Natural Resources: COMPANY
WELL.          Pioneer 34-27 Tr: WELL
FLD.           Purgatoire River: FIELD
LOC.           243' FSL & 1593' FEL: LOCATION
STAT.                 Colorado: State
CNTY.               Las Animas: COUNTY
CTRY. USA : Country
SECT. 27 : Section
TOWN. 32S : Township
RANG. 67W : Range 
SRVC.                Patterson: SERVICE COMPANY
DATE.          Fri Oct 07 07:11:38 2005: LOG DATE
API.           05 071 08548 00: UNIQUE WELL ID
~Curve Information Block
DEPT.FT            0 000 00 00: Depth
DCAL.in                       : CDL Caliper
RHOB.g/cc                     : CDL Bulk Density
RHOC.g/cc                     : CDL Density Correction
DPOR.pu                       : CDL Density Porosity
GR.GAPI                       : Gamma Ray
NPOR.pu                       : Neutron Porosity
~Parameter Information Block
~A  Depth       DCAL        RHOB        RHOC        DPOR         GR         NPOR    
# ...
  1514.0000      7.9620      2.5934      0.1103      3.4285   -999.2500     26.5637
  1514.1000      7.9620      2.6545      0.1098     -0.2710   -999.2500     27.5881
  1514.2000      7.9620      2.7294      0.1296     -4.8092   -999.2500     28.2074
  1514.3000      7.9188      2.7947      0.2424     -8.7726   -999.2500     27.6009
  1514.4000      7.9188      2.8180      0.2801    -10.1844   -999.2500     26.1277
  1514.5000      7.9073      2.7965      0.2280     -8.8768   -999.2500     25.2371
  1514.6000      7.9073      2.7600      0.1690     -6.6645   -999.2500     25.6438
  1514.7000      7.9073      2.7202      0.1289     -4.2553   -999.2500     26.5525
  1514.8000      7.9045      2.6637      0.0468     -0.8288   -999.2500     26.8933
  1514.9000      7.9045      2.5954     -0.0582      3.3120   -999.2500     26.4310
  1515.0000      7.9064      2.5341     -0.0556      7.0241   -999.2500     25.8992
  1515.1000      7.9064      2.4920     -0.0529      9.5738   -999.2500     26.4105
  1515.2000      7.9064      2.4861     -0.0972      9.9313   -999.2500     27.7699
  1515.3000      7.9615      2.5222      0.0442      7.7477   -999.2500     28.4285
  1515.4000      7.9615      2.5681      0.1086      4.9627   -999.2500     27.8035
  1515.5000      8.0310      2.5968      0.0612      3.2258   -999.2500     27.0071
  1515.6000      8.0310      2.6119      0.0988      2.3096   -999.2500     28.3050
  1515.7000      8.0310      2.6196      0.1094      1.8422   -999.2500     34.0993
  1515.8000      7.9788      2.6212      0.1266      1.7454   -999.2500     42.6493
  1515.9000      7.9788      2.6124      0.1113      2.2767   -999.2500     48.5362
  1516.0000      7.9742      2.5942      0.0562      3.3823   -999.2500     50.6314
  1516.1000      7.9742      2.5809      0.0437      4.1850   -999.2500     51.0400
  1516.2000      7.9742      2.5866      0.0189      3.8411   -999.2500     51.0831
  1516.3000      7.9507      2.6060      0.0995      2.6690   -999.2500     51.0856
  1516.4000      7.9507      2.6230      0.0757      1.6368   -999.2500   -999.2500
  1516.5000      7.9646      2.6395      0.0844      0.6349   -999.2500   -999.2500
  1516.6000      7.9646      2.6529      0.1715     -0.1782   -999.2500   -999.2500
  1516.7000      7.9646      2.6441      0.0869      0.3606   -999.2500   -999.2500
  1516.8000      7.9726      2.6193      0.0549      1.8593   -999.2500   -999.2500
  1516.9000      7.9726      2.5981      0.0776      3.1476   -999.2500   -999.2500
  1517.0000      7.9319      2.5722      0.0845      4.7157   -999.2500   -999.2500
  1517.1000      7.9319      2.5291      0.0529      7.3264   -999.2500   -999.2500
  1517.2000      7.9319      2.4868     -0.0180      9.8895   -999.2500   -999.2500
  1517.3000      7.9335      2.4667     -0.0270     11.1101   -999.2500   -999.2500
  1517.4000      7.9335      2.4585      0.0364     11.6064   -999.2500   -999.2500
  1517.5000      7.9403      2.4517      0.0085     12.0207   -999.2500   -999.2500
  1517.6000      7.9403      2.4611     -0.0205     11.4490   -999.2500   -999.2500
  1517.7000      7.9403      2.4898      0.0579      9.7121   -999.2500   -999.2500
  1517.8000      7.9465      2.5155      0.1011      8.1521   -999.2500   -999.2500
  1517.9000      7.9465      2.5338      0.0279      7.0426   -999.2500   -999.2500
  1518.0000      7.9948      2.5562      0.0905      5.6857   -999.2500   -999.2500
  1518.1000      7.9948      2.5775      0.0916      4.3941   -999.2500   -999.2500
  1518.2000      7.9948      2.5902      0.1418      3.6266   -999.2500   -999.2500
  1518.3000      7.9809      2.5923      0.1573      3.4940   -999.2500   -999.2500
  1518.4000      7.9809      2.5827      0.1377      4.0769   -999.2500   -999.2500
  1518.5000      7.9192      2.5670      0.1225      5.0299   -999.2500   -999.2500
  1518.6000      7.9192      2.5537      0.0978      5.8382   -999.2500   -999.2500
  1518.7000      7.9192      2.5383      0.1332      6.7707   -999.2500   -999.2500
  1518.8000      7.9088      2.5065      0.1033      8.6940   -999.2500   -999.2500
  1518.9000      7.9088      2.4625      0.0440     11.3641   -999.2500   -999.2500
  1519.0000      7.9444      2.4160      0.0514     14.1840   -999.2500   -999.2500
  1519.1000      7.9444      2.3517      0.0726     18.0785   -999.2500   -999.2500
  1519.2000      7.9444      2.2624      0.0015     23.4936   -999.2500   -999.2500
  1519.3000      7.9894      2.1707     -0.0095     29.0483   -999.2500   -999.2500
  1519.4000      7.9894      2.0986      0.0263     33.4208   -999.2500   -999.2500
  1519.5000      7.9904      2.0581      0.0219     35.8744   -999.2500   -999.2500
  1519.6000      7.9904      2.0619      0.0333     35.6444   -999.2500   -999.2500
  1519.7000      7.9904      2.1082      0.1072     32.8385   -999.2500   -999.2500
  1519.8000      7.9260      2.1731      0.2150     28.9007   -999.2500   -999.2500
  1519.9000      7.9260      2.2384      0.2393     24.9425   -999.2500   -999.2500
  1520.0000      7.8844      2.3096      0.2158     20.6329   -999.2500   -999.2500
  1520.1000      7.8844      2.3807      0.3184     16.3231   -999.2500   -999.2500
  1520.2000      7.8844      2.4294      0.2661     13.3686   -999.2500   -999.2500
  1520.3000      7.8825      2.4659      0.1606     11.1551   -999.2500   -999.2500
  1520.4000      7.8825      2.5043      0.1538      8.8280   -999.2500   -999.2500
  1520.5000      7.9376      2.5269      0.0508      7.4629   -999.2500   -999.2500
  1520.6000      7.9376      2.5315     -0.0058      7.1802   -999.2500   -999.2500
  1520.7000      7.9376      2.5403      0.0411      6.6459   -999.2500   -999.2500
  1520.8000      7.9901      2.5600      0.0608      5.4529   -999.2500   -999.2500
  1520.9000      7.9901      2.5783      0.0783      4.3447   -999.2500   -999.2500
  1521.0000      8.0359      2.5878      0.0177      3.7726   -999.2500   -999.2500
  1521.1000      8.0359      2.5912      0.0694      3.5639   -999.2500   -999.2500
  1521.2000      8.0359      2.5915      0.0394      3.5466   -999.2500   -999.2500
  1521.3000      8.0441      2.5905      0.0653      3.6040   -999.2500   -999.2500
  1521.4000      8.0441      2.5825      0.0859      4.0905   -999.2500   -999.2500
  1521.5000      8.0438      2.5678      0.0318      4.9839   -999.2500   -999.2500
  1521.6000      8.0438      2.5627      0.0078      5.2939   -999.2500   -999.2500
  1521.7000      8.0438      2.5741      0.0331      4.5991   -999.2500   -999.2500
  1521.8000      8.0386      2.5903      0.1063      3.6156   -999.2500   -999.2500
  1521.9000      8.0386      2.6023      0.0503      2.8923   -999.2500   -999.2500
  1522.0000      8.0362      2.6117      0.0712      2.3233   -999.2500   -999.2500
  1522.1000      8.0362      2.6124      0.0788      2.2785   -999.2500   -999.2500
  1522.2000      8.0362      2.6000      0.0333      3.0312   -999.2500   -999.2500
  1522.3000      8.0270      2.5995      0.0260      3.0584   -999.2500   -999.2500
  1522.4000      8.0270      2.6494      0.0064      0.0348   -999.2500   -999.2500
  1522.5000      8.0155      2.7499      0.1255     -6.0550   -999.2500   -999.2500
  1522.6000      8.0155      2.8601      0.1636    -12.7355   -999.2500   -999.2500
  1522.7000      8.0155      2.9384      0.2601    -17.4791   -999.2500   -999.2500
  1522.8000      7.9591      2.9560      0.2663    -18.5428   -999.2500   -999.2500
  1522.9000      7.9591      2.9143      0.1868    -16.0201   -999.2500   -999.2500
  1523.0000      8.0259      2.8460      0.0687    -11.8763   -999.2500   -999.2500
  1523.1000      8.0259      2.7827     -0.0258     -8.0435   -999.2500   -999.2500
  1523.2000      8.0259      2.7322     -0.0474     -4.9841   -999.2500   -999.2500
  1523.3000      8.0661      2.6859     -0.0693     -2.1729   -999.2500   -999.2500
  1523.4000      8.0661      2.6402     -0.0138      0.5923   -999.2500   -999.2500
  1523.5000      7.9828      2.6061     -0.0712      2.6623   -999.2500   -999.2500
