~Version Information
VERS.                      2.0: CWLS Log ASCII Standard - VERSION 2.0
WRAP.                       NO: One line per depth step
~Well Information Block
STRT.FT               440.0000: 
STOP.FT              1702.7500: 
STEP.FT                 0.2500: 
NULL.                -999.2500: 
COMP.          Pioneer Natural Resources: COMPANY
WELL.          Culver 14-12 Tr: WELL
FLD.           Purgatoire River: FIELD
LOC.           915' FSL & 1048' FWL--: LOCATION
STAT.                 Colorado: State
CNTY.               Las Animas: COUNTY
CTRY. USA : Country
SECT. 12 : Section
TOWN. 32S : Township
RANG. 66W : Range
SRVC.                Patterson: SERVICE COMPANY
DATE.          Tue Sep 27 23:38:23 2005: LOG DATE
API.           05 071 08520 00: UNIQUE WELL ID
~Curve Information Block
DEPT.FT            0 000 00 00: Depth
SN.Ohm-m                      : IEL Short Normal
SP.mV                         : IEL Spontaneous Potential
DIR.Ohm-m                     : IEL Induction Resistivity
GR.GAPI                       : Gamma Ray
~Parameter Information Block
~A  Depth        SN          SP         DIR          GR     
# ...
  1612.5000     15.5657    133.9169     14.3903    133.6400
  1612.7500     14.9473    133.8253     13.6862    137.8802
  1613.0000     14.3975    133.7072     12.9856    145.2311
  1613.2500     13.9116    133.5429     12.3181    150.1717
  1613.5000     13.4795    133.3058     11.7112    156.4168
  1613.7500     13.0906    132.9674     11.1869    159.2339
  1614.0000     12.7426    132.5032     10.7602    161.2210
  1614.2500     12.4469    131.8991     10.4395    161.5036
  1614.5000     12.2180    131.1569     10.2295    161.4497
  1614.7500     12.0482    130.2988     10.1330    161.2749
  1615.0000     11.8965    129.3690     10.1500    159.9164
  1615.2500     11.7101    128.4321     10.2748    157.5296
  1615.5000     11.4665    127.5673     10.4948    151.2736
  1615.7500     11.2074    126.8563     10.7913    145.8793
  1616.0000     11.0430    126.3710     11.1467    137.9222
  1616.2500     11.1132    126.1599     11.5524    133.7726
  1616.5000     11.5181    126.2412     12.0118    129.9563
  1616.7500     12.2572    126.6034     12.5346    128.8293
  1617.0000     13.2275    127.2137     13.1231    128.6831
  1617.2500     14.2873    128.0302     13.7580    129.2146
  1617.5000     15.3301    129.0115     14.3939    130.0305
  1617.7500     16.3124    130.1177     14.9698    130.0804
  1618.0000     17.2259    131.3037     15.4314    129.1601
  1618.2500     18.0613    132.5078     15.7545    128.0967
  1618.5000     18.8019    133.6449     15.9571    126.3442
  1618.7500     19.4441    134.6106     16.0953    125.2870
  1619.0000     20.0130    135.2981     16.2445    124.2045
  1619.2500     20.5529    135.6222     16.4767    124.0040
  1619.5000     21.1032    135.5407     16.8434    124.4339
  1619.7500     21.6761    135.0653     17.3667    124.8361
  1620.0000     22.2504    134.2578     18.0384    124.7272
  1620.2500     22.7809    133.2140     18.8217    123.7607
  1620.5000     23.2185    132.0429     19.6551    120.4054
  1620.7500     23.5292    130.8491     20.4602    116.6832
  1621.0000     23.7011    129.7206     21.1567    109.2963
  1621.2500     23.7411    128.7252     21.6810    104.1354
  1621.5000     23.6689    127.9111     21.9953     98.3496
  1621.7500     23.5084    127.3082     22.0812     96.8884
  1622.0000     23.2760    126.9299     21.9253     98.9790
  1622.2500     22.9674    126.7730     21.5178    102.9061
  1622.5000     22.5543    126.8176     20.8684    111.1054
  1622.7500     21.9956    127.0281     20.0225    117.0566
  1623.0000     21.2621    127.3567     19.0554    125.5125
  1623.2500     20.3581    127.7489     18.0498    130.7613
  1623.5000     19.3245    128.1496     17.0720    138.3993
  1623.7500     18.2226    128.5096     16.1616    143.2135
  1624.0000     17.1175    128.7896     15.3341    148.9899
  1624.2500     16.0723    128.9627     14.5899    151.3367
  1624.5000     15.1561    129.0134     13.9267    152.7032
  1624.7500     14.4454    128.9346     13.3488    152.6800
  1625.0000     14.0061    128.7240     12.8717    151.9995
  1625.2500     13.8646    128.3818     12.5179    151.3526
  1625.5000     13.9910    127.9101     12.3109    150.5678
  1625.7500     14.3056    127.3142     12.2675    150.5162
  1626.0000     14.7018    126.6064     12.3932    150.8184
  1626.2500     15.0765    125.8099     12.6761    149.9686
  1626.5000     15.3524    124.9624     13.0828    143.8249
  1626.7500     15.4875    124.1173     13.5575    135.3967
  1627.0000     15.4773    123.3410     14.0308    117.8876
  1627.2500     15.3633    122.7076     14.4386    105.7192
  1627.5000     15.2390    122.2896     14.7391     92.0401
  1627.7500     15.2238    122.1477     14.9194     88.0220
  1628.0000     15.3928    122.3212     14.9875     90.2691
  1628.2500     15.7085    122.8220     14.9573     96.1687
  1628.5000     16.0211    123.6323     14.8366    108.0633
  1628.7500     16.1529    124.7083     14.6226    115.6066
  1629.0000     16.0019    125.9852     14.3059    123.4208
  1629.2500     15.5819    127.3852     13.8820    126.1826
  1629.5000     14.9839    128.8240     13.3641    128.8867
  1629.7500     14.3136    130.2170     12.7881    131.2598
  1630.0000     13.6551    131.4854     12.2055    136.7224
  1630.2500     13.0634    132.5620     11.6666    141.1633
  1630.5000     12.5645    133.3965     11.2051    147.3326
  1630.7500     12.1593    133.9606     10.8320    150.2850
  1631.0000     11.8304    134.2492     10.5368    152.6601
  1631.2500     11.5546    134.2789     10.2974    153.3210
  1631.5000     11.3167    134.0827     10.0901    153.9005
  1631.7500     11.1178    133.7022      9.9002    154.2908
  1632.0000     10.9694    133.1795      9.7254    154.9037
  1632.2500     10.8808    132.5507      9.5754    155.2530
  1632.5000     10.8537    131.8420      9.4681    155.4353
  1632.7500     10.8858    131.0688      9.4235    155.0734
  1633.0000     10.9762    130.2383      9.4593    153.2417
  1633.2500     11.1244    129.3532      9.5861    150.9264
  1633.5000     11.3261    128.4161      9.8068    146.0518
  1633.7500     11.5754    127.4341     10.1181    142.4472
  1634.0000     11.8794    126.4216     10.5155    137.5142
  1634.2500     12.2785    125.4013     10.9988    134.6421
  1634.5000     12.8508    124.4038     11.5735    130.2778
  1634.7500     13.6790    123.4636     12.2465    126.8881
  1635.0000     14.7862    122.6153     13.0160    120.9888
  1635.2500     16.0810    121.8873     13.8599    116.8547
  1635.5000     17.3734    121.2965     14.7308    111.1939
  1635.7500     18.4695    120.8444     15.5643    108.3062
  1636.0000     19.2762    120.5149     16.3001    106.3731
  1636.2500     19.8304    120.2759     16.9055    107.4473
  1636.5000     20.2406    120.0826     17.3863    113.6426
  1636.7500     20.6069    119.8840     17.7789    120.5936
  1637.0000     20.9771    119.6294     18.1310    132.3278
  1637.2500     21.3538    119.2755     18.4843    138.2321
  1637.5000     21.7309    118.7917     18.8661    140.2866
  1637.7500     22.1288    118.1635     19.2949    136.6953
  1638.0000     22.6090    117.3937     19.7925    126.5316
  1638.2500     23.2609    116.5006     20.3936    118.9846
  1638.5000     24.1692    115.5147     21.1452    109.6588
  1638.7500     25.3759    114.4727     22.0921    105.4370
  1639.0000     26.8495    113.4122     23.2548    101.7284
  1639.2500     28.4754    112.3653     24.6069    100.5443
  1639.5000     30.0785    111.3564     26.0616    100.1891
  1639.7500     31.4747    110.4009     27.4778    100.6618
  1640.0000     32.5239    109.5077     28.6970    101.6102
  1640.2500     33.1640    108.6832     29.6000    101.7159
  1640.5000     33.4179    107.9352     30.1469    100.4040
  1640.7500     33.3728    107.2756     30.3677     98.7774
  1641.0000     33.1349    106.7198     30.3192     96.3599
  1641.2500     32.7789    106.2851     30.0495     95.3596
  1641.5000     32.3185    105.9868     29.5953     95.0954
  1641.7500     31.7226    105.8352     28.9964     95.7247
  1642.0000     30.9610    105.8339     28.3003     98.1071
  1642.2500     30.0411    105.9799     27.5464    100.7941
  1642.5000     29.0030    106.2647     26.7471    106.0592
  1642.7500     27.8853    106.6756     25.8846    109.8488
  1643.0000     26.6965    107.1974     24.9262    115.1313
  1643.2500     25.4219    107.8125     23.8498    118.0007
  1643.5000     24.0578    108.5012     22.6624    120.7280
  1643.7500     22.6443    109.2412     21.4021    121.5080
  1644.0000     21.2664    110.0079     20.1240    122.2839
  1644.2500     20.0174    110.7747     18.8802    123.5639
  1644.5000     18.9515    111.5148     17.7085    127.6269
  1644.7500     18.0585    112.2032     16.6299    131.4749
  1645.0000     17.2747    112.8199     15.6528    137.4548
  1645.2500     16.5249    113.3539     14.7775    140.7822
  1645.5000     15.7653    113.8064     13.9998    144.1760
  1645.7500     14.9999    114.1918     13.3145    145.2948
