~Version Information
VERS.                      2.0: CWLS Log ASCII Standard - VERSION 2.0
WRAP.                       NO: One line per depth step
~Well Information Block
STRT.FT                -6.7500: 
STOP.FT              1544.5000: 
STEP.FT                 0.2500: 
NULL.                -999.2500: 
COMP.          Pioneer Natural Resources: COMPANY
WELL.          Lorencito 10-36-33-67: WELL
FLD.           Purgatorie River: FIELD
LOC.           2130' FSL & 2362' FEL--: LOCATION
STAT.                       CO: State
CNTY.               Las Animas: COUNTY
CTRY. USA : Country
SECT. 36 : Section
TOWN. 33S : Township
RANG. 67W : Range
SRVC.          Patterson Wireline: SERVICE COMPANY
DATE.          Fri Sep 02 09:21:42 2005: LOG DATE
API.           05 071 08501 00: UNIQUE WELL ID
~Curve Information Block
DEPT.FT            0 000 00 00: Depth
CCL.                          : Casing Collar Locator
TT3.usec                      : CBL 3' Travel Time
AMP3.mV                       : CBL 3' Amplitude
GR.GAPI                       : Gamma Ray
~Parameter Information Block
~A  Depth       CCL         TT3         AMP3         GR     
# ...
   596.2500      0.0000    708.4954      9.5919    133.5859
   596.5000      0.0000    710.8070      9.5709    137.7214
   596.7500      0.0000    710.7162      9.5613    140.2850
   597.0000      0.0000    709.3920      9.5490    140.7194
   597.2500      0.0000    708.7731      9.5284    139.7401
   597.5000      0.0000    709.9324      9.5089    139.1799
   597.7500      0.0000    712.3813      9.5045    141.1249
   598.0000      0.0000    714.8501      9.5157    146.5054
   598.2500      0.0000    716.4908      9.5279    154.2627
   598.5000      0.0000    717.2513      9.5300    162.0092
   598.7500      0.0000    717.4786      9.5279    167.4865
   599.0000      0.0000    717.5028      9.5336    169.6420
   599.2500      0.0000    717.5076      9.5471    169.0225
   599.5000      0.0000    717.5619      9.5557    167.4126
   599.7500      0.0000    717.6683      9.5489    166.6279
   600.0000      0.0000    717.8000      9.5315    167.1264
   600.2500      0.0000    717.9133      9.5230    167.5809
   600.5000      0.0000    717.9747      9.5441    165.9364
   600.7500      0.0000    717.9994      9.5999    161.2112
   601.0000      0.0000    718.1299      9.6768    154.3101
   601.2500      0.0000    718.7526      9.7594    147.0341
   601.5000      0.0000    720.6940      9.8465    140.5836
   601.7500      0.0000    725.3106      9.9471    134.7574
   602.0000      0.0000    734.0948     10.0611    127.9110
   602.2500      0.0000    747.7601     10.1690    118.0191
   602.5000      0.0000    765.3659     10.2467    104.7005
   602.7500      0.0000    784.0807     10.2898     90.1680
   603.0000      0.0000    799.4966     10.3195     77.7415
   603.2500      0.0000    806.7760     10.3605     69.6069
   603.5000      0.0000    802.8913     10.4165     66.0222
   603.7500      0.0000    788.6143     10.4701     65.8652
   604.0000      0.0000    768.1257     10.5028     67.3569
   604.2500      0.0000    746.8243     10.5132     68.7344
   604.5000      0.0000    729.6125     10.5156     69.0109
   604.7500      0.0000    719.5750     10.5209     68.3162
   605.0000      0.0000    716.0948     10.5121     67.3512
   605.2500      0.0000    715.1557     10.4318     66.5095
   605.5000      0.0000    713.4303     10.1934     65.5844
   605.7500      0.0000    711.3130      9.7320     64.0652
   606.0000      0.0000    711.5414      9.0821     61.6297
   606.2500      0.0000    717.7283      8.4097     58.6189
   606.5000      0.0000    735.2542      7.9227     56.0751
   606.7500      0.0000    768.9203      7.7206     55.0345
   607.0000      0.0000    816.2668      7.7459     55.7369
   607.2500      0.0000    865.9286      7.8729     57.6375
   607.5000      0.0000    905.0763      8.0049     60.2232
   607.7500      0.0000    926.6165      8.0934     63.8392
   608.0000     -2.0000    928.9792      8.1164     69.6320
   608.2500      2.0000    913.9200      8.0666     78.4239
   608.5000      0.0000    887.0565      7.9653     89.6882
   608.7500      0.0000    856.9199      7.8817    101.9334
   609.0000      0.0000    830.2065      7.9102    113.8830
   609.2500      0.0000    808.6091      8.0878    124.7410
   609.5000      0.0000    790.7792      8.3470    133.3514
   609.7500      0.0000    776.2556      8.5933    137.8195
   610.0000      0.0000    766.5439      8.8025    136.7072
   610.2500      0.0000    762.6542      9.0001    130.7240
   610.5000      0.0000    762.6300      9.1835    122.7449
   610.7500      0.0000    762.4871      9.3234    115.8851
   611.0000      0.0000    759.6212      9.4176    111.7822
   611.2500      0.0000    754.9804      9.5027    110.5764
   611.5000      0.0000    752.4119      9.6176    111.6805
   611.7500      0.0000    755.9589      9.7722    113.9366
   612.0000      0.0000    766.3329      9.9463    115.4905
   612.2500      0.0000    779.3597     10.1074    114.5674
   612.5000      0.0000    788.7206     10.2321    110.9618
   612.7500      0.0000    790.7301     10.3164    106.6248
   613.0000      0.0000    786.0859     10.3733    104.6429
   613.2500      0.0000    777.4841     10.4168    107.6777
   613.5000      0.0000    766.8430     10.4449    116.8251
   613.7500      0.0000    755.0546     10.4408    130.9774
   614.0000      0.0000    743.1837     10.3926    146.9945
   614.2500      0.0000    732.8448     10.3131    161.1123
   614.5000      0.0000    725.2816     10.2389    170.8207
   614.7500      0.0000    720.6151     10.2077    175.7726
   615.0000      0.0000    718.1765     10.2331    177.1218
   615.2500      0.0000    717.0696     10.2968    175.9100
   615.5000      0.0000    716.0794     10.3690    171.7974
   615.7500      0.0000    713.7938     10.4378    163.3687
   616.0000      0.0000    709.5395     10.5148    149.8871
   616.2500      0.0000    703.8005     10.6126    132.7551
   616.5000      0.0000    697.3317     10.7228    115.1827
   616.7500      0.0000    690.7602     10.8176    100.4398
   617.0000      0.0000    685.3791     10.8725     90.2563
   617.2500      0.0000    683.5980     10.8831     84.5911
   617.5000      0.0000    688.1753     10.8620     82.6161
   617.7500      0.0000    700.5620     10.8238     83.5181
   618.0000      0.0000    718.7745     10.7760     86.1920
   618.2500      0.0000    736.7262     10.7212     88.8145
   618.5000      0.0000    747.7078     10.6620     89.5968
   618.7500      0.0000    750.3100     10.6002     88.2313
   619.0000      0.0000    749.9698     10.5357     86.3355
   619.2500      0.0000    753.0448     10.4686     86.2749
   619.5000      0.0000    759.9164     10.4028     89.5180
   619.7500      0.0000    765.2293     10.3440     95.9410
   620.0000      0.0000    763.9787     10.2962    104.0947
   620.2500      0.0000    756.1501     10.2592    111.6546
   620.5000      0.0000    746.6837     10.2301    116.1206
   620.7500      0.0000    741.9683     10.2018    116.2212
   621.0000      0.0000    744.6133     10.1620    113.2379
   621.2500      0.0000    750.6177     10.0987    110.7475
   621.5000      0.0000    752.9972     10.0090    112.4328
   621.7500      0.0000    748.5137      9.9011    119.4265
   622.0000      0.0000    739.8157      9.7843    129.4953
   622.2500      0.0000    732.0303      9.6627    139.1197
   622.5000      0.0000    729.0815      9.5395    146.5032
   622.7500      0.0000    732.0201      9.4233    152.3929
   623.0000      0.0000    738.3157      9.3270    158.2904
   623.2500      0.0000    742.7383      9.2621    164.5589
   623.5000      0.0000    740.4567      9.2354    170.1104
   623.7500      0.0000    730.3011      9.2500    173.1276
   624.0000      0.0000    715.8432      9.3067    171.8625
   624.2500      0.0000    703.4658      9.4034    165.2058
   624.5000      0.0000    698.5577      9.5329    153.0089
   624.7500      0.0000    702.7993      9.6811    136.2555
   625.0000      0.0000    714.4641      9.8277    117.1572
   625.2500      0.0000    730.4609      9.9519     98.8327
   625.5000      0.0000    747.7180     10.0414     84.1887
   625.7500      0.0000    763.4238     10.1000     74.6388
   626.0000      0.0000    774.9998     10.1409     69.9154
   626.2500      0.0000    780.3273     10.1712     69.1683
   626.5000      0.0000    778.6124     10.1837     72.0566
   626.7500      0.0000    771.8364     10.1677     78.6370
   627.0000      0.0000    765.0599     10.1245     88.3022
   627.2500      0.0000    763.6868     10.0664     99.1939
   627.5000      0.0000    769.2451     10.0025    109.0031
   627.7500      0.0000    778.1522      9.9289    116.3436
   628.0000      0.0000    784.7598      9.8363    121.1991
   628.2500      0.0000    784.8802      9.7255    124.3912
   628.5000      0.0000    776.9030      9.6115    127.0370
   628.7500      0.0000    761.6805      9.5132    130.2972
   629.0000      0.0000    742.6851      9.4415    135.0238
   629.2500      0.0000    725.5260      9.3998    141.2744
   629.5000      0.0000    715.6663      9.3904    148.1423
