~Version Information
 VERS.                                  2.0 : CWLS LAS VERSION
 WRAP.                                   NO : WRAPING MODE
 SWARE .                 MController 2.5.0J : SOFTWARE VERSION
~Well Information
 WELL.                         Norton 9-14R : WELL
 COMP.                Petrogulf Corporation : COMPANY
 FLD.                       Purgatoire River: FIELD
 LOC.                SW/SW Sec 9 T33S R67W  : LOCATION
 DATE.                            10/5-6/05 : DATE(S) LOGGED
 SRVC.       BLANCO Geological Services LLC : SERVICE COMPANY
 STAT.                                   CO : STATE
 CNTY.                           Las Animas : COUNTY
 CTRY.                                  USA : COUNTRY
 API.                       05-071-08444-00 : API NUMBER
 STRT.FT                              56.00 : START DEPTH
 STOP.FT                            1880.00 : STOP DEPTH
 STEP.FT                               1.00 : DEPTH INCREMENT
 NULL.                                -9999 : NULL VALUE
~Curve information
 DEPTH.FT                                   :
 ROP.MIN/FT                                 :
 GAS.UNITS                                  :
~ASCII Log data
# ...
       456.0         0.27         16.4 
       457.0         0.27         16.4 
       458.0         0.23         16.4 
       459.0         0.32         16.5 
       460.0         0.37         16.1 
       461.0         0.33         16.2 
       462.0         0.40         16.3 
       463.0         0.60         16.3 
       464.0         0.43         16.7 
       465.0         0.20         16.9 
       466.0         0.20         16.8 
       467.0         0.23         17.3 
       468.0         0.25         17.0 
       469.0         0.27         16.6 
       470.0         0.27         16.6 
       471.0         0.27         16.6 
       472.0         0.20         16.3 
       473.0         0.23         17.0 
       474.0         0.23         17.0 
       475.0         0.20         16.7 
       476.0         1.22         33.9 
       477.0         0.30         30.7 
       478.0         0.30         25.1 
       479.0         0.30         20.0 
       480.0         0.23         18.1 
       481.0         0.27         17.1 
       482.0         0.23         16.5 
       483.0         0.27         16.1 
       484.0         0.27         16.0 
       485.0         0.27         17.0 
       486.0         0.25         17.6 
       487.0         0.27         17.6 
       488.0         0.30         17.6 
       489.0         0.23         16.8 
       490.0         0.27         16.7 
       491.0         0.23         16.1 
       492.0         0.20         16.1 
       493.0         0.20         16.0 
       494.0         0.20         16.3 
       495.0         0.23         16.4 
       496.0         0.23         16.1 
       497.0         0.13         16.8 
       498.0         0.17         16.9 
       499.0         0.07         16.7 
       500.0         0.27         16.3 
       501.0         0.25         15.2 
       502.0         0.27         15.5 
       503.0         0.27         15.6 
       504.0         0.30         15.3 
       505.0         0.27         14.6 
       506.0         1.40         29.6 
       507.0         0.33         27.8 
       508.0         0.30         22.6 
       509.0         0.32         19.1 
       510.0         0.30         17.1 
       511.0         0.30         16.0 
       512.0         0.27         15.7 
       513.0         0.27         15.5 
       514.0         0.27         15.3 
       515.0         0.30         15.3 
       516.0         0.30         15.5 
       517.0         0.27         15.1 
       518.0         0.33         14.6 
       519.0         0.30         14.3 
       520.0         0.38         14.5 
       521.0         0.33         14.9 
       522.0         0.33         14.7 
       523.0         0.27         14.8 
       524.0         0.27         14.4 
       525.0         0.30         14.5 
       526.0         0.30         14.8 
       527.0         0.27         14.7 
       528.0         0.30         14.7 
       529.0         0.37         14.5 
       530.0         0.35         14.5 
       531.0         0.33         13.8 
       532.0         0.30         13.7 
       533.0         0.30         14.1 
       534.0         0.27         13.9 
       535.0         0.33         13.5 
       536.0         2.25         28.1 
       537.0         0.33         17.2 
       538.0         0.27         15.0 
       539.0         0.23         14.0 
       540.0         0.27         14.2 
       541.0         0.20         13.8 
       542.0         0.27         13.9 
       543.0         0.27         13.4 
       544.0         0.20         13.6 
       545.0         0.20         13.6 
       546.0         0.23         13.5 
       547.0         0.22         14.4 
       548.0         0.17         16.0 
       549.0         0.20         16.1 
       550.0         0.17         17.2 
       551.0         0.23         17.2 
       552.0         0.20         16.6 
       553.0         0.23         16.2 
       554.0         0.23         15.8 
       555.0         0.23         14.8 
       556.0         0.27         14.4 
       557.0         0.33         13.5 
       558.0         0.37         13.1 
       559.0         0.33         13.0 
       560.0         0.32         13.5 
       561.0         0.27         13.6 
       562.0         0.33         13.6 
       563.0         0.27         12.6 
       564.0         0.23         12.2 
       565.0         0.30         12.1 
       566.0         1.10         28.2 
       567.0         0.20         23.7 
       568.0         0.27         21.2 
       569.0         0.27         17.6 
       570.0         0.28         15.5 
       571.0         0.30         15.1 
       572.0         0.30         14.2 
       573.0         0.20         14.2 
       574.0         0.23         13.6 
       575.0         0.23         22.0 
       576.0         0.20         46.6 
       577.0         0.17         49.6 
       578.0         0.13         49.5 
       579.0         0.13         49.4 
       580.0         0.23         49.5 
       581.0         0.20         50.0 
       582.0         0.17         50.4 
       583.0         0.17         51.4 
       584.0         0.37         55.0 
       585.0         0.48         57.1 
       586.0         0.30         56.9 
       587.0         0.30         56.3 
       588.0         0.27         55.9 
       589.0         0.23         55.6 
       590.0         0.20         54.9 
       591.0         0.23         54.6 
       592.0         0.23         54.7 
       593.0         0.27         54.6 
       594.0         0.20         54.5 
       595.0         0.23         53.9 
       596.0         1.78        162.4 
       597.0         0.33        112.3 
       598.0         0.23         84.9 
       599.0         0.23         72.0 
       600.0         0.23         63.7 
       601.0         0.23         58.7 
       602.0         0.20         55.5 
       603.0         0.38         53.7 
       604.0         0.37         52.7 
       605.0         0.40         52.9 
       606.0         0.23         52.3 
       607.0         0.23         51.9 
       608.0         0.27         53.3 
       609.0         0.17         57.4 
       610.0         0.13         59.0 
       611.0         0.13         59.6 
       612.0         0.17         59.5 
       613.0         0.13         59.5 
       614.0         0.17         59.8 
       615.0         0.20         60.9 
       616.0         0.23         62.1 
       617.0         0.23         63.0 
       618.0         0.22         63.1 
       619.0         0.17         62.8 
       620.0         0.13         61.8 
       621.0         0.13         61.3 
       622.0         0.17         61.2 
       623.0         0.23         61.4 
       624.0         0.17         61.3 
       625.0         0.17         60.6 
       626.0         1.13        173.8 
       627.0         0.20        173.6 
       628.0         0.30        158.5 
       629.0         0.20        121.6 
       630.0         0.20        101.7 
       631.0         0.18         89.7 
       632.0         0.13         82.8 
       633.0         0.17         78.1 
       634.0         0.13         73.5 
       635.0         0.23         70.4 
       636.0         0.23         66.9 
       637.0         0.17         64.4 
       638.0         0.20         63.6 
       639.0         0.23         62.9 
       640.0         0.27         62.7 
       641.0         0.27         62.3 
       642.0         0.23         61.0 
       643.0         0.20         60.3 
       644.0         0.25         59.9 
       645.0         0.30         60.8 
       646.0         0.20         60.7 
       647.0         0.23         60.5 
       648.0         0.17         60.1 
       649.0         0.23         59.4 
       650.0         0.33         58.1 
       651.0         0.30         56.3 
       652.0         0.23         55.0 
       653.0         0.30         53.8 
       654.0         0.20         53.1 
       655.0         0.22         52.7 
