~Version Information
VERS.                      2.0: CWLS Log ASCII Standard - VERSION 2.0
WRAP.                       NO: One line per depth step
~Well Information Block
STRT.FT                -8.7500: 
STOP.FT              1727.2500: 
STEP.FT                 0.2500: 
NULL.                -999.2500: 
COMP.          XTO Energy Inc.: COMPANY
WELL.          Apache Canyon 34-08: WELL
FLD.              Vermejo Coal: FIELD
LOC.           1668' FNL & 275' FEL: LOCATION
STAT.                       CO: State
CNTY.               Las Animas: COUNTY
CTRY. USA : Country
SECT. 34 : Section
TOWN. 33S : Township
RANG. 67W : Range
SRVC.          Patterson Wireline: SERVICE COMPANY
DATE.          Mon Jan 09 09:34:21 2006: LOG DATE
API.           05 071 08541 00: UNIQUE WELL ID
~Curve Information Block
DEPT.FT            0 000 00 00: Depth
CCL.                          : Casing Collar Locator
TT3.usec                      : CBL 3' Travel Time
AMP3.mV                       : CBL 3' Amplitude
GR.GAPI                       : Gamma Ray
~Parameter Information Block
~A  Depth       CCL         TT3         AMP3         GR     
# ...
   460.2500      0.0000    775.0186      7.9714    120.0772
   460.5000      0.0000    761.6230      7.3697    120.5763
   460.7500      0.0000    748.4251      7.1282    119.0008
   461.0000      0.0000    742.7210      7.1811    115.3638
   461.2500      0.0000    749.3027      7.4795    108.7425
   461.5000      0.0000    769.0193      7.9840     98.3530
   461.7500      0.0000    795.3149      8.6432     84.7880
   462.0000      0.0000    813.0444      9.4002     69.9917
   462.2500      0.0000    805.3085     10.2286     56.0987
   462.5000      0.0000    765.0242     11.1529     44.5241
   462.7500      0.0000    700.7509     12.1981     36.0506
   463.0000      0.0000    632.4250     13.2833     31.1330
   463.2500      0.0000    582.3589     14.1528     29.7079
   463.5000      0.0000    566.8748     14.4498     31.1020
   463.7500      0.0000    588.9686     13.9364     34.6392
   464.0000      0.0000    635.5793     12.6921     40.2420
   464.2500      0.0000    685.8817     11.0961     48.2079
   464.5000      0.0000    725.1213      9.5995     58.4448
   464.7500      0.0000    749.4150      8.4974     70.0288
   465.0000      0.0000    760.0695      7.8511     81.5669
   465.2500      0.0000    758.8924      7.5355     92.0707
   465.5000      0.0000    748.9031      7.3410    101.4949
   465.7500      0.0000    735.2521      7.0877    110.3053
   466.0000      0.0000    723.2368      6.7048    118.5395
   466.2500      0.0000    715.8063      6.2319    125.5874
   466.5000      0.0000    712.9310      5.7594    130.8724
   466.7500      0.0000    712.8661      5.3655    134.2900
   467.0000      0.0000    713.8403      5.0854    136.0538
   467.2500      0.0000    714.8106      4.9118    136.7433
   467.5000      0.0000    715.3442      4.8105    137.3535
   467.7500      0.0000    715.2921      4.7412    138.3584
   468.0000      0.0000    714.7082      4.6739    138.6132
   468.2500      0.0000    713.8639      4.5974    136.2415
   468.5000      0.0000    713.1476      4.5207    131.0603
   468.7500      0.0000    712.8306      4.4664    125.4148
   469.0000      0.0000    712.9246      4.4544    122.3195
   469.2500      0.0000    713.2526      4.4859    123.2793
   469.5000      0.0000    713.6118      4.5416    127.8739
   469.7500      0.0000    713.8837      4.5967    134.5035
   470.0000      0.0000    714.0647      4.6357    141.1228
   470.2500      0.0000    714.2325      4.6558    146.0128
   470.5000      0.0000    714.4619      4.6601    148.4531
   470.7500      0.0000    714.7463      4.6502    148.4598
   471.0000      0.0000    715.0081      4.6265    146.0282
   471.2500      0.0000    715.1800      4.5925    141.3444
   471.5000      0.0000    715.2551      4.5564    135.6029
   471.7500      0.0000    715.2594      4.5300    130.7131
   472.0000      0.0000    715.2144      4.5239    127.9720
   472.2500      0.0000    715.1366      4.5427    127.4160
   472.5000      0.0000    715.0438      4.5811    128.4551
   472.7500      0.0000    714.9409      4.6257    130.6291
   473.0000      0.0000    714.8093      4.6616    133.3646
   473.2500      0.0000    714.6117      4.6789    135.4932
   473.5000      0.0000    714.2411      4.6718    136.0106
   473.7500      0.0000    713.3309      4.6391    135.2902
   474.0000      0.0000    710.9330      4.5875    134.7772
   474.2500      0.0000    705.4210      4.5333    135.4476
   474.5000      0.0000    695.3194      4.4959    137.0258
   474.7500      0.0000    681.0729      4.4874    138.6479
   475.0000      0.0000    666.1830      4.5053    139.7603
   475.2500      0.0000    655.8477      4.5369    140.1358
   475.5000      0.0000    653.6392      4.5695    139.4569
   475.7500      0.0000    659.1689      4.5984    137.5555
   476.0000      0.0000    668.8933      4.6227    135.1935
   476.2500      0.0000    678.9922      4.6395    134.0393
   476.5000      0.0000    687.3809      4.6438    135.2919
   476.7500      0.0000    693.5878      4.6355    138.3670
   477.0000      0.0000    697.9225      4.6222    141.2578
   477.2500      0.0000    701.0283      4.6155    142.1984
   477.5000      0.0000    703.3875      4.6225    140.9934
   477.7500      0.0000    704.9985      4.6393    139.0263
   478.0000      0.0000    705.9327      4.6550    138.0886
   478.2500      0.0000    706.9005      4.6630    138.9537
   478.5000      0.0000    708.6448      4.6677    140.7662
   478.7500      0.0000    711.0175      4.6773    141.6797
   479.0000      0.0000    713.1801      4.6932    140.2292
   479.2500      0.0000    714.5222      4.7091    136.4593
   479.5000      0.0000    715.0621      4.7172    131.9767
   479.7500      0.0000    715.1417      4.7171    128.9169
   480.0000      0.0000    715.0466      4.7149    128.7560
   480.2500      0.0000    714.8923      4.7159    131.8312
   480.5000      0.0000    714.6958      4.7183    137.4103
   480.7500      0.0000    714.4601      4.7148    143.7747
   481.0000      0.0000    714.2141      4.7009    148.7310
   481.2500      0.0000    714.0022      4.6792    150.9874
   481.5000      0.0000    713.8615      4.6565    151.1777
   481.7500      0.0000    713.7972      4.6388    150.9438
   482.0000      0.0000    713.7800      4.6276    150.9948
   482.2500      0.0000    713.7690      4.6204    150.6639
   482.5000      0.0000    713.7434      4.6128    149.3324
   482.7500      0.0000    713.7172      4.6026    147.5478
   483.0000      0.0000    713.7233      4.5921    146.3778
   483.2500      0.0000    713.7855      4.5861    146.0490
   483.5000      0.0000    713.8976      4.5880    145.5632
   483.7500      0.0000    714.0259      4.5968    143.6168
   484.0000      0.0000    714.1356      4.6076    139.6500
   484.2500      0.0000    714.2172      4.6150    133.9805
   484.5000      0.0000    714.2828      4.6167    127.3772
   484.7500      0.0000    714.3384      4.6150    120.8600
   485.0000      0.0000    714.3780      4.6136    115.5955
   485.2500      0.0000    714.4001      4.6130    112.5366
   485.5000      0.0000    714.4135      4.6091    112.1502
   485.7500      0.0000    714.4150      4.5983    114.4041
   486.0000      0.0000    714.3718      4.5832    118.5525
   486.2500      0.0000    714.2429      4.5716    122.8405
   486.5000      0.0000    714.0256      4.5692    125.1707
   486.7500      0.0000    713.7672      4.5736    124.6488
   487.0000      0.0000    713.5291      4.5782    122.3067
   487.2500      0.0000    713.3504      4.5801    120.0252
   487.5000      0.0000    713.2566      4.5837    118.8978
   487.7500      0.0000    713.2860      4.5951    118.7690
   488.0000      0.0000    713.4747      4.6129    118.9994
   488.2500      0.0000    713.7906      4.6271    119.2328
   488.5000      0.0000    714.0943      4.6287    119.2839
   488.7500      0.0000    714.2087      4.6195    118.6232
   489.0000      0.0000    714.0624      4.6126    116.5896
   489.2500      0.0000    713.7562      4.6206    113.2804
   489.5000      0.0000    713.4637      4.6449    109.8647
   489.7500      0.0000    713.2878      4.6775    107.8392
   490.0000      0.0000    713.2466      4.7127    107.9757
   490.2500      0.0000    713.3515      4.7534    109.6929
   490.5000      0.0000    713.6689      4.8017    111.2559
   490.7500      0.0000    714.3851      4.8459    110.9672
   491.0000      0.0000    715.9553      4.8626    108.5747
   491.2500      0.0000    718.9500      4.8334    105.4014
   491.5000      0.0000    723.1777      4.7580    103.0986
   491.7500      0.0000    726.7269      4.6544    102.4611
   492.0000      0.0000    727.0145      4.5505    103.1950
   492.2500      0.0000    724.2153      4.4752    104.3532
   492.5000      0.0000    723.9164      4.4455    105.1453
   492.7500      0.0000    734.5029      4.4575    105.7205
   493.0000      0.0000    759.3794      4.4913    107.0462
   493.2500      0.0000    790.8724      4.5303    109.7180
   493.5000      0.0000    814.0295      4.5687    113.2247
