~Version Information
VERS.                      2.0: CWLS Log ASCII Standard - VERSION 2.0
WRAP.                       NO: One line per depth step
~Well Information Block
STRT.FT                 0.0000: 
STOP.FT              1507.7500: 
STEP.FT                 0.2500: 
NULL.                -999.2500: 
COMP.          Pioneer Natural Resources: COMPANY
WELL.          Pioneer 34-27 Tr: WELL
FLD.           Purgatorie River: FIELD
LOC.           243' FSL & 1593' FEL: LOCATION
STAT.                 Colorado: State
CNTY.               Las Animas: COUNTY
CTRY. USA : Country
SECT. 27 : Section
TOWN. 32S : Township
RANG. 67W : Range
SRVC.                Patterson: SERVICE COMPANY
DATE.          Wed Oct 12 09:30:25 2005: LOG DATE
API.                          : UNIQUE WELL ID
~Curve Information Block
DEPT.FT            0 000 00 00: Depth
GR.GAPI                       : Gamma Ray
CCL.                          : Casing Collar Locator
TT3.usec                      : CBL 3' Travel Time
AMP3.mV                       : CBL 3' Amplitude
~Parameter Information Block
~A  Depth        GR         CCL         TT3         AMP3    
# ...
   301.5000     81.4432      0.0000    691.1035     17.7704
   301.7500     81.9583      0.0000    689.7231     17.7741
   302.0000     85.0783      0.0000    683.3182     17.7772
   302.2500     89.6003      0.0000    666.1981     17.7949
   302.5000     93.0778      0.0000    638.1806     17.8252
   302.7500     93.3401      0.0000    611.6022     17.8561
   303.0000     90.3268      0.0000    601.2133     17.8935
   303.2500     85.9215      0.0000    612.1847     17.9484
   303.5000     82.0140      0.0000    639.0525     18.0101
   303.7500     79.3262      0.0000    667.3866     18.0672
   304.0000     77.9552      0.0000    685.8564     18.1261
   304.2500     78.1079      0.0000    695.7701     18.1891
   304.5000     79.9765      0.0000    702.1274     18.2365
   304.7500     83.3045      0.0000    704.6914     18.2413
   305.0000     87.1377      0.0000    702.0753     18.1930
   305.2500     90.0002      0.0000    697.1276     18.1055
   305.5000     90.7719      0.0000    693.5150     18.0330
   305.7500     89.6133      0.0000    690.9066     18.0632
   306.0000     87.7495      0.0000    684.5845     18.2085
   306.2500     86.3612      0.0000    667.7966     18.3506
   306.5000     85.9379      0.0000    639.4896     18.3889
   306.7500     86.3826      0.0000    608.3685     18.3584
   307.0000     87.1747      0.0000    578.8187     18.3508
   307.2500     87.5345      0.0000    544.9131     18.4082
   307.5000     86.9430      0.0000    510.0612     18.5000
   307.7500     85.4931      0.0000    491.6698     18.5612
   308.0000     83.4638      0.0000    500.4135     18.5591
   308.2500     80.8676      0.0000    532.1685     18.5154
   308.5000     77.8483      0.0000    578.4899     18.4645
   308.7500     75.1457      0.0000    626.9985     18.4237
   309.0000     73.5899      0.0000    658.8757     18.3987
   309.2500     73.2866      0.0000    662.4242     18.3799
   309.5000     73.6946      0.0000    646.5244     18.3417
   309.7500     74.2447      0.0000    636.3104     18.2677
   310.0000     74.4628      0.0000    647.3952     18.1794
   310.2500     73.8322      0.0000    668.0958     18.1221
   310.5000     72.1980      0.0000    677.7095     18.1109
   310.7500     70.1984      0.0000    666.9073     18.1148
   311.0000     68.7419      0.0000    638.7299     18.0990
   311.2500     68.1353      0.0000    603.0972     18.0559
   311.5000     68.1902      0.0000    564.3661     17.9997
   311.7500     68.9686      0.0000    521.1147     17.9614
   312.0000     70.7769      0.0000    482.1828     17.9746
   312.2500     73.4398      0.0000    459.6571     18.0441
   312.5000     76.0727      0.0000    451.8484     18.1514
   312.7500     77.6882      0.0000    451.2063     18.2851
   313.0000     77.9031      0.0000    456.6618     18.4390
   313.2500     77.1788      0.0000    469.5379     18.5972
   313.5000     76.4764      0.0000    488.2815     18.7281
   313.7500     76.5746      0.0000    507.5072     18.8009
   314.0000     77.6208      0.0000    516.5729     18.8293
   314.2500     79.1602      0.0000    509.4530     18.8718
   314.5000     80.4882      0.0000    494.8844     18.9623
   314.7500     81.2058      0.0000    484.5831     19.0717
   315.0000     81.6271      0.0000    480.7837     19.1448
   315.2500     82.4808      0.0000    480.4330     19.1542
   315.5000     84.1612      0.0000    480.0722     19.1282
   315.7500     86.3922      0.0000    473.3142     19.1282
   316.0000     88.4151      0.0000    452.4569     19.1856
   316.2500     89.3095      0.0000    420.5520     19.2719
   316.5000     88.5395      0.0000    393.7017     19.3352
   316.7500     86.5150      0.0000    383.0376     19.3464
   317.0000     84.3288      0.0000    386.0095     19.3106
   317.2500     82.7568      0.0000    398.2746     19.2628
   317.5000     81.7682      0.0000    418.9918     19.2429
   317.7500     80.9209      0.0000    441.9536     19.2647
   318.0000     79.7838      0.0000    454.7865     19.3290
   318.2500     78.0423      0.0000    452.0197     19.4400
   318.5000     75.7574      0.0000    439.9024     19.5883
   318.7500     73.5858      0.0000    425.1806     19.7491
   319.0000     72.2906      0.0000    409.7476     19.9078
   319.2500     71.9144      0.0000    397.1584     20.0605
   319.5000     71.6828      0.0000    392.4935     20.1886
   319.7500     70.8710      0.0000    397.2595     20.2613
   320.0000     69.7020      0.0000    407.9282     20.2862
   320.2500     69.1842      0.0000    418.1376     20.3236
   320.5000     69.9359      0.0000    428.8612     20.4195
   320.7500     71.3249      0.0000    449.9911     20.5594
   321.0000     71.9954      0.0000    476.3097     20.7103
   321.2500     71.1794      0.0000    480.0072     20.8682
   321.5000     69.3203      0.0000    449.3652     21.0654
   321.7500     67.4085      0.0000    407.5170     21.3400
   322.0000     65.8344      0.0000    378.7859     21.5732
   322.2500     64.0371      0.0000    372.7680     21.2743
   322.5000     61.2973      0.0000    396.3786     19.9157
   322.7500     57.6330      0.0000    440.4172     17.8354
   323.0000     53.7460      0.0000    466.4608     16.1931
   323.2500     50.3336      0.0000    448.0854     15.6634
   323.5000     47.7861      0.0000    407.1896     15.9193
   323.7500     46.4467      0.0000    377.8557     16.3823
   324.0000     46.6814      0.0000    366.4153     16.7685
   324.2500     48.4988      0.0000    365.0243     16.9947
   324.5000     51.4442      0.0000    373.9305     17.0110
   324.7500     55.0733      0.0000    394.8707     17.0244
   325.0000     59.2575      0.0000    414.3947     17.6332
   325.2500     63.7725      0.0000    411.6215     19.0706
   325.5000     67.6649      0.0000    384.4586     20.8671
   325.7500     69.3475      0.0000    351.1986     22.6457
   326.0000     67.7031      0.0000    327.2118     24.1949
   326.2500     63.2733      0.0000    315.0412     25.1519
   326.5000     58.1992      0.0000    311.5135     25.3987
   326.7500     54.7303      0.0000    314.0823     25.1822
   327.0000     53.5972      0.0000    321.3925     24.7564
   327.2500     53.7474      0.0000    330.8156     24.2608
   327.5000     53.6001      0.0000    338.4785     23.7939
   327.7500     52.4081      0.0000    342.5258     23.3965
   328.0000     50.4552      0.0000    343.9277     23.0288
   328.2500     48.3374      0.0000    344.2810     22.6462
   328.5000     46.3916      0.0000    344.4729     22.2617
   328.7500     44.6518      0.0000    344.8054     21.9309
   329.0000     42.9836      0.0000    345.4200     21.7132
   329.2500     41.2210      0.0000    346.9505     21.6222
   329.5000     39.4134      0.0000    351.1951     21.5987
   329.7500     38.0070      0.0000    360.1681     21.5598
   330.0000     37.6475      0.0000    374.1987     21.4772
   330.2500     38.7064      0.0000    393.1534     21.3820
   330.5000     40.9780      0.0000    417.0770     21.3069
   330.7500     43.8047      0.0000    440.7460     21.2535
   331.0000     46.4744      0.0000    454.1903     21.2053
   331.2500     48.5365      0.0000    456.1145     21.1466
   331.5000     49.8641      0.0000    460.7503     21.0671
   331.7500     50.5607      0.0000    484.8191     20.9693
   332.0000     50.8078      0.0000    528.9849     20.8729
   332.2500     50.6223      0.0000    571.8633     20.7958
   332.5000     49.7384      0.0000    587.7711     20.7261
   332.7500     47.9411      0.0000    580.3002     20.6386
   333.0000     45.6108      0.0000    578.9592     20.5335
   333.2500     43.6894      0.0000    597.8176     20.4346
   333.5000     42.8614      0.0000    630.7888     20.3549
   333.7500     42.8376      0.0000    670.7319     20.2870
   334.0000     42.6615      0.0000    706.0192     20.2285
   334.2500     41.7013      0.0000    724.0676     20.2008
   334.5000     40.1745      0.0000    719.1277     20.2293
   334.7500     38.8190      0.0000    684.8770     20.3275
