~Version Information
VERS.                      2.0: CWLS Log ASCII Standard - VERSION 2.0
WRAP.                       NO: One line per depth step
~Well Information Block
STRT.FT               570.0000: 
STOP.FT              1958.5000: 
STEP.FT                 0.2500: 
NULL.                -999.2500: 
COMP.          Petrogulf Corporation: COMPANY
WELL.            Montoya 7-14R: WELL
FLD.           Purgatorie River: FIELD
LOC.           628' FSL & 454' FWL: LOCATION
PROV.                 Colorado: PROVINCE
CNTY.               Las Animas: COUNTRY
SRVC.                Patterson: SERVICE COMPANY
DATE.          Sat Oct 08 17:13:52 2005: LOG DATE
UWI.                          : UNIQUE WELL ID
~Curve Information Block
DEPT.FT            0 000 00 00: Depth
SP.mV                         : DIL Spontaneous Potential
RILD.Ohm-m                    : DIL Deep Resistivity
RILM.Ohm-m                    : DIL Medium Resistivity
RLL3.Ohm-m                    : DIL Shallow Resistivity
GR.GAPI                       : Gamma Ray
~Parameter Information Block
~A  Depth        SP         RILD        RILM        RLL3         GR     
# ...
  1578.0000    224.4630     10.8485     10.6696     12.7163    119.4641
  1578.2500    224.3017     10.9013     10.7924     12.9632    117.7146
  1578.5000    223.9717     11.0261     10.9445     13.3284    116.8696
  1578.7500    223.4841     11.2142     11.1245     13.7896    116.4868
  1579.0000    222.8895     11.4522     11.3305     14.1807    114.5852
  1579.2500    222.2537     11.7220     11.5607     14.2953    112.3226
  1579.5000    221.6234     12.0002     11.8122     14.0822    109.1612
  1579.7500    221.0057     12.2600     12.0800     13.7697    108.6090
  1580.0000    220.3742     12.4758     12.3544     13.7943    111.1631
  1580.2500    219.6909     12.6298     12.6198     14.5527    114.4836
  1580.5000    218.9250     12.7179     12.8544     16.1038    119.3634
  1580.7500    218.0606     12.7494     13.0340     18.0012    121.0605
  1581.0000    217.0981     12.7431     13.1384     19.4393    120.2772
  1581.2500    216.0558     12.7207     13.1588     19.7204    118.1972
  1581.5000    214.9716     12.7027     13.1022     18.7259    115.0826
  1581.7500    213.8981     12.7065     12.9903     16.9723    114.2178
  1582.0000    212.8891     12.7456     12.8536     15.2056    115.5564
  1582.2500    211.9827     12.8294     12.7247     13.9318    117.8919
  1582.5000    211.1898     12.9627     12.6329     13.2590    122.3742
  1582.7500    210.4914     13.1457     12.6024     13.0302    125.4452
  1583.0000    209.8472     13.3748     12.6526     13.0148    129.5235
  1583.2500    209.2159     13.6447     12.8007     13.0553    131.3244
  1583.5000    208.5772     13.9507     13.0623     13.1953    131.5007
  1583.7500    207.9434     14.2902     13.4528     13.7459    129.9320
  1584.0000    207.3526     14.6626     13.9858     15.1718    126.8424
  1584.2500    206.8504     15.0683     14.6713     17.7895    125.5990
  1584.5000    206.4712     15.5074     15.5120     21.4926    125.3966
  1584.7500    206.2302     15.9783     16.4985     25.7771    125.1732
  1585.0000    206.1264     16.4778     17.6044     30.0589    121.8105
  1585.2500    206.1507     16.9997     18.7815     33.9533    116.7364
  1585.5000    206.2955     17.5322     19.9583     37.2893    106.0139
  1585.7500    206.5581     18.0552     21.0423     40.0039     98.3285
  1586.0000    206.9361     18.5407     21.9311     42.0963     88.3087
  1586.2500    207.4179     18.9596     22.5313     43.5407     83.2869
  1586.5000    207.9739     19.2945     22.7841     44.0917     78.3451
  1586.7500    208.5566     19.5479     22.6863     43.2377     76.6346
  1587.0000    209.1081     19.7400     22.2968     40.5149     76.3213
  1587.2500    209.5705     19.8946     21.7214     35.9551     77.7007
  1587.5000    209.8958     20.0209     21.0839     30.2531     82.4474
  1587.7500    210.0539     20.1024     20.4961     24.5369     87.4140
  1588.0000    210.0441     20.1003     20.0398     19.9578     96.7335
  1588.2500    209.9047     19.9716     19.7591     17.3608    103.2401
  1588.5000    209.7136     19.6910     19.6609     17.1413    111.8273
  1588.7500    209.5723     19.2657     19.7180     19.2565    116.1740
  1589.0000    209.5807     18.7329     19.8736     23.3265    119.8422
  1589.2500    209.8155     18.1487     20.0488     28.7459    119.7948
  1589.5000    210.3190     17.5760     20.1575     34.6906    115.4465
  1589.7500    211.0971     17.0761     20.1275     40.0276    110.4226
  1590.0000    212.1217     16.7011     19.9220     43.4151    102.6740
  1590.2500    213.3385     16.4872     19.5512     43.8315     98.9130
  1590.5000    214.6805     16.4487     19.0673     41.1766     95.7766
  1590.7500    216.0804     16.5756     18.5459     36.2956     94.6634
  1591.0000    217.4756     16.8346     18.0649     30.4231     93.9765
  1591.2500    218.8056     17.1733     17.6888     24.7016     94.6888
  1591.5000    220.0132     17.5291     17.4611     20.0775     98.2120
  1591.7500    221.0523     17.8408     17.4027     17.2792    101.7393
  1592.0000    221.8964     18.0611     17.5124     16.6989    107.1085
  1592.2500    222.5392     18.1672     17.7690     18.3341    109.9266
  1592.5000    222.9901     18.1670     18.1349     21.8062    112.2016
  1592.7500    223.2684     18.0990     18.5634     26.2939    112.1144
  1593.0000    223.3985     18.0259     19.0106     30.4774    109.6387
  1593.2500    223.4043     18.0202     19.4495     32.8733    107.0935
  1593.5000    223.3055     18.1480     19.8806     32.6023    103.8309
  1593.7500    223.1200     18.4541     20.3330     30.0082    103.0498
  1594.0000    222.8691     18.9514     20.8561     26.5206    104.9436
  1594.2500    222.5815     19.6200     21.5066     23.8877    108.1608
  1594.5000    222.2936     20.4126     22.3354     23.4486    114.2755
  1594.7500    222.0461     21.2675     23.3785     25.8475    117.5794
  1595.0000    221.8776     22.1227     24.6517     31.0244    118.9245
  1595.2500    221.8172     22.9249     26.1471     38.1985    116.9474
  1595.5000    221.8786     23.6265     27.8317     45.8621    110.5447
  1595.7500    222.0589     24.1793     29.6450     52.0775    104.9140
  1596.0000    222.3409     24.5322     31.4940     55.2766     95.8571
  1596.2500    222.6975     24.6410     33.2425     55.2444     90.0173
  1596.5000    223.0978     24.4799     34.6972     53.4478     82.3034
  1596.7500    223.5200     24.0435     35.6041     52.1472     78.1625
  1597.0000    223.9701     23.3384     35.6843     52.8293     73.7370
  1597.2500    224.4910     22.3813     34.7294     55.2380     71.9424
  1597.5000    225.1486     21.2116     32.7235     57.7382     70.4876
  1597.7500    225.9970     19.9006     29.8981     58.5018     69.9960
  1598.0000    227.0439     18.5403     26.6525     56.4153     69.9662
  1598.2500    228.2376     17.2164     23.3927     51.2471     70.8510
  1598.5000    229.4797     15.9858     20.4082     43.5089     74.3968
  1598.7500    230.6503     14.8730     17.8420     34.4010     78.5182
  1599.0000    231.6390     13.8796     15.7242     25.5724     87.5957
  1599.2500    232.3749     12.9969     14.0203     18.4716     95.7858
  1599.5000    232.8492     12.2139     12.6700     13.7261    111.4451
  1599.7500    233.1149     11.5191     11.6081     11.0826    123.5829
  1600.0000    233.2607     10.9008     10.7754      9.8412    141.5624
  1600.2500    233.3730     10.3481     10.1220      9.3333    151.1947
  1600.5000    233.5097      9.8540      9.6076      9.1457    159.6773
  1600.7500    233.6943      9.4164      9.2006      9.0998    161.6556
  1601.0000    233.9234      9.0370      8.8768      9.1354    161.8765
  1601.2500    234.1767      8.7177      8.6174      9.2307    161.8708
  1601.5000    234.4245      8.4580      8.4083      9.3818    163.0163
  1601.7500    234.6363      8.2537      8.2388      9.5874    164.5325
  1602.0000    234.7895      8.0990      8.1008      9.8112    167.1523
  1602.2500    234.8739      7.9872      7.9884      9.9616    168.3438
  1602.5000    234.8881      7.9121      7.8978      9.9413    167.6418
  1602.7500    234.8294      7.8671      7.8267      9.7293    164.8741
  1603.0000    234.6853      7.8445      7.7739      9.4102    157.8652
  1603.2500    234.4329      7.8354      7.7385      9.1188    152.7411
  1603.5000    234.0449      7.8311      7.7194      8.9619    147.6263
  1603.7500    233.4999      7.8254      7.7145      8.9806    147.2585
  1604.0000    232.7896      7.8155      7.7214      9.1505    151.1729
  1604.2500    231.9242      7.8021      7.7367      9.3957    155.2612
  1604.5000    230.9343      7.7882      7.7574      9.6168    159.9048
  1604.7500    229.8709      7.7766      7.7809      9.7350    160.3368
  1605.0000    228.7979      7.7697      7.8060      9.7319    156.6307
  1605.2500    227.7753      7.7693      7.8325      9.6495    152.5100
  1605.5000    226.8376      7.7769      7.8615      9.5560    146.8175
  1605.7500    225.9834      7.7937      7.8945      9.5057    144.5259
