~Version Information
 VERS.                                  2.0 : CWLS LAS VERSION
 WRAP.                                   NO : WRAPING MODE
 SWARE .                 MController 2.5.0N : SOFTWARE VERSION
~Well Information
 WELL.                         John K 12-28 : WELL
 COMP.       Pioneer Natural Resources, USA : COMPANY
 FLD.                       Purgatory River : FIELD
 LOC.               SW/NW Sec 28 T32S R 65W : LOCATION
 DATE.                              4/07/06 : DATE(S) LOGGED
 SRVC.       Blanco Geological Services LLC : SERVICE COMPANY
 STAT.                             Colorado : STATE
 CNTY.                           Las Animas : COUNTY
 CTRY.                                  USA : COUNTRY
 API.                       05-071-08723-00 : API NUMBER
 STRT.FT                             321.00 : START DEPTH
 STOP.FT                            1440.00 : STOP DEPTH
 STEP.FT                               1.00 : DEPTH INCREMENT
 NULL.                                -9999 : NULL VALUE
~Curve information
 DEPTH.FT                                   :
 ROP.MIN/FT                                 :
 GAS.UNITS                                  :
~ASCII Log data
# ...
       521.0         0.30          2.9 
       522.0         0.27          3.0 
       523.0         0.23          2.8 
       524.0         0.30          3.5 
       525.0         0.27          4.7 
       526.0         0.23          4.8 
       527.0         0.27          4.7 
       528.0         0.27          4.1 
       529.0         0.27          3.8 
       530.0         0.27          3.9 
       531.0         0.32          3.6 
       532.0         2.57          4.0 
       533.0         0.27          2.2 
       534.0         0.27          1.5 
       535.0         0.28         15.4 
       536.0         0.50         32.4 
       537.0         0.47         27.2 
       538.0         0.40         17.6 
       539.0         0.30         30.0 
       540.0         0.30         38.3 
       541.0         0.23         38.3 
       542.0         0.30         36.5 
       543.0         0.30         24.8 
       544.0         0.23         36.8 
       545.0         0.25         47.9 
       546.0         0.27         59.8 
       547.0         0.23         75.1 
       548.0         0.23         79.7 
       549.0         0.20         78.3 
       550.0         0.27         71.5 
       551.0         0.20         68.2 
       552.0         0.20         69.0 
       553.0         0.20         69.4 
       554.0         0.20         72.7 
       555.0         0.20         84.2 
       556.0         0.27         88.8 
       557.0         0.20         87.4 
       558.0         0.30         80.0 
       559.0         0.35         68.7 
       560.0         0.33         82.3 
       561.0         0.43        100.9 
       562.0         4.65        859.3 
       563.0         0.70        684.4 
       564.0         0.48        202.6 
       565.0         0.40        191.9 
       566.0         0.40        156.3 
       567.0         0.40        105.9 
       568.0         0.43         58.9 
       569.0         0.40         50.5 
       570.0         0.43         52.4 
       571.0         0.33         61.1 
       572.0         0.30         61.7 
       573.0         0.35         60.4 
       574.0         0.30         59.2 
       575.0         0.27         59.2 
       576.0         0.27         60.2 
       577.0         0.27         60.9 
       578.0         0.27         59.2 
       579.0         0.30         55.1 
       580.0         0.37         50.2 
       581.0         0.33         47.4 
       582.0         0.33         48.2 
       583.0         0.30         52.3 
       584.0         0.28         56.2 
       585.0         0.27         56.5 
       586.0         0.27         54.7 
       587.0         0.27         49.9 
       588.0         0.27         41.6 
       589.0         0.30         39.9 
       590.0         0.40         40.6 
       591.0         0.33         41.0 
       592.0         4.15       1046.6 
       593.0         0.48       1058.1 
       594.0         0.27        631.9 
       595.0         0.20        440.0 
       596.0         0.23        440.0 
       597.0         0.17        189.9 
       598.0         0.20        190.3 
       599.0         0.17        190.2 
       600.0         0.20        182.0 
       601.0         0.20        157.2 
       602.0         0.20        140.7 
       603.0         0.27        137.7 
       604.0         0.33        137.8 
       605.0         0.27        133.5 
       606.0         0.20        129.9 
       607.0         0.22        133.1 
       608.0         0.20        140.4 
       609.0         0.20        150.4 
       610.0         0.23        152.2 
       611.0         0.20        146.7 
       612.0         0.17        134.2 
       613.0         0.20        120.8 
       614.0         0.17        116.2 
       615.0         0.20        114.3 
       616.0         0.20        112.7 
       617.0         0.20        110.8 
       618.0         0.20        108.2 
       619.0         0.20        109.6 
       620.0         0.20        117.7 
       621.0         0.20        121.5 
       622.0         3.35       1002.5 
       623.0         0.20       1821.5 
       624.0         0.17       2134.2 
       625.0         0.18       2139.9 
       626.0         0.17       1921.2 
       627.0         0.20       1576.6 
       628.0         0.20       1344.4 
       629.0         0.20        978.6 
       630.0         0.27        814.1 
       631.0         0.23        731.3 
       632.0         0.23        723.9 
       633.0         0.23        717.8 
       634.0         0.23        698.9 
       635.0         0.23        639.0 
       636.0         0.27        571.2 
       637.0         0.30        502.8 
       638.0         0.27        462.1 
       639.0         0.27        441.5 
       640.0         0.32        272.2 
       641.0         0.23        288.2 
       642.0         0.23        292.3 
       643.0         0.23        290.6 
       644.0         0.23        293.8 
       645.0         0.23        298.8 
       646.0         0.30        322.5 
       647.0         0.27        354.9 
       648.0         0.27        375.5 
       649.0         0.27        378.5 
       650.0         0.27        378.7 
       651.0         0.30        382.8 
       652.0         5.23       3660.7 
       653.0         0.50        963.1 
       654.0         0.37        808.4 
       655.0         0.37        763.6 
       656.0         0.30        901.4 
       657.0         0.35        975.2 
       658.0         0.37        962.1 
       659.0         0.23        801.3 
       660.0         0.27        730.3 
       661.0         0.27        648.4 
       662.0         0.30        612.3 
       663.0         0.30        579.0 
       664.0         0.27        539.6 
       665.0         0.27        545.0 
       666.0         0.27        551.4 
       667.0         0.27        551.7 
       668.0         0.23        558.4 
       669.0         0.25        565.2 
       670.0         0.27        566.9 
       671.0         0.23        564.2 
       672.0         0.23        556.1 
       673.0         0.23        544.6 
       674.0         0.23        541.9 
       675.0         0.23        536.9 
       676.0         0.20        525.7 
       677.0         0.23        512.9 
       678.0         0.27        542.9 
       679.0         0.27        637.9 
       680.0         0.23        728.9 
       681.0         0.23        788.5 
       682.0         3.35       1259.9 
       683.0         0.35       3349.1 
       684.0         0.37       3743.6 
       685.0         0.53       3263.8 
       686.0         0.27       1819.8 
       687.0         0.37       1491.7 
       688.0         0.30       1336.7 
       689.0         0.27       1240.7 
       690.0         0.27       1102.2 
       691.0         0.27        990.4 
       692.0         0.23        903.8 
       693.0         0.30        857.6 
       694.0         0.32        766.0 
       695.0         0.33        633.9 
       696.0         0.23        582.7 
       697.0         0.23        616.4 
       698.0         0.17        642.3 
       699.0         0.20        647.7 
       700.0         0.17        650.7 
       701.0         0.17        661.2 
       702.0         0.17        667.6 
       703.0         0.20        666.2 
       704.0         0.23        633.6 
       705.0         0.30        587.1 
       706.0         0.23        528.4 
       707.0         0.23        528.1 
       708.0         0.38        640.3 
       709.0         0.27        714.4 
       710.0         0.23        735.6 
       711.0         0.30        726.2 
       712.0         3.12        701.3 
       713.0         0.57       2097.5 
       714.0         0.47       3863.6 
       715.0         0.53       3484.9 
       716.0         0.27       1815.8 
       717.0         0.33       1414.2 
       718.0         0.33       1291.6 
       719.0         0.32       1251.5 
       720.0         0.23       1123.1 
