~Version Information
 VERS.                                  2.0 : CWLS LAS VERSION
 WRAP.                                   NO : WRAPING MODE
 SWARE .                 MController 2.5.0J : SOFTWARE VERSION
~Well Information
 WELL.                    Parklane 43-34 Tr : WELL
 COMP.   Pioneer Natural Resources USA Inc. : COMPANY
 FLD.                      Purgatoire River : FIELD
 LOC.                NE/SE SEC 34 T32S R66W : LOCATION
 DATE.                             07/28/05 : DATE(S) LOGGED
 SRVC.       Blanco Geological Services LLC : SERVICE COMPANY
 STAT.                             Colorado : STATE
 CNTY.                           Las Animas : COUNTY
 CTRY.                                  USA : COUNTRY
 API.                       05-071-08452-00 : API NUMBER
 STRT.FT                             594.00 : START DEPTH
 STOP.FT                            1451.00 : STOP DEPTH
 STEP.FT                               1.00 : DEPTH INCREMENT
 NULL.                                -9999 : NULL VALUE
~Curve information
 DEPTH.FT                                   :
 ROP.MIN/FT                                 :
 GAS.UNITS                                  :
~ASCII Log data
# ...
      1194.0         0.67         59.6 
      1195.0         0.82         73.2 
      1196.0         1.30         56.7 
      1197.0         0.23         45.4 
      1198.0         0.13         43.6 
      1199.0         0.13         44.4 
      1200.0         0.13         43.4 
      1201.0         0.20         43.3 
      1202.0         0.23         43.6 
      1203.0         0.23         43.5 
      1204.0         0.23         43.7 
      1205.0         0.22         48.4 
      1206.0         0.27         65.0 
      1207.0         0.23         88.9 
      1208.0         0.23        117.8 
      1209.0         0.20        132.1 
      1210.0         0.13        137.1 
      1211.0         0.10        140.2 
      1212.0         0.10        139.4 
      1213.0         0.07        139.4 
      1214.0         0.20        137.9 
      1215.0         0.13        130.6 
      1216.0         0.10        113.2 
      1217.0         0.20        103.5 
      1218.0         0.20         90.8 
      1219.0         0.20         83.5 
      1220.0         0.17         80.4 
      1221.0         0.17         83.1 
      1222.0         0.27         92.7 
      1223.0         0.68        129.4 
      1224.0         0.30        164.1 
      1225.0         0.63        188.7 
      1226.0         1.07        215.2 
      1227.0         0.60        172.7 
      1228.0         0.35        164.9 
      1229.0         0.40        157.2 
      1230.0         0.40        142.8 
      1231.0         0.40        131.6 
      1232.0         0.40        121.8 
      1233.0         0.37        114.3 
      1234.0         0.37        109.3 
      1235.0         0.33        104.7 
      1236.0         0.37        100.7 
      1237.0         0.32         98.0 
      1238.0         0.37        107.9 
      1239.0         0.33        115.4 
      1240.0         0.37        113.0 
      1241.0         0.30        104.7 
      1242.0         0.30         99.8 
      1243.0         0.27         97.4 
      1244.0         0.30         96.8 
      1245.0         0.30         94.3 
      1246.0         0.33         94.1 
      1247.0         0.30         94.9 
      1248.0         0.32         90.0 
      1249.0         0.30         68.2 
      1250.0         0.27         57.4 
      1251.0         0.33         55.6 
      1252.0         0.80         68.9 
      1253.0         0.60        112.1 
      1254.0         0.27        158.5 
      1255.0         0.95        241.1 
      1256.0         1.10        181.1 
      1257.0         0.30         88.5 
      1258.0         0.27         88.1 
      1259.0         0.27         84.6 
      1260.0         0.27         80.9 
      1261.0         0.30         76.1 
      1262.0         0.30         72.7 
      1263.0         0.25         67.8 
      1264.0         0.27         65.0 
      1265.0         0.23         65.9 
      1266.0         0.27         81.8 
      1267.0         0.23         88.6 
      1268.0         0.23         93.2 
      1269.0         0.23         92.9 
      1270.0         0.20         91.8 
      1271.0         0.13         90.5 
      1272.0         0.13         88.2 
      1273.0         0.27         83.6 
      1274.0         0.23         74.4 
      1275.0         0.23         75.4 
      1276.0         0.23         75.6 
      1277.0         0.20         72.2 
      1278.0         0.22         60.4 
      1279.0         0.30         56.7 
      1280.0         0.27         58.9 
      1281.0         0.23         62.2 
      1282.0         0.13         64.6 
      1283.0         0.60         98.5 
      1284.0         0.10        108.3 
      1285.0         0.27        144.2 
      1286.0         1.95        247.3 
      1287.0         0.57        147.3 
      1288.0         0.37        142.6 
      1289.0         0.30        141.2 
      1290.0         0.50        133.2 
      1291.0         0.50        129.6 
      1292.0         0.40        118.8 
      1293.0         0.45        108.3 
      1294.0         0.37         95.2 
      1295.0         0.40         85.5 
      1296.0         0.33         79.8 
      1297.0         0.33         76.8 
      1298.0         0.30         71.5 
      1299.0         0.27         67.8 
      1300.0         0.23         66.1 
      1301.0         0.23         66.7 
      1302.0         0.23         75.8 
      1303.0         0.27         96.1 
      1304.0         0.22        106.0 
      1305.0         0.23        108.6 
      1306.0         0.17        105.1 
      1307.0         0.10        100.0 
      1308.0         0.10         98.2 
      1309.0         0.13         96.1 
      1310.0         0.20         91.8 
      1311.0         0.23         81.8 
      1312.0         0.40         69.0 
      1313.0         0.17         64.6 
      1314.0         0.23         65.7 
      1315.0         0.60         72.7 
      1316.0         1.38        229.0 
      1317.0         0.23        230.2 
      1318.0         0.23        227.8 
      1319.0         0.27        217.4 
      1320.0         0.40        188.6 
      1321.0         0.37        134.4 
      1322.0         0.33        113.4 
      1323.0         0.27        107.3 
      1324.0         0.37        103.4 
      1325.0         0.32        100.4 
      1326.0         0.20         97.3 
      1327.0         0.27         94.3 
      1328.0         0.27         89.9 
      1329.0         0.27         85.6 
      1330.0         0.27         83.7 
      1331.0         0.27         78.1 
      1332.0         0.17         80.7 
      1333.0         0.20         90.7 
      1334.0         0.23         95.9 
      1335.0         0.17         96.5 
      1336.0         0.17         96.7 
      1337.0         0.13         95.5 
      1338.0         0.07         94.7 
      1339.0         0.13         93.8 
      1340.0         0.17         92.9 
      1341.0         0.17         90.8 
      1342.0         0.18         89.5 
      1343.0         0.13         85.9 
      1344.0         0.17         79.9 
      1345.0         0.20         71.4 
      1346.0         4.52        289.5 
      1347.0         0.30        115.0 
      1348.0         0.20         99.2 
      1349.0         0.27         92.6 
      1350.0         0.27         88.7 
      1351.0         0.23         89.0 
      1352.0         0.28         91.9 
      1353.0         0.30         92.4 
      1354.0         0.33         91.7 
      1355.0         0.30         88.9 
      1356.0         0.20         85.7 
      1357.0         0.20         82.2 
      1358.0         0.20         78.2 
      1359.0         0.20         75.8 
      1360.0         0.23         76.2 
      1361.0         0.17         76.5 
      1362.0         0.13         77.6 
      1363.0         0.17         78.1 
      1364.0         0.17         78.3 
      1365.0         0.13         78.3 
      1366.0         0.23         78.0 
      1367.0         0.23         77.5 
      1368.0         0.25         77.2 
      1369.0         0.23         73.8 
      1370.0         0.23         65.4 
      1371.0         0.23         54.6 
      1372.0         0.20         51.6 
      1373.0         0.30         51.6 
      1374.0         0.20         53.4 
      1375.0         1.37        121.9 
      1376.0         1.55        454.7 
      1377.0         0.70        447.3 
      1378.0         0.30        234.9 
      1379.0         0.33        179.6 
      1380.0         0.30        133.7 
      1381.0         0.42        112.1 
      1382.0         0.47         99.3 
      1383.0         0.40         93.3 
      1384.0         0.40         84.3 
      1385.0         0.37         76.1 
      1386.0         0.27         69.6 
      1387.0         0.33         79.2 
      1388.0         0.30         83.1 
      1389.0         0.17         82.7 
      1390.0         0.17         80.9 
      1391.0         0.30         77.1 
      1392.0         0.28         71.6 
      1393.0         0.40         72.6 
