~Version Information
VERS.                      2.0: CWLS Log ASCII Standard - VERSION 2.0
WRAP.                       NO: One line per depth step
~Well Information Block
STRT.FT               196.3000: 
STOP.FT              1631.0000: 
STEP.FT                 0.1000: 
NULL.                -999.2500: 
COMP.          Petrogulf Corporation: COMPANY
WELL.             State 16-44R: WELL
FLD.           Purgatoire River: FIELD
LOC.           632' FSL & 223' FEL--: LOCATION
PROV.                 Colorado: PROVINCE
CNTY.               Las Animas: COUNTRY
SRVC.                Patterson: SERVICE COMPANY
DATE.          Fri Oct 21 14:20:18 2005: LOG DATE
UWI.           05 071 08457 00: UNIQUE WELL ID
~Curve Information Block
DEPT.FT            0 000 00 00: Depth
DCAL.in                       : CDL Caliper
RHOB.g/cc                     : CDL Bulk Density
RHOC.g/cc                     : CDL Density Correction
DPOR.pu                       : CDL Density Porosity
NPOR.pu                       : Neutron Porosity
GR.GAPI                       : Gamma Ray
~Parameter Information Block
~A  Depth       DCAL        RHOB        RHOC        DPOR        NPOR         GR     
# ...
  1031.5000      7.9872      2.2108      0.2078     26.6198     29.8927    113.6823
  1031.6000      7.9872      2.2645      0.1825     23.3663     29.6813    111.1682
  1031.7000      7.9872      2.3073      0.1912     20.7727     29.3913    113.3614
  1031.8000      7.9827      2.3416      0.1405     18.6892     29.3685    118.6178
  1031.9000      7.9827      2.3751      0.0881     16.6583     29.3959    120.4862
  1032.0000      7.9826      2.4071      0.0771     14.7237     28.9210    119.9372
  1032.1000      7.9826      2.4319      0.0575     13.2160     28.3361    121.3107
  1032.2000      7.9826      2.4531      0.0346     11.9353     28.4236    127.0408
  1032.3000      7.9832      2.4718      0.0630     10.8025     29.0856    134.5193
  1032.4000      7.9832      2.4831      0.0711     10.1139     29.5273    139.9340
  1032.5000      7.9832      2.4863      0.0744      9.9195     29.2979    144.6394
  1032.6000      7.9832      2.4880      0.0511      9.8172     28.5293    147.6697
  1032.7000      7.9832      2.4907      0.0603      9.6530     27.6933    144.4075
  1032.8000      7.9825      2.4899      0.0780      9.7049     27.1619    136.7725
  1032.9000      7.9825      2.4941      0.0203      9.4477     26.6596    132.7909
  1033.0000      7.9817      2.5117      0.0835      8.3794     25.7026    133.4138
  1033.1000      7.9817      2.5268      0.0908      7.4674     24.5472    131.0055
  1033.2000      7.9817      2.5312      0.0538      7.2002     23.6849    122.6848
  1033.3000      7.9813      2.5377      0.0570      6.8067     23.2107    114.4428
  1033.4000      7.9813      2.5487      0.0691      6.1402     22.8036    113.1308
  1033.5000      7.9752      2.5538      0.0432      5.8312     22.1475    117.1213
  1033.6000      7.9752      2.5545      0.0446      5.7865     21.3862    117.1149
  1033.7000      7.9752      2.5627      0.0219      5.2887     20.8936    110.4234
  1033.8000      7.9631      2.5791      0.0461      4.2985     20.9862    103.1430
  1033.9000      7.9631      2.5968      0.0348      3.2246     21.5418    102.8484
  1034.0000      7.9552      2.6116      0.0665      2.3274     21.9776    108.4666
  1034.1000      7.9552      2.6133      0.1102      2.2269     21.9835    111.7436
  1034.2000      7.9552      2.5968      0.0632      3.2257     21.8884    109.1333
  1034.3000      7.9541      2.5740      0.0487      4.6063     22.0956    104.2296
  1034.4000      7.9541      2.5565      0.0637      5.6651     22.6896    103.6590
  1034.5000      7.9553      2.5502      0.0566      6.0506     23.1822    107.6190
  1034.6000      7.9553      2.5575      0.0786      5.6068     23.2806    113.2563
  1034.7000      7.9553      2.5678      0.0756      4.9793     23.4765    124.0335
  1034.8000      7.9553      2.5658      0.0868      5.1056     24.0415    138.0976
  1034.9000      7.9553      2.5525      0.0559      5.9117     24.7935    146.4079
  1035.0000      7.9546      2.5496      0.0499      6.0819     25.4449    150.3564
  1035.1000      7.9546      2.5646      0.1066      5.1747     25.5431    154.8387
  1035.2000      7.9546      2.5761      0.0884      4.4794     25.0835    157.4679
  1035.3000      7.9544      2.5725      0.0919      4.6982     24.7447    154.9160
  1035.4000      7.9544      2.5642      0.0833      5.2008     24.8689    149.1425
  1035.5000      7.9536      2.5637      0.0912      5.2290     25.1932    142.7179
  1035.6000      7.9536      2.5736      0.0925      4.6273     25.3516    133.0020
  1035.7000      7.9536      2.5855      0.1183      3.9102     25.0477    122.7529
  1035.8000      7.9511      2.5900      0.1088      3.6345     24.2886    117.7638
  1035.9000      7.9511      2.5914      0.0610      3.5513     23.7753    118.1537
  1036.0000      7.9502      2.5960      0.0837      3.2703     24.0936    120.2338
  1036.1000      7.9502      2.6054      0.0745      2.7005     24.8418    119.6217
  1036.2000      7.9502      2.6261      0.0741      1.4509     25.3524    117.0429
  1036.3000      7.9504      2.6540      0.0778     -0.2452     25.3626    116.0126
  1036.4000      7.9504      2.6645      0.1158     -0.8782     24.8642    116.1930
  1036.5000      7.9490      2.6438      0.0702      0.3759     24.2404    119.5634
  1036.6000      7.9490      2.6152      0.0515      2.1104     24.0443    126.9155
  1036.7000      7.9490      2.6063      0.0671      2.6504     24.1789    132.2536
  1036.8000      7.9506      2.6172      0.0904      1.9871     23.9620    133.0837
  1036.9000      7.9506      2.6310      0.0904      1.1501     23.1550    131.2847
  1037.0000      7.9544      2.6321      0.0778      1.0867     22.3486    126.6400
  1037.1000      7.9544      2.6189      0.1042      1.8834     22.2012    118.9134
  1037.2000      7.9544      2.6116      0.0188      2.3267     22.4708    111.5666
  1037.3000      7.9561      2.6235      0.1054      1.6037     22.7526    110.3950
  1037.4000      7.9561      2.6339      0.1013      0.9729     22.8979    114.0401
  1037.5000      7.9570      2.6257      0.0668      1.4701     22.6341    116.5218
  1037.6000      7.9570      2.6107      0.0696      2.3835     22.3519    117.1149
  1037.7000      7.9570      2.6049      0.0707      2.7324     22.5490    117.3892
  1037.8000      7.9565      2.6133      0.0468      2.2235     23.0312    118.0169
  1037.9000      7.9565      2.6302      0.0590      1.1999     23.4914    116.3507
  1038.0000      7.9543      2.6458      0.0801      0.2541     23.6988    110.9398
  1038.1000      7.9543      2.6529      0.0666     -0.1778     23.3844    107.4735
  1038.2000      7.9543      2.6513      0.0634     -0.0787     22.6740    109.3562
  1038.3000      7.9540      2.6504      0.0105     -0.0251     22.0222    112.8479
  1038.4000      7.9540      2.6596      0.0751     -0.5823     21.6711    115.5421
  1038.5000      7.9550      2.6648      0.1039     -0.9000     21.7308    117.0604
  1038.6000      7.9550      2.6397      0.0934      0.6254     22.2436    117.3391
  1038.7000      7.9550      2.5868      0.0379      3.8310     22.9258    115.0038
  1038.8000      7.9555      2.5488      0.0043      6.1314     23.3890    107.5378
  1038.9000      7.9555      2.5529      0.0455      5.8876     23.7988     98.1498
  1039.0000      7.9560      2.5759      0.0812      4.4931     24.4144     93.9610
  1039.1000      7.9560      2.5898      0.0690      3.6457     24.6608     94.4455
  1039.2000      7.9560      2.6003      0.0355      3.0145     24.2293     96.1443
  1039.3000      7.9558      2.6242      0.0444      1.5655     23.7389    100.9081
  1039.4000      7.9558      2.6560      0.1015     -0.3629     23.3974    107.3230
  1039.5000      7.9557      2.6724      0.1121     -1.3564     22.8667    109.0360
  1039.6000      7.9557      2.6622      0.0927     -0.7422     22.3268    104.5889
  1039.7000      7.9557      2.6344      0.0640      0.9426     22.3454    100.9686
  1039.8000      7.9548      2.6136      0.0201      2.2054     22.9381    101.9131
  1039.9000      7.9548      2.6166      0.0317      2.0220     23.5431    100.9765
  1040.0000      7.9521      2.6269      0.0619      1.4007     23.8193     97.7107
  1040.1000      7.9521      2.6184      0.0753      1.9152     24.0165     97.7752
  1040.2000      7.9521      2.5899      0.0522      3.6410     24.3057     99.9190
  1040.3000      7.9513      2.5635      0.0500      5.2430     24.2769    103.1558
  1040.4000      7.9513      2.5557      0.0345      5.7143     23.9598    112.5023
  1040.5000      7.9530      2.5631      0.0650      5.2693     23.8950    124.0916
  1040.6000      7.9530      2.5686      0.0920      4.9354     24.0303    126.6587
  1040.7000      7.9530      2.5644      0.0658      5.1905     24.1055    122.1738
  1040.8000      7.9519      2.5653      0.0611      5.1341     24.0876    120.4546
  1040.9000      7.9519      2.5808      0.0890      4.1915     23.8965    121.6621
  1041.0000      7.9494      2.5942      0.1128      3.3812     23.4864    120.9998
