~Version Information
 VERS.                                  2.0 : CWLS LAS VERSION
 WRAP.                                   NO : WRAPING MODE
 SWARE .                  MController 2.5.1 : SOFTWARE VERSION
~Well Information
 WELL.                 Rock Island 44-24 Tr : WELL
 COMP.  Pioneer Natural Resources USA, Inc. : COMPANY
 FLD.                      Purgatoire River : FIELD
 LOC.              SE/SE Sec.24, T32S, R66W : LOCATION
 DATE.                04/17/2006-04/18/2006 : DATE(S) LOGGED
 SRVC.                  Entrada GeoSciences : SERVICE COMPANY
 STAT.                             Colorado : STATE
 CNTY.                           Las Animas : COUNTY
 CTRY.                        United States : COUNTRY
 API.                       05-071-08680-00 : API NUMBER
 STRT.FT                             729.00 : START DEPTH
 STOP.FT                            1245.00 : STOP DEPTH
 STEP.FT                               1.00 : DEPTH INCREMENT
 NULL.                                -9999 : NULL VALUE
~Curve information
 DEPTH.FT                                   :
 ROP.MIN/FT                                 :
 GAS.UNITS                                  :
~ASCII Log data
      729.00         0.13         14.3  
      730.00         0.27         14.3 
      731.00         0.33         14.7 
      732.00         0.27         15.2 
      733.00         0.27         15.2 
      734.00         0.23         15.5 
      735.00         0.27         15.2 
      736.00         0.28         16.2 
      737.00         0.17         15.4 
      738.00         0.27         15.8 
      739.00         0.27         16.1 
      740.00         0.27         16.0 
      741.00         0.27         15.7 
      742.00         0.47        110.4 
      743.00         0.30        179.1 
      744.00         0.40         89.4 
      745.00         0.20         51.5 
      746.00         0.20         32.7 
      747.00         0.17         24.6 
      748.00         0.27         18.5 
      749.00         0.12         18.9 
      750.00         0.17         16.7 
      751.00         0.17         16.0 
      752.00         0.13         16.6 
      753.00         0.13         16.7 
      754.00         0.17         17.2 
      755.00         0.13         16.9 
      756.00         0.13         17.0 
      757.00         0.10         16.9 
      758.00         0.13         17.9 
      759.00         0.10         17.1 
      760.00         0.30         16.8 
      761.00         0.10         17.4 
      762.00         0.10         17.3 
      763.00         0.27         17.0 
      764.00         0.20         17.1 
      765.00         0.25         17.5 
      766.00         0.13         17.4 
      767.00         0.13         17.5 
      768.00         0.13         18.2 
      769.00         0.13         17.1 
      770.00         0.20         17.1 
      771.00         0.27         16.9 
      772.00         0.27         18.3 
      773.00         0.33         17.2 
      774.00         0.30         17.2 
      775.00         0.27         17.2 
      776.00         0.20         18.8 
      777.00         0.17         18.0 
      778.00         0.17         17.9 
      779.00         0.13         17.4 
      780.00         0.17         17.7 
      781.00         0.17         18.9 
      782.00         0.25         17.4 
      783.00         0.10         17.9 
      784.00         0.23         17.8 
      785.00         0.17         17.7 
      786.00         0.13         18.9 
      787.00         0.13         18.2 
      788.00         0.10         17.3 
      789.00         0.13         18.9 
      790.00         0.20         17.8 
      791.00         0.27         17.6 
      792.00         0.17         17.4 
      793.00         0.23         17.5 
      794.00         0.17         17.6 
      795.00         0.10         17.1 
      796.00         0.13         17.6 
      797.00         0.10         17.1 
      798.00         0.10         17.9 
      799.00         0.10         17.1 
      800.00         0.13         17.4 
      801.00         0.17         18.4 
      802.00         0.10         17.7 
      803.00         0.28         17.8 
      804.00         0.27         18.9 
      805.00         0.17         18.1 
      806.00         0.23         18.9 
      807.00         0.37         21.3 
      808.00         0.27         20.3 
      809.00         0.13         21.3 
      810.00         0.20         20.6 
      811.00         0.23         52.8 
      812.00         0.13         45.4 
      813.00         0.15         39.7 
      814.00         0.13         34.7 
      815.00         0.13         31.9 
      816.00         0.17         29.7 
      817.00         0.13         29.0 
      818.00         0.10         27.5 
      819.00         0.10         25.8 
      820.00         0.13         25.9 
      821.00         0.17         25.4 
      822.00         0.17         24.0 
      823.00         0.13         25.3 
      824.00         0.13         24.9 
      825.00         0.17         23.4 
      826.00         0.13         23.1 
      827.00         0.17         23.0 
      828.00         0.13         23.1 
      829.00         0.13         24.9 
      830.00         0.13         23.9 
      831.00         0.13         23.6 
      832.00         0.23         24.0 
      833.00         0.27         23.4 
      834.00         0.17         24.3 
      835.00         0.12         22.9 
      836.00         0.27         22.3 
      837.00         0.27         21.8 
      838.00         0.10         21.3 
      839.00         0.27         22.5 
      840.00         0.23         26.8 
      841.00         0.17         35.4 
      842.00         0.17         52.9 
      843.00         0.17         93.8 
      844.00         0.10        121.8 
      845.00         0.13        152.5 
      846.00         0.13        173.5 
      847.00         0.13        181.3 
      848.00         0.13        178.8 
      849.00         0.13        167.4 
      850.00         0.13        154.6 
      851.00         0.10        147.0 
      852.00         0.20        133.5 
      853.00         0.10        129.8 
      854.00         0.13        124.3 
      855.00         0.17        116.5 
      856.00         0.35        108.1 
      857.00         0.17        101.7 
      858.00         0.17         97.2 
      859.00         0.10         96.8 
      860.00         0.17         97.2 
      861.00         0.13         96.7 
      862.00         0.23         94.4 
      863.00         0.27         91.8 
      864.00         0.13         93.3 
      865.00         0.27         91.5 
      866.00         0.13         93.6 
      867.00         0.20        106.3 
      868.00         0.30        110.2 
      869.00         0.10        102.6 
      870.00         0.30        114.2 
      871.00         0.23        204.1 
      872.00         0.22       1371.6 
      873.00         0.17       1287.8 
      874.00         0.30       1070.3 
      875.00         0.17        975.6 
      876.00         0.27        874.2 
      877.00         0.10        849.0 
      878.00         0.13        817.9 
      879.00         0.17        796.2 
      880.00         0.13        783.7 
      881.00         0.17        771.9 
      882.00         0.20        760.4 
      883.00         0.23        742.1 
      884.00         0.20        728.4 
      885.00         0.17        722.3 
      886.00         0.17        718.5 
      887.00         0.25        713.4 
      888.00         0.17        718.8 
      889.00         0.17        713.4 
      890.00         0.23        703.1 
      891.00         0.17        699.6 
      892.00         0.17        694.5 
      893.00         0.13        677.5 
      894.00         0.27        697.4 
      895.00         0.27        700.6 
      896.00         0.13        697.7 
      897.00         0.27        681.4 
      898.00         0.33        656.4 
      899.00         0.33        787.9 
      900.00         0.53       1233.7 
      901.00         0.13        860.5 
      902.00         0.47        735.1 
      903.00         0.33        681.4 
      904.00         0.30        700.6 
      905.00         0.13        733.2 
      906.00         0.33        788.2 
      907.00         0.17        821.8 
      908.00         0.17        811.9 
      909.00         0.18        805.2 
      910.00         0.20        789.5 
      911.00         0.13        768.7 
      912.00         0.10        758.5 
      913.00         0.13        758.8 
      914.00         0.27        744.1 
      915.00         0.37        731.9 
      916.00         0.27        687.5 
      917.00         0.27        655.2 
      918.00         0.27        604.3 
      919.00         0.17        614.9 
      920.00         0.27        727.1 
      921.00         0.07        768.1 
      922.00         0.10        828.8 
      923.00         0.27        992.2 
      924.00         0.27       1213.9 
      925.00         0.22       1709.9 
      926.00         0.17       1882.0 
      927.00         0.23       1796.3 
      928.00         0.10       1646.3 
