~Version Information
VERS.                      2.0: CWLS Log ASCII Standard - VERSION 2.0
WRAP.                       NO: One line per depth step
~Well Information Block
STRT.FT               325.0000: 
STOP.FT              1013.5000: 
STEP.FT                 0.1000: 
NULL.                -999.2500: 
COMP.          Pioneer Natural Resources: COMPANY
WELL.                Doc 34-30: WELL
FLD.           Purgatoire River: FIELD
LOC.           454' FSL & 1386' FEL: LOCATION
CNTY.               Las Animas: COUNTY
SRVC.                Patterson: SERVICE COMPANY
DATE.          Thu Feb 16 07:19:58 2006: LOG DATE
UWI.           05 071 08694 00: UNIQUE WELL ID
STAT.                 Colorado: STATE
~Curve Information Block
DEPT.FT            0 000 00 00: Depth
DCAL.in                       : CDL Caliper
RHOB.g/cc                     : CDL Bulk Density
RHOC.g/cc                     : CDL Density Correction
DPOR.pu                       : CDL Density Porosity
GR.GAPI                       : Gamma Ray
NPOR.pu                       : Neutron Porosity
~Parameter Information Block
~A  Depth       DCAL        RHOB        RHOC        DPOR         GR         NPOR    
# ...
   545.8000      7.9992      2.5668      0.1647      5.0447    155.4521     25.7929
   545.9000      7.9992      2.5802      0.1497      4.2287    152.6847     26.6539
   546.0000      8.0003      2.5737      0.1253      4.6272    148.9669     26.8677
   546.1000      8.0003      2.5575      0.1516      5.6069    144.6807     26.7057
   546.2000      8.0003      2.5461      0.0923      6.2970    142.2147     26.7499
   546.3000      8.0028      2.5426      0.0674      6.5104    144.1581     27.0467
   546.4000      8.0028      2.5379      0.0370      6.7949    147.2799     27.5731
   546.5000      8.0035      2.5255      0.0304      7.5462    145.5911     28.2537
   546.6000      8.0035      2.5143      0.0108      8.2264    138.3191     28.5789
   546.7000      8.0035      2.5196      0.0184      7.9047    133.2292     28.3627
   546.8000      8.0013      2.5391      0.0588      6.7204    132.2938     27.9060
   546.9000      8.0013      2.5482      0.0973      6.1717    130.3570     27.3742
   547.0000      7.9987      2.5336      0.0113      7.0563    130.0177     26.8862
   547.1000      7.9987      2.5053      0.0918      8.7687    135.1122     26.6975
   547.2000      7.9987      2.4771      0.0173     10.4816    139.8549     26.8352
   547.3000      7.9974      2.4712     -0.0237     10.8390    139.4647     27.0448
   547.4000      7.9974      2.4938      0.0327      9.4666    140.5908     27.0250
   547.5000      7.9973      2.5224      0.0207      7.7359    149.2405     26.5294
   547.6000      7.9973      2.5394      0.0826      6.7014    158.7942     25.7945
   547.7000      7.9973      2.5415      0.0785      6.5757    160.7496     25.6617
   547.8000      7.9979      2.5350      0.0459      6.9723    155.0724     25.9936
   547.9000      7.9979      2.5289      0.0432      7.3418    144.2865     25.7761
   548.0000      7.9984      2.5246      0.0730      7.6003    132.5800     24.9710
   548.1000      7.9984      2.5170      0.0678      8.0626    131.0869     24.2664
   548.2000      7.9984      2.5027      0.0761      8.9274    141.7199     23.8611
   548.3000      7.9981      2.4846      0.0405     10.0269    153.2632     23.6364
   548.4000      7.9981      2.4701     -0.0020     10.9028    160.2115     23.4324
   548.5000      7.9981      2.4616      0.0362     11.4156    164.4162     22.8389
   548.6000      7.9981      2.4573      0.0230     11.6764    168.1303     22.0716
   548.7000      7.9981      2.4578      0.0928     11.6502    170.4958     22.0509
   548.8000      7.9994      2.4566      0.0774     11.7217    169.1368     22.9811
   548.9000      7.9994      2.4446      0.0662     12.4488    167.1020     23.9418
   549.0000      8.0005      2.4202      0.0947     13.9248    168.0570     24.0669
   549.1000      8.0005      2.3940      0.0723     15.5148    172.2150     23.8875
   549.2000      8.0005      2.3799      0.0682     16.3720    176.9009     24.1001
   549.3000      8.0008      2.3830      0.0332     16.1848    179.4153     24.1434
   549.4000      8.0008      2.3926      0.1150     15.6021    180.8415     23.7722
   549.5000      8.0012      2.3932      0.0963     15.5632    182.7852     23.5484
   549.6000      8.0012      2.3913      0.0991     15.6806    184.1253     23.4853
   549.7000      8.0012      2.3985      0.1315     15.2453    183.5007     23.5247
   549.8000      8.0014      2.4064      0.1335     14.7625    180.3333     24.1762
   549.9000      8.0014      2.3993      0.1250     15.1932    177.1024     25.5703
   550.0000      8.0012      2.3842      0.0057     16.1101    178.3776     26.9558
   550.1000      8.0012      2.3881      0.0268     15.8698    182.7780     27.6276
   550.2000      8.0012      2.4165      0.0759     14.1504    183.3106     27.7910
   550.3000      8.0009      2.4453      0.1197     12.4087    176.4878     28.2351
   550.4000      8.0009      2.4541      0.0936     11.8755    166.9441     29.2013
   550.5000      7.9999      2.4538      0.0528     11.8881    161.9491     30.0015
   550.6000      7.9999      2.4726      0.0585     10.7542    161.0233     30.2826
   550.7000      7.9999      2.5108      0.1178      8.4340    156.3437     30.1755
   550.8000      7.9980      2.5399      0.0856      6.6752    149.1571     29.6473
   550.9000      7.9980      2.5492      0.0490      6.1072    148.3617     29.1133
   551.0000      7.9966      2.5520      0.0289      5.9374    153.9193     29.0375
   551.1000      7.9966      2.5521      0.0196      5.9316    157.0679     29.1403
   551.2000      7.9966      2.5471      0.0340      6.2364    154.8411     28.9590
   551.3000      7.9963      2.5461     -0.0284      6.2949    150.1143     28.5463
   551.4000      7.9963      2.5612     -0.0050      5.3796    144.7202     28.3273
   551.5000      7.9959      2.5835      0.0230      4.0323    140.9247     28.3642
   551.6000      7.9959      2.5836      0.0348      4.0216    143.1160     28.4424
   551.7000      7.9959      2.5501     -0.0197      6.0551    148.8106     28.5326
   551.8000      7.9950      2.5149     -0.0609      8.1896    151.1626     29.0093
   551.9000      7.9950      2.5121     -0.0063      8.3606    151.2185     30.0875
   552.0000      7.9941      2.5295      0.0329      7.3056    153.5276     30.8988
   552.1000      7.9941      2.5347      0.0554      6.9905    155.8167     30.6007
   552.2000      7.9941      2.5225      0.0002      7.7246    154.3378     29.4257
   552.3000      7.9935      2.5121      0.0373      8.3596    153.4984     28.2035
   552.4000      7.9935      2.5171      0.0075      8.0569    152.1745     27.6170
   552.5000      7.9928      2.5403      0.0321      6.6465    144.6705     27.5116
   552.6000      7.9928      2.5749      0.0601      4.5527    137.0838     27.3948
   552.7000      7.9928      2.6056      0.1010      2.6882    133.6621     27.3946
   552.8000      7.9917      2.6169      0.1084      2.0063    129.9239     27.9504
   552.9000      7.9917      2.6065      0.0659      2.6344    126.9764     28.5722
   553.0000      7.9908      2.5926      0.0191      3.4762    128.2045     28.5551
   553.1000      7.9908      2.5945      0.0162      3.3612    128.7333     28.0824
   553.2000      7.9908      2.6139      0.0232      2.1887    125.8879     27.5144
   553.3000      7.9898      2.6375      0.0520      0.7570    122.3954     27.0250
   553.4000      7.9898      2.6524      0.0641     -0.1456    119.0676     26.8200
   553.5000      7.9879      2.6513      0.0619     -0.0790    116.9716     26.7883
   553.6000      7.9879      2.6329      0.0606      1.0368    117.0383     26.5832
   553.7000      7.9879      2.6044      0.0238      2.7667    117.4040     25.9662
   553.8000      7.9864      2.5725      0.0202      4.6958    115.0183     24.9839
   553.9000      7.9864      2.5290      0.0452      7.3318    110.1935     23.9898
   554.0000      7.9864      2.4727     -0.0295     10.7458    108.4745     23.1630
   554.1000      7.9864      2.4280     -0.0346     13.4571    113.0890     22.4790
   554.2000      7.9864      2.4091     -0.0206     14.6000    120.3103     22.0261
   554.3000      7.9870      2.4034     -0.0075     14.9436    125.6701     21.9208
   554.4000      7.9870      2.3963      0.0384     15.3729    130.5727     22.0889
   554.5000      7.9896      2.3871      0.0301     15.9358    136.7738     22.6536
   554.6000      7.9896      2.3774      0.0762     16.5238    143.5750     23.6963
   554.7000      7.9896      2.3705      0.1009     16.9376    149.9983     24.5200
   554.8000      7.9932      2.3816      0.1001     16.2689    154.2125     24.6367
   554.9000      7.9932      2.4105      0.1967     14.5169    156.1238     24.3841
   555.0000      7.9946      2.4314      0.1115     13.2496    156.0419     24.2405
   555.1000      7.9946      2.4386      0.0498     12.8149    154.3402     24.5379
   555.2000      7.9946      2.4503      0.0705     12.1032    155.5768     25.5035
   555.3000      7.9946      2.4735      0.0967     10.6948    163.9612     27.1264
