~Version Information
VERS.                      2.0: CWLS Log ASCII Standard - VERSION 2.0
WRAP.                       NO: One line per depth step
~Well Information Block
STRT.FT               360.0000: 
STOP.FT              1349.5000: 
STEP.FT                 0.1000: 
NULL.                -999.2500: 
COMP.          Pioneer Natural Resources: COMPANY
WELL.          Challenger 31-29: WELL
FLD.           Purgatoire River: FIELD
LOC.           51' FNL & 1923' FEL: LOCATION
STAT.                 Colorado: State
CNTY.               Las Animas: COUNTY
CTRY. USA : Country
SECT. 29 : Section
TOWN. 33S : Township
RANG. 65W : Range
SRVC.                Patterson: SERVICE COMPANY
DATE.          Thu Sep 15 13:35:50 2005: LOG DATE
API.           05 071 08514 00: UNIQUE WELL ID
~Curve Information Block
DEPT.FT            0 000 00 00: Depth
DCAL.in                       : CDL Caliper
RHOB.g/cc                     : CDL Bulk Density
RHOC.g/cc                     : CDL Density Correction
DPOR.pu                       : CDL Density Porosity
GR.GAPI                       : Gamma Ray
NPOR.pu                       : Neutron Porosity
~Parameter Information Block
~A  Depth       DCAL        RHOB        RHOC        DPOR         GR         NPOR    
# ...
  1080.0000      8.0484      2.3914      0.0581     15.6754     83.6784     16.5500
  1080.1000      8.0484      2.4293      0.1518     13.3768     85.7146     16.5359
  1080.2000      8.0484      2.4568      0.2186     11.7091     88.6387     16.7491
  1080.3000      8.0522      2.4420      0.1628     12.6033     98.9476     17.2624
  1080.4000      8.0522      2.4015      0.1611     15.0603    117.6059     17.8567
  1080.5000      8.0310      2.3667      0.1403     17.1680    130.3259     18.4042
  1080.6000      8.0310      2.3459      0.0848     18.4279    128.8887     18.8488
  1080.7000      8.0310      2.3243      0.1542     19.7412    123.0129     18.9903
  1080.8000      8.0207      2.2919      0.0590     21.7021    120.6145     18.7634
  1080.9000      8.0207      2.2653      0.0799     23.3129    122.2176     18.2224
  1081.0000      8.0380      2.2577      0.0534     23.7765    127.9674     17.8085
  1081.1000      8.0380      2.2585      0.0710     23.7268    132.0353     18.0275
  1081.2000      8.0380      2.2506      0.0650     24.2051    132.1166     18.3203
  1081.3000      8.0564      2.2339      0.0736     25.2207    131.2841     17.9416
  1081.4000      8.0564      2.2264      0.0515     25.6747    128.7641     17.2774
  1081.5000      8.0805      2.2344      0.0997     25.1854    124.3935     17.0665
  1081.6000      8.0805      2.2368      0.1429     25.0453    124.0330     17.4756
  1081.7000      8.0805      2.2222      0.1135     25.9276    128.7451     18.3002
  1081.8000      8.0563      2.2054      0.1099     26.9452    130.0014     18.9587
  1081.9000      8.0563      2.1967      0.0468     27.4719    124.8098     18.6103
  1082.0000      8.0328      2.1877      0.1234     28.0159    118.1129     17.5305
  1082.1000      8.0328      2.1677      0.0570     29.2319    113.0804     16.7217
  1082.2000      8.0328      2.1441     -0.0026     30.6625    110.7941     16.2448
  1082.3000      8.0433      2.1272      0.0402     31.6821    108.7986     15.7661
  1082.4000      8.0433      2.1151      0.0156     32.4211    104.1032     15.0940
  1082.5000      8.0638      2.0997      0.0320     33.3494    100.1752     14.1410
  1082.6000      8.0638      2.0631      0.0932     35.5721    100.3845     13.2647
  1082.7000      8.0638      1.9875      0.0464     40.1535    101.6239     12.6180
  1082.8000      8.0651      1.8891      0.0253     46.1180     99.5289     11.8272
  1082.9000      8.0651      1.8027     -0.0077     51.3518     95.6544     10.8065
  1083.0000      8.0866      1.7258      0.0291     56.0151     92.3044     10.0794
  1083.1000      8.0866      1.6248     -0.0078     62.1317     90.5771      9.8837
  1083.2000      8.0866      1.5107     -0.0553     69.0459     92.2840      9.8208
  1083.3000      8.0722      1.4456     -0.0408     72.9918     92.2278      9.7412
  1083.4000      8.0722      1.4557      0.1187     72.3804     83.9522      9.9934
  1083.5000      8.0778      1.5026      0.1799     69.5391     70.8572     10.6060
  1083.6000      8.0778      1.5521      0.1775     66.5391     60.3342     11.2718
  1083.7000      8.0778      1.6043      0.1616     63.3783     56.8339     11.9285
  1083.8000      8.1880      1.6673      0.1812     59.5568     60.0511     12.7198
  1083.9000      8.1880      1.7436      0.2499     54.9335     64.6658     13.6996
  1084.0000      8.2817      1.8290      0.2226     49.7559     66.0703     14.8479
  1084.1000      8.2817      1.9110      0.2644     44.7886     65.0421     16.3074
  1084.2000      8.2817      1.9847      0.2058     40.3231     64.6954     18.3180
  1084.3000      8.4555      2.0673      0.1862     35.3131     65.5823     20.4462
  1084.4000      8.4555      2.1576      0.1989     29.8406     67.1758     21.8604
  1084.5000      8.4359      2.2258      0.1810     25.7120     71.1615     22.3331
  1084.6000      8.4359      2.2749      0.1150     22.7345     78.7369     22.2682
  1084.7000      8.4359      2.3365      0.1396     19.0004     87.6118     22.3999
  1084.8000      8.3041      2.4018      0.2048     15.0445     93.9926     23.0473
  1084.9000      8.3041      2.4349      0.1632     13.0340     96.4277     23.8123
  1085.0000      8.1494      2.4380      0.0943     12.8459     97.8529     24.0226
  1085.1000      8.1494      2.4396      0.1193     12.7533    104.1719     23.3973
  1085.2000      8.1494      2.4485      0.1124     12.2118    113.5091     22.4838
  1085.3000      8.0969      2.4568      0.1101     11.7111    117.1297     22.3842
  1085.4000      8.0969      2.4578      0.1371     11.6467    116.9428     23.4574
  1085.5000      8.0941      2.4564      0.0941     11.7333    118.5666     24.5216
  1085.6000      8.0941      2.4639      0.1129     11.2775    121.1236     24.4193
  1085.7000      8.0941      2.4818      0.1074     10.1939    122.2888     23.7193
  1085.8000      8.0722      2.5000      0.1615      9.0892    123.3087     23.7176
  1085.9000      8.0722      2.5058      0.1750      8.7378    128.2933     24.3906
  1086.0000      8.0285      2.5059      0.1202      8.7304    134.4524     24.6927
  1086.1000      8.0285      2.5286      0.1048      7.3584    133.9588     24.2282
  1086.2000      8.0285      2.5746      0.1849      4.5667    124.6428     23.6205
  1086.3000      8.0221      2.6114      0.1542      2.3368    112.1555     23.5462
  1086.4000      8.0221      2.6250      0.1468      1.5133    105.2409     23.8905
  1086.5000      8.0240      2.6179      0.1850      1.9482    106.1814     24.1469
  1086.6000      8.0240      2.5865      0.1733      3.8467    107.9257     24.0488
  1086.7000      8.0240      2.5425      0.0840      6.5127    106.9198     23.7528
  1086.8000      8.0282      2.5082      0.0685      8.5921    107.2554     23.5893
  1086.9000      8.0282      2.4904      0.0807      9.6750    109.8469     23.6547
  1087.0000      8.0253      2.4901      0.0217      9.6924    109.2136     23.8107
  1087.1000      8.0253      2.5116      0.0243      8.3857    105.0991     23.7122
  1087.2000      8.0253      2.5446      0.1056      6.3879    103.8570     22.9665
  1087.3000      8.0083      2.5613      0.1683      5.3763    106.3705     22.1939
  1087.4000      8.0083      2.5500      0.0960      6.0614    107.7998     22.6221
  1087.5000      7.9985      2.5431      0.0775      6.4766    106.1894     23.8857
  1087.6000      7.9985      2.5713      0.1991      4.7676    103.3624     24.0432
  1087.7000      7.9985      2.6216      0.1181      1.7236    101.5595     22.9620
  1087.8000      8.0085      2.6642      0.1695     -0.8610    101.5432     22.1324
  1087.9000      8.0085      2.6710      0.1777     -1.2709    104.2720     21.6822
  1088.0000      7.9761      2.6341      0.1896      0.9609    112.1052     21.2959
  1088.1000      7.9761      2.5880      0.0890      3.7585    114.7135     21.3916
  1088.2000      7.9761      2.5755      0.0900      4.5139    106.9418     21.9595
  1088.3000      7.9681      2.5935      0.1252      3.4243    101.7214     22.1514
  1088.4000      7.9681      2.6056      0.1531      2.6910     98.7683     21.6510
  1088.5000      7.9800      2.5934      0.1343      3.4292     91.2352     21.1061
  1088.6000      7.9800      2.5628      0.0899      5.2861     88.0339     20.9773
  1088.7000      7.9800      2.5343      0.0122      7.0143     95.5379     20.8912
  1088.8000      7.9600      2.5345      0.0576      6.9993    107.7219     20.6180
  1088.9000      7.9600      2.5659      0.0220      5.0940    117.0709     20.5724
  1089.0000      8.0009      2.5962      0.1039      3.2592    117.0307     20.7918
  1089.1000      8.0009      2.5905      0.0916      3.6062    107.6000     21.1339
  1089.2000      8.0009      2.5475      0.0955      6.2117     97.6862     21.5335
  1089.3000      8.0155      2.4875      0.0604      9.8469     93.0130     21.6434
  1089.4000      8.0155      2.4377     -0.0126     12.8687     94.5768     21.8080
  1089.5000      8.0206      2.4209     -0.0045     13.8872     98.7296     22.9045
