~Version Information
VERS.                      2.0: CWLS Log ASCII Standard - VERSION 2.0
WRAP.                       NO: One line per depth step
~Well Information Block
STRT.FT               400.0000: 
STOP.FT              1577.5000: 
STEP.FT                 0.1000: 
NULL.                -999.2500: 
COMP.          Pioneer Natural Resources: COMPANY
WELL.          Lorencito 10-36-33-67: WELL
FLD.           Purgatoire River: FIELD
LOC.           2130' FSL & 2362' FEL: LOCATION
STAT.                 Colorado: State
CNTY.               Las Animas: COUNTY
CTRY. USA : Country
SECT. 36 : Section
TOWN. 33S : Township
RANG. 67W : Range
SRVC.                Patterson: SERVICE COMPANY
DATE.          Mon Aug 29 07:03:31 2005: LOG DATE
API.           05 071 08501 00: UNIQUE WELL ID
~Curve Information Block
DEPT.FT            0 000 00 00: Depth
DCAL.in                       : CDL Caliper
RHOB.g/cc                     : CDL Bulk Density
RHOC.g/cc                     : CDL Density Correction
DPOR.pu                       : CDL Density Porosity
GR.GAPI                       : Gamma Ray
NPOR.pu                       : Neutron Porosity
~Parameter Information Block
~A  Depth       DCAL        RHOB        RHOC        DPOR         GR         NPOR    
# ...
  1254.4000      8.0224      2.5345      0.0393      7.0001     59.4947     15.1182
  1254.5000      8.0464      2.5321      0.0572      7.1456     57.2585     15.5364
  1254.6000      8.0464      2.5165      0.0682      8.0894     53.6430     15.9106
  1254.7000      8.0464      2.5031      0.0012      8.9014     53.0704     16.4394
  1254.8000      8.0182      2.5165      0.0134      8.0899     55.7991     16.9468
  1254.9000      8.0182      2.5455      0.1097      6.3332     58.4898     17.4262
  1255.0000      8.0002      2.5589      0.0814      5.5187     59.1603     17.8279
  1255.1000      8.0002      2.5525      0.0466      5.9066     57.0997     18.1201
  1255.2000      8.0002      2.5423      0.0387      6.5280     53.6413     18.1064
  1255.3000      7.9647      2.5369      0.0539      6.8569     52.4845     17.6051
  1255.4000      7.9647      2.5307      0.0632      7.2277     54.4783     16.7793
  1255.5000      7.9750      2.5206      0.0310      7.8433     55.8046     16.3932
  1255.6000      7.9750      2.5147      0.0517      8.2003     55.5586     16.9501
  1255.7000      7.9750      2.5186      0.0589      7.9645     56.6219     17.4182
  1255.8000      7.9911      2.5336      0.0435      7.0559     58.3137     16.8523
  1255.9000      7.9911      2.5587      0.0550      5.5319     58.6927     16.0183
  1256.0000      7.9798      2.5893      0.0792      3.6798     58.6941     15.4739
  1256.1000      7.9798      2.6159      0.1274      2.0646     59.3866     15.1579
  1256.2000      7.9798      2.6260      0.1110      1.4560     59.9119     15.1565
  1256.3000      7.9440      2.6181      0.1202      1.9348     60.9868     15.6600
  1256.4000      7.9440      2.5985      0.0938      3.1242     63.1763     16.6273
  1256.5000      7.9248      2.5701      0.0844      4.8404     61.9902     17.0765
  1256.6000      7.9248      2.5372      0.0480      6.8337     55.9555     16.1321
  1256.7000      7.9248      2.5097      0.0073      8.5040     52.2069     14.7100
  1256.8000      7.9128      2.4925      0.0234      9.5482     56.8070     14.4244
  1256.9000      7.9128      2.4874      0.0225      9.8555     65.3696     15.7733
  1257.0000      7.9607      2.5007      0.0567      9.0465     69.4478     17.3426
  1257.1000      7.9607      2.5275      0.0941      7.4216     69.6099     17.4108
  1257.2000      7.9607      2.5492      0.0764      6.1070     68.0486     16.5359
  1257.3000      8.0347      2.5632      0.0202      5.2585     63.4110     15.8136
  1257.4000      8.0347      2.5781      0.0968      4.3556     57.6659     15.5090
  1257.5000      7.9275      2.5852      0.1266      3.9292     54.8508     15.7188
  1257.6000      7.9275      2.5778      0.0517      4.3734     56.1585     16.2156
  1257.7000      7.9275      2.5633      0.0786      5.2522     59.4843     16.5307
  1257.8000      7.9145      2.5467      0.0003      6.2605     63.5278     16.9036
  1257.9000      7.9145      2.5351     -0.0083      6.9647     68.9729     17.7909
  1258.0000      7.9188      2.5315      0.0389      7.1844     73.2952     18.7914
  1258.1000      7.9188      2.5320      0.0299      7.1541     72.6275     19.3364
  1258.2000      7.9188      2.5401     -0.0285      6.6616     69.5755     19.1102
  1258.3000      7.9602      2.5610      0.0501      5.3913     67.6124     18.1523
  1258.4000      7.9602      2.5854      0.0564      3.9154     64.9261     17.4946
  1258.5000      8.0072      2.5943      0.0641      3.3762     62.4145     17.9561
  1258.6000      8.0072      2.5824      0.0267      4.0961     64.1055     18.9181
  1258.7000      8.0072      2.5622      0.0202      5.3187     67.5510     19.1817
  1258.8000      8.0067      2.5328      0.0277      7.1015     68.9842     18.6950
  1258.9000      8.0067      2.4914      0.0272      9.6122     69.3863     18.3066
  1259.0000      8.0074      2.4652     -0.0547     11.2000     68.6502     18.4437
  1259.1000      8.0074      2.4774      0.0030     10.4632     65.5367     18.9302
  1259.2000      8.0074      2.5102      0.0287      8.4712     62.5678     19.3376
  1259.3000      7.9862      2.5382      0.0502      6.7743     62.3085     19.0339
  1259.4000      7.9862      2.5533      0.0319      5.8592     61.2459     17.9806
  1259.5000      7.9870      2.5482      0.0587      6.1711     57.7559     17.1328
  1259.6000      7.9870      2.5173      0.0545      8.0405     57.2717     17.0629
  1259.7000      7.9870      2.4817     -0.0149     10.2008     59.6197     17.4201
  1259.8000      7.9741      2.4626      0.0004     11.3575     58.6092     17.6133
  1259.9000      7.9741      2.4528     -0.0076     11.9519     56.3556     17.3455
  1260.0000      7.9442      2.4517     -0.0282     12.0182     57.1277     16.8499
  1260.1000      7.9442      2.4736     -0.0093     10.6903     59.6710     16.6227
  1260.2000      7.9442      2.5089      0.0260      8.5516     61.9761     16.7754
  1260.3000      7.9630      2.5291      0.0342      7.3244     63.7627     16.9767
  1260.4000      7.9630      2.5227      0.0266      7.7130     65.0367     17.0519
  1260.5000      7.9826      2.5025      0.0024      8.9385     65.2423     17.1119
  1260.6000      7.9826      2.4882      0.0250      9.8073     65.3635     17.5397
  1260.7000      7.9826      2.4908     -0.0150      9.6495     68.0726     18.3662
  1260.8000      7.9771      2.5069      0.0281      8.6733     70.6113     18.7998
  1260.9000      7.9771      2.5251      0.0618      7.5721     67.0548     18.5164
  1261.0000      7.9676      2.5419      0.0413      6.5508     60.5726     18.3260
  1261.1000      7.9676      2.5550      0.0694      5.7578     58.5564     18.5518
  1261.2000      7.9676      2.5586      0.0634      5.5400     59.9841     18.7866
  1261.3000      7.9556      2.5590      0.0630      5.5170     58.9189     18.4951
  1261.4000      7.9556      2.5676      0.0265      4.9968     55.7542     17.8242
  1261.5000      7.9559      2.5849      0.0262      3.9481     54.4255     17.8166
  1261.6000      7.9559      2.6010      0.0743      2.9674     55.0725     18.5311
  1261.7000      7.9559      2.6097      0.0776      2.4419     55.9001     18.9128
  1261.8000      7.9571      2.6158      0.0868      2.0734     56.4804     18.6330
  1261.9000      7.9571      2.6213      0.0862      1.7380     57.8544     18.3485
  1262.0000      7.9670      2.6140      0.0789      2.1822     59.2577     19.0191
  1262.1000      7.9670      2.5900      0.0220      3.6349     59.8140     20.4726
  1262.2000      7.9670      2.5731      0.0015      4.6592     61.8417     20.8706
  1262.3000      7.9642      2.5772      0.0246      4.4141     64.2496     19.5152
  1262.4000      7.9642      2.5854      0.0401      3.9152     65.3043     17.8391
  1262.5000      7.9517      2.5901     -0.0024      3.6312     69.4704     17.0578
  1262.6000      7.9517      2.5980      0.0671      3.1493     78.1052     17.1667
  1262.7000      7.9517      2.6078      0.0548      2.5563     85.6322     17.4784
  1262.8000      7.9637      2.6176      0.0743      1.9632     87.0445     17.5516
  1262.9000      7.9637      2.6228      0.0985      1.6473     83.2594     17.2611
  1263.0000      7.9643      2.6117      0.1055      2.3212     78.6062     16.9810
  1263.1000      7.9643      2.5741      0.1220      4.6003     74.2737     17.6309
  1263.2000      7.9643      2.5207      0.0128      7.8381     72.9908     19.1243
  1263.3000      7.9592      2.4849     -0.0443     10.0087     78.2748     20.1657
  1263.4000      7.9592      2.4797      0.0295     10.3205     84.6167     20.2457
  1263.5000      7.9413      2.4894      0.0523      9.7337     87.1076     19.8026
  1263.6000      7.9413      2.5103      0.0445      8.4656     90.6609     19.5352
  1263.7000      7.9413      2.5474      0.0478      6.2179     96.1170     20.0203
  1263.8000      7.9607      2.5865      0.1273      3.8472     99.7495     20.8310
  1263.9000      7.9607      2.6066      0.1512      2.6305    101.2657     20.8239
