~Version Information
VERS.                      2.0: CWLS Log ASCII Standard - VERSION 2.0
WRAP.                       NO: One line per depth step
~Well Information Block
STRT.FT                -8.5000: 
STOP.FT              2591.0000: 
STEP.FT                 0.2500: 
NULL.                -999.2500: 
COMP.          Pioneer Natural Resources: COMPANY
WELL.             Aviator 12-4: WELL
FLD.           Purgatorie River: FIELD
LOC.           1969' FNL & 732' FWL--: LOCATION
CNTY.               Las Animas: COUNTY
SRVC.          Patterson Wireline: SERVICE COMPANY
DATE.          Wed Apr 19 09:09:26 2006: LOG DATE
UWI.           05 071 08714 00: UNIQUE WELL ID
STAT.                       CO: STATE
~Curve Information Block
DEPT.FT            0 000 00 00: Depth
CCL.                          : Casing Collar Locator
TT3.usec                      : CBL 3' Travel Time
AMP3.mV                       : CBL 3' Amplitude
GR.GAPI                       : Gamma Ray
~Parameter Information Block
~A  Depth       CCL         TT3         AMP3         GR     
# ...
  1197.5000      0.0000    743.0742      6.6717    104.1290
  1197.7500      0.0000    728.8428      6.6549    103.0752
  1198.0000      0.0000    705.9642      6.6779    106.4023
  1198.2500      0.0000    676.6346      6.7388    112.3861
  1198.5000      0.0000    646.1812      6.8295    119.9610
  1198.7500      0.0000    621.0403      6.9299    128.5698
  1199.0000      0.0000    605.8638      7.0126    137.1213
  1199.2500      0.0000    601.6509      7.0561    144.3177
  1199.5000      0.0000    606.0836      7.0566    150.1605
  1199.7500      0.0000    615.3763      7.0261    155.9788
  1200.0000      0.0000    625.5770      6.9806    162.2433
  1200.2500      0.0000    633.0258      6.9301    167.1835
  1200.5000      0.0000    636.0844      6.8771    168.3872
  1200.7500      0.0000    637.4477      6.8209    165.2759
  1201.0000      0.0000    642.5558      6.7652    159.2746
  1201.2500      0.0000    653.9213      6.7203    152.1846
  1201.5000      0.0000    667.6581      6.6959    145.4285
  1201.7500      0.0000    676.0692      6.6913    140.4302
  1202.0000      0.0000    673.2189      6.6966    138.4299
  1202.2500      0.0000    658.9715      6.7031    139.5250
  1202.5000      0.0000    639.6689      6.7102    142.4089
  1202.7500      0.0000    625.3517      6.7204    145.1165
  1203.0000      0.0000    624.4958      6.7322    145.7309
  1203.2500      0.0000    639.0754      6.7437    142.8660
  1203.5000      0.0000    663.4271      6.7567    136.6191
  1203.7500      0.0000    687.9462      6.7747    129.2948
  1204.0000      0.0000    704.3107      6.7966    124.3597
  1204.2500      0.0000    708.0086      6.8135    123.9798
  1204.5000      0.0000    697.9147      6.8112    127.3126
  1204.7500      0.0000    675.7593      6.7792    131.0812
  1205.0000      0.0000    646.3712      6.7218    132.0258
  1205.2500      0.0000    616.7491      6.6561    129.3161
  1205.5000      0.0000    593.2915      6.5933    124.8134
  1205.7500      0.0000    579.5092      6.5211    121.2203
  1206.0000      0.0000    576.2191      6.4070    120.2046
  1206.2500      0.0000    583.0297      6.2200    121.6787
  1206.5000      0.0000    598.8358      5.9538    124.0957
  1206.7500      0.0000    621.1526      5.6329    125.5945
  1207.0000      0.0000    646.1385      5.3014    125.3929
  1207.2500      0.0000    670.0893      5.0060    124.1046
  1207.5000      0.0000    690.8196      4.7831    122.8397
  1207.7500      0.0000    707.6879      4.6487    122.2914
  1208.0000      0.0000    720.9730      4.5936    122.4341
  1208.2500      0.0000    731.5970      4.5919    122.6257
  1208.5000      0.0000    740.5316      4.6180    122.2620
  1208.7500      0.0000    747.1609      4.6598    121.7269
  1209.0000      0.0000    748.4545      4.7225    122.3258
  1209.2500      0.0000    741.6552      4.8247    124.8402
  1209.5000      0.0000    728.5740      4.9902    128.3878
  1209.7500      0.0000    716.1170      5.2346    131.1801
  1210.0000      0.0000    712.0200      5.5494    132.3240
  1210.2500      0.0000    719.9759      5.8953    132.4216
  1210.5000      0.0000    737.2401      6.2142    132.4097
  1210.7500      0.0000    754.8312      6.4580    132.4854
  1211.0000      0.0000    760.6411      6.6134    132.5323
  1211.2500      0.0000    745.5167      6.7024    132.9768
  1211.5000      0.0000    709.4537      6.7581    134.4822
  1211.7500      0.0000    663.1689      6.7953    136.9235
  1212.0000      0.0000    622.9391      6.8061    139.0921
  1212.2500      0.0000    602.3523      6.7803    139.4180
  1212.5000      0.0000    606.6143      6.7311    136.8992
  1212.7500      0.0000    631.2569      6.6959    131.4111
  1213.0000      0.0000    664.4252      6.7087    123.3885
  1213.2500      0.0000    692.4493      6.7715    113.5829
  1213.5000      0.0000    706.6799      6.8575    103.1520
  1213.7500      0.0000    707.0706      6.9390     93.5874
  1214.0000      0.0000    700.4914      7.0094     86.2802
  1214.2500      0.0000    695.7501      7.0787     82.0377
  1214.5000      0.0000    698.2111      7.1578     80.7339
  1214.7500      0.0000    706.9243      7.2495     81.1709
  1215.0000      0.0000    716.8186      7.3537     81.4744
  1215.2500      0.0000    723.9619      7.4713     80.1924
  1215.5000      0.0000    728.2345      7.6012     77.4362
  1215.7500      0.0000    731.7052      7.7334     74.8925
  1216.0000      0.0000    736.0038      7.8527     74.3812
  1216.2500      0.0000    741.1475      7.9507     76.2601
  1216.5000      0.0000    745.8038      8.0305     79.1873
  1216.7500      0.0000    748.6268      8.1008     81.3755
  1217.0000      0.0000    749.6009      8.1687     82.1568
  1217.2500      0.0000    749.8580      8.2359     82.2301
  1217.5000      0.0000    750.2477      8.2948     82.3812
  1217.7500      0.0000    750.4774      8.3317     82.5627
  1218.0000      0.0000    749.7188      8.3375     82.6242
  1218.2500      0.0000    747.6924      8.3137     83.2339
  1218.5000      0.0000    744.9875      8.2674     85.1754
  1218.7500      0.0000    742.4500      8.2018     87.9632
  1219.0000      0.0000    740.5060      8.1173     90.0045
  1219.2500      0.0000    739.1245      8.0175     90.1720
  1219.5000      0.0000    738.2909      7.9137     88.6123
  1219.7500      0.0000    738.2391      7.8198     86.0809
  1220.0000      0.0000    739.1808      7.7434     83.0484
  1220.2500      0.0000    741.0400      7.6835     79.5981
  1220.5000      0.0000    743.2502      7.6369     75.8837
  1220.7500      0.0000    744.7059      7.6028     72.5195
  1221.0000      0.0000    744.5010      7.5802     70.5331
  1221.2500      0.0000    742.8989      7.5619     70.8295
  1221.5000      0.0000    740.7727      7.5297     73.4174
  1221.7500      0.0000    737.7546      7.4528     77.0102
  1222.0000      0.0000    731.5228      7.2945     79.5828
  1222.2500      0.0000    719.5800      7.0445     79.6903
  1222.5000      0.0000    701.9014      6.7613     77.3871
  1222.7500      0.0000    681.9835      6.5605     73.7895
  1223.0000      0.0000    665.5865      6.5128     69.9011
  1223.2500      0.0000    658.6776      6.5621     66.1769
  1223.5000      0.0000    665.3027      6.5850     63.0190
  1223.7500      0.0000    684.9326      6.5186     61.1366
  1224.0000      0.0000    711.2414      6.3883     61.3322
  1224.2500      0.0000    735.5217      6.2377     64.2948
  1224.5000      0.0000    752.4595      6.0834     70.5554
  1224.7500      2.0000    761.8976      5.9318     80.3103
  1225.0000      0.0000    765.1215      5.8077     92.9603
  1225.2500      0.0000    761.7121      5.7554    106.5216
  1225.5000      0.0000    751.3074      5.8021    117.6414
  1225.7500      0.0000    736.4011      5.9164    123.2265
  1226.0000      0.0000    721.4279      6.0231    122.7310
  1226.2500      0.0000    710.1907      6.0741    118.3870
  1226.5000      0.0000    705.0188      6.0795    112.8477
  1226.7500      0.0000    706.6072      6.0642    107.2164
  1227.0000      0.0000    712.9561      6.0300    101.5827
  1227.2500      0.0000    719.6390      5.9757     96.4796
  1227.5000      0.0000    723.0165      5.9213     92.8483
  1227.7500      0.0000    723.4911      5.8892     90.8174
  1228.0000      0.0000    725.1619      5.8729     89.2548
  1228.2500      0.0000    732.0897      5.8422     86.6935
  1228.5000      0.0000    744.3660      5.7791     82.6004
  1228.7500      0.0000    757.7270      5.7017     77.9152
  1229.0000      0.0000    767.3850      5.6452     74.4604
  1229.2500      0.0000    771.7303      5.6211     73.7574
  1229.5000      0.0000    771.5863      5.6039     76.1641
  1229.7500      0.0000    767.3469      5.5574     80.8211
  1230.0000      0.0000    758.8730      5.4685     86.1916
  1230.2500      0.0000    747.3444      5.3553     90.7962
  1230.5000      0.0000    734.9195      5.2519     93.7516
  1230.7500      0.0000    722.4723      5.1892     94.8290
