~Version Information
VERS.                      2.0: CWLS Log ASCII Standard - VERSION 2.0
WRAP.                       NO: One line per depth step
~Well Information Block
STRT.FT               615.0000: 
STOP.FT              2815.0000: 
STEP.FT                 0.2500: 
NULL.                -999.2500: 
COMP.          Pioneer Natural Resources: COMPANY
WELL.              Loews 41-32: WELL
FLD.           Purgatoire River: FIELD
LOC.           751' FNL & 128' FEL: LOCATION
CNTY.               Las Animas: COUNTY
SRVC.                Patterson: SERVICE COMPANY
DATE.          Sun Feb 12 02:27:11 2006: LOG DATE
UWI.           05 071 08693 00: UNIQUE WELL ID
STAT.                 Colorado: STATE
~Curve Information Block
DEPT.FT            0 000 00 00: Depth
SN.Ohm-m                      : IEL Short Normal
SP.mV                         : IEL Spontaneous Potential
DIR.Ohm-m                     : IEL Induction Resistivity
GR.GAPI                       : Gamma Ray
~Parameter Information Block
~A  Depth        SN          SP         DIR          GR     
# ...
  2357.0000      9.1112     76.8788      9.9970    154.8784
  2357.2500      8.9245     76.8088     10.0831    155.9925
  2357.5000      8.8829     76.7577     10.1676    156.3512
  2357.7500      9.0306     76.7326     10.2364    155.7444
  2358.0000      9.3547     76.7372     10.2796    152.9884
  2358.2500      9.7849     76.7670     10.2930    149.5929
  2358.5000     10.1905     76.8069     10.2800    142.8578
  2358.7500     10.4294     76.8382     10.2529    138.3124
  2359.0000     10.4494     76.8509     10.2308    133.0333
  2359.2500     10.3475     76.8516     10.2342    131.1326
  2359.5000     10.2978     76.8566     10.2787    131.4866
  2359.7500     10.4023     76.8717     10.3704    134.1284
  2360.0000     10.6200     76.8810     10.5056    141.2404
  2360.2500     10.8624     76.8556     10.6741    147.1826
  2360.5000     11.0938     76.7757     10.8643    155.7274
  2360.7500     11.2861     76.6444     11.0666    159.7588
  2361.0000     11.3859     76.4861     11.2733    161.0223
  2361.2500     11.4111     76.3323     11.4785    158.0361
  2361.5000     11.4698     76.2041     11.6803    149.1357
  2361.7500     11.6413     76.1062     11.8851    142.1138
  2362.0000     11.9519     76.0341     12.1102    132.5278
  2362.2500     12.4347     75.9835     12.3802    127.0522
  2362.5000     13.0644     75.9557     12.7204    119.7201
  2362.7500     13.7339     75.9570     13.1498    115.5436
  2363.0000     14.4250     75.9965     13.6758    111.2605
  2363.2500     15.2125     76.0813     14.2926    109.9397
  2363.5000     16.0437     76.2111     14.9855    109.5408
  2363.7500     16.7913     76.3757     15.7366    109.6808
  2364.0000     17.4848     76.5548     16.5294    109.6523
  2364.2500     18.2537     76.7233     17.3460    109.1129
  2364.5000     19.1254     76.8587     18.1620    107.0767
  2364.7500     20.0481     76.9513     18.9494    104.8492
  2365.0000     21.0326     77.0094     19.6886    100.4991
  2365.2500     22.1005     77.0562     20.3786     97.2370
  2365.5000     23.1390     77.1163     21.0328     92.4694
  2365.7500     24.0003     77.2021     21.6653     89.7143
  2366.0000     24.7254     77.3099     22.2850     86.5074
  2366.2500     25.4831     77.4245     22.9023     85.1385
  2366.5000     26.3094     77.5255     23.5348     84.7797
  2366.7500     27.0813     77.5946     24.1958     85.9318
  2367.0000     27.7274     77.6249     24.8730     89.2920
  2367.2500     28.2896     77.6260     25.5159     91.7502
  2367.5000     28.8348     77.6152     26.0520     93.9518
  2367.7500     29.4029     77.6040     26.4248     93.6649
  2368.0000     29.9499     77.5920     26.6223     90.3750
  2368.2500     30.3847     77.5731     26.6749     86.8660
  2368.5000     30.7218     77.5452     26.6340     81.4406
  2368.7500     31.0876     77.5145     26.5585     78.7096
  2369.0000     31.5642     77.4939     26.5130     76.6087
  2369.2500     32.1231     77.4952     26.5600     76.2480
  2369.5000     32.6480     77.5219     26.7398     76.4308
  2369.7500     32.9647     77.5669     27.0522     76.8696
  2370.0000     32.9779     77.6193     27.4527     78.1867
  2370.2500     32.7766     77.6731     27.8687     79.3553
  2370.5000     32.5130     77.7304     28.2300     80.4760
  2370.7500     32.2532     77.7978     28.4978     80.1625
  2371.0000     31.9852     77.8827     28.6779     77.9332
  2371.2500     31.7170     77.9935     28.8034     75.6960
  2371.5000     31.5359     78.1384     28.9064     72.1005
  2371.7500     31.5515     78.3194     29.0005     69.8908
  2372.0000     31.7770     78.5278     29.0878     67.1291
  2372.2500     32.0777     78.7426     29.1731     65.6591
  2372.5000     32.3028     78.9369     29.2703     63.7980
  2372.7500     32.4564     79.0881     29.3902     62.5965
  2373.0000     32.6103     79.1891     29.5238     60.6170
  2373.2500     32.7345     79.2494     29.6343     59.1798
  2373.5000     32.7663     79.2838     29.6650     57.0994
  2373.7500     32.7070     79.3027     29.5590     56.0049
  2374.0000     32.5136     79.3149     29.2820     55.4728
  2374.2500     32.0554     79.3374     28.8370     56.4298
  2374.5000     31.2871     79.3966     28.2614     60.6251
  2374.7500     30.3233     79.5183     27.6104     65.2154
  2375.0000     29.2733     79.7156     26.9369     73.9800
  2375.2500     28.1693     79.9825     26.2787     80.6225
  2375.5000     27.0722     80.2966     25.6531     91.2076
  2375.7500     26.0976     80.6286     25.0542     98.1532
  2376.0000     25.3108     80.9546     24.4562    107.2086
  2376.2500     24.6020     81.2625     23.8228    111.9559
  2376.5000     23.8076     81.5526     23.1241    117.4535
  2376.7500     22.9714     81.8319     22.3475    120.3148
  2377.0000     22.2886     82.1089     21.4971    123.0719
  2377.2500     21.8440     82.3875     20.5833    123.4813
  2377.5000     21.5009     82.6642     19.6176    122.2437
  2377.7500     21.0200     82.9287     18.6148    121.0973
  2378.0000     20.2672     83.1711     17.5949    120.5056
  2378.2500     19.2925     83.3897     16.5820    121.1714
  2378.5000     18.2472     83.5936     15.6000    123.0179
  2378.7500     17.2816     83.7994     14.6697    124.0525
  2379.0000     16.4788     84.0225     13.8071    124.7519
  2379.2500     15.8180     84.2646     13.0219    125.1556
  2379.5000     15.2034     84.5096     12.3168    126.9655
  2379.7500     14.5460     84.7309     11.6884    129.0249
  2380.0000     13.8247     84.9065     11.1292    132.1802
  2380.2500     13.0751     85.0303     10.6301    133.8155
  2380.5000     12.3612     85.1126     10.1820    136.0735
  2380.7500     11.7667     85.1728      9.7784    137.8836
  2381.0000     11.3120     85.2297      9.4165    140.3151
  2381.2500     10.9117     85.2950      9.0963    140.5903
  2381.5000     10.4825     85.3699      8.8190    137.6695
  2381.7500     10.0000     85.4474      8.5846    133.7699
  2382.0000      9.4719     85.5160      8.3920    126.7769
  2382.2500      8.9854     85.5652      8.2389    122.4594
  2382.5000      8.6966     85.5852      8.1232    117.4241
  2382.7500      8.6756     85.5632      8.0452    114.8533
  2383.0000      8.8511     85.4845      8.0084    111.3549
  2383.2500      9.1053     85.3402      8.0202    109.0440
  2383.5000      9.3609     85.1399      8.0899    106.0670
  2383.7500      9.5924     84.9199      8.2276    104.8949
  2384.0000      9.8126     84.7398      8.4419    104.7579
  2384.2500     10.0614     84.6634      8.7387    105.4746
  2384.5000     10.3488     84.7310      9.1193    106.5680
  2384.7500     10.6522     84.9421      9.5802    106.5219
  2385.0000     10.9905     85.2618     10.1119    104.4486
  2385.2500     11.4159     85.6477     10.7009    101.6455
  2385.5000     11.9939     86.0742     11.3312     95.4477
  2385.7500     12.8843     86.5354     11.9863     89.9612
  2386.0000     14.4088     87.0274     12.6499     79.4231
  2386.2500     16.9614     87.5326     13.3066     70.8280
  2386.5000     20.7630     88.0257     13.9417     56.5048
  2386.7500     25.5585     88.4924     14.5403     47.2624
  2387.0000     30.4904     88.9420     15.0834     36.4505
  2387.2500     34.4881     89.3997     15.5440     32.3183
  2387.5000     36.8801     89.8880     15.8874     31.2164
  2387.7500     37.4613     90.4111     16.0785     33.7465
  2388.0000     36.1360     90.9526     16.0921     42.2387
  2388.2500     32.9407     91.4835     15.9185     50.9239
  2388.5000     28.4745     91.9749     15.5630     67.6704
  2388.7500     23.8346     92.4058     15.0441     80.2046
  2389.0000     19.9125     92.7658     14.3921     98.3184
  2389.2500     16.9732     93.0549     13.6484    108.4575
  2389.5000     14.8763     93.2829     12.8610    119.6656
  2389.7500     13.4212     93.4671     12.0784    124.7618
  2390.0000     12.4409     93.6267     11.3432    129.8834
  2390.2500     11.7511     93.7744     10.6880    131.9621
