~Version Information
VERS.                      2.0: CWLS Log ASCII Standard - VERSION 2.0
WRAP.                       NO: One line per depth step
~Well Information Block
STRT.FT                -4.7500: 
STOP.FT              2723.2500: 
STEP.FT                 0.2500: 
NULL.                -999.2500: 
COMP.          Pioneer Natural Resources: COMPANY
WELL.           Dolzanie 34-12: WELL
FLD.           Purgatorie River: FIELD
LOC.           1001' FSL & 1750' FEL: LOCATION
PROV.                 Colorado: PROVINCE
CNTY.               Las Animas: COUNTRY
SRVC.                Patterson: SERVICE COMPANY
DATE.          Wed Jul 27 14:23:29 2005: LOG DATE
UWI.                          : UNIQUE WELL ID
~Curve Information Block
DEPT.FT            0 000 00 00: Depth
GR.GAPI                       : Gamma Ray
CCL.                          : Casing Collar Locator
TT3.usec                      : CBL 3' Travel Time
AMP3.mV                       : CBL 3' Amplitude
~Parameter Information Block
~A  Depth        GR         CCL         TT3         AMP3    
# ...
   899.7500     70.6185      0.0000    756.3241      8.7076
   900.0000     69.4713      0.0000    745.6826      8.4877
   900.2500     68.0196      0.0000    731.0731      8.2005
   900.5000     66.2429      0.0000    720.8912      7.9724
   900.7500     64.3004      0.0000    718.9630      7.8857
   901.0000     63.0090      0.0000    723.3921      7.9219
   901.2500     63.8216      0.0000    732.3586      7.9911
   901.5000     67.8015      0.0000    743.3461      7.9201
   901.7500     74.7766      0.0000    754.6914      7.5172
   902.0000     83.7657      0.0000    772.9048      6.8979
   902.2500     93.8455      0.0000    807.2382      6.4847
   902.5000    104.1732      0.0000    846.4221      6.3429
   902.7500    113.4942      0.0000    859.0939      6.1661
   903.0000    120.2060      0.0000    838.0380      5.9929
   903.2500    123.1327      0.0000    815.4710      6.0726
   903.5000    122.1654      0.0000    818.1591      6.3900
   903.7500    118.1107     -2.0000    838.9744      6.7784
   904.0000    112.1781     -2.0000    852.9451      7.1198
   904.2500    105.8672      0.0000    849.6450      7.4006
   904.5000    100.9512      0.0000    846.3889      7.7912
   904.7500     98.7401      0.0000    858.1581      8.6268
   905.0000     98.9961      0.0000    872.1869      9.9256
   905.2500     99.9383      0.0000    866.0025     10.9648
   905.5000     99.8717      0.0000    837.1066     11.1221
   905.7500     98.9586      0.0000    804.4910     10.7539
   906.0000     99.1285      0.0000    783.5218     10.4582
   906.2500    102.1113      0.0000    772.2346     10.3663
   906.5000    107.7146      0.0000    761.4098     10.4067
   906.7500    114.0644      0.0000    749.9514     10.5339
   907.0000    119.2868      0.0000    749.2326     10.7364
   907.2500    122.7530      0.0000    765.3798     11.0694
   907.5000    124.7636      0.0000    784.1302     11.5874
   907.7500    125.5200      0.0000    789.7850     12.1938
   908.0000    124.8093      0.0000    784.8970     12.6974
   908.2500    122.5105      0.0000    779.3349     13.0377
   908.5000    119.0347      0.0000    776.7051     13.2938
   908.7500    115.1939      0.0000    776.0225     13.5002
   909.0000    111.7595      0.0000    776.0250     13.5867
   909.2500    109.2933      0.0000    775.9567     13.4617
   909.5000    108.2878      0.0000    775.4954     13.1045
   909.7500    109.0193      0.0000    774.8737     12.6021
   910.0000    111.0104      0.0000    774.5982     12.0866
   910.2500    112.9749      0.0000    774.9703     11.6205
   910.5000    113.8595      0.0000    776.3621     11.1814
   910.7500    114.0699      0.0000    779.5011     10.7543
   911.0000    115.2102      0.0000    783.9501     10.4117
   911.2500    118.4014      0.0000    787.2332     10.2869
   911.5000    123.2137      0.0000    788.2238     10.4357
   911.7500    128.4765      0.0000    788.4926     10.7542
   912.0000    133.5247      0.0000    788.0046     11.0860
   912.2500    138.0212      0.0000    785.4894     11.3439
   912.5000    141.0306      0.0000    782.3168     11.4932
   912.7500    141.3227      0.0000    780.4944     11.5278
   913.0000    138.8171      0.0000    780.0235     11.5016
   913.2500    135.0307      0.0000    780.1455     11.4866
   913.5000    131.6522      0.0000    780.4608     11.4928
   913.7500    129.0357      0.0000    780.7007     11.4935
   914.0000    126.4031      0.0000    780.5311     11.4915
   914.2500    123.1478      0.0000    779.7418     11.5012
   914.5000    119.6701      0.0000    778.5061     11.5025
   914.7500    117.3899      0.0000    777.2722     11.4591
   915.0000    118.1621      0.0000    776.0939     11.3652
   915.2500    122.9812      0.0000    774.1804     11.2289
   915.5000    130.6948      0.0000    771.4022     11.0337
   915.7500    138.3073      0.0000    769.9631     10.7729
   916.0000    142.9050      0.0000    771.5671     10.5088
   916.2500    143.3468      0.0000    774.3159     10.3443
   916.5000    140.5031      0.0000    775.7545     10.3329
   916.7500    136.4481      0.0000    775.9549     10.4359
   917.0000    133.2558      0.0000    776.0272     10.5525
   917.2500    131.8015      0.0000    776.2213     10.6067
   917.5000    131.4965      0.0000    775.5667     10.6035
   917.7500    131.4182      0.0000    772.1319     10.5790
   918.0000    131.5210      0.0000    764.6901     10.5340
   918.2500    132.3253      0.0000    755.7175     10.4498
   918.5000    133.6801      0.0000    750.7570     10.3407
   918.7500    134.4842      0.0000    752.2872     10.2408
   919.0000    133.8244      0.0000    756.0913     10.1478
   919.2500    132.0503      0.0000    756.5126     10.0196
   919.5000    130.4525      0.0000    754.2701      9.8288
   919.7500    129.9536      0.0000    754.7422      9.5954
   920.0000    130.2532      0.0000    758.9358      9.3723
   920.2500    130.0687      0.0000    761.5038      9.2037
   920.5000    128.1076      0.0000    757.5213      9.1027
   920.7500    124.1745      0.0000    749.0059      9.0741
   921.0000    119.7090      0.0000    744.7780      9.1271
   921.2500    117.1580      0.0000    750.1661      9.2445
   921.5000    118.4367      0.0000    759.4237      9.3612
   921.7500    123.5678      0.0000    763.6614      9.3756
   922.0000    130.6865      0.0000    759.5779      9.2221
   922.2500    137.4642      0.0000    750.7903      8.9717
   922.5000    142.5839      0.0000    746.5125      8.8064
   922.7500    145.8832      0.0000    752.5036      8.8709
   923.0000    147.3627      0.0000    763.5969      9.1622
   923.2500    146.4972      0.0000    772.2899      9.5171
   923.5000    142.8985      0.0000    777.8314      9.7154
   923.7500    137.5572      0.0000    782.1713      9.6550
   924.0000    132.8588      0.0000    784.7397      9.4324
   924.2500    130.9788      0.0000    786.4830      9.2246
   924.5000    132.1395      0.0000    791.2015      9.1319
   924.7500    134.2489      0.0000    795.6545      9.1891
   925.0000    134.2452      0.0000    791.1484      9.4587
   925.2500    130.4087      0.0000    779.5244      9.9886
   925.5000    123.9992      0.0000    771.0267     10.6801
   925.7500    118.5496      0.0000    769.2839     11.3146
   926.0000    117.0566      0.0000    772.2341     11.7338
   926.2500    119.6495      0.0000    780.8381     11.9086
   926.5000    124.0069      0.0000    794.9150     11.8588
   926.7500    127.6900      0.0000    803.9947     11.6298
   927.0000    129.7263      0.0000    797.4888     11.3296
   927.2500    130.4186      0.0000    781.4474     11.0743
   927.5000    130.4976      0.0000    769.7653     10.8875
   927.7500    130.5128      0.0000    766.2454     10.7112
   928.0000    130.5229      0.0000    764.6707     10.4795
   928.2500    130.1587      0.0000    760.1042     10.1642
   928.5000    129.1013      0.0000    755.1541      9.8044
   928.7500    127.5696      0.0000    755.4065      9.4707
   929.0000    126.3068      0.0000    761.3507      9.2012
   929.2500    126.1073      0.0000    768.7910      9.0268
   929.5000    127.3789      0.0000    775.6050      8.9953
   929.7500    130.0766      0.0000    782.5085      9.0978
   930.0000    133.8443      0.0000    788.5871      9.2344
   930.2500    138.0544      0.0000    791.2833      9.3038
   930.5000    141.9413      0.0000    789.5262      9.2879
   930.7500    144.9655      0.0000    784.9821      9.2547
   931.0000    147.0230      0.0000    781.7788      9.3201
   931.2500    148.3090      0.0000    783.9088      9.5588
   931.5000    149.1161      0.0000    792.0919      9.9230
   931.7500    149.5748      0.0000    802.8156     10.2888
   932.0000    149.4435      0.0000    810.4024     10.5779
   932.2500    148.2387      0.0000    811.1484     10.7985
   932.5000    145.6062      0.0000    805.7365     10.9562
   932.7500    141.7007      0.0000    798.5279     10.9766
   933.0000    137.5987      0.0000    793.5768     10.7849
