~Version Information
VERS.                      2.0: CWLS Log ASCII Standard - VERSION 2.0
WRAP.                       NO: One line per depth step
~Well Information Block
STRT.FT                -7.0000: 
STOP.FT              3030.2500: 
STEP.FT                 0.2500: 
NULL.                -999.2500: 
COMP.          Pioneer Natural Resources: COMPANY
WELL.            Cleaver 24-12: WELL
FLD.           Purgatorie River: FIELD
LOC.           204' FSL & 2351' FWL--: LOCATION
CNTY.               Las Animas: COUNTY
SRVC.          Patterson Wireline: SERVICE COMPANY
DATE.          Thu Feb 02 12:17:57 2006: LOG DATE
UWI.           05 071 08634 00: UNIQUE WELL ID
STAT.                       CO: STATE
~Curve Information Block
DEPT.FT            0 000 00 00: Depth
CCL.                          : Casing Collar Locator
TT3.usec                      : CBL 3' Travel Time
AMP3.mV                       : CBL 3' Amplitude
GR.GAPI                       : Gamma Ray
~Parameter Information Block
~A  Depth       CCL         TT3         AMP3         GR     
    -7.0000   -999.2500   -999.2500   -999.2500    105.0372
    -6.7500   -999.2500   -999.2500   -999.2500    105.7719
    -6.5000   -999.2500   -999.2500   -999.2500    104.0074
    -6.2500   -999.2500   -999.2500   -999.2500    101.3265
    -6.0000   -999.2500   -999.2500   -999.2500     99.4745
    -5.7500   -999.2500   -999.2500   -999.2500     98.8640
    -5.5000   -999.2500   -999.2500   -999.2500     98.4222
    -5.2500   -999.2500   -999.2500   -999.2500     97.0115
    -5.0000   -999.2500   -999.2500   -999.2500     95.0680
    -4.7500   -999.2500   -999.2500   -999.2500     94.5724
    -4.5000   -999.2500   -999.2500   -999.2500     97.0832
    -4.2500   -999.2500   -999.2500   -999.2500    101.8467
    -4.0000   -999.2500   -999.2500   -999.2500    106.2253
    -3.7500   -999.2500   -999.2500   -999.2500    108.1103
    -3.5000   -999.2500   -999.2500   -999.2500    107.4601
    -3.2500   -999.2500   -999.2500   -999.2500    105.3174
    -3.0000   -999.2500   -999.2500   -999.2500    102.1447
    -2.7500   -999.2500   -999.2500   -999.2500     98.0285
    -2.5000   -999.2500   -999.2500   -999.2500     94.2106
    -2.2500   -999.2500   -999.2500   -999.2500     93.2338
    -2.0000   -999.2500   1161.0000      0.4408     96.7388
    -1.7500   -999.2500   1161.0000      0.4297    103.3006
    -1.5000   -999.2500   1161.0000      0.4267    109.1275
    -1.2500   -999.2500   1161.0000      0.4405    111.1616
    -1.0000   -999.2500   1161.0000      0.4745    109.1556
    -0.7500   -999.2500   1161.0000      0.5207    104.9127
    -0.5000   -999.2500   1161.0000      0.5596    100.3978
    -0.2500   -999.2500   1161.0000      0.5712     96.7138
     0.0000   -999.2500   1161.0000      0.5118     91.0499
     0.2500   -999.2500   1161.0000      0.4730     87.2056
     0.5000   -999.2500   1161.0000      0.4439     81.8531
     0.7500   -999.2500   1161.0000      0.4249     75.1661
     1.0000   -999.2500   1161.0000      0.4146     67.7092
     1.2500   -999.2500   1161.0000      0.4118     60.1234
     1.5000   -999.2500   1161.0000      0.4145     53.0529
     1.7500   -999.2500   1161.0000      0.4190     47.3607
     2.0000   -999.2500   1161.0000      0.4203     44.1901
     2.2500   -999.2500   1161.0000      0.4159     44.3538
     2.5000   -999.2500   1161.0000      0.4076     47.4918
     2.7500   -999.2500   1161.0000      0.4000     52.1072
     3.0000   -999.2500   1161.0000      0.3959     56.8043
     3.2500   -999.2500   1161.0000      0.3945     61.3566
     3.5000      0.0000   1161.0000      0.3934     66.1372
     3.7500      0.0000   1161.0000      0.3908     70.6764
     4.0000      0.0000   1161.0000      0.3873     73.5958
     4.2500      0.0000   1161.0000      0.3849     74.0186
     4.5000      0.0000   1161.0000      0.3849     72.4008
     4.7500      0.0000   1161.0000      0.3862     70.0130
     5.0000      0.0000   1161.0000      0.3878     68.1555
     5.2500      0.0000   1161.0000      0.3889     67.6017
     5.5000      0.0000   1161.0000      0.3896     68.2967
     5.7500      0.0000   1161.0000      0.3899     69.8113
     6.0000      0.0000   1161.0000      0.3889     72.1149
     6.2500      0.0000   1161.0000      0.3857     75.3125
     6.5000      0.0000   1161.0000      0.3813     78.6400
     6.7500      0.0000   1161.0000      0.3795     80.5564
     7.0000     -2.0000   1161.0000      0.3834     80.1163
     7.2500      0.0000   1161.0000      0.3934     77.7203
     7.5000      0.0000   1161.0000      0.4066     74.3912
     7.7500      0.0000   1161.0000      0.4188     70.7915
     8.0000      0.0000   1161.0000      0.4260     67.0801
     8.2500      0.0000   1161.0000      0.4267     63.3437
     8.5000      0.0000   1161.0000      0.4235     60.0637
     8.7500      0.0000   1161.0000      0.4205     58.3277
     9.0000      0.0000   1161.0000      0.4185     59.3847
     9.2500      0.0000   1161.0000      0.4150     63.5841
     9.5000      0.0000   1161.0000      0.4091     69.7333
     9.7500      0.0000   1161.0000      0.4042     75.7128
    10.0000      0.0000   1161.0000      0.4031     79.9520
    10.2500      0.0000   1161.0000      0.4038     82.4639
    10.5000      0.0000   1161.0000      0.4030     84.4450
    10.7500      0.0000   1161.0000      0.4016     86.8582
    11.0000      0.0000   1160.9991      0.4038     89.4514
    11.2500      0.0000   1160.9948      0.4115     91.1019
    11.5000      0.0000   1160.9733      0.4218     90.9111
    11.7500      0.0000   1160.8944      0.4306     88.8133
    12.0000      0.0000   1160.6548      0.4363     85.2743
    12.2500      0.0000   1160.0427      0.4407     80.8195
    12.5000      0.0000   1158.5161      0.4522     76.1473
    12.7500      0.0000   1154.2661      0.4986     72.5011
    13.0000      0.0000   1141.9933      0.6926     71.3484
    13.2500      0.0000   1110.4539      1.4025     73.2977
    13.5000      0.0000   1043.8514      3.5078     77.4436
    13.7500      0.0000    930.9169      8.4166     81.8695
    14.0000      0.0000    777.6126     17.3039     84.6845
    14.2500      0.0000    610.7549     29.6668     84.6789
    14.5000      0.0000    464.9700     42.6940     81.6570
    14.7500     -2.0000    362.8325     52.8086     76.7656
    15.0000     -2.0000    305.7527     58.1622     72.2470
    15.2500      0.0000    280.6738     59.3981     70.0163
    15.5000      0.0000    272.3602     58.3064     70.1547
    15.7500      0.0000    270.5715     56.4224     71.2150
    16.0000      0.0000    270.5453     54.6884     72.0840
    16.2500      0.0000    270.7231     53.5640     72.9990
    16.5000      2.0000    270.7966     53.0959     74.5296
    16.7500      2.0000    270.7734     53.0919     76.2283
    17.0000      0.0000    270.6735     53.3853     76.9323
    17.2500      0.0000    270.4638     53.9836     76.1940
    17.5000      0.0000    270.0568     55.0732     74.9039
    17.7500      0.0000    269.3513     56.9288     74.5658
    18.0000      0.0000    268.3089     59.7244     76.2291
    18.2500      0.0000    267.0249     63.3041     79.7752
    18.5000      0.0000    265.7187     67.1602     83.7615
    18.7500      0.0000    264.6266     70.6826     86.2610
    19.0000      0.0000    263.8813     73.4392     86.4768
    19.2500      0.0000    263.4705     75.2797     85.5261
    19.5000      0.0000    263.2900     76.2968     85.4782
    19.7500      0.0000    263.2269     76.7256     87.8632
    20.0000      0.0000    263.2068     76.8252     92.9876
    20.2500      0.0000    263.1970     76.7979     99.8517
    20.5000      0.0000    263.1896     76.7621    106.3673
    20.7500      0.0000    263.1852     76.7647    110.3120
    21.0000      0.0000    263.1833     76.8067    110.5803
    21.2500      0.0000    263.1812     76.8721    107.4867
    21.5000      0.0000    263.1784     76.9422    102.2743
    21.7500      0.0000    263.1769     77.0022     96.7803
    22.0000      0.0000    263.1777     77.0527     92.9085
    22.2500      0.0000    263.1778     77.1172     91.6286
    22.5000      0.0000    263.1740     77.2297     92.5693
    22.7500      0.0000    263.1658     77.4146     94.7074
    23.0000      0.0000    263.1539     77.6732     97.1224
    23.2500      0.0000    263.1385     77.9785     99.1017
    23.5000      0.0000    263.1204     78.2749    100.1502
    23.7500      0.0000    263.1022     78.4934    100.2664
    24.0000      0.0000    263.0859     78.5851     99.9209
    24.2500      0.0000    263.0714     78.5480     99.4968
    24.5000      0.0000    263.0578     78.4151     99.0087
    24.7500      0.0000    263.0465     78.2215     98.3751
    25.0000      0.0000    263.0415     77.9914     97.3396
    25.2500      0.0000    263.0461     77.7475     95.0600
    25.5000      0.0000    263.0601     77.5148     90.6954
    25.7500      0.0000    263.0793     77.3091     84.7760
    26.0000      0.0000    263.0974     77.1316     79.4131
    26.2500      0.0000    263.1087     76.9793     76.7969
