~Version Information
VERS.                      2.0: CWLS Log ASCII Standard - VERSION 2.0
WRAP.                       NO: One line per depth step
~Well Information Block
STRT.FT                -6.5000: 
STOP.FT              1636.7500: 
STEP.FT                 0.2500: 
NULL.                -999.2500: 
COMP.          Pioneer Natural Resources: COMPANY
WELL.          Stock Canyon 34-33: WELL
FLD.           Purgatorie River: FIELD
LOC.           980' FSL & 2191' FEL--: LOCATION
PROV.                       CO: PROVINCE
CNTY.               Las Animas: COUNTRY
SRVC.          Patterson Wireline: SERVICE COMPANY
DATE.          Mon Dec 12 09:29:49 2005: LOG DATE
UWI.           05 071 08601 00: UNIQUE WELL ID
~Curve Information Block
DEPT.FT            0 000 00 00: Depth
CCL.                          : Casing Collar Locator
TT3.usec                      : CBL 3' Travel Time
AMP3.mV                       : CBL 3' Amplitude
GR.GAPI                       : Gamma Ray
~Parameter Information Block
~A  Depth       CCL         TT3         AMP3         GR     
    -6.5000   -999.2500   -999.2500   -999.2500     80.1939
    -6.2500   -999.2500   -999.2500   -999.2500     80.2350
    -6.0000   -999.2500   -999.2500   -999.2500     80.2079
    -5.7500   -999.2500   -999.2500   -999.2500     79.6933
    -5.5000   -999.2500   -999.2500   -999.2500     78.8419
    -5.2500   -999.2500   -999.2500   -999.2500     77.8527
    -5.0000   -999.2500   -999.2500   -999.2500     76.6832
    -4.7500   -999.2500   -999.2500   -999.2500     75.4095
    -4.5000   -999.2500   -999.2500   -999.2500     74.5385
    -4.2500   -999.2500   -999.2500   -999.2500     74.6550
    -4.0000   -999.2500   -999.2500   -999.2500     76.1312
    -3.7500   -999.2500   -999.2500   -999.2500     79.3983
    -3.5000   -999.2500   -999.2500   -999.2500     84.8608
    -3.2500   -999.2500   -999.2500   -999.2500     91.8644
    -3.0000   -999.2500   -999.2500   -999.2500     97.9701
    -2.7500   -999.2500   -999.2500   -999.2500    100.1358
    -2.5000   -999.2500   -999.2500   -999.2500     97.2092
    -2.2500   -999.2500   -999.2500   -999.2500     91.0547
    -2.0000   -999.2500   -999.2500   -999.2500     84.8825
    -1.7500   -999.2500   -999.2500   -999.2500     80.6974
    -1.5000   -999.2500   1167.0000     -0.3018     78.5474
    -1.2500   -999.2500   1167.0000     -0.3003     77.7337
    -1.0000   -999.2500   1167.0000     -0.2961     78.0055
    -0.7500   -999.2500   1167.0000     -0.2891     79.3516
    -0.5000   -999.2500   1167.0000     -0.2808     81.0468
    -0.2500   -999.2500   1167.0000     -0.2726     81.4562
     0.0000   -999.2500   1167.0000     -0.2658     79.0272
     0.2500   -999.2500   1167.0000     -0.2646     65.9767
     0.5000   -999.2500   1167.0000     -0.2747     58.3949
     0.7500   -999.2500   1167.0000     -0.2905     52.0826
     1.0000   -999.2500   1167.0000     -0.3066     47.2974
     1.2500   -999.2500   1167.0000     -0.3181     43.3005
     1.5000   -999.2500   1167.0000     -0.3237     39.2297
     1.7500   -999.2500   1167.0000     -0.3254     35.1831
     2.0000   -999.2500   1167.0000     -0.3251     32.3141
     2.2500   -999.2500   1167.0000     -0.3229     31.7133
     2.5000   -999.2500   1167.0000     -0.3188     33.4682
     2.7500   -999.2500   1167.0000     -0.3153     36.9218
     3.0000   -999.2500   1167.0000     -0.3150     41.3734
     3.2500   -999.2500   1167.0000     -0.3173     46.1607
     3.5000   -999.2500   1167.0000     -0.3179     50.5281
     3.7500   -999.2500   1167.0000     -0.3129     54.0835
     4.0000      0.0000   1167.0000     -0.3022     57.2386
     4.2500      0.0000   1167.0000     -0.2906     60.6388
     4.5000      0.0000   1167.0000     -0.2844     64.2635
     4.7500      0.0000   1167.0000     -0.2866     67.6013
     5.0000      0.0000   1167.0000     -0.2940     70.4329
     5.2500      0.0000   1167.0000     -0.2998     72.6987
     5.5000      0.0000   1167.0000     -0.2996     73.7983
     5.7500      0.0000   1167.0000     -0.2942     72.9327
     6.0000      0.0000   1167.0000     -0.2869     70.1877
     6.2500      0.0000   1167.0000     -0.2794     66.5775
     6.5000      0.0000   1167.0000     -0.2728     63.0886
     6.7500      0.0000   1166.9404     -0.2644     60.2790
     7.0000      0.0000   1166.5525     -0.2334     58.5463
     7.2500      0.0000   1164.5823     -0.0801     57.9958
     7.5000      0.0000   1156.7914      0.5231     58.1851
     7.7500      0.0000   1132.7991      2.3642     58.6003
     8.0000      0.0000   1075.2603      6.7711     59.1845
     8.2500      0.0000    967.8017     15.0733     59.9539
     8.5000      0.0000    811.5205     27.3894     60.5032
     8.7500      0.0000    634.5309     41.7824     60.4737
     9.0000      0.0000    478.4478     55.0482     60.2045
     9.2500      0.0000    371.2643     64.7111     60.2901
     9.5000      0.0000    313.9475     70.2942     60.6658
     9.7500      0.0000    290.0740     72.8741     60.7420
    10.0000      0.0000    282.3210     73.8466     60.3301
    10.2500      0.0000    280.3495     74.1525     59.8880
    10.5000      0.0000    279.9545     74.2165     59.9786
    10.7500      0.0000    279.9080     74.2030     60.9655
    11.0000      0.0000    279.9556     74.2307     62.9860
    11.2500      0.0000    280.0311     74.4210     65.5719
    11.5000      0.0000    280.1089     74.8198     67.4161
    11.7500      0.0000    280.1646     75.3385     67.1570
    12.0000      0.0000    280.1935     75.8078     64.5682
    12.2500      0.0000    280.2062     76.0996     60.7170
    12.5000      0.0000    280.2135     76.1991     56.9862
    12.7500      0.0000    280.2177     76.1747     54.1915
    13.0000      0.0000    280.2176     76.0851     52.5259
    13.2500      0.0000    280.2287     75.8956     51.8692
    13.5000      0.0000    280.3120     75.4339     51.9139
    13.7500      0.0000    280.5858     74.3653     52.1664
    14.0000      0.0000    281.1893     72.2802     52.1059
    14.2500      0.0000    282.1886     69.0299     51.4914
    14.5000      0.0000    283.4934     65.1087     50.4932
    14.7500      0.0000    284.8801     61.5480     49.4576
    15.0000      0.0000    286.1210     59.2332     48.6116
    15.2500      0.0000    287.0954     58.3359     48.0409
    15.5000      0.0000    287.7850     58.4152     47.8878
    15.7500      0.0000    288.1998     58.9249     48.6477
    16.0000      0.0000    288.3428     59.5694     51.2015
    16.2500     -2.0000    288.2433     60.3179     56.0811
    16.5000      2.0000    287.9742     61.2355     62.4293
    16.7500      0.0000    287.5904     62.3587     68.0557
    17.0000      0.0000    287.0502     63.6433     70.8985
    17.2500      0.0000    286.2281     64.9561     70.4336
    17.5000      0.0000    285.0414     66.1794     67.8016
    17.7500      0.0000    283.5917     67.4100     64.7893
    18.0000      0.0000    282.1680     68.9575     62.6230
    18.2500      0.0000    281.0709     70.9769     61.5733
    18.5000      0.0000    280.4205     73.1730     61.4242
    18.7500      0.0000    280.1336     75.0312     61.8522
    19.0000      0.0000    280.0486     76.2637     62.4114
    19.2500      0.0000    280.0407     76.9203     62.8257
    19.5000      0.0000    280.0499     77.1864     63.4877
    19.7500      0.0000    280.0593     77.2239     65.1368
    20.0000      0.0000    280.0705     77.1539     67.8584
    20.2500      0.0000    280.0867     77.0682     70.9087
    20.5000      0.0000    280.1070     77.0166     73.6313
    20.7500      0.0000    280.1283     77.0185     75.9645
    21.0000      0.0000    280.1495     77.0901     77.9418
    21.2500      0.0000    280.1717     77.2536     79.4132
    21.5000      0.0000    280.1954     77.5139     80.5279
    21.7500      0.0000    280.2187     77.8369     81.8629
    22.0000      0.0000    280.2393     78.1598     83.7552
    22.2500      0.0000    280.2572     78.4265     85.9487
    22.5000      0.0000    280.2751     78.6140     88.0798
    22.7500      0.0000    280.2956     78.7284     90.0421
    23.0000      0.0000    280.3180     78.7807     91.6605
    23.2500      0.0000    280.3374     78.7731     92.5297
    23.5000      0.0000    280.3487     78.7083     92.6553
    23.7500      0.0000    280.3501     78.6038     93.0232
    24.0000      0.0000    280.3429     78.4885     94.9870
    24.2500      0.0000    280.3288     78.3867     99.0922
    24.5000      0.0000    280.3093     78.3082    104.7089
    24.7500      0.0000    280.2863     78.2523    110.5530
    25.0000      0.0000    280.2628     78.2158    115.1628
    25.2500      0.0000    280.2430     78.2014    117.2338
    25.5000      0.0000    280.2303     78.2230    116.3223
    25.7500      0.0000    280.2284     78.3028    113.3698
    26.0000      0.0000    280.2402     78.4558    109.8505
    26.2500      0.0000    280.2661     78.6666    106.0935
    26.5000      0.0000    280.3018     78.8765    101.1155
    26.7500      0.0000    280.3400     78.9943     94.5140
