~Version Information
 VERS.                                  2.0 : CWLS LAS VERSION
 WRAP.                                   NO : WRAPING MODE
 SWARE .                 MController 2.5.0N : SOFTWARE VERSION
~Well Information
 WELL.                            AMX 13-13 : WELL
 COMP.  Pioneer Natural Resources USA, Inc. : COMPANY
 FLD.                      Purgatoire River : FIELD
 LOC.                      NW/SW 13-32S-68W : LOCATION
 DATE.                          12/18-19/05 : DATE(S) LOGGED
 SRVC.       BLANCO Geological Services LLC : SERVICE COMPANY
 STAT.                                   CO : STATE
 CNTY.                           Las Animas : COUNTY
 CTRY.                                  USA : COUNTRY
 API.                          05-071-08630 : API NUMBER
 STRT.FT                             496.00 : START DEPTH
 STOP.FT                            2875.00 : STOP DEPTH
 STEP.FT                               1.00 : DEPTH INCREMENT
 NULL.                                -9999 : NULL VALUE
~Curve information
 DEPTH.FT                                   :
 ROP.MIN/FT                                 :
 GAS.UNITS                                  :
~ASCII Log data
# ...
      2496.0         0.30        788.6 
      2497.0         0.27        704.5 
      2498.0         0.23        652.0 
      2499.0         0.25        621.1 
      2500.0         0.23        596.4 
      2501.0         0.23        590.5 
      2502.0         0.20        608.9 
      2503.0         0.17        636.1 
      2504.0         0.20        682.3 
      2505.0         0.20        719.2 
      2506.0         0.17        740.2 
      2507.0         0.23        744.2 
      2508.0         0.20        737.0 
      2509.0         0.30        715.2 
      2510.0         0.27       1013.0 
      2511.0         0.23       1533.9 
      2512.0         0.33       2152.7 
      2513.0         0.38       2449.8 
      2514.0         0.37       2451.4 
      2515.0         0.37       2273.9 
      2516.0         6.73       1937.3 
      2517.0         0.20       1340.2 
      2518.0         0.37       1595.1 
      2519.0         0.50       1817.3 
      2520.0         0.40       1817.6 
      2521.0         0.37       1600.1 
      2522.0         0.37       1218.6 
      2523.0         0.35        939.5 
      2524.0         0.37        779.5 
      2525.0         0.30        707.0 
      2526.0         0.30        692.3 
      2527.0         0.20        716.1 
      2528.0         0.20        737.3 
      2529.0         0.20        756.4 
      2530.0         0.30        771.1 
      2531.0         0.27        771.4 
      2532.0         0.27        763.3 
      2533.0         0.23        747.0 
      2534.0         0.27        735.5 
      2535.0         0.32        730.8 
      2536.0         0.33        740.8 
      2537.0         0.23        743.3 
      2538.0         0.27        744.2 
      2539.0         0.30        742.0 
      2540.0         0.30        730.2 
      2541.0         0.27        719.2 
      2542.0         0.27        712.3 
      2543.0         0.37        706.1 
      2544.0         0.33        701.1 
      2545.0         0.37        668.9 
      2546.0         4.03       1723.3 
      2547.0         0.37       1636.4 
      2548.0         0.40       1748.9 
      2549.0         0.37       1747.3 
      2550.0         0.30       1599.8 
      2551.0         0.30       1345.8 
      2552.0         0.10       1077.3 
      2553.0         0.13       1006.1 
      2554.0         0.23        927.7 
      2555.0         0.27        831.1 
      2556.0         0.23        748.6 
      2557.0         0.17        699.8 
      2558.0         0.18        671.7 
      2559.0         0.17        649.2 
      2560.0         0.17        636.7 
      2561.0         0.23        635.5 
      2562.0         0.20        648.9 
      2563.0         0.27        676.1 
      2564.0         0.27        708.6 
      2565.0         0.23        759.8 
      2566.0         0.23        802.3 
      2567.0         0.20        808.0 
      2568.0         0.13        804.5 
      2569.0         0.17        799.8 
      2570.0         0.20        793.0 
      2571.0         0.23        782.3 
      2572.0         0.30        766.4 
      2573.0         0.38        737.7 
      2574.0         0.47        719.8 
      2575.0         0.47        645.2 
      2576.0         4.22       1908.6 
      2577.0         0.43       1768.9 
      2578.0         0.53       1688.9 
      2579.0         0.42       1280.5 
      2580.0         0.40        960.5 
      2581.0         0.43        786.1 
      2582.0         0.37        681.1 
      2583.0         0.37        633.3 
      2584.0         0.33        639.8 
      2585.0         0.30        679.5 
      2586.0         0.30        697.0 
      2587.0         0.30        696.7 
      2588.0         0.30        680.2 
      2589.0         0.32        652.7 
      2590.0         0.23        631.7 
      2591.0         0.27        638.9 
      2592.0         0.30        668.3 
      2593.0         0.33        689.5 
      2594.0         0.27        700.5 
      2595.0         0.30        701.7 
      2596.0         0.40        691.4 
      2597.0         0.30        651.4 
      2598.0         0.37        621.4 
      2599.0         0.35        592.7 
      2600.0         0.37        574.5 
      2601.0         0.30        564.8 
      2602.0         0.33        562.3 
      2603.0         0.37        554.2 
      2604.0         0.27        504.5 
      2605.0         0.40        466.4 
      2606.0         3.15       2298.0 
      2607.0         0.53       2293.6 
      2608.0         0.50       1999.5 
      2609.0         0.55       1522.6 
      2610.0         0.33       1036.1 
      2611.0         0.27        854.5 
      2612.0         0.13        767.3 
      2613.0         0.27        736.1 
      2614.0         0.33        690.5 
      2615.0         0.37        651.4 
      2616.0         0.37        628.9 
      2617.0         0.30        642.3 
      2618.0         0.40        651.4 
      2619.0         0.40        649.8 
      2620.0         0.38        637.3 
      2621.0         0.30        628.6 
      2622.0         0.30        629.8 
      2623.0         0.37        620.8 
      2624.0         0.20        600.5 
      2625.0         0.13        597.7 
      2626.0         0.17        593.0 
      2627.0         0.23        596.1 
      2628.0         0.27        597.0 
      2629.0         0.20        593.0 
      2630.0         0.27        592.0 
      2631.0         0.27        595.5 
      2632.0         0.52        583.0 
      2633.0         0.57        642.0 
      2634.0         0.43        735.2 
      2635.0         0.40        738.9 
      2636.0         0.30        680.8 
      2637.0         3.25       2083.0 
      2638.0         0.57       1836.1 
      2639.0         0.70       1600.1 
      2640.0         0.58       1597.6 
      2641.0         0.50       1310.2 
      2642.0         0.47        967.3 
      2643.0         0.50        789.5 
      2644.0         0.47        687.0 
      2645.0         0.43        633.3 
      2646.0         0.43        671.1 
      2647.0         0.42        676.1 
      2648.0         0.40        668.6 
      2649.0         0.37        639.2 
      2650.0         0.50        618.6 
      2651.0         0.37        594.8 
      2652.0         0.43        584.8 
      2653.0         0.37        563.6 
      2654.0         0.20        541.7 
      2655.0         0.20        539.8 
      2656.0         0.27        541.4 
      2657.0         0.28        546.4 
      2658.0         0.23        565.8 
      2659.0         0.30        604.8 
      2660.0         0.40        612.3 
      2661.0         0.27        600.2 
      2662.0         0.33        582.0 
      2663.0         0.30        567.7 
      2664.0         0.30        583.3 
      2665.0         0.27        600.5 
      2666.0         4.17       2412.7 
      2667.0         0.43       1259.5 
      2668.0         0.53       1257.0 
      2669.0         0.47       1190.8 
      2670.0         0.33       1002.3 
      2671.0         0.23        851.7 
      2672.0         0.27        777.3 
      2673.0         0.20        713.6 
      2674.0         0.23        682.3 
      2675.0         0.27        658.0 
      2676.0         0.30        639.2 
      2677.0         0.28        623.6 
      2678.0         0.20        614.2 
      2679.0         0.17        614.5 
      2680.0         0.23        617.0 
      2681.0         0.33        616.1 
      2682.0         0.30        611.4 
      2683.0         0.23        602.3 
      2684.0         0.20        590.2 
      2685.0         0.17        589.2 
      2686.0         0.20        589.8 
      2687.0         0.27        590.2 
      2688.0         0.33        593.3 
      2689.0         0.30        592.7 
      2690.0         0.32        588.9 
      2691.0         0.33        587.0 
      2692.0         0.30        580.2 
      2693.0         0.30        575.5 
      2694.0         0.27        562.3 
      2695.0         0.33        525.5 
