~Version Information
VERS.                      2.0: CWLS Log ASCII Standard - VERSION 2.0
WRAP.                       NO: One line per depth step
~Well Information Block
STRT.FT               555.0000: 
STOP.FT              2322.2000: 
STEP.FT                 0.1000: 
NULL.                -999.2500: 
COMP.          Pioneer Natural Resources: COMPANY
WELL.          Fittipaldi 21-12: WELL
FLD.           Purgatoire River: FIELD
LOC.           207' FNL & 2110' FWL--: LOCATION
CNTY.               Las Animas: COUNTY
SRVC.                Patterson: SERVICE COMPANY
DATE.          Wed Mar 22 07:11:06 2006: LOG DATE
UWI.           05 071 08492 00: UNIQUE WELL ID
STAT.                 Colorado: STATE
~Curve Information Block
DEPT.FT            0 000 00 00: Depth
DCAL.in                       : CDL Caliper
RHOB.g/cc                     : CDL Bulk Density
RHOC.g/cc                     : CDL Density Correction
DPOR.pu                       : CDL Density Porosity
NPOR.pu                       : Neutron Porosity
GR.GAPI                       : Gamma Ray
~Parameter Information Block
~A  Depth       DCAL        RHOB        RHOC        DPOR        NPOR         GR     
# ...
   785.4000      8.1114      2.5280      0.0487      7.3952     24.2765    125.1026
   785.5000      8.1120      2.5388      0.1026      6.7420     23.6988    117.7927
   785.6000      8.1120      2.5390      0.0305      6.7249     23.4134    117.3003
   785.7000      8.1120      2.5471      0.0559      6.2390     23.5790    123.3643
   785.8000      8.1153      2.5659      0.0836      5.0979     23.8907    128.4313
   785.9000      8.1153      2.5689      0.0908      4.9164     24.1682    125.5792
   786.0000      8.1221      2.5475     -0.0144      6.2116     24.1797    117.6315
   786.1000      8.1221      2.5294      0.0182      7.3094     23.7041    112.1430
   786.2000      8.1221      2.5255      0.0493      7.5430     23.0817    113.7201
   786.3000      8.1305      2.5208      0.0493      7.8284     22.6702    120.6939
   786.4000      8.1305      2.5159     -0.0074      8.1243     22.3671    125.5735
   786.5000      8.1351      2.5237      0.0370      7.6555     22.3068    125.8116
   786.6000      8.1351      2.5422      0.0440      6.5339     22.6341    122.1784
   786.7000      8.1351      2.5573      0.0733      5.6205     23.0031    114.3935
   786.8000      8.1339      2.5561      0.0613      5.6934     23.1651    108.2855
   786.9000      8.1339      2.5507     -0.0169      6.0162     23.2314    109.4262
   787.0000      8.1260      2.5557      0.0607      5.7177     23.2338    112.5816
   787.1000      8.1260      2.5519      0.0666      5.9476     23.0901    111.0879
   787.2000      8.1260      2.5278      0.0159      7.4072     22.9436    105.2712
   787.3000      8.1145      2.5071     -0.0024      8.6581     22.9848     99.4377
   787.4000      8.1145      2.5101      0.0122      8.4779     23.1057     97.9707
   787.5000      8.1084      2.5333     -0.0007      7.0754     23.1287     98.9175
   787.6000      8.1084      2.5594      0.0506      5.4914     23.0641     98.3917
   787.7000      8.1084      2.5795      0.0110      4.2723     23.0125     97.4576
   787.8000      8.1080      2.5980      0.1004      3.1491     23.0554     96.4963
   787.9000      8.1080      2.6058      0.0841      2.6805     23.1975     94.9762
   788.0000      8.1037      2.5933      0.0738      3.4379     23.1477     94.6902
   788.1000      8.1037      2.5778      0.0370      4.3763     22.8400     95.3288
   788.2000      8.1037      2.5772      0.0832      4.4148     22.4518     93.8941
   788.3000      8.0926      2.5836      0.0800      4.0260     21.9065     91.1506
   788.4000      8.0926      2.5881      0.0787      3.7509     21.3466     89.4199
   788.5000      8.0826      2.5856      0.0844      3.9012     21.1101     88.1882
   788.6000      8.0826      2.5675      0.0669      5.0004     21.0243     86.4744
   788.7000      8.0826      2.5432      0.0201      6.4752     20.8541     84.8461
   788.8000      8.0749      2.5286      0.0419      7.3588     20.6497     84.4419
   788.9000      8.0749      2.5242      0.0491      7.6216     20.5146     85.9739
   789.0000      8.0671      2.5283      0.0401      7.3760     20.5981     89.1227
   789.1000      8.0671      2.5370      0.0371      6.8478     20.6321     91.1080
   789.2000      8.0671      2.5380      0.0273      6.7862     20.1546     88.7117
   789.3000      8.0620      2.5244      0.0107      7.6121     19.2710     81.7683
   789.4000      8.0620      2.5042      0.0036      8.8371     18.5240     72.4832
   789.5000      8.0589      2.4928      0.0058      9.5254     18.2849     64.3826
   789.6000      8.0589      2.4934      0.0040      9.4887     18.3317     60.3599
   789.7000      8.0589      2.4950      0.0165      9.3966     18.2676     61.2430
   789.8000      8.0570      2.4963      0.0090      9.3133     18.2931     62.8753
   789.9000      8.0570      2.4999      0.0413      9.0985     18.7196     62.4767
   790.0000      8.0587      2.5032      0.0146      8.8996     19.1709     63.7197
   790.1000      8.0587      2.5121      0.0438      8.3552     19.2351     67.9768
   790.2000      8.0587      2.5230      0.0636      7.6977     19.0547     71.5422
   790.3000      8.0620      2.5198      0.0638      7.8918     18.8312     72.1684
   790.4000      8.0620      2.5068      0.0215      8.6797     18.5455     71.5810
   790.5000      8.0628      2.5035      0.0256      8.8765     18.2531     69.6260
   790.6000      8.0628      2.5101      0.0392      8.4769     18.1580     64.5221
   790.7000      8.0628      2.5124      0.0544      8.3398     18.2578     59.4649
   790.8000      8.0626      2.5113      0.0416      8.4031     18.1890     59.2322
   790.9000      8.0626      2.5183      0.0409      7.9812     17.8283     61.2595
   791.0000      8.0659      2.5288      0.0605      7.3476     17.6940     60.1505
   791.1000      8.0659      2.5303      0.0407      7.2543     18.1414     57.2270
   791.2000      8.0659      2.5259      0.0347      7.5182     18.6631     55.9700
   791.3000      8.0733      2.5222      0.0500      7.7447     18.6702     55.8773
   791.4000      8.0733      2.5121      0.0475      8.3604     18.3550     56.8495
   791.5000      8.0800      2.4934      0.0146      9.4937     18.3260     58.2803
   791.6000      8.0800      2.4812     -0.0049     10.2300     18.5996     57.3308
   791.7000      8.0800      2.4817      0.0253     10.2008     18.6830     54.8027
   791.8000      8.0814      2.4801      0.0827     10.2957     18.5715     54.1301
   791.9000      8.0814      2.4666      0.0265     11.1127     18.6282     55.4875
   792.0000      8.0813      2.4569      0.0060     11.7049     18.8431     57.1450
   792.1000      8.0813      2.4682      0.0100     11.0165     18.9363     57.9994
   792.2000      8.0813      2.4932      0.0119      9.5011     18.7818     58.2870
   792.3000      8.0841      2.5129      0.0469      8.3087     18.5727     58.9437
   792.4000      8.0841      2.5197      0.0448      7.8945     18.6554     60.1238
   792.5000      8.0865      2.5265      0.0108      7.4859     18.9322     60.4555
   792.6000      8.0865      2.5446      0.0136      6.3859     19.0406     60.3197
   792.7000      8.0865      2.5609      0.0147      5.3996     18.9723     62.9590
   792.8000      8.0859      2.5526      0.0705      5.9005     18.9315     68.8186
   792.9000      8.0859      2.5201      0.0298      7.8741     19.0586     73.3469
   793.0000      8.0844      2.4929     -0.0307      9.5196     19.2173     73.4294
   793.1000      8.0844      2.4850      0.0103      9.9975     19.1753     73.7167
   793.2000      8.0844      2.4798     -0.0220     10.3176     19.2468     77.0768
   793.3000      8.0836      2.4682      0.0080     11.0207     19.8532     77.8399
   793.4000      8.0836      2.4610     -0.0366     11.4572     20.7897     74.3634
   793.5000      8.0820      2.4718     -0.0046     10.8008     21.4463     70.8430
   793.6000      8.0820      2.4937      0.0520      9.4754     21.3867     68.4989
   793.7000      8.0820      2.5031      0.0174      8.9059     20.7390     67.7061
   793.8000      8.0753      2.4920      0.0191      9.5785     20.0624     68.9971
   793.9000      8.0753      2.4784      0.0032     10.3975     19.9562     70.7284
   794.0000      8.0673      2.4805      0.0600     10.2745     20.3697     69.8206
   794.1000      8.0673      2.4938      0.0575      9.4666     20.7415     66.0651
   794.2000      8.0673      2.5072      0.0748      8.6554     20.8188     63.8724
   794.3000      8.0696      2.5188      0.0717      7.9522     20.7896     67.3007
   794.4000      8.0696      2.5353      0.0674      6.9526     20.8953     74.9430
   794.5000      8.0820      2.5571      0.0771      5.6325     21.1416     80.6090
   794.6000      8.0820      2.5661      0.0854      5.0845     21.4273     80.1079
   794.7000      8.0820      2.5495      0.0441      6.0931     21.6505     75.7011
   794.8000      8.0952      2.5225      0.0341      7.7265     21.8941     73.4200
   794.9000      8.0952      2.5112      0.0089      8.4130     22.4743     76.8478
