~Version Information
VERS.                      2.0: CWLS Log ASCII Standard - VERSION 2.0
WRAP.                       NO: One line per depth step
~Well Information Block
STRT.FT               670.0000: 
STOP.FT              2110.0000: 
STEP.FT                 0.2500: 
NULL.                -999.2500: 
COMP.          Petrogulf Corporation: COMPANY
WELL.           Montoya 12-44R: WELL
FLD.           Purgatorie River: FIELD
LOC.           713' FSL & 798' FEL: LOCATION
PROV.                 Colorado: PROVINCE
CNTY.               Las Animas: COUNTRY
SRVC.                Patterson: SERVICE COMPANY
DATE.          Sun Oct 02 01:06:45 2005: LOG DATE
UWI.           05-071-08538               : UNIQUE WELL ID
~Curve Information Block
DEPT.FT            0 000 00 00: Depth
SP.mV                         : DIL Spontaneous Potential
RILD.Ohm-m                    : DIL Deep Resistivity
RILM.Ohm-m                    : DIL Medium Resistivity
RLL3.Ohm-m                    : DIL Shallow Resistivity
GR.GAPI                       : Gamma Ray
~Parameter Information Block
~A  Depth        SP         RILD        RILM        RLL3         GR     
# ...
  1314.0000    168.8562     22.3381     24.0082     25.5513     85.1868
  1314.2500    168.7554     22.4282     24.2053     25.7726     83.1502
  1314.5000    168.6103     22.5259     24.3852     25.8718     78.3794
  1314.7500    168.4312     22.6333     24.5377     25.8845     74.3671
  1315.0000    168.2278     22.7428     24.6585     25.8480     68.7456
  1315.2500    167.9979     22.8425     24.7474     25.8021     66.3944
  1315.5000    167.7279     22.9227     24.8061     25.7758     65.9897
  1315.7500    167.4019     22.9797     24.8358     25.7713     67.5206
  1316.0000    167.0128     23.0158     24.8361     25.7614     70.6998
  1316.2500    166.5697     23.0367     24.8047     25.6996     72.1105
  1316.5000    166.1003     23.0475     24.7398     25.5341     71.9507
  1316.7500    165.6468     23.0504     24.6422     25.2317     70.6319
  1317.0000    165.2511     23.0441     24.5182     24.8081     68.4933
  1317.2500    164.9378     23.0243     24.3794     24.3402     67.8425
  1317.5000    164.7062     22.9868     24.2412     23.9353     68.5498
  1317.7500    164.5383     22.9294     24.1189     23.6748     69.9441
  1318.0000    164.4098     22.8542     24.0245     23.5772     72.7882
  1318.2500    164.2965     22.7696     23.9641     23.6097     74.7586
  1318.5000    164.1745     22.6912     23.9378     23.7246     76.8280
  1318.7500    164.0243     22.6383     23.9406     23.8866     76.9528
  1319.0000    163.8365     22.6251     23.9642     24.0807     74.7689
  1319.2500    163.6149     22.6521     23.9989     24.3072     72.2066
  1319.5000    163.3727     22.7044     24.0354     24.5648     68.4323
  1319.7500    163.1253     22.7590     24.0665     24.8302     66.8047
  1320.0000    162.8853     22.7974     24.0880     25.0586     65.9549
  1320.2500    162.6610     22.8151     24.0986     25.2190     66.0303
  1320.5000    162.4574     22.8222     24.0992     25.3254     66.2360
  1320.7500    162.2794     22.8369     24.0916     25.4164     66.1487
  1321.0000    162.1337     22.8752     24.0776     25.4921     65.6125
  1321.2500    162.0299     22.9446     24.0584     25.4873     65.1300
  1321.5000    161.9767     23.0420     24.0360     25.3243     64.7793
  1321.7500    161.9770     23.1558     24.0139     24.9937     65.3296
  1322.0000    162.0226     23.2695     23.9978     24.5748     68.1854
  1322.2500    162.0938     23.3659     23.9947     24.1840     71.4226
  1322.5000    162.1632     23.4329     24.0119     23.9208     76.7986
  1322.7500    162.2019     23.4678     24.0542     23.8538     79.4497
  1323.0000    162.1861     23.4783     24.1223     24.0173     80.7228
  1323.2500    162.1043     23.4791     24.2113     24.3862     79.8906
  1323.5000    161.9598     23.4851     24.3122     24.8578     76.9640
  1323.7500    161.7698     23.5059     24.4126     25.2864     74.3321
  1324.0000    161.5582     23.5420     24.5002     25.5579     70.3651
  1324.2500    161.3476     23.5862     24.5649     25.6468     68.5340
  1324.5000    161.1548     23.6285     24.6003     25.6148     67.7609
  1324.7500    160.9900     23.6608     24.6043     25.5623     68.1265
  1325.0000    160.8591     23.6780     24.5779     25.5652     68.5317
  1325.2500    160.7654     23.6766     24.5244     25.6341     68.2669
  1325.5000    160.7112     23.6558     24.4484     25.7204     67.4043
  1325.7500    160.7021     23.6202     24.3552     25.7624     66.8549
  1326.0000    160.7491     23.5806     24.2510     25.7250     66.1803
  1326.2500    160.8667     23.5495     24.1429     25.6027     65.7765
  1326.5000    161.0668     23.5334     24.0389     25.4072     65.5164
  1326.7500    161.3509     23.5286     23.9471     25.1669     65.9092
  1327.0000    161.7042     23.5260     23.8749     24.9353     67.5956
  1327.2500    162.0954     23.5208     23.8277     24.7802     69.1320
  1327.5000    162.4830     23.5187     23.8089     24.7487     70.9370
  1327.7500    162.8261     23.5320     23.8199     24.8330     71.2820
  1328.0000    163.0938     23.5705     23.8609     24.9728     70.4883
  1328.2500    163.2698     23.6368     23.9321     25.1037     69.5105
  1328.5000    163.3512     23.7287     24.0341     25.2116     68.3882
  1328.7500    163.3430     23.8459     24.1689     25.3396     68.4442
  1329.0000    163.2529     23.9935     24.3388     25.5475     70.1719
  1329.2500    163.0890     24.1793     24.5466     25.8654     71.9467
  1329.5000    162.8600     24.4086     24.7948     26.2667     73.6341
  1329.7500    162.5773     24.6785     25.0851     26.6752     73.2670
  1330.0000    162.2584     24.9758     25.4177     27.0248     71.1287
  1330.2500    161.9275     25.2778     25.7904     27.3436     69.9771
  1330.5000    161.6122     25.5600     26.1977     27.7712     70.4028
  1330.7500    161.3380     25.8064     26.6310     28.4605     72.0048
  1331.0000    161.1249     26.0162     27.0791     29.4423     74.7009
  1331.2500    160.9859     26.1998     27.5289     30.5794     75.7729
  1331.5000    160.9256     26.3659     27.9670     31.6481     76.1615
  1331.7500    160.9364     26.5111     28.3804     32.4760     76.2590
  1332.0000    160.9977     26.6200     28.7559     33.0478     77.1247
  1332.2500    161.0831     26.6750     29.0793     33.5213     78.1385
  1332.5000    161.1700     26.6647     29.3350     34.1238     79.5598
  1332.7500    161.2476     26.5884     29.5078     34.9594     80.0790
  1333.0000    161.3165     26.4562     29.5854     35.8548     80.1358
  1333.2500    161.3834     26.2854     29.5619     36.3985     79.8028
  1333.5000    161.4549     26.0954     29.4409     36.1847     78.7337
  1333.7500    161.5348     25.8999     29.2352     35.0834     77.5515
  1334.0000    161.6255     25.7028     28.9650     33.3345     75.3352
  1334.2500    161.7317     25.5002     28.6542     31.4120     73.9735
  1334.5000    161.8613     25.2892     28.3260     29.7692     72.5181
  1334.7500    162.0250     25.0743     28.0006     28.6371     71.7932
  1335.0000    162.2346     24.8677     27.6944     27.9914     70.7157
  1335.2500    162.4993     24.6821     27.4193     27.6682     70.0357
  1335.5000    162.8223     24.5243     27.1843     27.5133     69.2435
  1335.7500    163.1978     24.3948     26.9951     27.4592     68.7445
  1336.0000    163.6113     24.2933     26.8551     27.5089     67.5863
  1336.2500    164.0408     24.2237     26.7649     27.6799     66.5299
  1336.5000    164.4585     24.1962     26.7219     27.9640     65.2856
  1336.7500    164.8319     24.2232     26.7204     28.3201     65.3658
  1337.0000    165.1273     24.3136     26.7517     28.6898     67.6533
  1337.2500    165.3174     24.4655     26.8057     29.0167     70.5751
  1337.5000    165.3875     24.6643     26.8724     29.2563     75.9629
  1337.7500    165.3375     24.8850     26.9454     29.3743     79.2468
  1338.0000    165.1774     25.1002     27.0248     29.3403     82.4656
  1338.2500    164.9240     25.2892     27.1181     29.1315     83.4117
  1338.5000    164.6000     25.4429     27.2403     28.7548     83.5908
  1338.7500    164.2326     25.5642     27.4104     28.2765     83.0916
  1339.0000    163.8519     25.6646     27.6475     27.8375     81.6341
  1339.2500    163.4894     25.7589     27.9652     27.6452     80.6610
  1339.5000    163.1809     25.8597     28.3681     27.9466     80.5553
  1339.7500    162.9684     25.9695     28.8474     28.9882     81.9279
  1340.0000    162.9001     26.0711     29.3778     30.9554     85.6759
  1340.2500    163.0237     26.1213     29.9152     33.8762     88.1779
  1340.5000    163.3782     26.0563     30.3954     37.4948     89.7274
  1340.7500    163.9867     25.8063     30.7352     41.1776     88.7625
  1341.0000    164.8549     25.3152     30.8372     43.9940     85.4750
  1341.2500    165.9744     24.5567     30.6009     45.0812     83.4582
  1341.5000    167.3309     23.5431     29.9394     44.1912     82.7936
  1341.7500    168.9129     22.3251     28.8029     42.0108     84.3676
