~Version Information
VERS.                      2.0: CWLS Log ASCII Standard - VERSION 2.0
WRAP.                       NO: One line per depth step
~Well Information Block
STRT.FT               485.0000: 
STOP.FT              1030.5000: 
STEP.FT                 0.1000: 
NULL.                -999.2500: 
COMP.          Pioneer Natural Resources: COMPANY
WELL.          Red Raider 22-15: WELL
FLD.           Purgatoire River: FIELD
LOC.           1809' FNL & 2107' FWL: LOCATION
CNTY.               Las Animas: COUNTY
SRVC.                Patterson: SERVICE COMPANY
DATE.          Tue Apr 11 10:06:17 2006: LOG DATE
UWI.           05 071 08718 00: UNIQUE WELL ID
STAT.                 Colorado: STATE
~Curve Information Block
DEPT.FT            0 000 00 00: Depth
DCAL.in                       : CDL Caliper
RHOB.g/cc                     : CDL Bulk Density
RHOC.g/cc                     : CDL Density Correction
DPOR.pu                       : CDL Density Porosity
GR.GAPI                       : Gamma Ray
NPOR.pu                       : Neutron Porosity
~Parameter Information Block
~A  Depth       DCAL        RHOB        RHOC        DPOR         GR         NPOR    
# ...
   552.2000      8.0614      2.5428     -0.0331      6.4981     79.7621     25.7252
   552.3000      8.0642      2.5273     -0.0681      7.4354     86.2565     25.0346
   552.4000      8.0642      2.5188     -0.0167      7.9488     92.8630     24.1240
   552.5000      8.0733      2.5140      0.0090      8.2454     99.8905     23.2160
   552.6000      8.0733      2.5115      0.0252      8.3948    108.8804     22.5787
   552.7000      8.0733      2.5087      0.0440      8.5665    116.1146     22.0353
   552.8000      8.0848      2.4988      0.0867      9.1611    116.8047     21.3516
   552.9000      8.0848      2.4780      0.0923     10.4259    114.9962     20.5779
   553.0000      8.0975      2.4505      0.0337     12.0900    118.3620     19.7530
   553.1000      8.0975      2.4230      0.0857     13.7600    123.3203     18.5990
   553.2000      8.0975      2.3958      0.0612     15.4031    121.9967     17.0583
   553.3000      8.1079      2.3630      0.1420     17.3920    116.6735     15.6612
   553.4000      8.1079      2.3153      0.0814     20.2873    115.6831     15.0288
   553.5000      8.1177      2.2534      0.1024     24.0364    118.6835     15.2103
   553.6000      8.1177      2.1775      0.1333     28.6372    120.4941     15.7370
   553.7000      8.1177      2.0857      0.0693     34.2003    119.7197     16.4495
   553.8000      8.1269      1.9872      0.0707     40.1672    117.1657     17.4996
   553.9000      8.1269      1.8916      0.0496     45.9662    113.2832     18.6346
   554.0000      8.0414      1.8074      0.0517     51.0669    108.1026     19.4429
   554.1000      8.0414      1.7506      0.0240     54.5078    103.9616     19.9596
   554.2000      8.0414      1.7375     -0.0256     55.3022    103.1699     20.7183
   554.3000      8.0475      1.7732      0.0011     53.1396    102.8488     21.8076
   554.4000      8.0475      1.8452      0.0739     48.7741     99.6581     22.6830
   554.5000      8.0482      1.9287      0.1642     43.7141     96.2939     23.2483
   554.6000      8.0482      2.0065      0.1526     38.9978     96.0269     24.1696
   554.7000      8.0482      2.0850      0.2279     34.2411     98.5278     25.8132
   554.8000      8.0464      2.1766      0.2674     28.6915    101.1536     27.4892
   554.9000      8.0464      2.2759      0.2793     22.6703    100.3789     28.5689
   555.0000      8.0446      2.3564      0.2933     17.7921     97.4188     29.2369
   555.1000      8.0446      2.3995      0.1841     15.1823     96.9870     29.5090
   555.2000      8.0446      2.4153      0.1800     14.2264    100.9971     29.2905
   555.3000      8.0434      2.4214      0.1448     13.8539    107.3949     28.9831
   555.4000      8.0434      2.4297      0.1578     13.3493    111.6833     28.6467
   555.5000      8.0433      2.4443      0.1509     12.4646    111.4320     27.8174
   555.6000      8.0433      2.4634      0.1430     11.3091    108.4020     26.4822
   555.7000      8.0433      2.4780      0.1574     10.4234    104.0516     25.0926
   555.8000      8.0435      2.4771      0.1280     10.4809    100.3346     24.3197
   555.9000      8.0435      2.4661      0.0748     11.1437    100.1360     24.4036
   556.0000      8.0431      2.4658      0.0958     11.1646    103.3620     24.5429
   556.1000      8.0431      2.4857      0.1364      9.9588    108.7697     24.3878
   556.2000      8.0431      2.5108      0.1936      8.4342    114.4799     24.5474
   556.3000      8.0424      2.5197      0.2365      7.8985    119.8014     25.0086
   556.4000      8.0424      2.5160      0.1776      8.1231    122.9521     25.2524
   556.5000      8.0403      2.5214      0.1911      7.7941    121.4936     25.4031
   556.6000      8.0403      2.5344      0.1852      7.0053    118.0093     25.9173
   556.7000      8.0403      2.5376      0.2098      6.8104    116.8578     26.9553
   556.8000      8.0379      2.5257      0.1898      7.5358    121.5533     28.0536
   556.9000      8.0379      2.5076      0.1350      8.6322    129.8661     28.7105
   557.0000      8.0380      2.5031      0.0730      8.9032    134.5854     29.3477
   557.1000      8.0380      2.5222      0.1185      7.7476    132.0506     29.9944
   557.2000      8.0380      2.5438      0.1447      6.4350    124.6815     29.9849
   557.3000      8.0392      2.5484      0.1542      6.1602    118.7317     29.4261
   557.4000      8.0392      2.5523      0.0725      5.9239    117.2965     28.8877
   557.5000      8.0400      2.5711      0.1389      4.7792    115.1998     28.6877
   557.6000      8.0400      2.5880      0.1283      3.7583    109.0302     29.0749
   557.7000      8.0400      2.5889      0.1234      3.7038    105.0194     29.7502
   557.8000      8.0404      2.5839      0.1003      4.0084    106.5210     29.8300
   557.9000      8.0404      2.5875      0.0936      3.7849    108.2553     29.4003
   558.0000      8.0408      2.5943      0.1076      3.3741    108.2465     29.0045
   558.1000      8.0408      2.5937      0.0724      3.4138    109.0528     28.2549
   558.2000      8.0408      2.5919      0.1019      3.5227    108.7558     26.8870
   558.3000      8.0411      2.5927      0.0869      3.4725    106.2618     25.4521
   558.4000      8.0411      2.5900      0.1185      3.6376    107.1171     24.4402
   558.5000      8.0414      2.5827      0.1033      4.0759    111.8170     24.0180
   558.6000      8.0414      2.5777      0.0947      4.3842    116.4121     24.1814
   558.7000      8.0414      2.5738      0.0884      4.6170    118.9591     24.5755
   558.8000      8.0405      2.5624      0.1105      5.3068    119.9067     24.6923
   558.9000      8.0405      2.5494      0.0373      6.0989    119.4508     24.4833
   559.0000      8.0389      2.5479      0.0733      6.1858    117.7499     24.2755
   559.1000      8.0389      2.5499      0.0858      6.0681    117.5275     24.1481
   559.2000      8.0389      2.5428      0.0485      6.4992    119.8354     24.3820
   559.3000      8.0389      2.5304      0.0499      7.2505    122.6700     25.4099
   559.4000      8.0389      2.5184      0.0185      7.9739    122.9362     26.5044
   559.5000      8.0390      2.5072      0.0677      8.6520    120.1369     26.6939
   559.6000      8.0390      2.5009      0.0247      9.0367    119.5181     26.1367
   559.7000      8.0390      2.5021      0.0085      8.9622    123.7006     25.4583
   559.8000      8.0389      2.4970      0.0504      9.2734    131.3122     25.1088
   559.9000      8.0389      2.4802     -0.0074     10.2933    136.7949     25.0747
   560.0000      8.0384      2.4713     -0.0289     10.8300    134.5769     25.1811
   560.1000      8.0384      2.4749      0.0464     10.6127    128.4287     25.6060
   560.2000      8.0384      2.4761      0.0074     10.5377    124.1174     26.0499
   560.3000      8.0382      2.4733      0.0438     10.7083    124.5541     26.1619
   560.4000      8.0382      2.4722      0.0490     10.7749    129.2283     26.2748
   560.5000      8.0388      2.4800      0.0160     10.3046    131.4140     26.6323
   560.6000      8.0388      2.4971      0.0542      9.2689    128.6830     27.1567
   560.7000      8.0388      2.5105      0.0711      8.4567    128.5762     27.4233
   560.8000      8.0391      2.5173      0.0363      8.0411    131.4610     27.2365
   560.9000      8.0391      2.5300      0.0812      7.2743    128.5388     26.9832
   561.0000      8.0382      2.5481      0.0956      6.1736    120.1248     26.9587
   561.1000      8.0382      2.5591      0.0821      5.5108    112.6211     27.1271
   561.2000      8.0382      2.5602      0.0402      5.4446    108.2455     27.0435
   561.3000      8.0365      2.5537      0.0459      5.8387    107.2438     26.3715
   561.4000      8.0365      2.5329      0.0700      7.0943    106.5664     25.9417
   561.5000      8.0364      2.5006      0.0071      9.0529    102.9628     26.3575
   561.6000      8.0364      2.4795     -0.0397     10.3308     97.8213     26.8821
   561.7000      8.0364      2.4776      0.0025     10.4471     94.6808     26.8634
