~Version Information
VERS.                      2.0: CWLS Log ASCII Standard - VERSION 2.0
WRAP.                       NO: One line per depth step
~Well Information Block
STRT.FT               325.0000: 
STOP.FT              1013.5000: 
STEP.FT                 0.1000: 
NULL.                -999.2500: 
COMP.          Pioneer Natural Resources: COMPANY
WELL.                Doc 34-30: WELL
FLD.           Purgatoire River: FIELD
LOC.           454' FSL & 1386' FEL: LOCATION
CNTY.               Las Animas: COUNTY
SRVC.                Patterson: SERVICE COMPANY
DATE.          Thu Feb 16 07:19:58 2006: LOG DATE
UWI.           05 071 08694 00: UNIQUE WELL ID
STAT.                 Colorado: STATE
~Curve Information Block
DEPT.FT            0 000 00 00: Depth
DCAL.in                       : CDL Caliper
RHOB.g/cc                     : CDL Bulk Density
RHOC.g/cc                     : CDL Density Correction
DPOR.pu                       : CDL Density Porosity
GR.GAPI                       : Gamma Ray
NPOR.pu                       : Neutron Porosity
~Parameter Information Block
~A  Depth       DCAL        RHOB        RHOC        DPOR         GR         NPOR    
# ...
   814.6000      7.9851      2.5027      0.0314      8.9265    106.5114     28.9283
   814.7000      7.9851      2.4898      0.0520      9.7089    106.1944     29.2601
   814.8000      7.9860      2.4727      0.0225     10.7461    102.4638     29.4190
   814.9000      7.9860      2.4596     -0.0014     11.5401     99.0837     29.8747
   815.0000      7.9856      2.4537      0.0446     11.8999    100.5310     30.4704
   815.1000      7.9856      2.4469      0.0414     12.3075    104.6727     30.6399
   815.2000      7.9856      2.4399      0.0254     12.7309    108.1129     30.0300
   815.3000      7.9844      2.4346      0.0438     13.0530    109.8874     29.2550
   815.4000      7.9844      2.4194      0.0423     13.9751    110.4576     29.2382
   815.5000      7.9842      2.3942     -0.0234     15.5035    109.8100     29.7443
   815.6000      7.9842      2.3790     -0.0127     16.4234    106.4293     30.1112
   815.7000      7.9842      2.3813      0.0026     16.2848    101.4375     30.2290
   815.8000      7.9848      2.3917      0.0075     15.6561     97.2818     30.1802
   815.9000      7.9848      2.4006      0.0721     15.1140     96.0260     30.0209
   816.0000      7.9846      2.4030      0.0572     14.9717     99.0294     29.7018
   816.1000      7.9846      2.3965      0.0779     15.3636    104.6939     29.3778
   816.2000      7.9846      2.3870      0.0048     15.9421    109.9061     29.8142
   816.3000      7.9835      2.3902      0.0137     15.7478    111.1377     30.7524
   816.4000      7.9835      2.4041      0.0747     14.9039    109.1134     30.9234
   816.5000      7.9828      2.4142      0.0297     14.2937    107.7190     30.3232
   816.6000      7.9828      2.4265      0.0136     13.5454    106.5304     29.6324
   816.7000      7.9828      2.4519      0.0353     12.0090    101.9750     28.9754
   816.8000      7.9829      2.4868      0.0367      9.8903     96.0210     28.4591
   816.9000      7.9829      2.5196      0.0684      7.9025     92.3283     28.0534
   817.0000      7.9827      2.5345      0.0816      7.0003     93.1344     27.7828
   817.1000      7.9827      2.5261      0.0876      7.5119     98.0770     28.0769
   817.2000      7.9827      2.5127      0.0109      8.3197    101.7828     28.8265
   817.3000      7.9831      2.5173      0.0256      8.0454    100.1145     29.4011
   817.4000      7.9831      2.5359      0.0662      6.9128     96.3148     29.2081
   817.5000      7.9841      2.5531      0.0435      5.8707     95.8283     28.5795
   817.6000      7.9841      2.5599      0.0761      5.4592     98.6425     28.3764
   817.7000      7.9841      2.5538      0.0530      5.8291    100.1493     28.7717
   817.8000      7.9838      2.5413      0.0131      6.5883     96.2282     28.9392
   817.9000      7.9838      2.5268      0.0261      7.4637     90.0452     28.4600
   818.0000      7.9822      2.5103     -0.0129      8.4661     87.9815     28.2061
   818.1000      7.9822      2.4919      0.0184      9.5816     90.0905     28.5323
   818.2000      7.9822      2.4685      0.0075     10.9980     92.2197     29.0038
   818.3000      7.9815      2.4475     -0.0720     12.2751     90.6684     28.9900
   818.4000      7.9815      2.4504     -0.0593     12.0958     87.0270     28.5923
   818.5000      7.9817      2.4833      0.0014     10.1060     86.3506     28.8278
   818.6000      7.9817      2.5152      0.0482      8.1713     90.9979     29.6780
   818.7000      7.9817      2.5142      0.0448      8.2292     97.8216     29.6484
   818.8000      7.9810      2.4904      0.0027      9.6742    100.4516     28.4742
   818.9000      7.9810      2.4732      0.0202     10.7166     97.2816     27.8376
   819.0000      7.9783      2.4730      0.0136     10.7277     94.9936     28.6422
   819.1000      7.9783      2.4829      0.0483     10.1250     97.3942     30.1453
   819.2000      7.9783      2.4935      0.0151      9.4873    102.0031     31.1612
   819.3000      7.9767      2.4999      0.0468      9.0972    105.2809     31.0227
   819.4000      7.9767      2.4985      0.0307      9.1803    105.5085     30.0434
   819.5000      7.9781      2.4864      0.0467      9.9145    104.6579     29.3082
   819.6000      7.9781      2.4693      0.0433     10.9491    104.1917     29.3558
   819.7000      7.9781      2.4601      0.0562     11.5083    103.1495     29.3291
   819.8000      7.9787      2.4669     -0.0076     11.0972    101.1355     28.6630
   819.9000      7.9787      2.4837      0.0640     10.0776     99.3674     28.1325
   820.0000      7.9787      2.4897      0.0773      9.7164    100.6792     28.5021
   820.1000      7.9787      2.4786      0.0316     10.3855    103.6132     29.2476
   820.2000      7.9787      2.4676      0.0152     11.0565    104.6082     29.3595
   820.3000      7.9805      2.4643      0.0650     11.2518    104.6587     28.8064
   820.4000      7.9805      2.4634      0.0290     11.3095    103.8126     28.5863
   820.5000      7.9828      2.4648      0.0315     11.2231    101.2679     28.8207
   820.6000      7.9828      2.4705      0.0532     10.8784     97.7059     28.2549
   820.7000      7.9828      2.4758      0.0550     10.5549     95.8769     27.1167
   820.8000      7.9835      2.4821      0.0502     10.1755     96.0764     26.8470
   820.9000      7.9835      2.4911      0.0666      9.6304     95.6836     27.5794
   821.0000      7.9835      2.4918      0.0700      9.5851     96.2304     28.6796
   821.1000      7.9835      2.4836      0.0341     10.0835     99.2970     29.4628
   821.2000      7.9835      2.4796      0.0572     10.3247    104.1063     29.1377
   821.3000      7.9833      2.4806      0.0505     10.2697    108.0128     27.9026
   821.4000      7.9833      2.4796      0.0759     10.3264    108.2382     26.9940
   821.5000      7.9824      2.4784      0.0430     10.4011    105.6379     26.6352
   821.6000      7.9824      2.4760      0.0506     10.5453    102.9453     26.6210
   821.7000      7.9824      2.4680      0.0355     11.0317    102.9855     27.3023
   821.8000      7.9823      2.4655      0.0173     11.1837    107.8894     28.4249
   821.9000      7.9823      2.4764      0.0458     10.5234    115.1160     29.5103
   822.0000      7.9834      2.4903      0.0670      9.6775    120.4059     30.4261
   822.1000      7.9834      2.5024      0.0554      8.9468    123.4076     30.9626
   822.2000      7.9834      2.5072      0.1217      8.6561    122.7792     31.3501
   822.3000      7.9843      2.4957      0.0728      9.3491    116.7664     31.6597
   822.4000      7.9843      2.4800      0.0365     10.3051    110.2375     31.2135
   822.5000      7.9850      2.4725      0.0485     10.7569    107.6618     30.1639
   822.6000      7.9850      2.4715     -0.0019     10.8191    106.4709     29.2492
   822.7000      7.9850      2.4776      0.0162     10.4488    104.5280     28.7179
   822.8000      7.9860      2.4854      0.0597      9.9747    101.7937     28.8157
   822.9000      7.9860      2.4873      0.0224      9.8611     96.8960     29.7311
   823.0000      7.9866      2.4873      0.0630      9.8586     92.3000     30.7491
   823.1000      7.9866      2.4894      0.0539      9.7310     94.5223     30.9207
   823.2000      7.9866      2.4845      0.0881     10.0327    102.7840     30.1749
   823.3000      7.9858      2.4614      0.0358     11.4315    108.0451     29.1707
   823.4000      7.9858      2.4332     -0.0103     13.1401    108.5586     28.8292
   823.5000      7.9843      2.4235      0.0172     13.7243    112.0692     28.9705
   823.6000      7.9843      2.4362      0.0095     12.9565    119.1672     29.1202
   823.7000      7.9843      2.4598      0.0474     11.5287    123.2048     29.6992
   823.8000      7.9832      2.4774      0.0683     10.4628    120.4561     30.2105
   823.9000      7.9832      2.4815      0.0351     10.2104    114.1456     29.5270
   824.0000      7.9839      2.4841      0.0527     10.0527    109.6506     27.7671
   824.1000      7.9839      2.4920      0.0655      9.5765    107.7977     25.8636
