~Version Information
VERS.                      2.0: CWLS Log ASCII Standard - VERSION 2.0
WRAP.                       NO: One line per depth step
~Well Information Block
STRT.FT                 0.0000: 
STOP.FT               787.2500: 
STEP.FT                 0.2500: 
NULL.                -999.2500: 
COMP.          Pioneer Natural Resources: COMPANY
WELL.             Veedol 34-28: WELL
FLD.           Purgatorie River: FIELD
LOC.           357' FSL & 2520' FEL: LOCATION
PROV.                 Colorado: PROVINCE
CNTY.               Las Animas: COUNTRY
SRVC.                Patterson: SERVICE COMPANY
DATE.          Wed Dec 28 10:10:37 2005: LOG DATE
UWI.                          : UNIQUE WELL ID
~Curve Information Block
DEPT.FT            0 000 00 00: Depth
CCL.                          : Casing Collar Locator
TT3.usec                      : CBL 3' Travel Time
AMP3.mV                       : CBL 3' Amplitude
GR.GAPI                       : Gamma Ray
~Parameter Information Block
~A  Depth       CCL         TT3         AMP3         GR     
# ...
   435.5000      0.0000    686.1676     11.0224     87.7565
   435.7500      0.0000    711.9633     10.9935     87.9751
   436.0000      0.0000    720.7372     11.0112     87.9840
   436.2500      0.0000    722.9617     11.0950     86.7449
   436.5000      0.0000    723.6633     11.2144     84.1250
   436.7500      0.0000    724.0211     11.3387     80.8686
   437.0000      0.0000    724.1486     11.4577     77.8617
   437.2500      0.0000    724.0645     11.5616     75.4233
   437.5000      0.0000    723.8846     11.6478     73.4604
   437.7500      0.0000    723.7598     11.7221     72.2672
   438.0000      0.0000    723.7089     11.7627     72.7380
   438.2500      0.0000    723.6844     11.7266     75.4580
   438.5000      0.0000    723.7132     11.6300     79.5684
   438.7500      0.0000    723.8587     11.5712     82.8014
   439.0000      0.0000    724.1361     11.6265     83.0965
   439.2500      0.0000    724.4403     11.7661     80.4421
   439.5000      0.0000    724.5295     11.9150     76.9004
   439.7500      0.0000    724.2087     12.0494     74.5636
   440.0000      0.0000    723.5355     12.1875     73.6142
   440.2500      0.0000    722.7831     12.3158     72.5860
   440.5000      0.0000    722.2275     12.3955     70.1907
   440.7500      0.0000    721.9655     12.4365     66.5354
   441.0000      0.0000    721.9183     12.4973     62.8579
   441.2500      0.0000    721.9681     12.6225     60.6385
   441.5000      0.0000    722.0452     12.8069     60.7874
   441.7500      0.0000    722.1353     12.9995     62.9531
   442.0000      0.0000    722.2481     13.1348     65.3563
   442.2500      0.0000    722.3925     13.1812     65.7397
   442.5000      0.0000    722.5829     13.1637     62.9206
   442.7500      0.0000    722.8521     13.1291     57.5626
   443.0000      0.0000    723.2273     13.0873     51.5581
   443.2500      0.0000    723.6053     12.9992     46.7504
   443.5000      0.0000    723.7708     12.8328     44.0751
   443.7500      0.0000    723.6934     12.6225     43.5441
   444.0000      0.0000    723.5472     12.4425     44.7306
   444.2500      0.0000    723.4113     12.3234     47.1682
   444.5000      0.0000    723.2777     12.2368     50.3765
   444.7500      0.0000    723.2220     12.1522     53.6762
   445.0000      0.0000    723.3036     12.0742     56.1553
   445.2500      0.0000    723.4371     12.0349     57.0420
   445.5000      0.0000    723.4600     12.0605     56.2336
   445.7500      0.0000    723.2460     12.1270     54.3633
   446.0000      0.0000    722.8154     12.1685     52.2979
   446.2500      0.0000    722.3648     12.1567     50.6873
   446.5000      0.0000    722.1076     12.1307     49.8812
   446.7500      0.0000    722.1090     12.1260     49.8536
   447.0000      0.0000    722.2902     12.1292     50.1226
   447.2500      0.0000    722.5257     12.1251     50.1148
   447.5000      0.0000    722.7296     12.1320     49.7562
   447.7500      0.0000    722.9073     12.1666     49.4492
   448.0000      0.0000    723.1242     12.2147     49.4302
   448.2500      0.0000    723.3924     12.2488     49.4239
   448.5000      0.0000    723.6430     12.2528     49.0856
   448.7500      0.0000    723.8171     12.2328     48.5529
   449.0000      0.0000    723.8785     12.2147     48.2448
   449.2500      0.0000    723.7646     12.2251     48.1779
   449.5000      0.0000    723.4657     12.2586     47.8929
   449.7500      0.0000    723.0991     12.2741     47.0793
   450.0000      0.0000    722.8057     12.2623     45.9029
   450.2500      0.0000    722.6318     12.2752     44.7180
   450.5000      0.0000    722.5522     12.3261     43.7879
   450.7500      0.0000    722.5392     12.3359     43.2853
   451.0000      0.0000    722.5781     12.2373     43.3233
   451.2500      0.0000    722.6450     12.0538     43.9838
   451.5000      0.0000    722.6785     11.8559     45.4719
   451.7500      0.0000    722.6064     11.7085     48.1738
   452.0000      0.0000    722.4334     11.6547     52.3242
   452.2500      0.0000    722.2792     11.6892     57.5216
   452.5000      0.0000    722.2823     11.7475     62.7527
   452.7500      0.0000    722.4356     11.7557     67.0873
   453.0000      0.0000    722.5950     11.6893     70.2933
   453.2500      0.0000    722.6761     11.5749     72.6352
   453.5000      0.0000    722.7084     11.4595     74.3262
   453.7500      0.0000    722.6879     11.3658     75.4979
   454.0000      0.0000    722.6102     11.2252     76.5453
   454.2500      0.0000    722.5511     10.8780     78.1032
   454.5000      0.0000    721.9744     10.2773     80.5524
   454.7500      0.0000    720.1782      9.7134     83.6432
   455.0000      0.0000    723.9140      9.4615     86.6513
   455.2500      0.0000    751.5070      9.1565     88.8591
   455.5000      0.0000    804.6473      8.3215     89.8270
   455.7500      0.0000    842.0264      7.3335     89.2729
   456.0000      0.0000    826.4567      6.8843     86.9462
   456.2500      0.0000    782.8920      7.0194     82.8466
   456.5000      2.0000    761.3926      7.2976     77.6037
   456.7500      0.0000    770.7861      7.4049     72.4772
   457.0000      0.0000    785.1934      7.3434     68.7734
   457.2500      0.0000    773.6641      7.3069     67.2104
   457.5000      0.0000    707.1378      7.6121     67.8610
   457.7500      0.0000    598.2245      8.4227     70.3649
   458.0000      0.0000    520.7260      9.2907     73.8441
   458.2500      0.0000    530.2580      9.6255     76.8995
   458.5000      0.0000    599.6799      9.5798     78.1921
   458.7500      0.0000    663.4460      9.6838     77.2159
   459.0000      0.0000    691.3320     10.1108     74.5409
   459.2500      0.0000    698.4468     10.6983     71.4174
   459.5000      0.0000    705.4187     11.1946     69.1202
   459.7500      0.0000    712.8098     11.4389     68.5030
   460.0000      0.0000    707.2564     11.5030     69.8302
   460.2500      0.0000    671.9146     11.6195     72.5724
   460.5000      0.0000    598.1192     11.9303     75.3771
   460.7500      0.0000    504.1404     12.3738     76.8521
   461.0000      0.0000    427.3908     12.8133     76.6954
   461.2500      0.0000    387.9818     13.1515     75.6317
   461.5000      0.0000    376.5925     13.3318     74.2186
   461.7500      0.0000    374.0106     13.3530     72.4015
   462.0000      0.0000    368.6890     13.2883     70.3955
   462.2500      0.0000    360.0961     13.2262     69.1636
   462.5000      0.0000    352.8430     13.1988     69.4100
   462.7500      0.0000    350.3116     13.1794     70.5848
   463.0000      0.0000    355.6837     13.1278     71.4573
   463.2500      0.0000    377.3224     13.0475     71.3849
   463.5000      0.0000    423.9510     12.9722     70.5787
   463.7500      0.0000    484.1462     12.8734     69.3607
   464.0000      0.0000    522.2502     12.6866     67.6179
   464.2500      0.0000    517.4467     12.4417     65.0667
   464.5000      0.0000    491.1264     12.2347     61.9550
   464.7500      0.0000    474.9099     12.0760     59.3593
   465.0000      0.0000    476.1394     11.8765     58.5864
   465.2500      0.0000    486.7102     11.5797     60.0690
   465.5000      0.0000    502.9243     11.2282     62.8250
   465.7500      0.0000    524.3163     10.8972     65.0638
   466.0000      0.0000    544.7627     10.6288     65.5665
   466.2500      0.0000    560.8168     10.4286     64.6367
   466.5000      0.0000    576.8015     10.2526     63.6081
   466.7500      0.0000    585.3317     10.0323     63.3835
   467.0000      0.0000    570.7505      9.7880     63.6146
   467.2500      0.0000    538.8882      9.6253     63.2385
   467.5000      0.0000    508.3476      9.5839     61.4981
   467.7500      0.0000    486.6671      9.6020     58.3583
   468.0000      0.0000    473.5433      9.6163     54.2323
   468.2500      0.0000    462.2805      9.6248     49.6822
   468.5000      0.0000    443.0600      9.6617     45.4397
   468.7500      0.0000    419.6570      9.7308     42.3211
