~Version Information
VERS.                      2.0: CWLS Log ASCII Standard - VERSION 2.0
WRAP.                       NO: One line per depth step
~Well Information Block
STRT.FT               410.0000: 
STOP.FT              1253.0000: 
STEP.FT                 0.1000: 
NULL.                -999.2500: 
COMP.          Petrogulf Corporation: COMPANY
WELL.           Parsons 15-23R: WELL
FLD.           Purgatorie River: FIELD
LOC.           2244' FSL & 1932' FWL: LOCATION
PROV.                 Colorado: PROVINCE
CNTY.               Las Animas: COUNTRY
SRVC.                Patterson: SERVICE COMPANY
DATE.          Mon Sep 12 10:28:25 2005: LOG DATE
UWI.                          : UNIQUE WELL ID
~Curve Information Block
DEPT.FT            0 000 00 00: Depth
DCAL.in                       : CDL Caliper
RHOB.g/cc                     : CDL Bulk Density
RHOC.g/cc                     : CDL Density Correction
DPOR.pu                       : CDL Density Porosity
GR.GAPI                       : Gamma Ray
NPOR.pu                       : Neutron Porosity
~Parameter Information Block
~A  Depth       DCAL        RHOB        RHOC        DPOR         GR         NPOR    
   410.0000      8.1065      1.8293     -0.5829     49.7397     85.4538     35.2393
   410.1000      8.1065      1.8348     -0.6466     49.4062     85.6068     35.1047
   410.2000      8.1065      1.8335     -0.6614     49.4856     85.9559     35.1376
   410.3000      8.1103      1.8494     -0.7021     48.5241     86.6246     35.1698
   410.4000      8.1103      1.8855     -0.6328     46.3359     86.4507     35.0337
   410.5000      8.1072      1.9276     -0.6615     43.7798     83.6598     34.8369
   410.6000      8.1072      1.9672     -0.5835     41.3822     81.0453     34.7592
   410.7000      8.1072      2.0016     -0.6047     39.2956     82.5700     34.9049
   410.8000      8.1024      2.0314     -0.5814     37.4922     85.0137     35.1511
   410.9000      8.1024      2.0504     -0.5066     36.3407     83.5398     35.1197
   411.0000      8.1074      2.0515     -0.5608     36.2757     81.5211     34.6266
   411.1000      8.1074      2.0388     -0.5515     37.0429     83.9642     34.0694
   411.2000      8.1074      2.0167     -0.5439     38.3819     88.6544     33.8106
   411.3000      8.1044      1.9867     -0.5994     40.2013     90.3817     33.6910
   411.4000      8.1044      1.9632     -0.6194     41.6215     88.2810     33.3965
   411.5000      8.1057      1.9627     -0.5932     41.6522     86.5707     32.9716
   411.6000      8.1057      1.9771     -0.5660     40.7840     85.7857     32.7772
   411.7000      8.1057      1.9863     -0.5346     40.2266     83.1299     33.0149
   411.8000      8.1049      1.9834     -0.5397     40.4006     81.0652     33.4760
   411.9000      8.1049      1.9743     -0.5807     40.9502     83.5419     33.6004
   412.0000      8.1041      1.9727     -0.5686     41.0504     88.9809     33.2421
   412.1000      8.1041      1.9872     -0.5661     40.1717     92.0900     32.7779
   412.2000      8.1041      2.0066     -0.4851     38.9936     89.4677     32.5072
   412.3000      8.1066      2.0128     -0.5049     38.6176     82.7320     32.4725
   412.4000      8.1066      2.0035     -0.4816     39.1830     78.0361     32.5040
   412.5000      8.1045      1.9835     -0.5270     40.3967     78.7885     32.4708
   412.6000      8.1045      1.9665     -0.6436     41.4226     80.3678     32.3275
   412.7000      8.1045      1.9718     -0.5524     41.1050     78.2942     32.0742
   412.8000      8.1080      1.9990     -0.5239     39.4574     75.8079     31.8186
   412.9000      8.1080      2.0341     -0.5030     37.3252     75.4387     31.7063
   413.0000      8.1062      2.0599     -0.4781     35.7640     75.0324     31.8855
   413.1000      8.1062      2.0651     -0.4583     35.4512     74.1803     32.2952
   413.2000      8.1062      2.0635     -0.5434     35.5442     73.8102     32.5781
   413.3000      8.1035      2.0777     -0.5430     34.6867     75.1010     32.5702
   413.4000      8.1035      2.1056     -0.5347     32.9956     78.0233     32.5540
   413.5000      8.1020      2.1266     -0.4493     31.7218     81.5847     32.7404
   413.6000      8.1020      2.1338     -0.5012     31.2842     85.2554     32.9678
   413.7000      8.1020      2.1411     -0.4895     30.8436     88.3575     32.9936
   413.8000      8.1075      2.1533     -0.4821     30.1026     90.8681     32.8843
   413.9000      8.1075      2.1550     -0.4502     30.0006     92.5271     32.8822
   414.0000      8.1060      2.1335     -0.5066     31.3034     91.2812     33.0162
   414.1000      8.1060      2.1032     -0.5528     33.1380     86.7055     33.2284
   414.2000      8.1060      2.0836     -0.5217     34.3287     82.7985     33.4415
   414.3000      8.1104      2.0688     -0.5128     35.2239     82.5978     33.7163
   414.4000      8.1104      2.0503     -0.5306     36.3456     83.4529     34.0187
   414.5000      8.1094      2.0398     -0.5589     36.9812     83.3608     33.9269
   414.6000      8.1094      2.0467     -0.5413     36.5628     84.4858     33.4886
   414.7000      8.1094      2.0593     -0.5088     35.7984     86.3349     33.1964
   414.8000      8.1104      2.0672     -0.5473     35.3236     85.5700     32.9343
   414.9000      8.1104      2.0699     -0.4593     35.1550     83.8341     32.4640
   415.0000      8.1053      2.0635     -0.4890     35.5473     85.9255     32.1918
   415.1000      8.1053      2.0406     -0.4387     36.9356     89.6749     32.3281
   415.2000      8.1053      2.0080     -0.5674     38.9064     89.7171     32.3424
   415.3000      8.1022      1.9919     -0.5306     39.8873     88.5376     32.0435
   415.4000      8.1022      1.9988     -0.5688     39.4675     91.5118     31.9546
   415.5000      8.1002      2.0080     -0.4856     38.9113     96.0945     32.4467
   415.6000      8.1002      2.0066     -0.5504     38.9943     96.8939     33.1174
   415.7000      8.1002      2.0020     -0.5485     39.2712     93.5722     33.3178
   415.8000      8.1022      2.0034     -0.5488     39.1895     90.3648     33.1632
   415.9000      8.1022      2.0163     -0.5684     38.4037     89.8213     33.1587
   416.0000      8.1040      2.0354     -0.4730     37.2473     89.3899     33.3970
   416.1000      8.1040      2.0399     -0.4586     36.9758     87.4070     33.6030
   416.2000      8.1040      2.0283     -0.5717     37.6783     83.6892     33.5412
   416.3000      8.1004      2.0266     -0.5626     37.7810     77.6849     33.2376
   416.4000      8.1004      2.0542     -0.5925     36.1082     70.9481     32.9560
   416.5000      8.1015      2.1021     -0.5288     33.2056     65.8569     32.8868
   416.6000      8.1015      2.1401     -0.5253     30.9029     63.9545     32.8226
   416.7000      8.1015      2.1495     -0.4865     30.3331     64.0161     32.5008
   416.8000      8.0987      2.1364     -0.5582     31.1296     63.6847     32.0059
   416.9000      8.0987      2.1080     -0.5472     32.8497     61.5809     31.5789
   417.0000      8.0983      2.0677     -0.5713     35.2929     57.1235     31.3552
   417.1000      8.0983      2.0385     -0.6606     37.0625     52.2422     31.3606
   417.2000      8.0983      2.0332     -0.5831     37.3828     49.2371     31.3283
   417.3000      8.0984      2.0323     -0.5577     37.4371     48.3883     31.0423
   417.4000      8.0984      2.0244     -0.5689     37.9122     49.2487     30.7943
   417.5000      8.0999      2.0124     -0.5982     38.6402     50.9410     30.8854
   417.6000      8.0999      1.9976     -0.6265     39.5395     52.7193     31.2484
   417.7000      8.0999      1.9833     -0.6196     40.4057     54.1225     31.5566
   417.8000      8.1018      1.9719     -0.6139     41.0941     55.2501     31.4808
   417.9000      8.1018      1.9594     -0.5887     41.8520     57.0741     31.0181
   418.0000      8.0918      1.9517     -0.6595     42.3223     59.0143     30.5540
   418.1000      8.0918      1.9711     -0.6318     41.1473     61.8652     30.6850
   418.2000      8.0918      2.0221     -0.5575     38.0540     65.0183     31.4345
   418.3000      8.0834      2.0691     -0.4824     35.2045     65.6512     32.1277
   418.4000      8.0834      2.0697     -0.4299     35.1670     64.9459     32.3162
   418.5000      8.0895      2.0308     -0.5441     37.5294     65.0635     32.1774
   418.6000      8.0895      1.9958     -0.5795     39.6476     65.7337     32.2380
   418.7000      8.0895      1.9788     -0.5586     40.6767     65.6914     32.7607
   418.8000      8.0833      1.9653     -0.5837     41.4998     64.6602     33.2480
   418.9000      8.0833      1.9540     -0.5873     42.1844     64.5568     33.2062
   419.0000      8.0904      1.9508     -0.5614     42.3783     65.1643     32.9403
   419.1000      8.0904      1.9520     -0.5452     42.3010     63.9145     32.9077
   419.2000      8.0904      1.9547     -0.6287     42.1365     61.6383     33.0848
   419.3000      8.0969      1.9549     -0.5394     42.1271     60.9793     33.1992
   419.4000      8.0969      1.9430     -0.6075     42.8485     62.2152     33.1779
   419.5000      8.0854      1.9208     -0.5429     44.1921     64.5999     33.1009
