~Version Information
VERS.                      2.0: CWLS Log ASCII Standard - VERSION 2.0
WRAP.                       NO: One line per depth step
~Well Information Block
STRT.FT               380.0000: 
STOP.FT              1887.5000: 
STEP.FT                 0.1000: 
NULL.                -999.2500: 
COMP.          Pioneer Natural Resources: COMPANY
WELL.          Cortina 23-25 Tr: WELL
FLD.           Purgatoire River: FIELD
LOC.           2521' FSL & 2345' FWL: LOCATION
STAT.                 Colorado: State
CNTY.               Las Animas: COUNTY
CTRY. USA : Country
SECT. 25 : Section
TOWN. 32S : Township
RANG. 67W : Range
SRVC.                Patterson: SERVICE COMPANY
DATE.          Mon Sep 26 06:09:01 2005: LOG DATE
API.           05 071 08534 00: UNIQUE WELL ID
~Curve Information Block
DEPT.FT            0 000 00 00: Depth
DCAL.in                       : CDL Caliper
RHOB.g/cc                     : CDL Bulk Density
RHOC.g/cc                     : CDL Density Correction
DPOR.pu                       : CDL Density Porosity
GR.GAPI                       : Gamma Ray
NPOR.pu                       : Neutron Porosity
~Parameter Information Block
~A  Depth       DCAL        RHOB        RHOC        DPOR         GR         NPOR    
# ...
  1781.6000      7.9288      2.6006      0.0724      2.9960    119.9694     22.1658
  1781.7000      7.9262      2.5959      0.0050      3.2817    111.3955     22.5525
  1781.8000      7.9238      2.6022      0.0381      2.8975    109.1159     23.2925
  1781.9000      7.9215      2.6165      0.0628      2.0279    116.7038     23.9552
  1782.0000      7.9194      2.6194      0.0605      1.8530    126.3270     24.1983
  1782.1000      7.9177      2.5963      0.0522      3.2566    132.5376     24.0463
  1782.2000      7.9162      2.5548      0.0382      5.7674    137.9656     23.9455
  1782.3000      7.9150      2.5263      0.0090      7.4988    144.3980     24.4943
  1782.4000      7.9141      2.5300     -0.0232      7.2754    149.9190     25.5846
  1782.5000      7.9134      2.5479      0.0747      6.1900    152.9328     26.5397
  1782.6000      7.9129      2.5520      0.0663      5.9393    151.4737     26.5830
  1782.7000      7.9125      2.5389      0.0696      6.7343    147.1755     25.6774
  1782.8000      7.9120      2.5220      0.0473      7.7557    149.5972     24.8111
  1782.9000      7.9117      2.5103      0.0494      8.4680    159.8601     24.6028
  1783.0000      7.9114      2.5037     -0.0029      8.8680    166.8194     24.5022
  1783.1000      7.9112      2.5068      0.0252      8.6788    163.5309     24.3498
  1783.2000      7.9113      2.5201      0.0329      7.8737    155.7297     24.7882
  1783.3000      7.9117      2.5307      0.0563      7.2303    151.1323     25.9273
  1783.4000      7.9125      2.5300      0.0565      7.2746    150.6964     26.5741
  1783.5000      7.9141      2.5222      0.0238      7.7441    155.0044     25.7653
  1783.6000      7.9164      2.5087      0.0581      8.5640    162.9062     24.4448
  1783.7000      7.9196      2.4874      0.0368      9.8536    168.0142     23.8111
  1783.8000      7.9237      2.4724     -0.0212     10.7626    168.4750     23.9765
  1783.9000      7.9288      2.4711      0.0688     10.8438    167.3348     24.6391
  1784.0000      7.9347      2.4612      0.0512     11.4450    164.8809     25.4572
  1784.1000      7.9413      2.4320      0.0400     13.2130    162.0585     26.0593
  1784.2000      7.9481      2.4045      0.0500     14.8758    161.7169     26.4958
  1784.3000      7.9547      2.3948      0.0591     15.4654    162.0599     27.3536
  1784.4000      7.9609      2.3949      0.0864     15.4579    159.3024     28.2475
  1784.5000      7.9660      2.3953      0.0985     15.4370    152.8723     28.0783
  1784.6000      7.9699      2.4009      0.0997     15.0941    145.3464     26.8515
  1784.7000      7.9723      2.4147      0.1210     14.2589    141.3168     25.2841
  1784.8000      7.9730      2.4320      0.1092     13.2128    143.0298     24.1292
  1784.9000      7.9722      2.4534      0.1211     11.9133    145.1550     24.0271
  1785.0000      7.9699      2.4828      0.0887     10.1356    144.4795     24.4058
  1785.1000      7.9665      2.5142      0.0591      8.2276    145.0881     24.3217
  1785.2000      7.9621      2.5320      0.0701      7.1537    148.6218     23.7623
  1785.3000      7.9571      2.5358      0.0397      6.9202    149.0721     23.0747
  1785.4000      7.9516      2.5454      0.0683      6.3403    143.2179     22.6915
  1785.5000      7.9460      2.5634      0.0764      5.2489    135.5890     22.3987
  1785.6000      7.9404      2.5753      0.0698      4.5253    130.7336     21.7876
  1785.7000      7.9349      2.5812      0.0576      4.1673    126.4439     21.4240
  1785.8000      7.9298      2.5873      0.0442      3.8014    119.3507     21.7043
  1785.9000      7.9251      2.5863      0.0855      3.8579    112.1153     22.1201
  1786.0000      7.9209      2.5784      0.0059      4.3385    110.6069     21.9468
  1786.1000      7.9174      2.5751      0.0073      4.5403    113.5769     21.5540
  1786.2000      7.9147      2.5793      0.0181      4.2861    112.5256     22.0103
  1786.3000      7.9128      2.5821      0.0755      4.1133    109.1296     22.8542
  1786.4000      7.9117      2.5754      0.0163      4.5240    111.6422     22.8352
  1786.5000      7.9112      2.5688      0.0007      4.9209    116.5242     22.2132
  1786.6000      7.9113      2.5749      0.0539      4.5516    115.3586     21.8903
  1786.7000      7.9117      2.5869      0.0681      3.8237    109.7741     21.7708
  1786.8000      7.9123      2.5953      0.0299      3.3165    107.2462     21.4047
  1786.9000      7.9130      2.6046      0.0221      2.7535    107.8638     20.9729
  1787.0000      7.9135      2.6174      0.0889      1.9730    106.5037     20.5790
  1787.1000      7.9139      2.6309      0.0156      1.1605    104.3314     20.1847
  1787.2000      7.9141      2.6458      0.0447      0.2560    103.7308     20.2029
  1787.3000      7.9141      2.6558      0.0422     -0.3497    100.6304     20.6719
  1787.4000      7.9141      2.6499      0.0562      0.0062     93.3102     21.2352
  1787.5000      7.9143      2.6285      0.0567      1.3041     89.2072     21.8755
  1787.6000      7.9149      2.6020      0.0529      2.9099     92.2639     22.4306
  1787.7000      7.9162      2.5740      0.0187      4.6089     96.2797     22.3982
  1787.8000      7.9182      2.5474      0.0220      6.2178     98.6752     21.8954
  1787.9000      7.9211      2.5374      0.0005      6.8261    102.9835     21.6946
  1788.0000      7.9249      2.5474      0.0772      6.2161    108.0053     22.0664
  1788.1000      7.9294      2.5607      0.0084      5.4099    112.9119     22.2688
  1788.2000      7.9343      2.5657      0.0469      5.1081    119.0224     21.8696
  1788.3000      7.9392      2.5625      0.0476      5.3028    121.6835     21.4030
  1788.4000      7.9438      2.5690      0.0571      4.9119    118.3633     21.2051
  1788.5000      7.9477      2.6006      0.0771      2.9925    113.1883     21.1247
  1788.6000      7.9506      2.6356      0.1366      0.8739    109.2038     21.1221
  1788.7000      7.9523      2.6390      0.1205      0.6680    106.7756     21.3678
  1788.8000      7.9528      2.6137      0.0980      2.2009    105.0273     21.6722
  1788.9000      7.9523      2.5901      0.0321      3.6287    104.4124     21.6913
  1789.0000      7.9511      2.5814      0.0709      4.1555    106.1017     21.4708
  1789.1000      7.9496      2.5781      0.0644      4.3558    107.8545     20.8531
  1789.2000      7.9481      2.5737      0.0466      4.6232    106.6752     20.1360
  1789.3000      7.9472      2.5714      0.0252      4.7628    104.2929     20.2543
  1789.4000      7.9471      2.5732      0.0406      4.6523    102.9792     21.1629
  1789.5000      7.9481      2.5736      0.0766      4.6322     98.5156     21.8721
  1789.6000      7.9503      2.5688      0.0633      4.9197     90.9450     21.8300
  1789.7000      7.9536      2.5682      0.0371      4.9557     89.3855     21.4330
  1789.8000      7.9579      2.5781      0.0401      4.3567     93.3381     21.7282
  1789.9000      7.9630      2.5938      0.0880      3.4048     94.2628     22.7919
  1790.0000      7.9685      2.6139      0.0444      2.1855     92.7504     23.2251
  1790.1000      7.9739      2.6323      0.1311      1.0709     90.4947     22.4125
  1790.2000      7.9790      2.6387      0.0531      0.6850     86.8852     21.7948
  1790.3000      7.9831      2.6392      0.1093      0.6560     87.5298     22.6062
  1790.4000      7.9860      2.6414      0.1158      0.5191     93.7641     23.6231
  1790.5000      7.9872      2.6528      0.0784     -0.1687     99.4186     22.8955
  1790.6000      7.9865      2.6741      0.1300     -1.4580    100.4766     20.7127
  1790.7000      7.9839      2.6861      0.1495     -2.1866     98.5318     18.8534
  1790.8000      7.9795      2.6863      0.0715     -2.2009     99.6355     18.6147
  1790.9000      7.9735      2.6869      0.1366     -2.2370    104.8744     19.7238
  1791.0000      7.9663      2.6748      0.1050     -1.5058    108.9894     20.6873
  1791.1000      7.9587      2.6433      0.0593      0.4044    108.4206     20.7569
