~Version Information
VERS.                      2.0: CWLS Log ASCII Standard - VERSION 2.0
WRAP.                       NO: One line per depth step
~Well Information Block
STRT.FT               -14.7500: 
STOP.FT              1106.0000: 
STEP.FT                 0.2500: 
NULL.                -999.2500: 
COMP.          Pioneer Natural Resources: COMPANY
WELL.          Black Cat 13-32 Tr: WELL
FLD.           Purgatorie River: FIELD
LOC.           1679' FSL & 1150' FWL--: LOCATION
CNTY.               Las Animas: COUNTY
SRVC.          Patterson Wireline: SERVICE COMPANY
DATE.          Wed Mar 15 15:59:24 2006: LOG DATE
UWI.           05 071 08721 00: UNIQUE WELL ID
STAT.                       CO: STATE
~Curve Information Block
DEPT.FT            0 000 00 00: Depth
CCL.                          : Casing Collar Locator
TT3.usec                      : CBL 3' Travel Time
AMP3.mV                       : CBL 3' Amplitude
GR.GAPI                       : Gamma Ray
~Parameter Information Block
~A  Depth       CCL         TT3         AMP3         GR     
# ...
   554.7500      0.0000    708.3960      5.9480    146.7492
   555.0000      0.0000    710.2391      6.0871    144.7033
   555.2500      0.0000    708.7469      6.1957    140.6905
   555.5000      0.0000    705.2665      6.2475    136.0499
   555.7500      0.0000    702.3279      6.2370    131.7720
   556.0000      0.0000    701.4026      6.1759    128.1550
   556.2500      0.0000    701.9592      6.0840    125.3293
   556.5000      0.0000    702.3810      5.9795    123.6951
   556.7500      0.0000    701.5662      5.8741    123.4232
   557.0000      0.0000    699.7056      5.7737    123.8068
   557.2500      0.0000    697.7311      5.6844    123.8262
   557.5000      0.0000    696.3307      5.6127    123.4678
   557.7500      0.0000    695.5760      5.5588    123.7607
   558.0000      0.0000    695.1998      5.5101    125.1977
   558.2500      0.0000    694.8930      5.4439    126.7161
   558.5000      0.0000    694.3396      5.3427    126.7136
   558.7500      0.0000    693.1741      5.2190    124.7726
   559.0000      0.0000    691.2654      5.1302    122.0217
   559.2500      0.0000    689.5361      5.1458    119.9284
   559.5000      0.0000    690.3870      5.2724    118.9366
   559.7500      0.0000    696.0903      5.4220    118.1531
   560.0000      0.0000    705.7688      5.4880    116.3412
   560.2500      0.0000    715.0802      5.4465    113.2186
   560.5000      0.0000    720.4935      5.3565    109.7160
   560.7500      0.0000    722.7267      5.2826    107.1320
   561.0000      2.0000    723.6677      5.2509    106.2070
   561.2500      0.0000    720.6083      5.2654    106.7430
   561.5000      0.0000    706.3693      5.3372    107.7630
   561.7500      0.0000    676.6771      5.4871    108.1681
   562.0000      0.0000    637.8208      5.7168    107.6015
   562.2500      0.0000    606.6417      5.9707    106.9028
   562.5000      0.0000    600.0621      6.1458    107.5308
   562.7500      0.0000    621.4555      6.1716    110.2131
   563.0000      0.0000    657.8481      6.0750    114.2001
   563.2500      0.0000    691.4878      5.9476    118.0378
   563.5000      0.0000    712.4332      5.8645    120.8596
   563.7500      0.0000    720.3671      5.8491    122.8579
   564.0000      0.0000    719.1753      5.8852    124.8919
   564.2500      0.0000    713.0861      5.9403    127.7850
   564.5000      0.0000    705.8802      5.9851    131.8699
   564.7500      0.0000    700.3290      6.0062    137.1646
   565.0000      0.0000    697.4959      6.0049    143.7862
   565.2500      0.0000    697.0928      5.9871    151.6566
   565.5000      0.0000    698.5481      5.9614    159.7535
   565.7500      0.0000    701.5063      5.9440    166.1343
   566.0000      0.0000    705.5108      5.9562    168.9148
   566.2500      0.0000    709.7952      6.0115    167.4017
   566.5000      0.0000    713.8010      6.0991    162.7361
   566.7500      0.0000    717.5435      6.1833    157.5608
   567.0000      0.0000    720.8554      6.2256    154.4830
   567.2500      0.0000    722.5042      6.2146    154.4634
   567.5000      0.0000    721.0557      6.1700    156.6467
   567.7500      0.0000    716.9430      6.1192    159.4550
   568.0000      0.0000    713.0386      6.0775    161.6005
   568.2500      0.0000    712.6193      6.0492    162.4444
   568.5000      0.0000    716.7168      6.0355    161.7552
   568.7500      0.0000    723.3872      6.0361    159.3376
   569.0000      0.0000    729.4885      6.0492    155.4368
   569.2500      0.0000    733.2197      6.0735    151.4314
   569.5000      0.0000    734.8742      6.1078    149.0403
   569.7500      0.0000    735.3320      6.1469    148.5618
   570.0000      0.0000    734.6672      6.1805    148.6006
   570.2500      0.0000    732.5934      6.1995    147.4680
   570.5000      0.0000    729.4815      6.2023    144.3847
   570.7500      0.0000    725.9548      6.1935    139.8514
   571.0000      0.0000    721.2657      6.1815    135.4414
   571.2500      0.0000    711.9979      6.1777    132.7150
   571.5000      0.0000    692.7975      6.1943    131.8432
   571.7500      0.0000    660.8809      6.2299    131.6406
   572.0000      0.0000    622.7413      6.2608    131.0616
   572.2500      0.0000    595.0388      6.2557    130.2143
   572.5000      0.0000    593.5856      6.2026    129.8886
   572.7500      0.0000    619.2468      6.1162    130.6018
   573.0000      0.0000    657.0846      6.0221    132.3619
   573.2500      0.0000    689.4398      5.9399    135.1880
   573.5000      0.0000    706.9835      5.8762    139.2933
   573.7500      0.0000    707.9610      5.8262    144.2544
   574.0000      0.0000    692.3007      5.7868    148.2000
   574.2500      0.0000    661.2702      5.7668    148.8410
   574.5000      0.0000    623.2096      5.7774    145.8908
   574.7500      0.0000    594.9674      5.8099    141.7672
   575.0000      0.0000    591.5353      5.8360    139.2807
   575.2500      0.0000    612.9645      5.8354    139.2539
   575.5000      0.0000    644.7517      5.8168    140.8552
   575.7500      0.0000    671.3717      5.8034    143.0808
   576.0000      0.0000    686.7914      5.8080    144.8209
   576.2500      0.0000    693.3823      5.8266    144.5977
   576.5000      0.0000    695.6010      5.8480    142.0126
   576.7500      0.0000    696.3110      5.8610    139.0773
   577.0000      0.0000    696.6610      5.8543    138.6655
   577.2500      0.0000    697.0365      5.8188    141.5433
   577.5000      0.0000    697.7114      5.7519    145.6602
   577.7500      0.0000    699.0468      5.6614    148.4249
   578.0000      0.0000    701.2851      5.5625    149.1959
   578.2500      0.0000    704.1147      5.4701    149.5290
   578.5000      0.0000    706.5900      5.3935    151.1349
   578.7500      0.0000    707.8940      5.3369    153.6346
   579.0000      0.0000    707.8998      5.3020    154.6822
   579.2500      0.0000    706.2637      5.2870    152.6358
   579.5000      0.0000    700.7432      5.2859    148.6034
   579.7500      0.0000    687.4053      5.2911    145.2181
   580.0000      0.0000    663.7303      5.2997    143.8441
   580.2500      0.0000    631.9682      5.3154    143.7302
   580.5000      0.0000    599.3057      5.3438    143.4656
   580.7500      0.0000    574.6661      5.3846    142.3466
   581.0000      0.0000    564.3455      5.4261    140.4031
   581.2500      0.0000    567.7327      5.4489    137.7568
   581.5000      0.0000    576.1622      5.4404    134.3359
   581.7500      0.0000    578.8878      5.4044    130.3178
   582.0000      0.0000    571.5657      5.3553    126.6024
   582.2500      0.0000    557.2201      5.3080    124.3068
   582.5000      0.0000    541.4884      5.2745    123.6843
   582.7500      0.0000    531.6209      5.2653    124.1027
   583.0000      0.0000    537.0414      5.2843    125.0365
   583.2500      0.0000    563.4822      5.3241    126.5918
   583.5000      0.0000    605.6116      5.3686    129.3167
   583.7500      0.0000    649.4557      5.4040    134.0093
   584.0000      0.0000    682.9029      5.4259    141.1783
   584.2500      0.0000    702.6611      5.4347    149.8124
   584.5000      0.0000    712.4556      5.4276    156.9061
   584.7500      0.0000    717.2853      5.3999    159.2586
   585.0000      0.0000    719.8624      5.3579    156.1651
   585.2500      0.0000    720.7117      5.3272    150.1026
   585.5000      0.0000    719.9541      5.3422    144.9178
   585.7500      0.0000    718.4298      5.4200    143.3766
   586.0000      0.0000    717.3673      5.5424    145.6429
   586.2500      0.0000    717.2737      5.6607    149.3359
   586.5000      0.0000    717.5699      5.7233    151.0977
   586.7500      0.0000    717.4177      5.7060    148.7032
   587.0000      0.0000    716.5040      5.6237    142.3654
   587.2500      0.0000    714.8787      5.5154    134.3932
   587.5000      0.0000    712.6483      5.4196    127.5357
   587.7500      0.0000    710.1693      5.3605    123.5509
   588.0000      0.0000    708.0409      5.3466    122.9265
