~Version Information
VERS.                      2.0: CWLS Log ASCII Standard - VERSION 2.0
WRAP.                       NO: One line per depth step
~Well Information Block
STRT.FT               655.0000: 
STOP.FT              2623.7000: 
STEP.FT                 0.1000: 
NULL.                -999.2500: 
COMP.          Pioneer Natural Resources: COMPANY
WELL.             Aviator 12-4: WELL
FLD.           Purgatoire River: FIELD
LOC.           1969' FNL & 732' FWL--: LOCATION
CNTY.               Las Animas: COUNTY
SRVC.                Patterson: SERVICE COMPANY
DATE.          Mon Apr 10 07:35:20 2006: LOG DATE
UWI.           05 071 08714 00: UNIQUE WELL ID
STAT.                 Colorado: STATE
~Curve Information Block
DEPT.FT            0 000 00 00: Depth
DCAL.in                       : CDL Caliper
RHOB.g/cc                     : CDL Bulk Density
RHOC.g/cc                     : CDL Density Correction
DPOR.pu                       : CDL Density Porosity
NPOR.pu                       : Neutron Porosity
GR.GAPI                       : Gamma Ray
~Parameter Information Block
~A  Depth       DCAL        RHOB        RHOC        DPOR        NPOR         GR     
# ...
  2210.2000      7.9245      2.6479      0.1070      0.1266     14.1506     37.6868
  2210.3000      7.9221      2.6249      0.0700      1.5195     14.7308     38.9841
  2210.4000      7.9221      2.6066      0.0384      2.6284     15.1446     42.8060
  2210.5000      7.9183      2.6119      0.0437      2.3112     15.2534     45.8322
  2210.6000      7.9183      2.6308      0.0837      1.1618     15.6759     45.5999
  2210.7000      7.9183      2.6413      0.0601      0.5273     16.4671     44.9421
  2210.8000      7.9195      2.6355      0.0744      0.8794     17.0057     47.5365
  2210.9000      7.9195      2.6217      0.0512      1.7154     16.7347     52.1649
  2211.0000      7.9271      2.6155      0.0551      2.0914     15.8997     53.8691
  2211.1000      7.9271      2.6142      0.1086      2.1693     15.3190     52.3514
  2211.2000      7.9271      2.5997      0.0336      3.0468     15.6473     49.9582
  2211.3000      7.9305      2.5675      0.0749      5.0017     16.8314     47.6262
  2211.4000      7.9305      2.5292      0.0383      7.3239     17.9665     48.7091
  2211.5000      7.9255      2.5064      0.0408      8.7030     18.3674     56.5251
  2211.6000      7.9255      2.5037      0.0341      8.8683     18.5428     67.1051
  2211.7000      7.9255      2.5013      0.0786      9.0125     19.1040     74.4345
  2211.8000      7.9176      2.4902      0.0056      9.6823     19.7523     80.7612
  2211.9000      7.9176      2.4856      0.0179      9.9653     19.9233     88.1692
  2212.0000      7.9165      2.4960      0.0671      9.3307     19.5699     92.1198
  2212.1000      7.9165      2.5175      0.0656      8.0291     19.0926     89.8785
  2212.2000      7.9165      2.5451      0.0822      6.3586     18.4705     83.6097
  2212.3000      7.9216      2.5640      0.1202      5.2151     17.4748     78.0360
  2212.4000      7.9216      2.5673      0.0674      5.0094     16.5223     75.6172
  2212.5000      7.9341      2.5761      0.0805      4.4815     15.8556     74.5479
  2212.6000      7.9341      2.6004      0.1079      3.0031     15.1854     72.8528
  2212.7000      7.9341      2.6276      0.0880      1.3602     14.8912     70.4012
  2212.8000      7.9499      2.6422      0.1248      0.4704     15.5743     68.2033
  2212.9000      7.9499      2.6326      0.0998      1.0532     16.4558     68.2233
  2213.0000      7.9580      2.6054      0.0491      2.7048     16.6186     69.9744
  2213.1000      7.9580      2.5818      0.0605      4.1306     16.5168     69.0552
  2213.2000      7.9580      2.5692      0.0671      4.8953     16.6055     65.1343
  2213.3000      7.9594      2.5647      0.0387      5.1670     16.8444     66.6472
  2213.4000      7.9594      2.5710      0.0340      4.7902     17.2006     78.3905
  2213.5000      7.9609      2.5812      0.0829      4.1682     17.6044     88.7573
  2213.6000      7.9609      2.5814      0.0499      4.1590     17.7078     87.3744
  2213.7000      7.9609      2.5755      0.0701      4.5129     17.1942     82.5514
  2213.8000      7.9623      2.5753      0.0682      4.5268     16.4694     83.8760
  2213.9000      7.9623      2.5799      0.0847      4.2515     16.0546     90.0076
  2214.0000      7.9617      2.5840      0.0839      4.0004     15.9093     92.3655
  2214.1000      7.9617      2.5850      0.0958      3.9384     16.1026     85.6263
  2214.2000      7.9617      2.5761      0.1257      4.4761     16.7509     78.6501
  2214.3000      7.9597      2.5580      0.0725      5.5776     17.7102     79.4348
  2214.4000      7.9597      2.5499      0.0271      6.0644     18.5416     83.0543
  2214.5000      7.9588      2.5656      0.0518      5.1162     18.6257     88.4268
  2214.6000      7.9588      2.5868      0.1147      3.8312     18.2716     97.5150
  2214.7000      7.9588      2.5896      0.0850      3.6602     18.3384    105.5640
  2214.8000      7.9621      2.5827      0.0572      4.0818     18.6368    110.2386
  2214.9000      7.9621      2.5829      0.0779      4.0641     18.8966    109.3519
  2215.0000      7.9733      2.5817      0.0903      4.1402     19.5564    101.6596
  2215.1000      7.9733      2.5717      0.0650      4.7479     20.3451     95.8962
  2215.2000      7.9733      2.5648      0.0858      5.1646     20.6212    101.2022
  2215.3000      7.9850      2.5658      0.0905      5.1053     20.3610    115.0476
  2215.4000      7.9850      2.5693      0.0314      4.8921     19.6581    127.0392
  2215.5000      7.9866      2.5771      0.0410      4.4177     18.9518    130.2915
  2215.6000      7.9866      2.5958      0.0666      3.2848     18.7212    126.9700
  2215.7000      7.9866      2.6254      0.0915      1.4921     18.8159    119.8300
  2215.8000      7.9802      2.6505      0.1513     -0.0328     18.9143    110.1433
  2215.9000      7.9802      2.6523      0.1116     -0.1369     18.9570    103.9155
  2216.0000      7.9724      2.6318      0.0995      1.1060     19.0752    104.8705
  2216.1000      7.9724      2.6015      0.1306      2.9375     19.3447    107.3845
  2216.2000      7.9724      2.5750      0.0530      4.5471     19.6598    106.0849
  2216.3000      7.9710      2.5681      0.0542      4.9652     19.7481    104.9424
  2216.4000      7.9710      2.5811      0.1031      4.1755     19.7035    105.9545
  2216.5000      7.9737      2.5983      0.0858      3.1338     19.8127    104.2105
  2216.6000      7.9737      2.6073      0.0840      2.5895     20.0894    100.4237
  2216.7000      7.9737      2.6042      0.0594      2.7746     20.4326    103.0933
  2216.8000      7.9787      2.5984      0.0108      3.1299     20.3931    115.4609
  2216.9000      7.9787      2.6002      0.0543      3.0209     19.9299    128.7927
  2217.0000      7.9832      2.6033      0.0585      2.8285     19.8073    134.8898
  2217.1000      7.9832      2.6001      0.0464      3.0252     20.0390    135.2084
  2217.2000      7.9832      2.5946      0.0898      3.3606     19.9693    132.6807
  2217.3000      7.9867      2.5969      0.0614      3.2187     19.5558    126.4150
  2217.4000      7.9867      2.6093      0.0826      2.4681     19.1735    118.1485
  2217.5000      7.9885      2.6254      0.0512      1.4902     19.0942    113.4211
  2217.6000      7.9885      2.6394      0.0902      0.6438     19.4271    115.0436
  2217.7000      7.9885      2.6422      0.1077      0.4710     20.0073    115.7785
  2217.8000      7.9884      2.6287      0.0960      1.2898     20.3803    111.1487
  2217.9000      7.9884      2.6047      0.0693      2.7450     20.3246    109.2748
  2218.0000      7.9879      2.5829      0.0711      4.0643     19.9291    114.0678
  2218.1000      7.9879      2.5711      0.0311      4.7820     19.3977    118.2800
  2218.2000      7.9879      2.5721      0.0221      4.7207     19.3637    119.5618
  2218.3000      7.9878      2.5833      0.0509      4.0452     20.2314    122.4698
  2218.4000      7.9878      2.5916      0.0511      3.5390     21.2590    125.2422
  2218.5000      7.9868      2.5825      0.0633      4.0914     21.5421    121.1455
  2218.6000      7.9868      2.5622      0.0216      5.3221     21.3041    112.8637
  2218.7000      7.9868      2.5572      0.0106      5.6270     21.2340    110.1629
  2218.8000      7.9865      2.5674      0.0788      5.0090     21.4756    116.4588
  2218.9000      7.9865      2.5683      0.0354      4.9507     21.6899    125.7605
  2219.0000      7.9895      2.5580      0.0341      5.5782     21.7217    130.5274
  2219.1000      7.9895      2.5490      0.0064      6.1191     21.7290    129.2756
  2219.2000      7.9895      2.5417      0.0356      6.5655     21.8013    125.9751
  2219.3000      7.9918      2.5282      0.0130      7.3800     21.6263    124.1450
  2219.4000      7.9918      2.5103      0.0312      8.4657     21.3031    123.9815
  2219.5000      7.9919      2.4991     -0.0009      9.1443     21.2507    123.7934
  2219.6000      7.9919      2.5055      0.0201      8.7600     21.3552    122.9505
  2219.7000      7.9919      2.5273      0.0527      7.4335     21.7093    121.4988
