~Version Information
VERS.                      2.0: CWLS Log ASCII Standard - VERSION 2.0
WRAP.                       NO: One line per depth step
~Well Information Block
STRT.FT                 0.0000: 
STOP.FT              1238.2500: 
STEP.FT                 0.2500: 
NULL.                -999.2500: 
COMP.          Pioneer Natural Resources: COMPANY
WELL.                 Ray 34-6: WELL
FLD.           Purgatoire River: FIELD
LOC.           684' FSL & 2254' FEL: LOCATION
CNTY.               Las Animas: COUNTY
SRVC.                         : SERVICE COMPANY
DATE.          Fri Jun 23 09:23:24 2006: LOG DATE
UWI.           05 071 08695 00: UNIQUE WELL ID
STAT.                       CO: STATE
~Curve Information Block
DEPT.FT            0 000 00 00: Depth
GR.GAPI                       : Gamma Ray
CCL.                          : Casing Collar Locator
TT3.usec                      : CBL 3' Travel Time
AMP3.mV                       : CBL 3' Amplitude
~Parameter Information Block
~A  Depth        GR         CCL         TT3         AMP3    
# ...
   804.0000    137.9082      0.0000    738.3767      5.8198
   804.2500    141.3327      0.0000    722.9261      5.7759
   804.5000    142.3537      0.0000    705.0106      5.7035
   804.7500    139.6566      0.0000    692.2261      5.6200
   805.0000    133.7238      0.0000    691.7525      5.5454
   805.2500    127.2601      0.0000    703.6934      5.4993
   805.5000    123.8019      0.0000    720.9373      5.4949
   805.7500    125.1238      0.0000    735.5517      5.5306
   806.0000    129.8742      0.0000    744.0333      5.5908
   806.2500    135.1239      0.0000    747.1586      5.6600
   806.5000    139.0525      0.0000    747.3589      5.7313
   806.7500    141.7069      0.0000    747.2121      5.7998
   807.0000    143.6602      0.0000    748.9476      5.8525
   807.2500    144.8288      0.0000    753.6915      5.8731
   807.5000    144.7955      0.0000    760.9083      5.8554
   807.7500    143.7805      0.0000    769.1293      5.8081
   808.0000    142.6882      0.0000    777.4194      5.7475
   808.2500    141.9118      0.0000    786.0633      5.6910
   808.5000    140.4887      0.0000    795.9686      5.6564
   808.7500    137.0094      0.0000    807.2617      5.6475
   809.0000    131.2337      0.0000    817.9728      5.6340
   809.2500    124.3040      0.0000    824.3167      5.5776
   809.5000    117.6301      0.0000    823.3782      5.4943
   809.7500    112.2932      0.0000    816.1241      5.4596
   810.0000    109.3323      0.0000    807.3312      5.5337
   810.2500    109.4698      1.9064    802.2307      5.7051
   810.5000    112.3957     -2.0000    802.9415      5.9116
   810.7500    117.1447     -1.2564    807.4005      6.0844
   811.0000    123.0792      0.0000    810.5773      6.1642
   811.2500    129.6437      0.0000    806.8616      6.1145
   811.5000    135.6145      0.0000    793.6243      5.9623
   811.7500    139.6149      0.0000    774.1776      5.8238
   812.0000    141.0624      0.0000    756.1850      5.8437
   812.2500    139.9391      0.0000    745.9006      6.0795
   812.5000    136.0727      0.0000    743.8124      6.4551
   812.7500    129.2060      0.0000    745.1417      6.8304
   813.0000    119.6102      0.0000    743.3181      7.0996
   813.2500    108.4585      0.0000    733.1639      7.2337
   813.5000     97.5372      0.0000    712.3578      7.2662
   813.7500     88.3268      0.0000    681.2877      7.2564
   814.0000     81.3203      0.0000    643.2846      7.2508
   814.2500     76.3961      0.0000    606.6588      7.2608
   814.5000     73.5185      0.0000    584.2661      7.2696
   814.7500     72.5844      0.0000    585.5688      7.2568
   815.0000     73.0047      0.0000    607.3452      7.2174
   815.2500     74.1442      0.0000    635.4894      7.1637
   815.5000     76.0769      0.0000    656.9783      7.1123
   815.7500     79.2815      0.0000    668.0336      7.0713
   816.0000     83.6315      0.0000    671.9504      7.0410
   816.2500     88.2485      0.0000    673.2275      7.0237
   816.5000     92.4413      0.0000    674.6690      7.0249
   816.7500     96.2748      0.0000    677.3957      7.0451
   817.0000    100.0193      0.0000    681.4617      7.0743
   817.2500    103.5372      0.0000    686.3996      7.0972
   817.5000    106.6351      0.0000    691.7049      7.1020
   817.7500    109.5675      0.0000    696.9236      7.0882
   818.0000    112.4189      0.0000    701.4918      7.0725
   818.2500    113.9847      0.0000    704.8546      7.0854
   818.5000    112.2426      0.0000    706.8565      7.1480
   818.7500    106.7348      0.0000    707.8218      7.2510
   819.0000     99.8301      0.0000    708.2336      7.3629
   819.2500     94.6810      0.0000    708.4658      7.4561
   819.5000     92.4380      0.0000    708.8440      7.5202
   819.7500     92.1577      0.0000    709.9139      7.5622
   820.0000     92.5545      0.0000    712.5309      7.6062
   820.2500     92.8837      0.0000    717.4321      7.6845
   820.5000     92.8132      0.0000    724.3641      7.8193
   820.7500     92.2944      0.0000    731.6960      8.0064
   821.0000     91.4029      0.0000    737.4243      8.2089
   821.2500     89.9633      0.0000    740.8574      8.3727
   821.5000     87.4738      0.0000    743.0087      8.4635
   821.7500     83.6169      0.0000    745.1921      8.4884
   822.0000     78.9793      0.0000    747.6661      8.4763
   822.2500     75.1541      0.0000    749.8220      8.4414
   822.5000     73.9861      0.0000    751.1581      8.3752
   822.7500     76.5929      0.0000    751.6902      8.2690
   823.0000     82.6846      0.0000    751.6647      8.1338
   823.2500     90.2802      0.0000    751.1982      7.9981
   823.5000     96.3685      0.0000    750.1510      7.8914
   823.7500     98.6733      0.0000    748.2925      7.8277
   824.0000     97.0961      0.0000    745.7408      7.7977
   824.2500     93.5237      0.0000    743.3354      7.7757
   824.5000     90.5738      0.0000    742.2846      7.7393
   824.7500     90.3046      0.0000    743.1443      7.6863
   825.0000     93.1071      0.0000    745.2607      7.6315
   825.2500     97.2547      0.0000    747.4160      7.5894
   825.5000    100.0146      0.0000    748.8184      7.5628
   825.7500     99.7011      0.0000    749.2849      7.5482
   826.0000     96.6453      0.0000    748.6768      7.5456
   826.2500     92.3180      0.0000    746.4548      7.5636
   826.5000     88.1525      0.0000    741.9307      7.6129
   826.7500     85.2893      0.0000    735.0408      7.6946
   827.0000     84.7274      0.0000    726.7675      7.7897
   827.2500     87.0402      0.0000    718.5869      7.8599
   827.5000     91.8346      0.0000    711.5370      7.8643
   827.7500     97.8004      0.0000    706.0498      7.7863
   828.0000    103.5816      0.0000    702.4791      7.6497
   828.2500    108.4711      0.0000    701.2923      7.5058
   828.5000    112.0545      0.0000    702.5930      7.4016
   828.7500    113.4114      0.0000    705.6566      7.3579
   829.0000    111.1964      0.0000    709.1052      7.3683
   829.2500    104.8269      0.0000    711.6124      7.4078
   829.5000     95.3874      0.0000    712.4509      7.4395
   829.7500     85.1627      0.0000    711.5331      7.4234
   830.0000     76.4578      0.0000    709.3057      7.3347
   830.2500     71.0250      0.0000    706.7035      7.1791
   830.5000     70.0658      0.0000    704.6810      6.9902
   830.7500     73.7730      0.0000    703.3491      6.8088
   831.0000     80.6016      0.0000    701.9568      6.6609
   831.2500     87.5842      0.0000    700.3120      6.5513
   831.5000     91.8242      0.0000    699.9552      6.4717
   831.7500     91.8888      0.0000    703.2463      6.4134
   832.0000     88.2611      0.0000    711.1643      6.3735
   832.2500     82.9008      0.0000    722.2811      6.3524
   832.5000     77.9876      0.0000    733.8206      6.3502
   832.7500     74.4685      0.0000    743.5491      6.3625
   833.0000     71.7643      0.0000    750.8192      6.3810
   833.2500     68.9219      0.0000    756.1301      6.3959
   833.5000     65.7448      0.0000    759.9318      6.3945
   833.7500     62.8258      0.0000    762.1636      6.3599
   834.0000     60.8623      0.0000    762.8818      6.2830
   834.2500     60.0609      0.0000    762.6149      6.1813
   834.5000     59.9616      0.0000    761.5921      6.0964
   834.7500     59.7712      0.0000    759.2136      6.0621
   835.0000     58.9567      0.0000    755.0696      6.0810
   835.2500     57.5854      0.0000    750.2236      6.1314
   835.5000     56.1627      0.0000    746.7379      6.1877
   835.7500     55.1529      0.0000    745.8549      6.2330
   836.0000     54.5327      0.0000    747.0733      6.2645
   836.2500     53.8092      0.0000    748.9771      6.2899
   836.5000     52.6235      0.0000    750.4960      6.3166
   836.7500     51.2651      0.0000    751.3256      6.3488
   837.0000     50.4343      0.0000    751.6666      6.3937
   837.2500     50.6423      0.0000    751.9905      6.4591
