~Version Information
VERS.                      2.0: CWLS Log ASCII Standard - VERSION 2.0
WRAP.                       NO: One line per depth step
~Well Information Block
STRT.FT                 0.0000: 
STOP.FT              1201.0000: 
STEP.FT                 0.2500: 
NULL.                -999.2500: 
COMP.          Pioneer Natural Resources: COMPANY
WELL.             Margaux 11-1: WELL
FLD.           Purgatoire River: FIELD
LOC.           1154' FNL & 472' FWL --------: LOCATION
PROV.                 Colorado: PROVINCE
CNTY.               Las Animas: COUNTRY
SRVC.                         : SERVICE COMPANY
DATE.          Thu Jan 05 11:16:55 2006: LOG DATE
UWI.                          : UNIQUE WELL ID
~Curve Information Block
DEPT.FT            0 000 00 00: Depth
CCL.                          : Casing Collar Locator
TT3.usec                      : CBL 3' Travel Time
AMP3.mV                       : CBL 3' Amplitude
AMP5.mV                       : CBL 5' Amplitude
GR.GAPI                       : Gamma Ray
~Parameter Information Block
~A  Depth       CCL         TT3         AMP3        AMP5         GR     
# ...
  1176.0000      0.0000    723.4860      9.6136      1.8658     88.8984
  1176.2500      0.0000    723.1187      9.7187      1.8449     92.7712
  1176.5000      0.0000    720.0928      9.7975      1.8616     96.9830
  1176.7500      0.0000    715.7497      9.8394      1.9190    100.1842
  1177.0000      0.0000    711.1680      9.8435      2.0112    101.8672
  1177.2500      0.0000    707.3636      9.8254      2.1319    102.2835
  1177.5000      0.0000    705.3328      9.8104      2.2728    102.4349
  1177.7500      0.0000    705.1328      9.8162      2.4163    103.5371
  1178.0000      0.0000    704.9679      9.8461      2.5353    105.8555
  1178.2500      0.0000    701.6556      9.9004      2.6033    108.2794
  1178.5000      0.0000    692.4963      9.9827      2.6070    109.2524
  1178.7500      0.0000    677.6989     10.0898      2.5533    107.8853
  1179.0000      0.0000    661.7177     10.1972      2.4693    104.2889
  1179.2500      0.0000    651.4102     10.2610      2.3968     99.4382
  1179.5000      0.0000    651.4221     10.2428      2.3738     94.8298
  1179.7500      0.0000    660.9761     10.1399      2.4073     91.7498
  1180.0000      0.0000    675.2112      9.9936      2.4712     90.6082
  1180.2500      0.0000    688.9960      9.8621      2.5389     91.0648
  1180.5000      0.0000    699.5301      9.7860      2.6101     92.6210
  1180.7500      0.0000    706.9700      9.7735      2.6986     94.8521
  1181.0000      0.0000    713.6828      9.8127      2.8043     97.2359
  1181.2500      0.0000    722.1232      9.8874      2.9090     99.0946
  1181.5000      0.0000    732.4214      9.9812      2.9919     99.8364
  1181.7500      0.0000    742.0574     10.0725      3.0400     99.3440
  1182.0000      0.0000    748.1189     10.1327      3.0471     98.0906
  1182.2500      0.0000    749.7479     10.1379      3.0059     96.8079
  1182.5000      0.0000    748.4768     10.0846      2.9064     96.1900
  1182.7500      0.0000    746.4899      9.9915      2.7519     96.9481
  1183.0000      0.0000    744.4826      9.8816      2.5747     99.5809
  1183.2500      0.0000    741.1882      9.7641      2.4210    103.6285
  1183.5000      0.0000    735.0594      9.6343      2.3190    107.4350
  1183.7500      0.0000    726.2278      9.4920      2.2735    109.0490
  1184.0000      0.0000    716.6970      9.3503      2.2782    107.4190
  1184.2500      0.0000    708.9335      9.2230      2.3098    102.8306
  1184.5000      0.0000    704.3270      9.1108      2.3237     96.5424
  1184.7500      0.0000    702.5126      9.0067      2.2856     90.0790
  1185.0000      0.0000    702.0199      8.9111      2.2012     84.5959
  1185.2500      0.0000    701.8239      8.8307      2.0971     80.6130
  1185.5000      0.0000    702.1445      8.7606      1.9858     78.0862
  1185.7500      0.0000    703.5550      8.6726      1.8726     76.6226
  1186.0000      0.0000    705.8107      8.5266      1.7859     75.7816
  1186.2500      0.0000    707.9863      8.3019      1.7596     74.9627
  1186.5000      0.0000    709.4123      8.0231      1.7778     72.6018
  1186.7500      0.0000    710.0580      7.7565      1.7635     66.0906
  1187.0000      0.0000    710.2004      7.5736      1.6437     53.8227
  1187.2500      0.0000    710.0645      7.5079      1.4230     37.5610
  1187.5000      0.0000    709.7560      7.5391      1.1908     21.7805
  1187.7500      0.0000    709.3630      7.6151      1.0614     10.2832
  1188.0000      0.0000    708.9728      7.6920      1.1066      3.9012
  1188.2500      0.0000    708.5887      7.7601      1.3182      1.1788
  1188.5000      0.0000    707.9807      7.8389      1.6121      0.2818
  1188.7500      0.0000    706.6816      7.9483      1.8796      0.0527
  1189.0000      0.0000    704.4860      8.0860      2.0650      0.0071
  1189.2500      0.0000    702.4150      8.2281      2.1977      0.0000
  1189.5000      0.0000    702.9583      8.3512      2.3340   -999.2500
  1189.7500      0.0000    708.3487      8.4576      2.4700   -999.2500
  1190.0000      0.0000    718.0668      8.5784      2.5321   -999.2500
  1190.2500      0.0000    728.2411      8.7475      2.4541   -999.2500
  1190.5000      0.0000    733.7843      8.9688      2.2451   -999.2500
  1190.7500      0.0000    731.3532      9.2136      1.9739   -999.2500
  1191.0000      0.0000    720.7097      9.4449      1.6931   -999.2500
  1191.2500      0.0000    703.1460      9.6339      1.3923   -999.2500
  1191.5000      0.0000    678.0289      9.7348      1.0322   -999.2500
  1191.7500      0.0000    640.0637      9.6245      0.6195   -999.2500
  1192.0000      0.0000    579.7518      9.0670      0.2270   -999.2500
  1192.2500      0.0000    488.9747      7.8107     -0.0654   -999.2500
  1192.5000      0.0000    370.6639      5.8319     -0.2332   -999.2500
  1192.7500      0.0000    243.9518      3.4964     -0.3073   -999.2500
  1193.0000      0.0000    135.3854      1.3876     -0.3324   -999.2500
  1193.2500      0.0000     61.9533     -0.0816     -0.3391   -999.2500
  1193.5000      0.0000     23.0002     -0.8748     -0.3404   -999.2500
  1193.7500      0.0000      6.8453     -1.2072   -999.2500   -999.2500
  1194.0000      0.0000      1.6181     -1.3155   -999.2500   -999.2500
  1194.2500      0.0000      0.2988     -1.3430   -999.2500   -999.2500
  1194.5000      0.0000      0.0397     -1.3484   -999.2500   -999.2500
  1194.7500      0.0000   -999.2500   -999.2500   -999.2500   -999.2500
  1195.0000      0.0000   -999.2500   -999.2500   -999.2500   -999.2500
  1195.2500      0.0000   -999.2500   -999.2500   -999.2500   -999.2500
  1195.5000      0.0000   -999.2500   -999.2500   -999.2500   -999.2500
  1195.7500      0.0000   -999.2500   -999.2500   -999.2500   -999.2500
  1196.0000      0.0000   -999.2500   -999.2500   -999.2500   -999.2500
  1196.2500      0.0000   -999.2500   -999.2500   -999.2500   -999.2500
  1196.5000      0.0000   -999.2500   -999.2500   -999.2500   -999.2500
  1196.7500      0.0000   -999.2500   -999.2500   -999.2500   -999.2500
  1197.0000      0.0000   -999.2500   -999.2500   -999.2500   -999.2500
  1197.2500      0.0000   -999.2500   -999.2500   -999.2500   -999.2500
  1197.5000      0.0000   -999.2500   -999.2500   -999.2500   -999.2500
  1197.7500      0.0000   -999.2500   -999.2500   -999.2500   -999.2500
  1198.0000      0.0000   -999.2500   -999.2500   -999.2500   -999.2500
  1198.2500      0.0000   -999.2500   -999.2500   -999.2500   -999.2500
  1198.5000      0.0000   -999.2500   -999.2500   -999.2500   -999.2500
  1198.7500      0.0000   -999.2500   -999.2500   -999.2500   -999.2500
  1199.0000      0.0000   -999.2500   -999.2500   -999.2500   -999.2500
  1199.2500      0.0000   -999.2500   -999.2500   -999.2500   -999.2500
  1199.5000      0.0000   -999.2500   -999.2500   -999.2500   -999.2500
  1199.7500      0.0000   -999.2500   -999.2500   -999.2500   -999.2500
  1200.0000      0.0000   -999.2500   -999.2500   -999.2500   -999.2500
  1200.2500   -999.2500   -999.2500   -999.2500   -999.2500   -999.2500
  1200.5000   -999.2500   -999.2500   -999.2500   -999.2500   -999.2500
  1200.7500   -999.2500   -999.2500   -999.2500   -999.2500   -999.2500
  1201.0000   -999.2500   -999.2500   -999.2500   -999.2500   -999.2500
