~Version Information
VERS.                      2.0: CWLS Log ASCII Standard - VERSION 2.0
WRAP.                       NO: One line per depth step
~Well Information Block
STRT.FT                -6.5000: 
STOP.FT              1758.0000: 
STEP.FT                 0.2500: 
NULL.                -999.2500: 
COMP.          Pioneer Natural Resources: COMPANY
WELL.           Rolls 14-14 Tr: WELL
FLD.           Purgatorie River: FIELD
LOC.           473' FSL & 817' FWL--: LOCATION
PROV.                       CO: PROVINCE
CNTY.               Las Animas: COUNTRY
SRVC.          Patterson Wireline: SERVICE COMPANY
DATE.          Mon Aug 08 11:51:25 2005: LOG DATE
UWI.           05 071 08454 00: UNIQUE WELL ID
~Curve Information Block
DEPT.FT            0 000 00 00: Depth
CCL.                          : Casing Collar Locator
TT3.usec                      : CBL 3' Travel Time
AMP3.mV                       : CBL 3' Amplitude
GR.GAPI                       : Gamma Ray
~Parameter Information Block
~A  Depth       CCL         TT3         AMP3         GR     
# ...
   563.0000      0.0000    892.0175      6.9684     78.5835
   563.2500      0.0000    877.1964      6.9405     79.1284
   563.5000      0.0000    858.8503      6.9131     78.6642
   563.7500      0.0000    843.1940      6.8890     77.0145
   564.0000      0.0000    835.0742      6.8715     74.1413
   564.2500      0.0000    834.6638      6.8646     69.8681
   564.5000      0.0000    838.8260      6.8702     64.4594
   564.7500      0.0000    844.9821      6.8861     59.3556
   565.0000      0.0000    852.1885      6.9081     56.6953
   565.2500      0.0000    859.5029      6.9340     57.7184
   565.5000      0.0000    865.4626      6.9668     61.7421
   565.7500      0.0000    869.2090      7.0115     66.8194
   566.0000      0.0000    870.9982      7.0667     71.3295
   566.2500      0.0000    871.5524      7.1222     74.8596
   566.5000      0.0000    871.4133      7.1653     77.7441
   566.7500      0.0000    870.7313      7.1907     80.2168
   567.0000      0.0000    869.0275      7.2030     82.2149
   567.2500      0.0000    864.5937      7.2108     83.5056
   567.5000      0.0000    854.3387      7.2170     83.5824
   567.7500      0.0000    835.5288      7.2177     81.8686
   568.0000      0.0000    809.3397      7.2102     78.5696
   568.2500      0.0000    782.5464      7.1982     75.0875
   568.5000      0.0000    763.7128      7.1873     73.2357
   568.7500      0.0000    756.9300      7.1747     74.1456
   569.0000      0.0000    760.6182      7.1485     77.7206
   569.2500      0.0000    772.1351      7.0998     82.6081
   569.5000      0.0000    790.2542      7.0335     86.7925
   569.7500      0.0000    812.0261      6.9623     88.8102
   570.0000      0.0000    830.5290      6.8930     88.6235
   570.2500      0.0000    838.3858      6.8267     87.1974
   570.5000      0.0000    833.3166      6.7638     85.3313
   570.7500      0.0000    820.2950      6.7039     83.2135
   571.0000      0.0000    808.5865      6.6456     81.0931
   571.2500      0.0000    805.2306      6.5888     79.8526
   571.5000      0.0000    810.1948      6.5374     80.5419
   571.7500      0.0000    818.0542      6.4968     83.3695
   572.0000      0.0000    823.8719      6.4695     87.1822
   572.2500      0.0000    826.4771      6.4515     90.1036
   572.5000      0.0000    827.1819      6.4355     91.0962
   572.7500      0.0000    827.4006      6.4179     90.8569
   573.0000      0.0000    827.7534      6.4000     90.7929
   573.2500      0.0000    828.3257      6.3826     91.4283
   573.5000      0.0000    829.0374      6.3668     92.4314
   573.7500      0.0000    829.8050      6.3578     93.7939
   574.0000      0.0000    830.5554      6.3622     95.9523
   574.2500      0.0000    831.2108      6.3805     98.7423
   574.5000      0.0000    831.7019      6.4060    101.0721
   574.7500      0.0000    831.9830      6.4311    101.7914
   575.0000      0.0000    832.0437      6.4539    100.4628
   575.2500      0.0000    831.9138      6.4751     97.3024
   575.5000      0.0000    831.6600      6.4917     92.7947
   575.7500      0.0000    831.3643      6.4987     87.6375
   576.0000      0.0000    831.1027      6.4991     82.9234
   576.2500      0.0000    830.9479      6.5072     79.9488
   576.5000      0.0000    830.9941      6.5392     79.4586
   576.7500      0.0000    831.4221      6.6013     80.9089
   577.0000      0.0000    832.6517      6.6834     82.6053
   577.2500      0.0000    835.4462      6.7637     82.9881
   577.5000      0.0000    840.6104      6.8227     82.0285
   577.7500      0.0000    848.2420      6.8542     81.2119
   578.0000      0.0000    857.2910      6.8633     82.2031
   578.2500      0.0000    866.0913      6.8562     85.6778
   578.5000      0.0000    873.2849      6.8365     90.9803
   578.7500      0.0000    878.1248      6.8116     96.3589
   579.0000      0.0000    880.3393      6.7904     99.9380
   579.2500      0.0000    880.2542      6.7690    101.2050
   579.5000      0.0000    878.8342      6.7185    101.4328
   579.7500      0.0000    876.9460      6.6043    102.1189
   580.0000      0.0000    874.5082      6.4260    103.2658
   580.2500      0.0000    870.6492      6.2288    103.8700
   580.5000      0.0000    865.0464      6.0534    103.7848
   580.7500      0.0000    859.3229      5.8868    103.9924
   581.0000      0.0000    856.7673      5.6903    104.8678
   581.2500      0.0000    859.8281      5.4692    105.2554
   581.5000      0.0000    867.5922      5.2786    103.8514
   581.7500      2.0000    876.3531      5.1643    100.9427
   582.0000      2.0000    882.4476      5.1268     98.3490
   582.2500      0.0000    883.8011      5.1401     97.7166
   582.5000      0.0000    879.9659      5.1913     98.8324
   582.7500      0.0000    872.8230      5.3028     99.6011
   583.0000      0.0000    866.6314      5.5111     97.9552
   583.2500      0.0000    864.8486      5.8108     93.8186
   583.5000      0.0000    866.5117      6.1259     89.0975
   583.7500      0.0000    867.1140      6.3624     86.0834
   584.0000      0.0000    862.8373      6.4833     86.0416
   584.2500      0.0000    852.9327      6.5166     88.6445
   584.5000      0.0000    838.9604      6.5043     92.0749
   584.7500      0.0000    823.1935      6.4661     93.9395
   585.0000      0.0000    807.6605      6.4025     92.7707
   585.2500      0.0000    793.8356      6.3121     89.0132
   585.5000      0.0000    782.8076      6.2045     84.6250
   585.7500      0.0000    775.4154      6.1000     81.7675
   586.0000      0.0000    771.5902      6.0181     81.6370
   586.2500      0.0000    769.7576      5.9636     83.9662
   586.5000      0.0000    767.9370      5.9249     87.2527
   586.7500      0.0000    765.7691      5.8853     89.5589
   587.0000      0.0000    764.6113      5.8393     89.5432
   587.2500      0.0000    765.2418      5.7947     87.3356
   587.5000      0.0000    766.2935      5.7611     84.6298
   587.7500      0.0000    765.6749      5.7375     83.4220
   588.0000      0.0000    763.1766      5.7165     84.3454
   588.2500      0.0000    760.9973      5.6996     86.6700
   588.5000      0.0000    761.6779      5.7021     89.8380
   588.7500      0.0000    765.7562      5.7371     93.9277
   589.0000      0.0000    771.3740      5.7982     98.3376
   589.2500      0.0000    776.0590      5.8591    101.1612
   589.5000      0.0000    778.8961      5.8924    100.6286
   589.7500      0.0000    780.8693      5.8919     96.8387
   590.0000      0.0000    783.2200      5.8774     91.7120
   590.2500      0.0000    786.0031      5.8770     87.5758
   590.5000      0.0000    788.3984      5.9023     86.0769
   590.7500      0.0000    789.8401      5.9433     87.8529
   591.0000      0.0000    790.4355      5.9866     92.3591
   591.2500      0.0000    790.6022      6.0341     97.9020
   591.5000      0.0000    790.6667      6.0977    102.4601
   591.7500      0.0000    790.7573      6.1808    105.0816
   592.0000      0.0000    790.8466      6.2677    106.5339
   592.2500      0.0000    790.7791      6.3311    108.2110
   592.5000      0.0000    790.2549      6.3505    110.2504
   592.7500      0.0000    788.9227      6.3295    111.1476
   593.0000      0.0000    786.7809      6.2937    109.4816
   593.2500      0.0000    784.6035      6.2700    105.5904
   593.5000      0.0000    783.6449      6.2663    101.2305
   593.7500      0.0000    784.5616      6.2719     98.0846
   594.0000      0.0000    786.7621      6.2746     96.8721
   594.2500      0.0000    789.0801      6.2728     97.3194
   594.5000      0.0000    790.9473      6.2721     98.4474
   594.7500      0.0000    792.8170      6.2724     99.1328
   595.0000      0.0000    795.6787      6.2649     98.8380
   595.2500      0.0000    800.0939      6.2408     97.7814
   595.5000      0.0000    805.2426      6.2015     96.5111
   595.7500      0.0000    808.8751      6.1574     95.8302
   596.0000      0.0000    808.7817      6.1187     96.9165
   596.2500      0.0000    804.5831      6.0885    100.4738
