~Version Information
VERS.                      2.0: CWLS Log ASCII Standard - VERSION 2.0
WRAP.                       NO: One line per depth step
~Well Information Block
STRT.FT               400.0000: 
STOP.FT              1577.5000: 
STEP.FT                 0.1000: 
NULL.                -999.2500: 
COMP.          Pioneer Natural Resources: COMPANY
WELL.          Lorencito 10-36-33-67: WELL
FLD.           Purgatoire River: FIELD
LOC.           2130' FSL & 2362' FEL: LOCATION
STAT.                 Colorado: State
CNTY.               Las Animas: COUNTY
CTRY. USA : Country
SECT. 36 : Section
TOWN. 33S : Township
RANG. 67W : Range
SRVC.                Patterson: SERVICE COMPANY
DATE.          Mon Aug 29 07:03:31 2005: LOG DATE
API.           05 071 08501 00: UNIQUE WELL ID
~Curve Information Block
DEPT.FT            0 000 00 00: Depth
DCAL.in                       : CDL Caliper
RHOB.g/cc                     : CDL Bulk Density
RHOC.g/cc                     : CDL Density Correction
DPOR.pu                       : CDL Density Porosity
GR.GAPI                       : Gamma Ray
NPOR.pu                       : Neutron Porosity
~Parameter Information Block
~A  Depth       DCAL        RHOB        RHOC        DPOR         GR         NPOR    
# ...
  1331.2000      7.8913      2.6577      0.0700     -0.4637     72.6510     20.8044
  1331.3000      7.9151      2.6545      0.1098     -0.2701     72.6530     19.8191
  1331.4000      7.9151      2.6419      0.1273      0.4899     72.4292     19.6664
  1331.5000      7.9398      2.6214      0.0496      1.7332     70.5414     19.9251
  1331.6000      7.9398      2.6091      0.0523      2.4773     67.6402     20.0051
  1331.7000      7.9398      2.6083      0.0803      2.5262     66.9847     19.6267
  1331.8000      7.9597      2.6046      0.0372      2.7540     69.5167     18.9204
  1331.9000      7.9597      2.5863      0.0643      3.8628     75.5756     18.0491
  1332.0000      7.9650      2.5565      0.0334      5.6670     82.9450     17.0233
  1332.1000      7.9650      2.5326      0.0048      7.1173     85.3977     16.1483
  1332.2000      7.9650      2.5254      0.0222      7.5543     78.8147     16.0013
  1332.3000      7.9664      2.5299      0.0440      7.2786     66.8717     16.4438
  1332.4000      7.9664      2.5403      0.0319      6.6510     59.7406     16.6611
  1332.5000      7.9599      2.5503      0.0466      6.0397     61.1047     16.9414
  1332.6000      7.9599      2.5468      0.0474      6.2557     65.8077     17.8691
  1332.7000      7.9599      2.5275      0.0296      7.4263     68.9417     18.4144
  1332.8000      7.9579      2.5175     -0.0167      8.0319     65.6044     18.2081
  1332.9000      7.9579      2.5402      0.0222      6.6561     55.6326     18.2699
  1333.0000      7.9868      2.5787      0.1015      4.3227     48.5638     18.2321
  1333.1000      7.9868      2.6015      0.0618      2.9380     50.2668     17.7129
  1333.2000      7.9868      2.6060      0.0804      2.6677     57.1274     17.3987
  1333.3000      7.9929      2.6005      0.0271      3.0014     63.0409     17.4086
  1333.4000      7.9929      2.5856      0.0280      3.9009     64.6954     17.5538
  1333.5000      7.9788      2.5631      0.0450      5.2651     63.3302     17.2906
  1333.6000      7.9788      2.5389      0.0571      6.7340     61.5209     16.3724
  1333.7000      7.9788      2.5275     -0.0305      7.4257     59.8423     15.7628
  1333.8000      7.9861      2.5385     -0.0056      6.7591     57.2973     15.7839
  1333.9000      7.9861      2.5581      0.0044      5.5698     55.0103     15.9830
  1334.0000      8.0110      2.5688      0.0085      4.9185     55.5033     16.0283
  1334.1000      8.0110      2.5656      0.0170      5.1135     56.9107     15.6740
  1334.2000      8.0110      2.5544     -0.0052      5.7953     57.1241     15.3767
  1334.3000      8.0145      2.5526     -0.0016      5.9030     59.1883     16.1132
  1334.4000      8.0145      2.5698      0.0004      4.8635     62.0056     17.5885
  1334.5000      8.0058      2.5820      0.0902      4.1183     61.5347     18.3156
  1334.6000      8.0058      2.5667      0.0283      5.0512     62.1350     17.9624
  1334.7000      8.0058      2.5434     -0.0278      6.4618     66.2504     17.5946
  1334.8000      8.0019      2.5344      0.0612      7.0061     67.6828     17.7031
  1334.9000      8.0019      2.5391      0.0438      6.7239     64.2550     17.7347
  1335.0000      8.0078      2.5611      0.0218      5.3862     58.8354     17.5012
  1335.1000      8.0078      2.5972      0.0761      3.1996     54.5686     17.6645
  1335.2000      8.0078      2.6207      0.0976      1.7730     55.9027     18.5320
  1335.3000      8.0010      2.6151      0.0755      2.1127     62.8688     19.2408
  1335.4000      8.0010      2.5964      0.0455      3.2461     69.2855     18.8597
  1335.5000      8.0011      2.5833      0.0580      4.0445     69.7101     17.9027
  1335.6000      8.0011      2.5680      0.0917      4.9696     63.6297     17.2761
  1335.7000      8.0011      2.5438      0.0583      6.4390     55.7383     17.0266
  1335.8000      8.0055      2.5251      0.0185      7.5691     52.1219     16.8560
  1335.9000      8.0055      2.5223      0.0444      7.7384     53.9249     16.8822
  1336.0000      8.0167      2.5346      0.0456      6.9954     55.6759     17.2161
  1336.1000      8.0167      2.5587      0.0562      5.5345     55.6701     17.2646
  1336.2000      8.0167      2.5882      0.0772      3.7428     57.8342     16.2121
  1336.3000      7.9909      2.6229      0.0685      1.6429     61.6809     14.7060
  1336.4000      7.9909      2.6530      0.1327     -0.1826     63.6746     14.1225
  1336.5000      7.9537      2.6522      0.1151     -0.1359     63.8520     14.6745
  1336.6000      7.9537      2.6250      0.0266      1.5137     62.6954     15.6519
  1336.7000      7.9537      2.6058      0.0626      2.6763     59.3450     16.4531
  1336.8000      7.9314      2.5997      0.0893      3.0478     55.7691     16.8796
  1336.9000      7.9314      2.5870      0.0523      3.8181     54.6951     16.7826
  1337.0000      7.9438      2.5712     -0.0121      4.7738     56.7197     16.0563
  1337.1000      7.9438      2.5676     -0.0000      4.9930     60.1789     15.1877
  1337.2000      7.9438      2.5677     -0.0091      4.9873     63.5056     14.7226
  1337.3000      7.9935      2.5636      0.0242      5.2388     66.2634     14.3977
  1337.4000      7.9935      2.5661     -0.0071      5.0852     67.0947     13.9358
  1337.5000      8.0305      2.5827      0.0355      4.0785     66.3568     13.7364
  1337.6000      8.0305      2.6007      0.0499      2.9879     65.6867     14.2026
  1337.7000      8.0305      2.5969      0.0696      3.2191     64.9063     14.8316
  1337.8000      8.0427      2.5650      0.0180      5.1537     65.9295     15.1735
  1337.9000      8.0427      2.5340     -0.0047      7.0301     72.0776     15.6202
  1338.0000      8.0321      2.5344     -0.0128      7.0077     79.5488     16.0991
  1338.1000      8.0321      2.5522      0.0175      5.9296     80.9095     16.1953
  1338.2000      8.0321      2.5601      0.0202      5.4457     76.3408     16.1540
  1338.3000      8.0328      2.5640      0.0101      5.2151     71.0065     16.3476
  1338.4000      8.0328      2.5731      0.0047      4.6618     66.6041     16.5084
  1338.5000      8.0299      2.5795      0.0439      4.2713     64.1269     16.4809
  1338.6000      8.0299      2.5849      0.0512      3.9472     64.7430     16.2836
  1338.7000      8.0299      2.5937      0.0602      3.4109     64.8365     15.7127
  1338.8000      8.0065      2.5923      0.1078      3.4959     62.3979     15.1809
  1338.9000      8.0065      2.5699      0.0620      4.8576     59.8136     15.3422
  1339.0000      7.9758      2.5452      0.0019      6.3545     59.1813     15.7271
  1339.1000      7.9758      2.5489     -0.0136      6.1289     64.3272     15.5121
  1339.2000      7.9758      2.5801      0.0561      4.2381     71.4288     15.1408
  1339.3000      7.9688      2.6021      0.0813      2.9052     70.0673     15.4162
  1339.4000      7.9688      2.5926      0.0433      3.4797     61.3255     16.2083
  1339.5000      7.9853      2.5737      0.0037      4.6219     52.8258     16.6679
  1339.6000      7.9853      2.5701      0.0644      4.8440     49.6479     16.3737
  1339.7000      7.9853      2.5709      0.0510      4.7913     51.5994     15.9114
  1339.8000      7.9894      2.5588      0.0755      5.5297     55.9139     15.6453
  1339.9000      7.9894      2.5416      0.0110      6.5687     61.0256     15.4181
  1340.0000      7.9794      2.5372      0.0427      6.8379     66.4567     15.2173
  1340.1000      7.9794      2.5439      0.0439      6.4278     72.7379     15.5843
  1340.2000      7.9794      2.5492      0.0397      6.1078     77.7605     16.4565
  1340.3000      7.9573      2.5469      0.0596      6.2458     77.0395     16.8379
  1340.4000      7.9573      2.5428      0.0061      6.4952     68.4415     16.5244
  1340.5000      7.9567      2.5464      0.0145      6.2761     56.5096     16.2334
  1340.6000      7.9567      2.5510      0.0527      5.9989     50.7643     16.2523
  1340.7000      7.9567      2.5449      0.0227      6.3714     54.3313     16.2138
