~Version Information
VERS.                      2.0: CWLS Log ASCII Standard - VERSION 2.0
WRAP.                       NO: One line per depth step
~Well Information Block
STRT.FT               -10.0000: 
STOP.FT              2073.0000: 
STEP.FT                 0.2500: 
NULL.                -999.2500: 
COMP.          Pioneer Natural Resources: COMPANY
WELL.              Joplin 44-5: WELL
FLD.           Purgatorie River: FIELD
LOC.           262' FSL & 418' FEL--: LOCATION
PROV.                       CO: PROVINCE
CNTY.               Las Animas: COUNTRY
SRVC.          Patterson Wireline: SERVICE COMPANY
DATE.          Mon Dec 19 09:21:33 2005: LOG DATE
UWI.           05 071 08623 00: UNIQUE WELL ID
~Curve Information Block
DEPT.FT            0 000 00 00: Depth
CCL.                          : Casing Collar Locator
TT3.usec                      : CBL 3' Travel Time
AMP3.mV                       : CBL 3' Amplitude
GR.GAPI                       : Gamma Ray
~Parameter Information Block
~A  Depth       CCL         TT3         AMP3         GR     
# ...
   928.0000      0.0000    799.6835      7.9316     32.6644
   928.2500      0.0000    774.3757      7.8119     33.4838
   928.5000      0.0000    756.2115      7.6586     36.9067
   928.7500      0.0000    757.1336      7.4600     41.6857
   929.0000      0.0000    780.7588      7.2131     45.9484
   929.2500      0.0000    817.8400      6.9579     48.2203
   929.5000      0.0000    852.1603      6.7647     48.1308
   929.7500      0.0000    872.0709      6.6716     46.4269
   930.0000      0.0000    876.7117      6.6528     44.2483
   930.2500      2.0000    872.0582      6.6555     42.1658
   930.5000      0.0000    862.8907      6.6546     39.8600
   930.7500      0.0000    849.6738      6.6728     36.8059
   931.0000      0.0000    832.3791      6.7555     33.2143
   931.2500      0.0000    815.1998      6.9159     30.2190
   931.5000      0.0000    805.0916      7.1009     29.2514
   931.7500      0.0000    805.1412      7.2301     31.2588
   932.0000      0.0000    811.3018      7.2710     36.0850
   932.2500      0.0000    817.1245      7.2594     42.2452
   932.5000      0.0000    820.8442      7.2513     47.6562
   932.7500      0.0000    826.1560      7.2748     51.1041
   933.0000      0.0000    835.8300      7.3249     53.0327
   933.2500      0.0000    846.5419      7.3829     54.9394
   933.5000      0.0000    851.5761      7.4302     58.3093
   933.7500      0.0000    847.6720      7.4552     64.0187
   934.0000      0.0000    837.4442      7.4535     72.0707
   934.2500      0.0000    825.8022      7.4288     81.5994
   934.5000      0.0000    816.1352      7.3943     91.2690
   934.7500      0.0000    809.9196      7.3728     99.6029
   935.0000      0.0000    807.8628      7.3866    104.8722
   935.2500      0.0000    810.1107      7.4437    105.3469
   935.5000      0.0000    815.6476      7.5328    100.4863
   935.7500      0.0000    822.4562      7.6322     91.8822
   936.0000      0.0000    828.9742      7.7234     82.4233
   936.2500      0.0000    835.4541      7.7970     74.3256
   936.5000      0.0000    843.4294      7.8516     68.1450
   936.7500      0.0000    853.5422      7.8905     63.4619
   937.0000      0.0000    863.7550      7.9220     59.8808
   937.2500      0.0000    869.7135      7.9596     57.2378
   937.5000      0.0000    867.4675      8.0179     55.3058
   937.7500      0.0000    856.5127      8.1051     53.7472
   938.0000      0.0000    840.1823      8.2164     52.4682
   938.2500      0.0000    822.9951      8.3343     51.8545
   938.5000      0.0000    807.7264      8.4323     52.4881
   938.7500      0.0000    794.7314      8.4814     54.7868
   939.0000      0.0000    783.4543      8.4617     59.0683
   939.2500      0.0000    774.1956      8.3746     65.9292
   939.5000      0.0000    768.3366      8.2454     76.3629
   939.7500      0.0000    766.9053      8.1130     91.0291
   940.0000      0.0000    769.0891      8.0165    108.6383
   940.2500      0.0000    772.4687      7.9807    125.0737
   940.5000      0.0000    775.0689      8.0055    135.2357
   940.7500      0.0000    777.0790      8.0674    136.6902
   941.0000      0.0000    780.0651      8.1357    131.5117
   941.2500      0.0000    784.6011      8.1894    124.3838
   941.5000      0.0000    789.3172      8.2212    118.8620
   941.7500      0.0000    792.2651      8.2324    115.2433
   942.0000      0.0000    792.6731      8.2299    111.4482
   942.2500      0.0000    791.3425      8.2273    105.3711
   942.5000      0.0000    789.5450      8.2413     96.3963
   942.7500      0.0000    787.4453      8.2834     85.4192
   943.0000      0.0000    783.7254      8.3516     74.2410
   943.2500      0.0000    777.2253      8.4305     65.0333
   943.5000      0.0000    769.0444      8.4961     59.8914
   943.7500      0.0000    762.6668      8.5215     60.3950
   944.0000      0.0000    761.6310      8.4821     67.1191
   944.2500      0.0000    766.6993      8.3688     79.1075
   944.5000      0.0000    775.0367      8.1993     93.7650
   944.7500      0.0000    782.1003      8.0126    107.7904
   945.0000      0.0000    784.4620      7.8484    118.8703
   945.2500      0.0000    781.4847      7.7289    126.7912
   945.5000      0.0000    775.2919      7.6578    132.8634
   945.7500      0.0000    769.1871      7.6329    138.0912
   946.0000      0.0000    765.1021      7.6516    141.7293
   946.2500      0.0000    762.1302      7.7013    141.4839
   946.5000      0.0000    757.9496      7.7497    135.2921
   946.7500      0.0000    751.7191      7.7539    123.4182
   947.0000      0.0000    745.1985      7.6895    109.0445
   947.2500      0.0000    740.9861      7.5741     96.6617
   947.5000      0.0000    739.7278      7.4598     89.6770
   947.7500      0.0000    739.2495      7.3984     89.1770
   948.0000      0.0000    736.6943      7.4113     94.2120
   948.2500      0.0000    731.4510      7.4863    102.7182
   948.5000      0.0000    725.6193      7.5956    112.4923
   948.7500      0.0000    721.5921      7.7117    122.0269
   949.0000      0.0000    719.7221      7.8128    130.8970
   949.2500      0.0000    718.6541      7.8868    139.5966
   949.5000      0.0000    717.2542      7.9439    148.9591
   949.7500      0.0000    715.4935      8.0260    159.3982
   950.0000      0.0000    714.1549      8.1889    170.3211
   950.2500      0.0000    714.7365      8.4609    179.9636
   950.5000      0.0000    718.7834      8.8112    185.7578
   950.7500      0.0000    725.4655      9.1560    185.3223
   951.0000      0.0000    730.1453      9.4005    177.7535
   951.2500      0.0000    727.5938      9.4919    164.3667
   951.5000      0.0000    717.2851      9.4446    148.3125
   951.7500      0.0000    704.3094      9.3212    133.2428
   952.0000      0.0000    694.9501      9.1927    121.6366
   952.2500      0.0000    692.3625      9.1211    113.8199
   952.5000      0.0000    695.9239      9.1626    108.4989
   952.7500      0.0000    703.0059      9.3599    104.2719
   953.0000      0.0000    710.9426      9.7193    100.6524
   953.2500      0.0000    718.2372     10.2082     97.9401
   953.5000      0.0000    724.8024     10.7869     96.3777
   953.7500      0.0000    731.3336     11.4479     95.6707
   954.0000      0.0000    737.7487     12.2327     95.5531
   954.2500      0.0000    740.4086     13.2199     96.5047
   954.5000      0.0000    730.0711     14.4916     99.2617
   954.7500      0.0000    695.1767     16.0852    103.8194
   955.0000      0.0000    631.2753     17.9421    109.7270
   955.2500      0.0000    548.8889     19.8746    117.1154
   955.5000      0.0000    470.3585     21.5767    126.3020
   955.7500      0.0000    417.6456     22.6997    136.1380
   956.0000      0.0000    402.3266     22.9821    143.7033
   956.2500      0.0000    423.8518     22.3762    146.2055
   956.5000      0.0000    472.7974     21.0801    142.9575
   956.7500      0.0000    535.7756     19.4266    135.3236
   957.0000      0.0000    600.5114     17.7066    125.1203
   957.2500      0.0000    657.9708     16.0761    113.5594
   957.5000      0.0000    701.7678     14.5919    101.7110
   957.7500      0.0000    729.1509     13.2850     91.5185
   958.0000      0.0000    742.7675     12.1825     85.7586
   958.2500      0.0000    748.6002     11.2879     86.4948
   958.5000      0.0000    751.5391     10.5756     93.3043
   958.7500      0.0000    753.5671     10.0117    103.0262
   959.0000      0.0000    754.9741      9.5775    111.6630
   959.2500      0.0000    755.7424      9.2702    117.1416
   959.5000      0.0000    755.7820      9.0825    120.3828
   959.7500      0.0000    754.8011      8.9807    123.5483
   960.0000      0.0000    752.3312      8.9090    127.4735
   960.2500      0.0000    748.2148      8.8200    131.0478
   960.5000      0.0000    743.2260      8.6989    132.7963
   960.7500      0.0000    738.9634      8.5608    132.5538
   961.0000      0.0000    736.5543      8.4330    131.5955
   961.2500      0.0000    735.5032      8.3397    131.5083
