~Version Information
VERS.                      2.0: CWLS Log ASCII Standard - VERSION 2.0
WRAP.                       NO: One line per depth step
~Well Information Block
STRT.FT               490.0000: 
STOP.FT              2303.5000: 
STEP.FT                 0.1000: 
NULL.                -999.2500: 
COMP.          Pioneer Natural Resources: COMPANY
WELL.             Baa Baa 34-1: WELL
FLD.           Purgatoire River: FIELD
LOC.           617' FSL & 2289' FEL: LOCATION
STAT.                 Colorado: State
CNTY.               Las Animas: COUNTY
CTRY. USA : Country
SECT. 1 : Section
TOWN. 33S : Township
RANG. 67W : Range
SRVC.                Patterson: SERVICE COMPANY
DATE.          Thu Sep 08 09:44:32 2005: LOG DATE
API.           05 071 08502 00: UNIQUE WELL ID
~Curve Information Block
DEPT.FT            0 000 00 00: Depth
DCAL.in                       : CDL Caliper
RHOB.g/cc                     : CDL Bulk Density
RHOC.g/cc                     : CDL Density Correction
DPOR.pu                       : CDL Density Porosity
GR.GAPI                       : Gamma Ray
NPOR.pu                       : Neutron Porosity
~Parameter Information Block
~A  Depth       DCAL        RHOB        RHOC        DPOR         GR         NPOR    
# ...
  2045.2000      7.9594      2.5568      0.0406      5.6461    101.2817     24.0835
  2045.3000      7.9251      2.5617      0.0822      5.3536     99.0177     24.4947
  2045.4000      7.9251      2.5532      0.0049      5.8668     96.8272     25.3465
  2045.5000      7.9194      2.5405      0.0126      6.6359     99.8397     26.4858
  2045.6000      7.9194      2.5272      0.0526      7.4439    108.3312     27.3158
  2045.7000      7.9194      2.5119      0.0073      8.3680    116.9279     27.2377
  2045.8000      7.9003      2.5065      0.0466      8.6953    124.8622     26.8417
  2045.9000      7.9003      2.5176      0.0770      8.0231    129.4824     27.0991
  2046.0000      7.8982      2.5243      0.0806      7.6167    125.5024     27.8334
  2046.1000      7.8982      2.5057      0.0254      8.7450    117.2663     28.3118
  2046.2000      7.8982      2.4763      0.0161     10.5258    111.3511     28.2994
  2046.3000      7.9076      2.4599     -0.0088     11.5194    107.9860     27.8896
  2046.4000      7.9076      2.4644      0.0117     11.2478    107.1649     27.2444
  2046.5000      7.9226      2.4860      0.0095      9.9378    110.4451     26.6189
  2046.6000      7.9226      2.5081      0.0584      8.6013    114.5104     26.3006
  2046.7000      7.9226      2.5153      0.0762      8.1640    115.8012     26.2487
  2046.8000      7.9183      2.5171      0.0101      8.0570    115.0702     26.2232
  2046.9000      7.9183      2.5309      0.0535      7.2203    110.0865     26.2643
  2047.0000      7.9018      2.5491      0.0594      6.1174    101.0375     26.4677
  2047.1000      7.9018      2.5585      0.0730      5.5465     96.1513     26.6354
  2047.2000      7.9018      2.5662      0.0299      5.0786     99.2099     26.0907
  2047.3000      7.8976      2.5809      0.0562      4.1856    103.5233     25.2580
  2047.4000      7.8976      2.5899      0.0843      3.6427    102.4145     25.2470
  2047.5000      7.9068      2.5772      0.0378      4.4103     97.3508     25.8362
  2047.6000      7.9068      2.5518      0.0073      5.9487     91.4042     26.3428
  2047.7000      7.9068      2.5302     -0.0067      7.2628     86.2275     26.0979
  2047.8000      7.9137      2.5119      0.0047      8.3709     86.9344     25.0150
  2047.9000      7.9137      2.4890      0.0086      9.7552     95.1571     24.2149
  2048.0000      7.9197      2.4627      0.0005     11.3507    105.9096     24.1616
  2048.1000      7.9197      2.4491     -0.0350     12.1746    112.9073     24.1890
  2048.2000      7.9197      2.4624     -0.0244     11.3685    114.2118     23.8501
  2048.3000      7.9306      2.4890      0.0441      9.7581    114.0456     23.5696
  2048.4000      7.9306      2.5058      0.0188      8.7387    114.1613     23.7282
  2048.5000      7.9491      2.5120      0.0398      8.3629    114.8358     23.8949
  2048.6000      7.9491      2.5206      0.0266      7.8407    117.7550     24.1022
  2048.7000      7.9491      2.5310      0.0581      7.2134    119.1026     24.8440
  2048.8000      7.9536      2.5256      0.0408      7.5387    114.4080     25.4210
  2048.9000      7.9536      2.5123     -0.0089      8.3434    106.7436     25.4290
  2049.0000      7.9389      2.5224      0.0248      7.7312    103.7359     25.4937
  2049.1000      7.9389      2.5475      0.0646      6.2148    108.6885     25.4683
  2049.2000      7.9389      2.5451      0.0869      6.3555    115.6692     24.7404
  2049.3000      7.9292      2.5072      0.0411      8.6566    118.7209     23.5472
  2049.4000      7.9292      2.4707      0.0111     10.8642    118.1376     22.6425
  2049.5000      7.8830      2.4667      0.0061     11.1096    113.6820     22.8789
  2049.6000      7.8830      2.4871      0.0413      9.8737    108.2397     24.4625
  2049.7000      7.8830      2.5084      0.0493      8.5826    107.4728     25.9642
  2049.8000      7.8801      2.5230      0.0553      7.6971    108.5134     26.2134
  2049.9000      7.8801      2.5339      0.0896      7.0365    106.0605     25.9551
  2050.0000      7.8810      2.5478      0.0565      6.1962    100.3619     26.0641
  2050.1000      7.8810      2.5710      0.0865      4.7891     96.2993     26.1223
  2050.2000      7.8810      2.5886      0.0796      3.7191     98.5388     25.7337
  2050.3000      7.8813      2.5762      0.0579      4.4719    104.0372     25.1694
  2050.4000      7.8813      2.5415      0.0153      6.5754    107.7462     24.7767
  2050.5000      7.8815      2.5165      0.0224      8.0933    107.5954     24.5379
  2050.6000      7.8815      2.5112      0.0280      8.4142    101.4634     24.1586
  2050.7000      7.8815      2.5196     -0.0258      7.9014     89.1436     23.4595
  2050.8000      7.8959      2.5294      0.0659      7.3116     79.3224     22.8752
  2050.9000      7.8959      2.5208      0.0339      7.8308     84.1770     23.1912
  2051.0000      7.8946      2.5045     -0.0209      8.8209    101.1695     24.4517
  2051.1000      7.8946      2.5056      0.0170      8.7529    112.4722     25.5239
  2051.2000      7.8946      2.5154      0.0473      8.1604    110.4768     25.4903
  2051.3000      7.8926      2.5112      0.0279      8.4111    107.1543     24.7620
  2051.4000      7.8926      2.4920      0.0292      9.5777    109.6089     23.8899
  2051.5000      7.9117      2.4736      0.0143     10.6895    112.3208     23.1411
  2051.6000      7.9117      2.4648      0.0555     11.2230    112.4848     23.3601
  2051.7000      7.9117      2.4633      0.0370     11.3151    113.9796     24.3675
  2051.8000      7.9140      2.4675      0.0106     11.0595    119.1143     24.6201
  2051.9000      7.9140      2.4744     -0.0054     10.6424    123.0854     24.0027
  2052.0000      7.9158      2.4794     -0.0130     10.3376    120.2440     23.5609
  2052.1000      7.9158      2.4825     -0.0555     10.1487    111.2458     23.6340
  2052.2000      7.9158      2.4940     -0.0275      9.4517    104.1551     24.5255
  2052.3000      7.9256      2.5206      0.0178      7.8442    106.1189     26.0552
  2052.4000      7.9256      2.5441      0.0393      6.4179    112.4719     27.1718
  2052.5000      7.9182      2.5426      0.0758      6.5105    113.1791     27.3526
  2052.6000      7.9182      2.5315     -0.0123      7.1818    107.5065     26.7284
  2052.7000      7.9182      2.5343      0.0546      7.0137    103.2890     25.5649
  2052.8000      7.9099      2.5331      0.0588      7.0860    103.7418     24.0503
  2052.9000      7.9099      2.5158      0.0168      8.1359    104.8421     22.5974
  2053.0000      7.9020      2.5002      0.0527      9.0799    104.4002     21.9396
  2053.1000      7.9020      2.4969      0.0117      9.2792    105.0756     22.2343
  2053.2000      7.9020      2.5082      0.0347      8.5931    107.8054     22.9915
  2053.3000      7.8875      2.5332      0.0458      7.0808    107.2830     23.6051
  2053.4000      7.8875      2.5631      0.0554      5.2684    101.3351     23.9072
  2053.5000      7.8856      2.5892      0.0664      3.6829     95.2840     24.4422
  2053.6000      7.8856      2.6135      0.0395      2.2119     93.5447     25.1301
  2053.7000      7.8856      2.6365      0.1070      0.8198     97.4576     25.0528
  2053.8000      7.8948      2.6404      0.1039      0.5820    102.0231     23.9716
  2053.9000      7.8948      2.6156      0.0717      2.0863    100.4016     22.5718
  2054.0000      7.8887      2.5790     -0.0061      4.3009     93.7059     21.5249
  2054.1000      7.8887      2.5487      0.0133      6.1420     85.4379     20.5227
  2054.2000      7.8887      2.5331     -0.0342      7.0840     78.2968     19.6356
  2054.3000      7.8842      2.5383     -0.0020      6.7719     75.6948     19.6553
  2054.4000      7.8842      2.5529      0.0350      5.8852     75.5808     20.4224
  2054.5000      7.8828      2.5594      0.0250      5.4925     72.3676     21.0452
  2054.6000      7.8828      2.5614      0.0086      5.3722     66.8956     20.8209
  2054.7000      7.8828      2.5691      0.0396      4.9034     63.3576     19.9447
