~Version Information
VERS.                      2.0: CWLS Log ASCII Standard - VERSION 2.0
WRAP.                       NO: One line per depth step
~Well Information Block
STRT.FT               240.0000: 
STOP.FT              1338.7000: 
STEP.FT                 0.1000: 
NULL.                -999.2500: 
COMP.          Pioneer Natural Resources: COMPANY
WELL.            Hamburg 43-35: WELL
FLD.           Purgatoire River: FIELD
LOC.           2444' FSL & 950' FEL--: LOCATION
PROV.                 Colorado: PROVINCE
CNTY.               Las Animas: COUNTRY
SRVC.                Patterson: SERVICE COMPANY
DATE.          Sun Dec 04 11:50:58 2005: LOG DATE
UWI.           05 071 08607 00: UNIQUE WELL ID
~Curve Information Block
DEPT.FT            0 000 00 00: Depth
DCAL.in                       : CDL Caliper
RHOB.g/cc                     : CDL Bulk Density
RHOC.g/cc                     : CDL Density Correction
DPOR.pu                       : CDL Density Porosity
NPOR.pu                       : Neutron Porosity
GR.GAPI                       : Gamma Ray
~Parameter Information Block
~A  Depth       DCAL        RHOB        RHOC        DPOR        NPOR         GR     
# ...
   528.0000      8.0363      2.6388      0.0126      0.6772     27.4151    113.7459
   528.1000      8.0363      2.6094      0.0258      2.4632     26.9085    109.4234
   528.2000      8.0363      2.5896      0.0015      3.6625     26.3750    106.2206
   528.3000      8.0522      2.5838     -0.0081      4.0149     26.0086    105.0223
   528.4000      8.0522      2.5834      0.0186      4.0353     25.5835    108.5018
   528.5000      8.0565      2.5785     -0.0095      4.3308     24.9760    118.4288
   528.6000      8.0565      2.5727      0.0213      4.6823     24.5270    129.6232
   528.7000      8.0565      2.5701      0.0342      4.8447     24.3383    132.7957
   528.8000      8.0532      2.5687      0.0675      4.9282     23.9027    126.3950
   528.9000      8.0532      2.5709      0.0299      4.7920     23.1373    119.8879
   529.0000      8.0508      2.5770      0.0815      4.4239     22.6395    119.3911
   529.1000      8.0508      2.5736      0.0706      4.6277     22.5876    120.5189
   529.2000      8.0508      2.5598      0.0207      5.4652     22.7022    118.6016
   529.3000      8.0471      2.5565      0.0155      5.6670     22.5467    114.0249
   529.4000      8.0471      2.5715      0.0532      4.7561     22.0278    109.5041
   529.5000      8.0436      2.5892      0.0589      3.6852     21.7233    108.2330
   529.6000      8.0436      2.5965      0.0352      3.2404     21.9637    110.3468
   529.7000      8.0436      2.5939      0.0396      3.4030     22.1513    112.3171
   529.8000      8.0443      2.5918      0.0016      3.5280     21.8225    113.4383
   529.9000      8.0443      2.5989      0.0355      3.0955     21.3389    115.0464
   530.0000      8.0492      2.5988      0.0910      3.1047     21.0105    116.5960
   530.1000      8.0492      2.5797      0.0190      4.2584     20.8391    117.5340
   530.2000      8.0492      2.5634      0.0260      5.2464     20.9172    115.9290
   530.3000      8.0545      2.5670      0.0258      5.0325     21.2280    112.6554
   530.4000      8.0545      2.5819      0.0360      4.1252     21.3364    112.4225
   530.5000      8.0571      2.5937      0.0486      3.4108     21.1136    114.2433
   530.6000      8.0571      2.5963      0.0751      3.2557     20.8858    112.0272
   530.7000      8.0571      2.5873      0.0710      3.8018     20.6907    107.4437
   530.8000      8.0536      2.5655      0.0430      5.1210     20.2505    106.8204
   530.9000      8.0536      2.5370      0.0353      6.8469     19.6638    107.2501
   531.0000      8.0440      2.5139      0.0064      8.2511     19.3436    105.4300
   531.1000      8.0440      2.5050      0.0103      8.7852     19.5678    104.3783
   531.2000      8.0440      2.5216     -0.0167      7.7805     20.2519    102.7607
   531.3000      8.0289      2.5739      0.0360      4.6105     21.0090     98.1771
   531.4000      8.0289      2.6481      0.1060      0.1146     21.4970     92.7869
   531.5000      8.0123      2.7200      0.0904     -4.2409     21.5621     90.9385
   531.6000      8.0123      2.7782      0.1150     -7.7714     21.2239     95.5917
   531.7000      8.0123      2.8176      0.1180    -10.1599     20.8142    100.6021
   531.8000      7.9984      2.8355      0.1573    -11.2416     20.8981     97.5812
   531.9000      7.9984      2.8275      0.1683    -10.7606     21.4483     90.3651
   532.0000      7.9910      2.7946      0.1256     -8.7665     21.7084     86.6490
   532.1000      7.9910      2.7545      0.0751     -6.3333     21.5072     87.4952
   532.2000      7.9910      2.7332      0.0214     -5.0434     21.5218     89.6995
   532.3000      7.9906      2.7480      0.0145     -5.9385     21.8856     90.1854
   532.4000      7.9906      2.7883      0.0533     -8.3806     22.0147     87.8151
   532.5000      7.9936      2.8112      0.1142     -9.7683     22.1002     85.0349
   532.6000      7.9936      2.7880      0.0624     -8.3632     22.5988     83.4661
   532.7000      7.9936      2.7418      0.0744     -5.5640     23.1141     80.1341
   532.8000      7.9969      2.7015      0.1034     -3.1225     23.6834     72.5981
   532.9000      7.9969      2.6676      0.0833     -1.0685     24.7134     65.2448
   533.0000      8.0026      2.6331     -0.0005      1.0269     25.6017     63.7803
   533.1000      8.0026      2.6019     -0.0240      2.9177     25.5592     66.2429
   533.2000      8.0026      2.5850     -0.0725      3.9402     24.7492     67.4752
   533.3000      8.0099      2.5805     -0.0475      4.2102     23.6750     66.6645
   533.4000      8.0099      2.5704     -0.0714      4.8239     22.3638     64.3257
   533.5000      8.0148      2.5522     -0.0705      5.9283     20.6660     61.3321
   533.6000      8.0148      2.5409     -0.0274      6.6128     18.9344     60.8299
   533.7000      8.0148      2.5364      0.0304      6.8841     17.6266     65.1198
   533.8000      8.0162      2.5254      0.0536      7.5539     16.7717     71.3835
   533.9000      8.0162      2.5081      0.0352      8.5986     16.3023     74.8104
   534.0000      8.0152      2.4971      0.0331      9.2651     16.2188     73.4125
   534.1000      8.0152      2.4975      0.0422      9.2431     16.3868     69.6828
   534.2000      8.0152      2.5060      0.0325      8.7303     16.5318     68.2856
   534.3000      8.0166      2.5154      0.0483      8.1573     16.3356     70.1816
   534.4000      8.0166      2.5140      0.0469      8.2413     15.8176     71.8063
   534.5000      8.0186      2.4980      0.0369      9.2093     15.3710     68.5333
   534.6000      8.0186      2.4840     -0.0250     10.0619     15.2349     63.9454
   534.7000      8.0186      2.4868      0.0248      9.8899     15.3055     65.2629
   534.8000      8.0189      2.4992      0.0575      9.1378     15.3542     69.5945
   534.9000      8.0189      2.5136      0.0512      8.2667     15.2839     69.1244
   535.0000      8.0188      2.5337      0.0663      7.0480     15.1967     64.4233
   535.1000      8.0188      2.5530      0.0818      5.8782     15.2192     61.7274
   535.2000      8.0188      2.5574      0.0764      5.6129     15.2214     63.0820
   535.3000      8.0207      2.5478      0.0313      6.1959     15.1162     64.7250
   535.4000      8.0207      2.5355      0.0527      6.9407     14.9869     64.3131
   535.5000      8.0261      2.5244      0.0281      7.6150     14.7148     64.5638
   535.6000      8.0261      2.5108      0.0242      8.4344     14.4018     66.3503
   535.7000      8.0261      2.4966      0.0233      9.2963     14.3072     67.5519
   535.8000      8.0315      2.4909     -0.0050      9.6451     14.1268     67.7077
   535.9000      8.0315      2.4969      0.0255      9.2791     13.7213     67.6202
   536.0000      8.0332      2.5030      0.0628      8.9110     13.5303     69.1201
   536.1000      8.0332      2.4943      0.0634      9.4386     13.7301     71.7875
   536.2000      8.0332      2.4722      0.0092     10.7738     14.0614     72.7486
   536.3000      8.0300      2.4524      0.0072     11.9747     14.2256     71.1167
   536.4000      8.0300      2.4450      0.0338     12.4212     14.1947     69.3741
   536.5000      8.0208      2.4545      0.0377     11.8467     14.0713     70.5486
   536.6000      8.0208      2.4845      0.0091     10.0313     14.0339     74.2847
   536.7000      8.0208      2.5244      0.1050      7.6151     14.2466     77.4253
   536.8000      8.0136      2.5531      0.0890      5.8701     14.5324     77.9843
   536.9000      8.0136      2.5637      0.0854      5.2306     14.6878     77.7381
   537.0000      8.0121      2.5643      0.0840      5.1958     14.8905     79.7623
   537.1000      8.0121      2.5645      0.0489      5.1847     15.2004     83.5691
   537.2000      8.0121      2.5588      0.0977      5.5258     15.3962     82.9823
   537.3000      8.0127      2.5364      0.0246      6.8851     15.2556     74.1567
   537.4000      8.0127      2.5064      0.0295      8.7052     14.5903     63.8565
   537.5000      8.0140      2.4845     -0.0048     10.0322     13.8275     58.7902
