~Version Information
VERS.                      2.0: CWLS Log ASCII Standard - VERSION 2.0
WRAP.                       NO: One line per depth step
~Well Information Block
STRT.FT               520.0000: 
STOP.FT              1373.0000: 
STEP.FT                 0.1000: 
NULL.                -999.2500: 
COMP.          Pioneer Natural Resources: COMPANY
WELL.            Gamma 13-3 Tr: WELL
FLD.           Purgatoire River: FIELD
LOC.           2127' FSL & 738' FWL: LOCATION
STAT.                 Colorado: State
CNTY.               Las Animas: COUNTY
CTRY.                      USA: Country
SECT.                        3: Section
TOWN.                       33S: Township
RANG.                       67W: Range
SRVC.                Patterson: SERVICE COMPANY
DATE.          Mon Sep 19 09:58:04 2005: LOG DATE
API.           05 071 08524 00: API
~Curve Information Block
DEPT.FT            0 000 00 00: Depth
DPOR.pu                       : CDL Density Porosity
GR.GAPI                       : Gamma Ray
NPOR.pu                       : Neutron Porosity
RHOB.g/cc                     : CDL Bulk Density
RHOC.g/cc                     : CDL Density Correction
DCAL.in                       : CDL Caliper
~Parameter Information Block
~A  Depth       DPOR         GR         NPOR        RHOB        RHOC        DCAL    
# ...
  1297.6000      5.7006    163.3871     23.8209      2.5559      0.0594      8.0422
  1297.7000      5.6909    158.8627     23.2170      2.5561      0.0616      8.0422
  1297.8000      5.6908    148.9642     22.8107      2.5561      0.0603      8.0468
  1297.9000      6.1082    141.4599     23.3211      2.5492      0.0716      8.0468
  1298.0000      6.9354    140.6331     24.3810      2.5356      0.0481      8.0361
  1298.1000      7.7468    145.9524     24.9974      2.5222      0.0612      8.0361
  1298.2000      8.4949    149.5162     25.0913      2.5098      0.0480      8.0361
  1298.3000      9.2462    146.9990     25.3064      2.4974      0.0382      8.0214
  1298.4000      9.0871    142.4493     26.1292      2.5001     -0.0048      8.0214
  1298.5000      7.2618    139.9243     27.2473      2.5302      0.0464      8.0154
  1298.6000      4.6210    141.0796     27.6428      2.5738      0.0708      8.0154
  1298.7000      2.3718    142.3309     27.3796      2.6109      0.0881      8.0154
  1298.8000      1.2564    141.5133     27.4264      2.6293      0.1275      8.0165
  1298.9000      1.7947    143.2285     27.3533      2.6204      0.1264      8.0165
  1299.0000      3.7075    148.6065     26.6834      2.5888      0.0957      8.0146
  1299.1000      6.4854    153.5718     26.1242      2.5430      0.0378      8.0146
  1299.2000     10.1023    158.3164     26.1026      2.4833      0.0151      8.0146
  1299.3000     14.0686    162.4968     26.3516      2.4179     -0.0423      8.0099
  1299.4000     17.1914    161.0731     26.7370      2.3663     -0.0319      8.0099
  1299.5000     18.4484    155.4285     27.4858      2.3456     -0.0396      8.0099
  1299.6000     17.1900    151.7376     28.3957      2.3664      0.0215      8.0099
  1299.7000     13.5335    149.3074     28.7533      2.4267      0.1101      8.0099
  1299.8000      8.9051    144.1773     28.4306      2.5031      0.2423      8.0259
  1299.9000      5.0450    140.1149     28.1204      2.5668      0.2446      8.0259
  1300.0000      2.7286    145.8423     28.1700      2.6050      0.2880      8.0824
  1300.1000      2.1141    159.1356     28.0833      2.6151      0.3631      8.0824
  1300.2000      3.0639    169.1929     27.3987      2.5994      0.3034      8.0824
  1300.3000      4.8875    171.8632     26.5008      2.5694      0.2401      8.1758
  1300.4000      6.4134    168.4770     25.7168      2.5442      0.1501      8.1758
  1300.5000      6.9018    160.3142     24.9962      2.5361      0.1504      8.2412
  1300.6000      7.0515    148.6266     24.6080      2.5336      0.1168      8.2412
  1300.7000      7.8322    136.2163     24.6440      2.5208      0.0730      8.2412
  1300.8000      8.6041    126.5550     24.5139      2.5080     -0.0181      8.2277
  1300.9000      8.4663    121.2099     23.9263      2.5103      0.0347      8.2277
  1301.0000      8.0532    121.2705     23.5243      2.5171      0.0274      8.1366
  1301.1000      7.9001    124.7458     23.6896      2.5196      0.0267      8.1366
  1301.2000      7.4142    127.3831     24.1864      2.5277      0.0109      8.1366
  1301.3000      6.4075    129.5520     24.5179      2.5443      0.0242      8.0559
  1301.4000      5.3723    131.4483     23.9908      2.5614      0.0255      8.0559
  1301.5000      4.0829    127.8520     22.3065      2.5826      0.0196      8.0205
  1301.6000      2.3209    118.2709     20.2102      2.6117      0.1158      8.0205
  1301.7000      0.9545    112.1430     19.2600      2.6343      0.0972      8.0205
  1301.8000      0.6598    114.5089     19.9596      2.6391      0.0791      8.0005
  1301.9000      1.2714    117.7062     21.2501      2.6290      0.0546      8.0005
  1302.0000      2.2078    113.8467     21.8328      2.6136      0.0170      7.9810
  1302.1000      3.0333    107.0562     21.5849      2.6000      0.0194      7.9810
  1302.2000      3.8980    103.5168     21.1562      2.5857      0.0398      7.9810
  1302.3000      4.8233    101.3258     20.6116      2.5704     -0.0141      7.9789
  1302.4000      5.0282     98.7078     19.8951      2.5670     -0.0124      7.9789
  1302.5000      4.4684     96.8411     19.4700      2.5763      0.0533      7.9957
  1302.6000      4.2400     95.6124     19.6240      2.5800      0.0413      7.9957
  1302.7000      4.8733     95.9465     19.6953      2.5696      0.0219      7.9957
  1302.8000      5.8958     99.1055     19.0204      2.5527      0.0091      8.0272
  1302.9000      6.6118    105.5979     18.3582      2.5409      0.0038      8.0272
  1303.0000      6.5362    114.2542     18.6806      2.5422      0.0139      8.0542
  1303.1000      5.4210    121.2010     19.4826      2.5606      0.0103      8.0542
  1303.2000      3.8781    122.2011     19.4747      2.5860      0.0589      8.0542
  1303.3000      3.1883    118.9724     18.6586      2.5974      0.0697      8.0368
  1303.4000      3.7701    116.8610     18.2482      2.5878      0.0634      8.0368
  1303.5000      5.1775    115.1509     19.3337      2.5646      0.0695      7.9820
  1303.6000      6.8544    112.4524     21.6619      2.5369      0.0530      7.9820
  1303.7000      8.3828    113.5366     23.6673      2.5117      0.0678      7.9820
  1303.8000      9.5545    120.7777     24.5896      2.4924      0.0117      7.9282
  1303.9000     10.2683    127.7826     24.6783      2.4806      0.0043      7.9282
  1304.0000     10.3725    129.2242     24.5440      2.4789      0.0210      7.9153
  1304.1000      9.5711    128.9892     24.7861      2.4921      0.0309      7.9153
  1304.2000      8.2727    130.9791     25.3595      2.5135      0.0571      7.9153
  1304.3000      7.5320    131.8201     25.8794      2.5257      0.0958      7.9402
  1304.4000      7.3503    129.5133     25.9104      2.5287      0.0722      7.9402
  1304.5000      6.6105    127.4094     25.0609      2.5409      0.0758      7.9628
  1304.6000      4.9304    125.9114     23.4291      2.5686      0.0795      7.9628
  1304.7000      3.1858    122.7865     21.9906      2.5974      0.1853      7.9628
  1304.8000      2.1869    117.2931     21.3806      2.6139      0.1640      7.9507
  1304.9000      1.8554    111.5056     21.1687      2.6194      0.1209      7.9507
  1305.0000      1.9980    107.3864     21.0297      2.6170      0.0905      7.9293
  1305.1000      2.1059    103.5553     21.0352      2.6153      0.0489      7.9293
  1305.2000      1.2705     99.6316     20.6804      2.6290      0.0538      7.9293
  1305.3000     -0.0540     96.0695     19.4397      2.6509      0.1130      7.9287
  1305.4000     -0.2147     94.1157     18.1728      2.6535      0.1074      7.9287
  1305.5000      1.5190     97.5957     18.0451      2.6249      0.0961      7.9470
  1305.6000      4.1072    107.1499     19.0981      2.5822      0.0670      7.9470
  1305.7000      5.7735    116.4439     20.3624      2.5547      0.0063      7.9470
  1305.8000      6.3840    121.7562     21.0587      2.5447      0.0729      7.9594
  1305.9000      6.9962    123.9713     21.5587      2.5346      0.0403      7.9594
  1306.0000      7.2249    123.7458     22.3212      2.5308     -0.0067      7.9640
  1306.1000      6.7032    123.1068     22.7486      2.5394      0.0339      7.9640
  1306.2000      6.7413    124.6275     22.5746      2.5388      0.0530      7.9640
  1306.3000      7.5132    128.0925     22.2772      2.5260     -0.0111      7.9750
  1306.4000      7.2832    130.3036     22.1812      2.5298     -0.0202      7.9750
  1306.5000      5.9486    128.5640     22.4789      2.5518      0.0561      7.9868
  1306.6000      5.2882    124.8602     23.1315      2.5627      0.0465      7.9868
  1306.7000      5.9444    119.7735     23.8920      2.5519      0.0435      7.9868
  1306.8000      7.1714    112.5574     24.1942      2.5317      0.0133      7.9954
  1306.9000      8.0984    112.2280     23.6299      2.5164     -0.0227      7.9954
  1307.0000      8.2410    123.2132     22.6566      2.5140     -0.0489      8.0015
  1307.1000      7.4070    134.5202     22.2825      2.5278     -0.0286      8.0015
