~Version Information
VERS.                      2.0: CWLS Log ASCII Standard - VERSION 2.0
WRAP.                       NO: One line per depth step
~Well Information Block
STRT.FT               570.0000: 
STOP.FT              1954.5000: 
STEP.FT                 0.1000: 
NULL.                -999.2500: 
COMP.          Petrogulf Corporation: COMPANY
WELL.            Montoya 7-14R: WELL
FLD.           Purgatorie River: FIELD
LOC.           628' FSL & 454' FWL: LOCATION
PROV.                 Colorado: PROVINCE
CNTY.               Las Animas: COUNTRY
SRVC.                Patterson: SERVICE COMPANY
DATE.          Mon Oct 10 07:31:15 2005: LOG DATE
UWI.                          : UNIQUE WELL ID
~Curve Information Block
DEPT.FT            0 000 00 00: Depth
DCAL.in                       : CDL Caliper
RHOB.g/cc                     : CDL Bulk Density
RHOC.g/cc                     : CDL Density Correction
DPOR.pu                       : CDL Density Porosity
GR.GAPI                       : Gamma Ray
NPOR.pu                       : Neutron Porosity
~Parameter Information Block
~A  Depth       DCAL        RHOB        RHOC        DPOR         GR         NPOR    
# ...
  1213.2000      8.0579      2.5360      0.0133      6.9114    128.7639     28.4836
  1213.3000      8.0531      2.5391      0.0196      6.7183    132.6502     28.6194
  1213.4000      8.0531      2.5556      0.0327      5.7186    135.3082     28.5627
  1213.5000      8.0539      2.5698      0.0378      4.8627    134.0994     28.3530
  1213.6000      8.0539      2.5619      0.0715      5.3387    130.7156     28.3486
  1213.7000      8.0539      2.5365      0.0001      6.8782    125.3798     28.4981
  1213.8000      8.0490      2.5155      0.0570      8.1534    119.3128     28.6044
  1213.9000      8.0490      2.5017      0.0271      8.9892    117.2717     28.5415
  1214.0000      8.0486      2.4978     -0.0035      9.2242    121.6241     28.0488
  1214.1000      8.0486      2.5113      0.0040      8.4034    129.1773     27.2355
  1214.2000      8.0486      2.5237      0.0544      7.6532    134.7777     26.6645
  1214.3000      8.0540      2.5106      0.0363      8.4470    136.5426     26.6524
  1214.4000      8.0540      2.4845     -0.0217     10.0332    134.9187     26.9781
  1214.5000      8.0831      2.4760     -0.0254     10.5455    131.5097     27.2179
  1214.6000      8.0831      2.4869      0.0220      9.8862    129.3443     27.3222
  1214.7000      8.0831      2.4953      0.0342      9.3764    129.2669     27.5724
  1214.8000      8.1162      2.4953      0.0018      9.3747    129.5068     27.9302
  1214.9000      8.1162      2.4900      0.0476      9.6997    128.9893     28.0378
  1215.0000      8.1271      2.4662      0.0444     11.1407    129.8328     27.7968
  1215.1000      8.1271      2.4198      0.0091     13.9534    133.0960     27.5246
  1215.2000      8.1271      2.3739     -0.0418     16.7328    135.6549     27.5336
  1215.3000      8.1358      2.3534     -0.0503     17.9775    136.4011     27.7447
  1215.4000      8.1358      2.3533      0.0023     17.9845    137.9470     27.8885
  1215.5000      8.1612      2.3507     -0.0364     18.1399    140.6131     28.0301
  1215.6000      8.1612      2.3387     -0.0024     18.8694    142.4721     28.3203
  1215.7000      8.1612      2.3203      0.0646     19.9819    143.8611     28.6909
  1215.8000      8.2219      2.2959      0.0642     21.4606    144.4132     28.9636
  1215.9000      8.2219      2.2717      0.0512     22.9289    143.7689     29.2596
  1216.0000      8.3906      2.2517      0.0941     24.1377    144.9758     29.8371
  1216.1000      8.3906      2.2308      0.0942     25.4090    147.8979     30.4905
  1216.2000      8.3906      2.2103      0.0786     26.6459    146.8714     30.9073
  1216.3000      8.4912      2.1938      0.1040     27.6477    142.3109     31.2054
  1216.4000      8.4912      2.1763      0.1076     28.7083    139.5198     31.6129
  1216.5000      8.4916      2.1530      0.1410     30.1206    137.3414     32.0043
  1216.6000      8.4916      2.1206      0.1387     32.0838    132.9544     32.1095
  1216.7000      8.4916      2.0739      0.1494     34.9174    129.0833     31.8646
  1216.8000      8.3351      2.0106      0.1124     38.7532    129.2640     31.6106
  1216.9000      8.3351      1.9391      0.1041     43.0866    132.5019     31.7230
  1217.0000      8.2144      1.8710      0.0438     47.2109    134.2721     32.1995
  1217.1000      8.2144      1.8133     -0.0040     50.7062    132.5346     32.6720
  1217.2000      8.2144      1.7634      0.0291     53.7317    129.0998     32.7104
  1217.3000      8.1550      1.7179     -0.0087     56.4895    125.6131     32.2575
  1217.4000      8.1550      1.6824      0.0154     58.6407    121.7939     31.7417
  1217.5000      8.1351      1.6580      0.0229     60.1237    117.0518     31.6727
  1217.6000      8.1351      1.6411      0.0110     61.1484    112.3366     32.1330
  1217.7000      8.1351      1.6312      0.0490     61.7459    110.4109     32.6993
  1217.8000      8.1334      1.6287      0.0623     61.8990    111.2197     33.0827
  1217.9000      8.1334      1.6350      0.0535     61.5155    111.1496     33.2703
  1218.0000      8.0948      1.6458      0.1008     60.8629    109.5219     33.2875
  1218.1000      8.0948      1.6487      0.0873     60.6830    108.4178     33.2963
  1218.2000      8.0948      1.6411      0.0508     61.1466    108.6585     33.3288
  1218.3000      8.0714      1.6385     -0.0435     61.3036    110.1130     33.1977
  1218.4000      8.0714      1.6637     -0.0468     59.7744    111.2434     32.8417
  1218.5000      8.0957      1.7247      0.0140     56.0792    111.3205     32.4773
  1218.6000      8.0957      1.8107      0.1149     50.8658    112.2224     32.3309
  1218.7000      8.0957      1.9066      0.1446     45.0559    115.1220     32.3482
  1218.8000      8.0855      2.0074      0.1488     38.9471    117.2548     32.4003
  1218.9000      8.0855      2.1198      0.1647     32.1324    116.3373     32.4259
  1219.0000      8.1867      2.2396      0.2361     24.8757    117.7877     32.1412
  1219.1000      8.1867      2.3456      0.2524     18.4471    124.7350     31.5347
  1219.2000      8.1867      2.4300      0.2393     13.3355    128.6664     31.1468
  1219.3000      8.2828      2.4940      0.3395      9.4553    124.5455     31.1508
  1219.4000      8.2828      2.5288      0.3346      7.3432    120.5237     31.0937
  1219.5000      8.2277      2.5296      0.3299      7.2963    122.8920     30.6898
  1219.6000      8.2277      2.5078      0.2762      8.6206    127.4174     30.1441
  1219.7000      8.2277      2.4841      0.2165     10.0540    131.6369     29.7256
  1219.8000      8.3135      2.4687      0.1823     10.9893    137.1960     29.5954
  1219.9000      8.3135      2.4516      0.2042     12.0230    140.6684     29.8653
  1220.0000      8.5238      2.4268      0.1498     13.5287    139.6208     30.2541
  1220.1000      8.5238      2.4083      0.1733     14.6479    136.4419     30.3700
  1220.2000      8.5238      2.4066      0.2246     14.7528    133.8586     30.2972
  1220.3000      8.6257      2.4145      0.2359     14.2730    135.4855     30.2577
  1220.4000      8.6257      2.4232      0.2152     13.7448    140.2409     30.1604
  1220.5000      8.2901      2.4368      0.1259     12.9223    143.0718     29.9502
  1220.6000      8.2901      2.4594      0.1729     11.5517    142.5614     29.7960
  1220.7000      8.2901      2.4813      0.1869     10.2238    140.1297     29.9184
  1220.8000      8.1456      2.5011      0.1485      9.0265    135.9507     30.2691
  1220.9000      8.1456      2.5287      0.2152      7.3495    130.3900     30.4470
  1221.0000      8.0111      2.5567      0.2920      5.6551    127.0434     30.1107
  1221.1000      8.0111      2.5642      0.2799      5.1972    128.9783     29.4469
  1221.2000      8.0111      2.5452      0.2329      6.3538    135.7719     28.9401
  1221.3000      8.0452      2.5127      0.1535      8.3221    145.3427     28.8160
  1221.4000      8.0452      2.4875      0.1238      9.8495    152.6091     29.0050
  1221.5000      8.0613      2.4714      0.1574     10.8254    152.5594     29.3097
  1221.6000      8.0613      2.4501      0.1426     12.1137    147.2365     29.5175
  1221.7000      8.0613      2.4319      0.1135     13.2203    142.0145     29.4087
  1221.8000      8.0917      2.4341      0.1885     13.0829    138.6557     29.1149
  1221.9000      8.0917      2.4534      0.1826     11.9141    137.6178     29.0579
  1222.0000      8.2515      2.4840      0.1914     10.0594    139.7662     29.2991
  1222.1000      8.2515      2.5317      0.2246      7.1725    142.7752     29.5843
  1222.2000      8.2515      2.5973      0.3125      3.1959    144.6900     29.6131
  1222.3000      8.2289      2.6636      0.3618     -0.8237    145.6332     29.3146
  1222.4000      8.2289      2.7068      0.3908     -3.4440    146.2459     29.0124
  1222.5000      8.0913      2.7190      0.3373     -4.1834    146.4652     29.0527
  1222.6000      8.0913      2.7132      0.3356     -3.8301    143.9478     29.2165
  1222.7000      8.0913      2.7031      0.2948     -3.2204    140.0790     29.0425
