~Version Information
VERS.                      2.0: CWLS Log ASCII Standard - VERSION 2.0
WRAP.                       NO: One line per depth step
~Well Information Block
STRT.FT               770.0000: 
STOP.FT              2171.0000: 
STEP.FT                 0.1000: 
NULL.                -999.2500: 
COMP.          Pioneer Natural Resources: COMPANY
WELL.              Kermit 32-7: WELL
FLD.           Purgatoire River: FIELD
LOC.           2002' FNL & 2103' FEL: LOCATION
PROV.                 Colorado: PROVINCE
CNTY.               Las Animas: COUNTRY
SRVC.                Patterson: SERVICE COMPANY
DATE.          Thu Jan 12 03:02:28 2006: LOG DATE
UWI.           05 071 08647 00: UNIQUE WELL ID
~Curve Information Block
DEPT.FT            0 000 00 00: Depth
DCAL.in                       : CDL Caliper
RHOB.g/cc                     : CDL Bulk Density
RHOC.g/cc                     : CDL Density Correction
DPOR.pu                       : CDL Density Porosity
GR.GAPI                       : Gamma Ray
NPOR.pu                       : Neutron Porosity
~Parameter Information Block
~A  Depth       DCAL        RHOB        RHOC        DPOR         GR         NPOR    
# ...
  1413.2000      7.9274      2.5450      0.0754      6.3659    113.1965     24.3932
  1413.3000      7.9446      2.5478      0.0931      6.1939    115.7321     24.6628
  1413.4000      7.9446      2.5590      0.1447      5.5168    120.1002     25.0714
  1413.5000      7.9231      2.5701      0.1318      4.8430    123.4522     25.3152
  1413.6000      7.9231      2.5793      0.0837      4.2851    122.0150     25.3934
  1413.7000      7.9231      2.5902      0.1582      3.6260    117.8020     25.4625
  1413.8000      7.9065      2.5965      0.1495      3.2447    114.8597     25.4029
  1413.9000      7.9065      2.6004      0.0405      3.0066    114.1031     25.0659
  1414.0000      7.9032      2.6097      0.1191      2.4406    116.9684     24.6982
  1414.1000      7.9032      2.6081      0.1388      2.5366    122.4410     24.4682
  1414.2000      7.9032      2.5875      0.0575      3.7892    121.3621     24.2787
  1414.3000      7.9093      2.5767      0.0657      4.4441    111.6279     24.1742
  1414.4000      7.9093      2.5926      0.1011      3.4799    105.7650     24.3069
  1414.5000      7.9171      2.6142      0.1245      2.1705    109.5751     24.4447
  1414.6000      7.9171      2.6182      0.1053      1.9258    117.7080     24.3531
  1414.7000      7.9171      2.5999      0.1468      3.0381    128.4939     24.1808
  1414.8000      7.9128      2.5711      0.0699      4.7828    140.2078     24.0247
  1414.9000      7.9128      2.5581      0.0724      5.5669    144.6605     23.9992
  1415.0000      7.9218      2.5746      0.0825      4.5695    138.8000     24.2180
  1415.1000      7.9218      2.6066      0.0987      2.6282    130.0558     24.6267
  1415.2000      7.9218      2.6334      0.1605      1.0089    121.2491     25.0301
  1415.3000      7.9239      2.6433      0.1222      0.4044    111.7007     25.1501
  1415.4000      7.9239      2.6359      0.1741      0.8573    110.1736     24.9736
  1415.5000      7.8986      2.6292      0.1118      1.2576    121.9266     24.8892
  1415.6000      7.8986      2.6400      0.1907      0.6073    135.1412     25.2350
  1415.7000      7.8986      2.6472      0.1979      0.1712    139.8911     25.8034
  1415.8000      7.8990      2.6375      0.1166      0.7570    139.1854     25.9850
  1415.9000      7.8990      2.6285      0.1341      1.3012    136.9643     25.3161
  1416.0000      7.8936      2.6210      0.1429      1.7593    133.9609     24.1883
  1416.1000      7.8936      2.6045      0.1139      2.7552    129.5502     23.5280
  1416.2000      7.8936      2.5847      0.1033      3.9604    124.4722     23.5835
  1416.3000      7.8947      2.5662      0.0826      5.0784    120.7849     23.8030
  1416.4000      7.8947      2.5469      0.0880      6.2497    116.9724     23.6375
  1416.5000      7.9023      2.5377      0.0226      6.8037    115.1537     23.2197
  1416.6000      7.9023      2.5476      0.1275      6.2044    118.7303     22.8700
  1416.7000      7.9023      2.5581      0.0839      5.5680    123.2561     22.5139
  1416.8000      7.9039      2.5547      0.0545      5.7758    123.8748     22.2695
  1416.9000      7.9039      2.5493      0.0591      6.1016    122.5970     22.2700
  1417.0000      7.9159      2.5611      0.0820      5.3880    122.4198     22.4020
  1417.1000      7.9159      2.5813      0.1567      4.1639    120.6472     22.7685
  1417.2000      7.9159      2.5838      0.1566      4.0140    114.2275     23.4281
  1417.3000      7.9422      2.5685      0.1577      4.9417    105.2107     24.1472
  1417.4000      7.9422      2.5565      0.1209      5.6659    102.2353     24.4958
  1417.5000      7.9056      2.5545      0.1409      5.7875    110.3920     24.2959
  1417.6000      7.9056      2.5544      0.1282      5.7947    120.6744     24.2380
  1417.7000      7.9056      2.5610      0.0792      5.3955    123.8419     24.8992
  1417.8000      7.8982      2.5789      0.2145      4.3076    123.1091     25.7554
  1417.9000      7.8982      2.5950      0.1470      3.3339    125.8743     26.2532
  1418.0000      7.9357      2.6016      0.1462      2.9357    135.3415     26.6405
  1418.1000      7.9357      2.5955      0.1944      3.3037    147.0678     26.9976
  1418.2000      7.9357      2.5709      0.1215      4.7923    154.5225     26.9374
  1418.3000      7.9704      2.5389      0.0821      6.7355    157.6483     26.4806
  1418.4000      7.9704      2.5114      0.1302      8.4019    155.0981     26.0596
  1418.5000      7.9618      2.4837      0.0795     10.0815    145.3674     25.9181
  1418.6000      7.9618      2.4685      0.0346     10.9998    135.7733     25.9482
  1418.7000      7.9618      2.4888      0.1431      9.7680    130.8863     25.9809
  1418.8000      7.9592      2.5348      0.1886      6.9830    129.9830     25.8530
  1418.9000      7.9592      2.5877      0.2091      3.7735    132.7082     25.5256
  1419.0000      7.9497      2.6576      0.1844     -0.4603    134.0082     25.3069
  1419.1000      7.9497      2.7559      0.2806     -6.4180    129.0432     25.2923
  1419.2000      7.9497      2.8550      0.3663    -12.4247    122.5586     25.1792
  1419.3000      7.9035      2.9058      0.4276    -15.5028    122.2287     24.9883
  1419.4000      7.9035      2.8881      0.3184    -14.4294    127.7646     24.8388
  1419.5000      7.8823      2.8282      0.2609    -10.8009    131.9393     24.5691
  1419.6000      7.8823      2.7632      0.1876     -6.8583    129.3830     24.3038
  1419.7000      7.8823      2.7025      0.1241     -3.1793    121.8521     24.2129
  1419.8000      7.8951      2.6412      0.0709      0.5323    113.4623     24.1612
  1419.9000      7.8951      2.5946      0.0174      3.3597    105.5058     24.1417
  1420.0000      7.9126      2.5810     -0.0065      4.1822    100.0566     24.0891
  1420.1000      7.9126      2.5926      0.0110      3.4759    101.8172     24.1556
  1420.2000      7.9126      2.6077      0.0728      2.5661    111.1626     24.6500
  1420.3000      7.9788      2.6127      0.0768      2.2612    121.4074     25.0501
  1420.4000      7.9788      2.6160      0.0572      2.0600    125.4630     24.8044
  1420.5000      8.0288      2.6250      0.1101      1.5141    123.3261     24.2132
  1420.6000      8.0288      2.6296      0.0390      1.2358    120.8933     23.9217
  1420.7000      8.0288      2.6267      0.0330      1.4113    120.9993     24.3382
  1420.8000      8.0210      2.6204      0.1014      1.7911    123.3622     25.0211
  1420.9000      8.0210      2.6120      0.0958      2.3002    125.8327     25.4087
  1421.0000      7.9867      2.6040      0.0943      2.7860    123.6702     25.4588
  1421.1000      7.9867      2.6022      0.0714      2.8981    116.6882     25.3439
  1421.2000      7.9867      2.6128      0.0937      2.2519    114.0008     25.2469
  1421.3000      7.9298      2.6340      0.1164      0.9727    120.3869     25.1336
  1421.4000      7.9298      2.6559      0.1630     -0.3569    127.2478     24.9473
  1421.5000      7.9026      2.6710      0.1240     -1.2703    128.1925     24.7587
  1421.6000      7.9026      2.6712      0.1507     -1.2837    127.3946     24.7515
  1421.7000      7.9026      2.6515      0.1582     -0.0902    129.3939     25.0024
  1421.8000      7.9337      2.6220      0.1504      1.6978    129.9275     25.1224
  1421.9000      7.9337      2.5957      0.0850      3.2930    122.5588     24.6081
  1422.0000      7.9523      2.5802      0.0788      4.2290    114.6749     23.6718
  1422.1000      7.9523      2.5765      0.1227      4.4522    115.9124     22.8768
  1422.2000      7.9523      2.5756      0.0980      4.5073    120.7562     22.7224
  1422.3000      7.9196      2.5668      0.0745      5.0410    122.2321     23.3940
  1422.4000      7.9196      2.5499      0.0763      6.0680    122.3949     24.3115
  1422.5000      7.9141      2.5473      0.0187      6.2212    123.2304     24.7677
  1422.6000      7.9141      2.5808      0.0771      4.1927    125.9487     24.6089
  1422.7000      7.9141      2.6282      0.1873      1.3201    131.6938     24.1158
