~Version Information
VERS.                      2.0: CWLS Log ASCII Standard - VERSION 2.0
WRAP.                       NO: One line per depth step
~Well Information Block
STRT.FT                -9.2500: 
STOP.FT              1854.7500: 
STEP.FT                 0.2500: 
NULL.                -999.2500: 
COMP.          Pioneer Natural Resources: COMPANY
WELL.          State Wildlife 32-16 Tr: WELL
FLD.           Purgatoire River: FIELD
LOC.           1838' FNL & 1850' FEL--: LOCATION
STAT.                       CO: State
CNTY.               Las Animas: COUNTY
CTRY. USA : Country
SECT. 16 : Section
TOWN. 32S : Township
RANG. 66W : Range
SRVC.          Patterson Wireline: SERVICE COMPANY
DATE.          Tue Nov 22 10:17:13 2005: LOG DATE
API.           05 071 08568 00: UNIQUE WELL ID
~Curve Information Block
DEPT.FT            0 000 00 00: Depth
CCL.                          : Casing Collar Locator
TT3.usec                      : CBL 3' Travel Time
AMP3.mV                       : CBL 3' Amplitude
GR.GAPI                       : Gamma Ray
~Parameter Information Block
~A  Depth       CCL         TT3         AMP3         GR     
# ...
   593.7500      0.0000    767.3763     12.5940    103.3095
   594.0000      0.0000    767.9526     12.4957    103.4248
   594.2500      0.0000    768.0081     12.3391    106.2690
   594.5000      0.0000    767.8138     12.1661    111.0197
   594.7500      0.0000    769.4066     11.9994    116.2516
   595.0000      0.0000    777.4561     11.8054    120.6022
   595.2500      0.0000    799.0372     11.5080    123.6234
   595.5000      0.0000    838.4102     11.0494    125.5281
   595.7500      0.0000    888.3618     10.4618    125.6933
   596.0000      0.0000    929.2646      9.8817    122.1627
   596.2500      0.0000    942.7576      9.4672    113.5253
   596.5000     -2.0000    927.6243      9.2815    101.1293
   596.7500      0.0000    899.5581      9.2605     88.6654
   597.0000      2.0000    875.6906      9.2781     79.5022
   597.2500      0.0000    861.2557      9.2345     74.9879
   597.5000      0.0000    848.1127      9.1367     75.0608
   597.7500      0.0000    823.1850      9.1475     79.0917
   598.0000      0.0000    781.7869      9.4959     85.6053
   598.2500      0.0000    736.0214     10.2275     92.3786
   598.5000      0.0000    707.2612     11.0628     97.8968
   598.7500      0.0000    707.4507     11.6129    102.4383
   599.0000      0.0000    729.4587     11.7306    107.2210
   599.2500      0.0000    756.2053     11.5678    112.6133
   599.5000      0.0000    775.5317     11.3392    117.4668
   599.7500      0.0000    785.1525     11.1433    120.1171
   600.0000      0.0000    787.9329     10.9878    119.8245
   600.2500      0.0000    786.5371     10.8712    117.3400
   600.5000      0.0000    782.0048     10.7964    114.2876
   600.7500      0.0000    775.0008     10.7504    111.9343
   601.0000      0.0000    766.9421     10.7099    110.4423
   601.2500      0.0000    759.7590     10.6660    109.3622
   601.5000      0.0000    754.7101     10.6271    108.7597
   601.7500      0.0000    751.8191     10.5971    109.4541
   602.0000      0.0000    750.3717     10.5615    112.0913
   602.2500      0.0000    749.6813     10.5055    116.3880
   602.5000      0.0000    749.3765     10.4422    121.6130
   602.7500      0.0000    749.2894     10.4152    127.5595
   603.0000      0.0000    749.3199     10.4587    134.6080
   603.2500      0.0000    749.3953     10.5567    142.5714
   603.5000      0.0000    749.4639     10.6552    149.8091
   603.7500      0.0000    749.4901     10.7191    154.2454
   604.0000      0.0000    749.4865     10.7678    155.2719
   604.2500      0.0000    749.5933     10.8520    153.8981
   604.5000      0.0000    750.1390     11.0076    151.1172
   604.7500      0.0000    751.5021     11.2361    147.1634
   605.0000      0.0000    753.6564     11.5149    142.4826
   605.2500      0.0000    755.7621     11.8132    138.3058
   605.5000      0.0000    756.5306     12.0977    135.6315
   605.7500      0.0000    755.3431     12.3279    134.2674
   606.0000      0.0000    752.8874     12.4561    133.6311
   606.2500      0.0000    750.4802     12.4480    134.1974
   606.5000      0.0000    748.9603     12.3116    137.1889
   606.7500      0.0000    748.3683     12.0974    142.5241
   607.0000      0.0000    748.3635     11.8640    147.9421
   607.2500      0.0000    748.6321     11.6451    150.8205
   607.5000      0.0000    748.9861     11.4453    150.4436
   607.7500      0.0000    749.3207     11.2621    148.1115
   608.0000      0.0000    749.5863     11.1050    145.4978
   608.2500      0.0000    749.7790     10.9907    143.4010
   608.5000      0.0000    749.9330     10.9203    141.8980
   608.7500      0.0000    750.0958     10.8689    141.1579
   609.0000      0.0000    750.2946     10.8036    141.6634
   609.2500      0.0000    750.5507     10.7134    143.6051
   609.5000      0.0000    750.9967     10.6173    146.2943
   609.7500      0.0000    752.0354     10.5366    148.3609
   610.0000      0.0000    754.2941     10.4613    148.6754
   610.2500      0.0000    758.0889     10.3550    147.3771
   610.5000      0.0000    762.6071     10.1954    145.8040
   610.7500      0.0000    765.8169     10.0003    144.8020
   611.0000      0.0000    765.8322      9.8096    143.3560
   611.2500      0.0000    762.6147      9.6506    139.9225
   611.5000      0.0000    758.0196      9.5283    135.0214
   611.7500      0.0000    754.1291      9.4377    131.2316
   612.0000      0.0000    751.8409      9.3765    130.4084
   612.2500      0.0000    750.8998      9.3468    132.0299
   612.5000      0.0000    750.6814      9.3476    134.3424
   612.7500      0.0000    750.7114      9.3664    136.0906
   613.0000      0.0000    750.7382      9.3807    137.1476
   613.2500      0.0000    750.6586      9.3769    138.2509
   613.5000      0.0000    750.4713      9.3663    140.0773
   613.7500      0.0000    750.2383      9.3773    142.1014
   614.0000      0.0000    750.0298      9.4311    142.4736
   614.2500      0.0000    749.8752      9.5334    139.5766
   614.5000      0.0000    749.7570      9.6887    134.0484
   614.7500      0.0000    749.6736      9.9043    128.9637
   615.0000      0.0000    749.7874     10.1730    127.3478
   615.2500      0.0000    750.6224     10.4618    129.4305
   615.5000      0.0000    753.0946     10.7254    132.5182
   615.7500      0.0000    758.0554     10.9259    133.3773
   616.0000      0.0000    765.4440     11.0474    130.6250
   616.2500      0.0000    773.8628     11.1037    125.2815
   616.5000      0.0000    781.2937     11.1324    119.6513
   616.7500      0.0000    786.4089     11.1687    115.7083
   617.0000      0.0000    789.1825     11.2234    113.9603
   617.2500      0.0000    790.4158     11.2944    113.2766
   617.5000      0.0000    790.9825     11.3846    111.7718
   617.7500      0.0000    791.5104     11.4846    108.2073
   618.0000      0.0000    792.4882     11.5517    102.7685
   618.2500      0.0000    794.3243     11.5365     96.6501
   618.5000      0.0000    797.0178     11.4352     91.3562
   618.7500      0.0000    799.7266     11.2938     88.6184
   619.0000      0.0000    801.0526     11.1648     90.3018
   619.2500      0.0000    800.1949     11.0745     97.4766
   619.5000      0.0000    797.7426     11.0262    109.1913
   619.7500      0.0000    795.1962     11.0076    122.2468
   620.0000      0.0000    793.9976     10.9865    132.4182
   620.2500      0.0000    795.2560     10.9195    136.5726
   620.5000      0.0000    799.7367     10.7841    134.3536
   620.7500      0.0000    806.9470     10.6043    128.1012
   621.0000      0.0000    813.9088     10.4406    121.0253
   621.2500      0.0000    816.0076     10.3507    115.4327
   621.5000      0.0000    810.3730     10.3496    112.4433
   621.7500      0.0000    798.3376     10.3960    112.5023
   622.0000      0.0000    784.2551     10.4218    115.3897
   622.2500      0.0000    772.4119     10.3871    119.7922
   622.5000      0.0000    764.9274     10.3094    123.5941
   622.7500      0.0000    761.3436     10.2438    125.2894
   623.0000      0.0000    759.6986     10.2399    124.9905
   623.2500      0.0000    758.6084     10.3143    123.6246
   623.5000      0.0000    758.6233     10.4531    121.5476
   623.7500      0.0000    761.5434     10.6311    118.6587
   624.0000      0.0000    768.6765     10.8275    115.5371
   624.2500      0.0000    780.2645     11.0261    113.6515
   624.5000      0.0000    796.3110     11.2058    114.2642
   624.7500      0.0000    816.8703     11.3394    117.3927
   625.0000      0.0000    840.7964     11.4065    121.7734
   625.2500      0.0000    865.0494     11.4104    125.4789
   625.5000      0.0000    886.3101     11.3852    126.5588
   625.7500      0.0000    902.6815     11.3886    123.9472
   626.0000      0.0000    912.9729     11.4791    118.6218
   626.2500      0.0000    915.4536     11.6769    113.4519
   626.5000      0.0000    909.3568     11.9327    110.8404
   626.7500      0.0000    898.1385     12.1443    110.4268
   627.0000      0.0000    889.4915     12.2254    109.6909
