~Version Information
VERS.                      2.0: CWLS Log ASCII Standard - VERSION 2.0
WRAP.                       NO: One line per depth step
~Well Information Block
STRT.FT                -8.5000: 
STOP.FT              2030.0000: 
STEP.FT                 0.2500: 
NULL.                -999.2500: 
COMP.          Pioneer Natural Resources: COMPANY
WELL.           Alabaster 11-8: WELL
FLD.           Purgatorie River: FIELD
LOC.           1249' FNL & 215' FWL--: LOCATION
PROV.                       CO: PROVINCE
CNTY.               Las Animas: COUNTRY
SRVC.          Patterson Wireline: SERVICE COMPANY
DATE.          Mon Jan 30 11:59:01 2006: LOG DATE
UWI.           05 071 08642 00: UNIQUE WELL ID
~Curve Information Block
DEPT.FT            0 000 00 00: Depth
CCL.                          : Casing Collar Locator
TT3.usec                      : CBL 3' Travel Time
AMP3.mV                       : CBL 3' Amplitude
GR.GAPI                       : Gamma Ray
~Parameter Information Block
~A  Depth       CCL         TT3         AMP3         GR     
# ...
   795.5000      0.0000    642.7555      5.3536    124.4533
   795.7500      0.0000    634.3396      5.2936    127.1785
   796.0000      0.0000    628.3637      5.2514    127.5311
   796.2500      0.0000    625.1852      5.2279    127.0527
   796.5000      0.0000    623.8422      5.2146    127.5352
   796.7500      0.0000    622.8315      5.1985    129.6246
   797.0000      0.0000    620.2911      5.1715    132.7954
   797.2500      0.0000    613.8884      5.1343    136.0410
   797.5000      0.0000    601.4532      5.0926    138.4141
   797.7500      0.0000    582.7791      5.0530    139.4855
   798.0000      0.0000    561.2633      5.0221    139.4860
   798.2500      0.0000    543.0267      5.0076    138.7644
   798.5000      0.0000    532.5808      5.0170    137.1970
   798.7500      0.0000    528.0478      5.0544    134.1749
   799.0000      0.0000    521.7834      5.1143    128.8706
   799.2500      0.0000    508.7359      5.1734    120.7645
   799.5000      0.0000    494.6939      5.1938    110.5011
   799.7500      0.0000    492.8721      5.1489    100.0597
   800.0000      0.0000    510.2219      5.0483     91.4984
   800.2500      0.0000    539.6166      4.9338     85.5801
   800.5000      0.0000    567.9386      4.8489     81.8319
   800.7500      0.0000    589.4339      4.8150     79.3887
   801.0000      0.0000    607.6156      4.8295     77.3384
   801.2500      0.0000    626.0526      4.8791     74.9397
   801.5000      0.0000    642.1586      4.9516     72.2363
   801.7500      0.0000    650.4519      5.0398     70.1464
   802.0000      0.0000    648.5952      5.1339     69.5945
   802.2500      0.0000    638.7919      5.2114     70.8450
   802.5000      0.0000    624.1686      5.2416     73.6874
   802.7500      0.0000    605.1954      5.2050     77.6021
   803.0000      0.0000    581.2449      5.1025     81.4016
   803.2500      0.0000    555.9617      4.9406     83.2806
   803.5000      0.0000    538.4449      4.7136     81.8594
   803.7500      0.0000    536.7054      4.4217     77.3382
   804.0000      0.0000    549.9542      4.1168     71.5227
   804.2500      0.0000    568.2789      3.9030     66.6494
   804.5000      0.0000    580.7407      3.8518     63.9617
   804.7500      0.0000    584.4842      3.9282     63.0270
   805.0000      0.0000    585.4020      4.0390     62.2538
   805.2500      0.0000    589.6522      4.1367     60.2883
   805.5000      0.0000    596.5036      4.2347     57.0545
   805.7500      0.0000    601.5546      4.3476     53.4258
   806.0000     -2.0000    604.9388      4.4627     50.1493
   806.2500      0.0000    611.8512      4.5633     47.4482
   806.5000      0.0000    624.0448      4.6580     45.4612
   806.7500      0.0000    634.7358      4.7904     44.4005
   807.0000      0.0000    635.8242      5.0092     44.0583
   807.2500      0.0000    629.0171      5.2982     43.6608
   807.5000      0.0000    625.1185      5.5469     42.6214
   807.7500      0.0000    631.8137      5.6388     41.2713
   808.0000      0.0000    646.4038      5.5689     40.4656
   808.2500      0.0000    661.1998      5.4379     40.4580
   808.5000      0.0000    671.9476      5.3428     40.5246
   808.7500      0.0000    679.8112      5.3121     39.8700
   809.0000      0.0000    688.0590      5.3268     38.6453
   809.2500      0.0000    698.4736      5.3599     37.8938
   809.5000      0.0000    709.4980      5.3897     38.5357
   809.7500      0.0000    716.5045      5.3991     40.4189
   810.0000      0.0000    714.6050      5.3782     42.3370
   810.2500      0.0000    702.9299      5.3256     43.1924
   810.5000      0.0000    686.6026      5.2454     43.3320
   810.7500      0.0000    673.3265      5.1444     44.5451
   811.0000      0.0000    667.4124      5.0340     48.5998
   811.2500      0.0000    667.5789      4.9334     55.9555
   811.5000      0.0000    669.9785      4.8682     65.7726
   811.7500      0.0000    671.9387      4.8600     76.5928
   812.0000      0.0000    672.8906      4.9129     86.7945
   812.2500      0.0000    673.2671      5.0066     94.8959
   812.5000      0.0000    673.4699      5.1047    100.1767
   812.7500      0.0000    673.6145      5.1741    103.2217
   813.0000      0.0000    673.6888      5.1997    105.4257
   813.2500      0.0000    673.7206      5.1859    107.6551
   813.5000      0.0000    673.7876      5.1475    109.6651
   813.7500      0.0000    673.9398      5.0996    110.9255
   814.0000      0.0000    674.1541      5.0516    111.4587
   814.2500      0.0000    674.3640      5.0054    111.5988
   814.5000      0.0000    674.5184      4.9588    111.4811
   814.7500      0.0000    674.6091      4.9094    111.1761
   815.0000      0.0000    674.6677      4.8581    110.9288
   815.2500      0.0000    674.7459      4.8075    110.8527
   815.5000      0.0000    674.8905      4.7594    110.6924
   815.7500      0.0000    675.1236      4.7146    110.1928
   816.0000      0.0000    675.4196      4.6738    109.4283
   816.2500      0.0000    675.6902      4.6375    108.6747
   816.5000      0.0000    675.8240      4.6052    108.3894
   816.7500      0.0000    675.7639      4.5757    109.4531
   817.0000      0.0000    675.5282      4.5478    112.9285
   817.2500      0.0000    675.1649      4.5209    119.1320
   817.5000      0.0000    674.7202      4.4971    126.8615
   817.7500      0.0000    674.2485      4.4803    133.6099
   818.0000      0.0000    673.8050      4.4709    136.7573
   818.2500      0.0000    673.4169      4.4615    135.0017
   818.5000      0.0000    673.1690      4.4414    128.9626
   818.7500      0.0000    673.4478      4.4023    120.5789
   819.0000      0.0000    675.2129      4.3413    112.1218
   819.2500      0.0000    679.8816      4.2599    105.5788
   819.5000      0.0000    688.3746      4.1666    102.1451
   819.7500      0.0000    699.7551      4.0787    101.5559
   820.0000      0.0000    711.0826      4.0177    102.0695
   820.2500      0.0000    719.3256      3.9989    101.7904
   820.5000      0.0000    723.3232      4.0216    100.2059
   820.7500      0.0000    723.3921      4.0674     98.0865
   821.0000      0.0000    719.7208      4.1100     96.1024
   821.2500      0.0000    712.5223      4.1327     94.2981
   821.5000      0.0000    703.8451      4.1383     92.7202
   821.7500      0.0000    697.6205      4.1414     91.6554
   822.0000      0.0000    696.5021      4.1534     91.2765
   822.2500      0.0000    698.8608      4.1770     91.7952
   822.5000      0.0000    700.0258      4.2112     93.8299
   822.7500      0.0000    696.9547      4.2546     97.7172
   823.0000      0.0000    691.1398      4.3016    102.2917
   823.2500      0.0000    686.9763      4.3423    105.1303
   823.5000      0.0000    688.2493      4.3705    104.5393
   823.7500      0.0000    696.1310      4.3931    101.2135
   824.0000      0.0000    709.0649      4.4252     97.7116
   824.2500      0.0000    723.7432      4.4767     96.2408
   824.5000      0.0000    736.6140      4.5445     97.1451
   824.7500      0.0000    744.9189      4.6159     99.6240
   825.0000      0.0000    746.9093      4.6752    103.3131
   825.2500      0.0000    742.1694      4.7078    108.2941
   825.5000      0.0000    732.6742      4.7087    113.6368
   825.7500      0.0000    723.4750      4.6903    117.0335
   826.0000      0.0000    720.9501      4.6774    116.5213
   826.2500      0.0000    728.3937      4.6888    112.3090
   826.5000      0.0000    742.6605      4.7242    106.8721
   826.7500      0.0000    755.9965      4.7692    103.4869
   827.0000      0.0000    761.7816      4.8086    104.0239
   827.2500      0.0000    758.5847      4.8354    107.3592
   827.5000      0.0000    748.9005      4.8512    110.2443
   827.7500      0.0000    735.1448      4.8624    110.1848
   828.0000      0.0000    718.3525      4.8730    107.3541
   828.2500      0.0000    700.8004      4.8827    104.0569
   828.5000      0.0000    687.5743      4.8918    102.9513
   828.7500      0.0000    682.9080      4.9090    105.3353
