~Version Information
VERS.                      2.0: CWLS Log ASCII Standard - VERSION 2.0
WRAP.                       NO: One line per depth step
~Well Information Block
STRT.FT               295.7500: 
STOP.FT              1461.0000: 
STEP.FT                 0.2500: 
NULL.                -999.2500: 
COMP.          Pioneer Natural Resources: COMPANY
WELL.              Lucky 21-36: WELL
FLD.           Purgatoire River: FIELD
LOC.           799' FNL & 1578' FWL--: LOCATION
CDN. :
PROV. :
UWI. :
STAT. :
CNTY. :
CTRY. :
API. :
COMP. :
WELL. :
FLD. :
LOC. :
DATE. :
SRVC. :
CNTY.               Las Animas: COUNTY
SRVC.          Superior Well Services: SERVICE COMPANY
DATE.          Mon Jul 07 19-13-01 2008: LOG DATE
UWI.           05 071 08456 00: UNIQUE WELL ID
STAT.                 Colorado: STATE
~Curve Information Block
DEPT.FT            0 000 00 00: Depth
SN.Ohm-m                      : IEL Short Normal
SP.mV                         : IEL Spontaneous Potential
DIR.Ohm-m                     : IEL Induction Resistivity
GR.GAPI                       : Gamma Ray
~Parameter Information Block
~A  Depth        SN          SP         DIR          GR     
# ...
   463.2500   2000.0000   1980.0000      7.1461    141.8697
   463.5000   2000.0000   1980.0000      7.2654    141.6266
   463.7500   2000.0000   1980.0000      7.3556    140.9554
   464.0000   2000.0000   1980.0000      7.3998    140.4773
   464.2500   2000.0000   1980.0000      7.4042    140.1306
   464.5000   2000.0000   1980.0000      7.3914    140.0902
   464.7500   2000.0000   1980.0000      7.3904    139.5944
   465.0000   2000.0000   1980.0000      7.4283    138.5286
   465.2500   2000.0000   1980.0000      7.5264    135.5349
   465.5000   2000.0000   1980.0000      7.7000    132.6426
   465.7500   2000.0000   1980.0000      7.9602    126.9430
   466.0000   2000.0000   1980.0000      8.3158    122.2063
   466.2500   2000.0000   1980.0000      8.7742    114.0668
   466.5000   2000.0000   1980.0000      9.3432    108.4840
   466.7500   2000.0000   1980.0000     10.0325    100.7626
   467.0000   2000.0000   1980.0000     10.8548     96.2347
   467.2500   2000.0000   1980.0000     11.8260     90.2890
   467.5000   2000.0000   1980.0000     12.9594     86.9219
   467.7500   2000.0000   1980.0000     14.2524     83.1586
   468.0000   2000.0000   1980.0000     15.6661     81.8130
   468.2500   2000.0000   1980.0000     17.1095     82.0279
   468.5000   2000.0000   1980.0000     18.4436     83.8193
   468.7500   2000.0000   1980.0000     19.5144     88.5921
   469.0000   2000.0000   1980.0000     20.2005     92.4395
   469.2500   2000.0000   1980.0000     20.4482     97.8343
   469.5000   2000.0000   1980.0000     20.2869    100.9297
   469.7500   2000.0000   1980.0000     19.8213    105.6799
   470.0000   2000.0000   1980.0000     19.1997    109.6359
   470.2500   2000.0000   1980.0000     18.5682    116.9371
   470.5000   2000.0000   1980.0000     18.0346    121.8894
   470.7500   2000.0000   1980.0000     17.6556    127.1784
   471.0000   2000.0000   1980.0000     17.4422    128.2720
   471.2500   2000.0000   1980.0000     17.3752    126.0902
   471.5000   2000.0000   1980.0000     17.4244    122.7390
   471.7500   2000.0000   1980.0000     17.5694    116.1534
   472.0000   2000.0000   1980.0000     17.8126    111.1724
   472.2500   2000.0000   1980.0000     18.1784    103.2594
   472.5000   2000.0000   1980.0000     18.7000     98.0246
   472.7500   2000.0000   1980.0000     19.4015     90.9692
   473.0000   2000.0000   1980.0000     20.2828     87.1815
   473.2500   2000.0000   1980.0000     21.3099     83.3178
   473.5000   2000.0000   1980.0000     22.4126     82.0799
   473.7500   2000.0000   1980.0000     23.4927     82.0968
   474.0000   2000.0000   1980.0000     24.4428     82.9056
   474.2500   2000.0000   1980.0000     25.1704     83.6778
   474.5000   2000.0000   1980.0000     25.6136     82.7208
   474.7500   2000.0000   1980.0000     25.7361     78.0936
   475.0000   2000.0000   1980.0000     25.5125     73.5714
   475.2500   2000.0000   1980.0000     24.9299     67.6329
   475.5000   2000.0000   1980.0000     24.0154     66.0661
   475.7500   2000.0000   1980.0000     22.8585     68.8830
   476.0000   2000.0000   1980.0000     21.5934     73.9852
   476.2500   2000.0000   1980.0000     20.3459     84.7161
   476.5000   2000.0000   1980.0000     19.1879     92.5490
   476.7500   2000.0000   1980.0000     18.1276    103.2059
   477.0000   2000.0000   1980.0000     17.1303    108.8169
   477.2500   2000.0000   1980.0000     16.1531    114.5327
   477.5000   2000.0000   1980.0000     15.1724    116.5984
   477.7500   2000.0000   1980.0000     14.1944    117.6496
   478.0000   2000.0000   1980.0000     13.2458    117.7076
   478.2500   2000.0000   1980.0000     12.3576    118.4889
   478.5000   2000.0000   1980.0000     11.5535    120.1189
   478.7500   2000.0000   1980.0000     10.8455    123.8542
   479.0000   2000.0000   1980.0000     10.2355    126.3146
   479.2500   2000.0000   1980.0000      9.7173    128.8082
   479.5000   2000.0000   1980.0000      9.2791    129.8390
   479.7500   2000.0000   1980.0000      8.9052    131.5866
   480.0000   2000.0000   1980.0000      8.5800    133.1809
   480.2500   2000.0000   1980.0000      8.2914    135.3893
   480.5000   2000.0000   1980.0000      8.0336    136.0124
   480.7500   2000.0000   1980.0000      7.8061    135.3329
   481.0000   2000.0000   1980.0000      7.6110    134.2286
   481.2500   2000.0000   1980.0000      7.4487    132.5044
   481.5000   2000.0000   1980.0000      7.3166    131.5329
   481.7500   2000.0000   1980.0000      7.2098    130.3150
   482.0000   2000.0000   1980.0000      7.1219    129.7257
   482.2500   2000.0000   1980.0000      7.0469    129.5968
   482.5000   2000.0000   1980.0000      6.9799    130.2318
   482.7500   2000.0000   1980.0000      6.9186    132.1983
   483.0000   2000.0000   1980.0000      6.8630    133.8632
   483.2500   2000.0000   1980.0000      6.8140    136.1303
   483.5000   2000.0000   1980.0000      6.7716    137.1815
   483.7500   2000.0000   1980.0000      6.7346    138.2681
   484.0000   2000.0000   1980.0000      6.7006    139.1538
   484.2500   2000.0000   1980.0000      6.6677    141.4343
   484.5000   2000.0000   1980.0000      6.6353    143.4613
   484.7500   2000.0000   1980.0000      6.6035    145.9369
   485.0000   2000.0000   1980.0000      6.5733    146.2256
   485.2500   2000.0000   1980.0000      6.5450    143.9173
   485.5000   2000.0000   1980.0000      6.5180    141.1573
   485.7500   2000.0000   1980.0000      6.4911    137.2423
   486.0000   2000.0000   1980.0000      6.4635    135.6523
   486.2500   2000.0000   1980.0000      6.4362    134.6661
   486.5000   2000.0000   1980.0000      6.4131    134.1568
   486.7500   2000.0000   1980.0000      6.4010    132.3252
   487.0000   2000.0000   1980.0000      6.4082    130.1611
   487.2500   2000.0000   1980.0000      6.4428    126.0375
   487.5000   2000.0000   1980.0000      6.5110    123.2680
   487.7500   2000.0000   1980.0000      6.6162    119.8301
   488.0000   2000.0000   1980.0000      6.7584    118.1365
   488.2500   2000.0000   1980.0000      6.9348    116.3088
   488.5000   2000.0000   1980.0000      7.1417    115.5122
   488.7500   2000.0000   1980.0000      7.3777    115.2354
   489.0000   2000.0000   1980.0000      7.6449    115.8526
   489.2500   2000.0000   1980.0000      7.9472    117.8071
   489.5000   2000.0000   1980.0000      8.2874    119.4480
   489.7500   2000.0000   1980.0000      8.6628    121.9937
   490.0000   2000.0000   1980.0000      9.0649    123.7003
   490.2500   2000.0000   1980.0000      9.4801    126.0882
   490.5000   2000.0000   1980.0000      9.8932    127.2352
   490.7500   2000.0000   1980.0000     10.2892    127.6920
   491.0000   2000.0000   1980.0000     10.6566    127.1097
   491.2500   2000.0000   1980.0000     10.9888    125.4600
   491.5000   2000.0000   1980.0000     11.2846    124.2917
   491.7500   2000.0000   1980.0000     11.5465    123.0860
   492.0000   2000.0000   1980.0000     11.7785    122.9122
   492.2500   2000.0000   1980.0000     11.9851    123.5745
   492.5000   2000.0000   1980.0000     12.1716    124.1633
   492.7500   2000.0000   1980.0000     12.3420    124.2376
   493.0000   2000.0000   1980.0000     12.4966    123.6254
   493.2500   2000.0000   1980.0000     12.6307    122.5172
   493.5000   2000.0000   1980.0000     12.7357    122.1077
   493.7500   2000.0000   1980.0000     12.8045    121.8274
   494.0000   2000.0000   1980.0000     12.8381    121.4605
   494.2500   2000.0000   1980.0000     12.8503    120.4296
   494.5000   2000.0000   1980.0000     12.8693    119.6563
   494.7500   2000.0000   1980.0000     12.9312    118.5587
   495.0000   2000.0000   1980.0000     13.0685    117.4977
   495.2500   2000.0000   1980.0000     13.2959    114.1410
   495.5000   2000.0000   1980.0000     13.6003    110.0084
   495.7500   2000.0000   1980.0000     13.9391    100.5460
   496.0000   2000.0000   1980.0000     14.2533     92.6378
   496.2500   2000.0000   1980.0000     14.4929     80.9681
   496.5000   2000.0000   1980.0000     14.6428     75.4122
