~Version Information
VERS.                      2.0: CWLS Log ASCII Standard - VERSION 2.0
WRAP.                       NO: One line per depth step
~Well Information Block
STRT.FT               240.0000: 
STOP.FT              1456.0000: 
STEP.FT                 0.1000: 
NULL.                -999.2500: 
COMP.          Pioneer Natural Resources: COMPANY
WELL.              Darren 11-7: WELL
FLD.           Purgatoire River: FIELD
LOC.           230' FNL & 596' FWL: LOCATION
CNTY.               Las Animas: COUNTY
SRVC.                Patterson: SERVICE COMPANY
DATE.          Mon Mar 20 07:16:06 2006: LOG DATE
UWI.           05 071 08720 00: UNIQUE WELL ID
STAT.                 Colorado: STATE
~Curve Information Block
DEPT.FT            0 000 00 00: Depth
DCAL.in                       : CDL Caliper
RHOB.g/cc                     : CDL Bulk Density
RHOC.g/cc                     : CDL Density Correction
DPOR.pu                       : CDL Density Porosity
GR.GAPI                       : Gamma Ray
NPOR.pu                       : Neutron Porosity
~Parameter Information Block
~A  Depth       DCAL        RHOB        RHOC        DPOR         GR         NPOR    
# ...
   643.2000      7.9984      2.5058      0.0783      8.7400    134.1668     27.6272
   643.3000      8.0048      2.5187      0.0965      7.9582    134.7085     27.5747
   643.4000      8.0048      2.5216      0.1041      7.7845    134.8514     27.6649
   643.5000      7.9995      2.5135      0.0799      8.2736    136.0882     27.9441
   643.6000      7.9995      2.4990      0.1030      9.1520    137.8764     28.1365
   643.7000      7.9995      2.4797      0.0791     10.3232    141.4222     27.8311
   643.8000      8.0113      2.4481      0.1204     12.2348    144.5229     27.2691
   643.9000      8.0113      2.4058      0.0128     14.8003    142.0408     26.9432
   644.0000      8.0489      2.3809      0.0122     16.3112    135.5873     26.7462
   644.1000      8.0489      2.3907      0.0606     15.7148    129.5704     26.6015
   644.2000      8.0489      2.4186      0.0606     14.0248    126.4685     26.8106
   644.3000      8.0746      2.4417      0.1245     12.6269    129.4948     27.3493
   644.4000      8.0746      2.4557      0.1051     11.7736    137.0454     27.7638
   644.5000      8.0279      2.4789      0.1556     10.3670    139.6546     27.8045
   644.6000      8.0279      2.5160      0.2326      8.1216    132.9835     27.7541
   644.7000      8.0279      2.5356      0.2454      6.9361    124.7251     28.0434
   644.8000      7.9853      2.5081      0.2084      8.5996    118.6015     28.7847
   644.9000      7.9853      2.4402      0.1786     12.7172    112.0093     29.6676
   645.0000      8.0063      2.3545      0.0958     17.9101    110.1745     30.3902
   645.1000      8.0063      2.2722      0.0536     22.8970    116.4200     30.8784
   645.2000      8.0063      2.2198     -0.0536     26.0734    120.3226     30.9462
   645.3000      8.0468      2.2135      0.0085     26.4546    114.1262     30.5147
   645.4000      8.0468      2.2392     -0.0088     24.8958    104.1508     29.9454
   645.5000      8.0655      2.2792      0.0197     22.4721     98.7860     29.4620
   645.6000      8.0655      2.3360      0.0551     19.0309     97.6284     28.9228
   645.7000      8.0655      2.4125      0.1805     14.3960     96.8112     28.3432
   645.8000      8.1601      2.4939      0.2557      9.4596     97.2092     27.8978
   645.9000      8.1601      2.5631      0.2845      5.2644    101.9710     27.4868
   646.0000      8.1045      2.6082      0.3680      2.5322    108.0879     26.8481
   646.1000      8.1045      2.6193      0.3532      1.8624    111.0019     26.0758
   646.2000      8.1045      2.6033      0.3178      2.8293    114.2172     25.5851
   646.3000      7.9046      2.5841      0.2459      3.9924    120.8159     25.5000
   646.4000      7.9046      2.5690      0.2717      4.9090    125.5630     25.5647
   646.5000      7.8786      2.5425      0.1875      6.5151    124.8070     25.5643
   646.6000      7.8786      2.5017      0.1587      8.9905    123.8327     25.4533
   646.7000      7.8786      2.4577      0.1797     11.6531    127.5858     25.2576
   646.8000      7.8874      2.4153      0.1232     14.2238    132.7939     24.9429
   646.9000      7.8874      2.3830      0.0491     16.1823    133.5163     24.6130
   647.0000      8.0235      2.3730      0.0936     16.7882    129.2953     24.4462
   647.1000      8.0235      2.3803      0.1746     16.3477    127.0331     24.4161
   647.2000      8.0235      2.3954      0.1344     15.4305    133.2932     24.3398
   647.3000      8.1592      2.4158      0.2047     14.1948    145.7023     24.0021
   647.4000      8.1592      2.4331      0.2478     13.1426    155.0263     23.2613
   647.5000      8.0929      2.4393      0.2768     12.7681    153.0898     22.3539
   647.6000      8.0929      2.4232      0.2674     13.7464    142.5379     21.5587
   647.7000      8.0929      2.3665      0.2053     17.1842    133.4528     20.9443
   647.8000      8.0615      2.2675      0.1100     23.1837    131.2080     20.6722
   647.9000      8.0615      2.1503      0.1164     30.2871    133.6874     20.6896
   648.0000      8.0509      2.0425      0.0803     36.8194    135.4669     20.7249
   648.1000      8.0509      1.9617      0.0690     41.7156    132.6160     20.7432
   648.2000      8.0509      1.9194      0.0301     44.2766    127.0515     20.8552
   648.3000      8.0690      1.9132      0.0522     44.6547    122.9878     21.0244
   648.4000      8.0690      1.9242      0.0365     43.9892    119.1893     21.2506
   648.5000      8.0803      1.9403      0.0400     43.0119    112.9820     21.5536
   648.6000      8.0803      1.9601      0.1065     41.8122    106.8633     21.7995
   648.7000      8.0803      1.9829      0.1525     40.4277    104.7840     22.1996
   648.8000      8.1593      2.0040      0.2651     39.1500    108.1524     23.0700
   648.9000      8.1593      2.0079      0.2598     38.9147    115.0411     24.3937
   649.0000      8.2790      1.9870      0.1246     40.1831    118.9656     25.8778
   649.1000      8.2790      1.9602     -0.0346     41.8066    115.0310     27.1212
   649.2000      8.2790      1.9523     -0.0375     42.2823    107.2942     28.0540
   649.3000      8.2571      1.9673     -0.0100     41.3745    102.4922     28.9005
   649.4000      8.2571      2.0005      0.0358     39.3655    103.7439     29.5425
   649.5000      8.0715      2.0581      0.0432     35.8730    112.3332     29.7235
   649.6000      8.0715      2.1468      0.1456     30.4970    122.1713     29.8091
   649.7000      8.0715      2.2582      0.2148     23.7464    124.3658     30.0945
   649.8000      8.0459      2.3725      0.2464     16.8205    121.3866     30.2537
   649.9000      8.0459      2.4621      0.2029     11.3872    118.2743     30.1773
   650.0000      8.0688      2.5041      0.1715      8.8411    118.4451     29.9652
   650.1000      8.0688      2.5019      0.1073      8.9729    124.4113     29.5892
   650.2000      8.0688      2.4779      0.1102     10.4273    130.5691     29.0658
   650.3000      7.9985      2.4462      0.0398     12.3512    131.9968     28.1765
   650.4000      7.9985      2.4086      0.0418     14.6313    131.4729     26.6823
   650.5000      7.9569      2.3647      0.0034     17.2890    132.3253     25.0072
   650.6000      7.9569      2.3208     -0.0714     19.9510    134.9091     23.8089
   650.7000      7.9569      2.2888     -0.0534     21.8913    138.3098     23.2545
   650.8000      7.9843      2.2682      0.0050     23.1392    139.9170     22.9692
   650.9000      7.9843      2.2439      0.0254     24.6115    136.3724     22.5058
   651.0000      8.0005      2.2085      0.0481     26.7583    126.1435     21.8752
   651.1000      8.0005      2.1622      0.0531     29.5628    114.3865     21.5091
   651.2000      8.0005      2.1001      0.0384     33.3297    108.4720     21.5895
   651.3000      8.0192      2.0180      0.0596     38.3015    109.5966     21.9084
   651.4000      8.0192      1.9269      0.0443     43.8244    112.5003     22.4336
   651.5000      8.0002      1.8572     -0.0088     48.0493    110.8174     23.2208
   651.6000      8.0002      1.8380      0.0440     49.2124    103.0030     24.0995
   651.7000      8.0002      1.8652      0.1097     47.5657     95.6856     25.0942
   651.8000      7.9972      1.9194      0.1102     44.2760     94.8889     26.3634
   651.9000      7.9972      1.9965      0.1270     39.6057     98.9618     27.6134
   652.0000      7.9999      2.1034      0.1906     33.1266    104.7109     28.3386
   652.1000      7.9999      2.2437      0.2383     24.6213    110.1539     28.4534
   652.2000      7.9999      2.3952      0.3928     15.4412    113.3643     28.2817
   652.3000      7.9955      2.5104      0.4389      8.4612    114.2823     28.1981
   652.4000      7.9955      2.5652      0.3556      5.1366    113.8808     28.2917
   652.5000      7.9566      2.5778      0.2678      4.3774    112.7316     28.4294
   652.6000      7.9566      2.5691      0.2216      4.9045    111.2822     28.3923
   652.7000      7.9566      2.5450      0.2043      6.3608    110.0809     28.1396
