~Version Information
VERS.                      2.0: CWLS Log ASCII Standard - VERSION 2.0
WRAP.                       NO: One line per depth step
~Well Information Block
STRT.FT                -7.2500: 
STOP.FT              1221.7500: 
STEP.FT                 0.2500: 
NULL.                -999.2500: 
COMP.          Pioneer Natural Resources: COMPANY
WELL.           Tennis 7-12 Tr: WELL
FLD.           Purgatorie River: FIELD
LOC.           1794' FNL & 1563' FEL--: LOCATION
PROV.                       CO: PROVINCE
CNTY.               Las Animas: COUNTRY
SRVC.          Patterson Wireline: SERVICE COMPANY
DATE.          Tue Dec 27 14:16:59 2005: LOG DATE
UWI.           05 071 008635 00: UNIQUE WELL ID
~Curve Information Block
DEPT.FT            0 000 00 00: Depth
CCL.                          : Casing Collar Locator
TT3.usec                      : CBL 3' Travel Time
AMP3.mV                       : CBL 3' Amplitude
GR.GAPI                       : Gamma Ray
~Parameter Information Block
~A  Depth       CCL         TT3         AMP3         GR     
# ...
   964.2500      0.0000    674.5254      6.9412    122.7848
   964.5000      0.0000    655.7602      6.9216    121.7542
   964.7500      0.0000    644.3517      6.9291    122.6944
   965.0000      0.0000    638.5334      6.9661    123.8973
   965.2500      0.0000    635.4811      7.0221    124.7325
   965.5000      0.0000    635.8130      7.0807    126.0372
   965.7500      0.0000    642.0676      7.1345    128.2784
   966.0000      0.0000    653.3900      7.1898    130.2274
   966.2500      0.0000    664.7670      7.2564    130.3769
   966.5000      0.0000    672.4185      7.3339    129.3791
   966.7500      0.0000    677.8533      7.4076    129.9843
   967.0000      0.0000    685.5365      7.4604    134.1398
   967.2500      0.0000    697.4969      7.4878    140.7824
   967.5000      0.0000    710.7139      7.5018    146.9508
   967.7500      0.0000    719.2740      7.5184    150.3891
   968.0000      0.0000    719.1822      7.5425    150.4122
   968.2500      0.0000    711.8663      7.5660    146.9298
   968.5000      0.0000    703.0825      7.5791    139.9389
   968.7500      0.0000    698.0480      7.5766    130.2934
   969.0000      0.0000    697.6138      7.5564    120.3254
   969.2500      0.0000    698.8091      7.5171    112.8559
   969.5000      0.0000    698.1906      7.4613    109.1776
   969.7500      0.0000    694.4853      7.3981    108.2939
   970.0000      0.0000    688.9258      7.3388    108.4050
   970.2500      0.0000    683.9723      7.2940    108.5768
   970.5000      0.0000    681.7551      7.2752    108.6013
   970.7500      0.0000    683.0657      7.2925    108.1423
   971.0000      0.0000    687.1202      7.3491    107.2328
   971.2500      0.0000    692.1742      7.4400    107.4410
   971.5000      0.0000    696.8170      7.5553    111.4617
   971.7500      0.0000    700.8655      7.6829    120.8579
   972.0000      0.0000    704.9877      7.8086    134.1367
   972.2500      0.0000    709.8765      7.9181    147.1678
   972.5000      0.0000    716.0118      8.0031    155.7564
   972.7500      0.0000    723.3623      8.0626    158.2155
   973.0000      0.0000    730.5516      8.0954    155.8226
   973.2500      0.0000    735.2394      8.0946    151.1596
   973.5000      0.0000    736.6072      8.0533    146.1399
   973.7500      0.0000    736.7580      7.9752    141.2942
   974.0000      0.0000    738.2092      7.8742    136.4353
   974.2500      0.0000    740.6874      7.7646    131.7455
   974.5000      0.0000    741.7706      7.6586    128.1844
   974.7500      0.0000    739.6964      7.5712    126.9282
   975.0000      0.0000    734.1670      7.5165    128.5433
   975.2500      0.0000    725.6260      7.4963    132.5607
   975.5000      0.0000    715.4725      7.4969    137.6815
   975.7500      0.0000    706.3683      7.5047    142.3628
   976.0000      0.0000    700.9568      7.5184    145.2877
   976.2500      0.0000    700.1215      7.5443    145.5300
   976.5000      0.0000    702.5002      7.5826    142.7669
   976.7500      0.0000    705.1411      7.6219    137.5869
   977.0000      0.0000    704.2957      7.6459    131.3992
   977.2500      0.0000    696.1232      7.6442    125.9040
   977.5000      0.0000    678.1691      7.6198    122.4192
   977.7500      0.0000    651.8837      7.5867    121.2090
   978.0000      0.0000    623.9985      7.5592    121.2833
   978.2500      0.0000    603.5772      7.5428    121.3174
   978.5000      0.0000    595.5361      7.5353    120.9858
   978.7500      0.0000    596.4871      7.5384    121.0600
   979.0000      0.0000    597.7972      7.5631    122.0809
   979.2500      0.0000    593.2308      7.6184    123.5263
   979.5000      0.0000    583.1137      7.6936    124.6845
   979.7500      0.0000    571.5684      7.7537    125.8239
   980.0000      0.0000    561.9874      7.7585    127.7974
   980.2500      0.0000    556.0098      7.6920    130.7267
   980.5000      0.0000    554.8950      7.5710    133.6496
   980.7500      0.0000    560.0000      7.4222    135.2037
   981.0000      0.0000    571.7092      7.2531    134.1463
   981.2500      0.0000    588.3992      7.0542    129.6896
   981.5000      0.0000    607.3799      6.8320    122.1228
   981.7500      0.0000    627.8149      6.6217    113.1215
   982.0000      0.0000    653.0858      6.4454    105.0339
   982.2500      0.0000    688.7069      6.2693     99.7647
   982.5000      0.0000    735.5073      6.0475     98.2277
   982.7500      0.0000    784.3212      5.8126    100.2888
   983.0000      0.0000    820.4914      5.6727    104.6538
   983.2500      0.0000    836.4810      5.6974    109.1543
   983.5000      0.0000    838.3903      5.8440    112.2551
   983.7500     -2.0000    838.2626      6.0051    114.6555
   984.0000      0.0000    842.3282      6.1020    118.6042
   984.2500      0.0000    848.1617      6.1322    125.0296
   984.5000      0.0000    849.3096      6.1552    131.9960
   984.7500      0.0000    839.6866      6.2352    136.6348
   985.0000      0.0000    816.0580      6.3812    138.0113
   985.2500      0.0000    779.7905      6.5502    137.3373
   985.5000      0.0000    737.2112      6.7068    135.8309
   985.7500      0.0000    698.2447      6.8523    133.4059
   986.0000      0.0000    673.1504      6.9883    129.6578
   986.2500      0.0000    667.3278      7.0895    125.2605
   986.5000      0.0000    677.9410      7.1291    121.5310
   986.7500      0.0000    695.8106      7.1099    118.6849
   987.0000      0.0000    710.7952      7.0568    115.2242
   987.2500      0.0000    716.6654      6.9921    109.4257
   987.5000      0.0000    713.3406      6.9258    101.2272
   987.7500      0.0000    705.7557      6.8631     92.5641
   988.0000      0.0000    699.9017      6.8108     86.1423
   988.2500      0.0000    698.8959      6.7732     83.8448
   988.5000      0.0000    701.6619      6.7483     85.8408
   988.7500      0.0000    704.3332      6.7312     90.6378
   989.0000      0.0000    702.4577      6.7250     95.7879
   989.2500      0.0000    693.0870      6.7430     98.9451
   989.5000      0.0000    677.0433      6.7954     99.0949
   989.7500      0.0000    659.6708      6.8733     97.2722
   990.0000      0.0000    647.2435      6.9476     95.8551
   990.2500      0.0000    641.8839      6.9859     96.8063
   990.5000      0.0000    642.1675      6.9724    100.5524
   990.7500      0.0000    647.9565      6.9156    106.3737
   991.0000      0.0000    660.3074      6.8379    113.4243
   991.2500      0.0000    676.8328      6.7598    121.1012
   991.5000      0.0000    691.5959      6.6901    128.5936
   991.7500      0.0000    700.1673      6.6289    134.4358
   992.0000      0.0000    702.4963      6.5743    136.9226
   992.2500      0.0000    701.2585      6.5260    135.3386
   992.5000      0.0000    698.9764      6.4850    130.9156
   992.7500      0.0000    696.5538      6.4530    126.5744
   993.0000      0.0000    693.7615      6.4298    125.5005
   993.2500      0.0000    690.8646      6.4105    129.2276
   993.5000      0.0000    689.2448      6.3901    136.4710
   993.7500      0.0000    690.0862      6.3718    143.8381
   994.0000      0.0000    693.2260      6.3662    148.0414
   994.2500      0.0000    697.6587      6.3817    147.6741
   994.5000      0.0000    702.4201      6.4170    143.3927
   994.7500      0.0000    706.6026      6.4636    137.2109
   995.0000      0.0000    709.1571      6.5105    131.7278
   995.2500      0.0000    709.1178      6.5442    129.0375
   995.5000      0.0000    705.9725      6.5497    129.4362
   995.7500      0.0000    700.0462      6.5176    131.1242
   996.0000      0.0000    692.6802      6.4511    131.5822
   996.2500      0.0000    685.6416      6.3658    129.5193
   996.5000      0.0000    679.6771      6.2802    125.6324
   996.7500      0.0000    673.3691      6.2044    121.7991
   997.0000      0.0000    663.7657      6.1388    119.8077
   997.2500      0.0000    648.9649      6.0839    120.4523
   997.5000      0.0000    630.5150      6.0481    123.1844
