~Version Information
VERS.                      2.0: CWLS Log ASCII Standard - VERSION 2.0
WRAP.                       NO: One line per depth step
~Well Information Block
STRT.FT               570.0000: 
STOP.FT              1954.5000: 
STEP.FT                 0.1000: 
NULL.                -999.2500: 
COMP.          Petrogulf Corporation: COMPANY
WELL.            Montoya 7-14R: WELL
FLD.           Purgatorie River: FIELD
LOC.           628' FSL & 454' FWL: LOCATION
PROV.                 Colorado: PROVINCE
CNTY.               Las Animas: COUNTRY
SRVC.                Patterson: SERVICE COMPANY
DATE.          Mon Oct 10 07:31:15 2005: LOG DATE
UWI.                          : UNIQUE WELL ID
~Curve Information Block
DEPT.FT            0 000 00 00: Depth
DCAL.in                       : CDL Caliper
RHOB.g/cc                     : CDL Bulk Density
RHOC.g/cc                     : CDL Density Correction
DPOR.pu                       : CDL Density Porosity
GR.GAPI                       : Gamma Ray
NPOR.pu                       : Neutron Porosity
~Parameter Information Block
~A  Depth       DCAL        RHOB        RHOC        DPOR         GR         NPOR    
# ...
  1117.2000      8.2744      1.3277      0.0127     80.1411     34.2211     33.0758
  1117.3000      8.2765      1.3180     -0.0245     80.7282     33.5460     33.1780
  1117.4000      8.2765      1.3080     -0.0466     81.3338     30.8057     33.1933
  1117.5000      8.3124      1.3060     -0.0439     81.4519     27.2263     33.3337
  1117.6000      8.3124      1.3127     -0.0063     81.0457     25.5769     33.5230
  1117.7000      8.3124      1.3204      0.0129     80.5840     25.4576     33.5742
  1117.8000      8.4540      1.3195      0.0336     80.6351     25.7619     33.6955
  1117.9000      8.4540      1.3103     -0.0068     81.1945     26.4449     33.9643
  1118.0000      8.3825      1.2980      0.0424     81.9393     26.0455     34.0214
  1118.1000      8.3825      1.2839     -0.0169     82.7957     24.0461     33.8414
  1118.2000      8.3825      1.2718     -0.0275     83.5291     22.9756     33.8118
  1118.3000      8.2673      1.2626     -0.0046     84.0870     25.2373     33.8585
  1118.4000      8.2673      1.2484     -0.0174     84.9483     28.9919     33.5988
  1118.5000      8.2595      1.2277     -0.0311     86.1988     31.1593     33.1742
  1118.6000      8.2595      1.2152     -0.0577     86.9594     32.2105     33.0629
  1118.7000      8.2595      1.2301     -0.0561     86.0574     34.0408     33.3371
  1118.8000      8.2709      1.2813     -0.0306     82.9502     37.6303     33.6773
  1118.9000      8.2709      1.3646      0.0162     77.9023     42.6922     33.9177
  1119.0000      8.3358      1.4686      0.0506     71.5986     46.4940     34.2088
  1119.1000      8.3358      1.5770      0.0940     65.0320     48.7774     34.4200
  1119.2000      8.3358      1.6691      0.1461     59.4468     53.4242     34.2828
  1119.3000      8.3416      1.7316      0.1419     55.6601     60.4745     34.0015
  1119.4000      8.3416      1.7626      0.1763     53.7823     64.3801     33.8994
  1119.5000      8.2369      1.7641      0.1499     53.6912     62.6084     33.9833
  1119.6000      8.2369      1.7346      0.1669     55.4760     58.9966     33.9257
  1119.7000      8.2369      1.6743      0.0883     59.1355     57.5368     33.6368
  1119.8000      8.2106      1.5986      0.0091     63.7239     56.3495     33.4472
  1119.9000      8.2106      1.5235     -0.0063     68.2743     51.8917     33.5344
  1120.0000      8.2201      1.4493     -0.0320     72.7717     46.0600     33.6806
  1120.1000      8.2201      1.3840     -0.0450     76.7272     42.4592     33.6610
  1120.2000      8.2201      1.3473     -0.0181     78.9544     41.0989     33.5046
  1120.3000      8.2370      1.3375      0.0227     79.5475     40.4118     33.3809
  1120.4000      8.2370      1.3284      0.0589     80.0966     40.3300     33.4425
  1120.5000      8.2416      1.3041      0.0186     81.5698     40.6921     33.7182
  1120.6000      8.2416      1.2775     -0.0078     83.1831     40.5552     33.9526
  1120.7000      8.2416      1.2676     -0.0296     83.7841     39.7193     33.8643
  1120.8000      8.2641      1.2738      0.0204     83.4054     38.9460     33.5535
  1120.9000      8.2641      1.2869     -0.0279     82.6150     38.9903     33.4065
  1121.0000      8.3576      1.3082     -0.0074     81.3206     40.8535     33.5834
  1121.1000      8.3576      1.3440     -0.0153     79.1539     45.1162     33.7996
  1121.2000      8.3576      1.4023      0.0072     75.6162     50.7739     33.8487
  1121.3000      8.4085      1.4919      0.0337     70.1872     56.4267     33.6821
  1121.4000      8.4085      1.6098      0.1138     63.0416     62.6733     33.3385
  1121.5000      8.4877      1.7503      0.1355     54.5294     70.7201     33.0560
  1121.6000      8.4877      1.9117      0.1915     44.7435     79.6761     33.0336
  1121.7000      8.4877      2.0700      0.2346     35.1488     89.6329     33.0732
  1121.8000      8.1743      2.1927      0.2307     27.7176    101.9146     32.8385
  1121.9000      8.1743      2.2893      0.1893     21.8606    114.3578     32.3991
  1122.0000      8.0920      2.3887      0.2113     15.8340    122.2925     31.8720
  1122.1000      8.0920      2.4818      0.2352     10.1929    125.3737     31.3577
  1122.2000      8.0920      2.5418      0.1585      6.5552    129.6124     31.0158
  1122.3000      8.0599      2.5700      0.0738      4.8455    137.2808     30.6142
  1122.4000      8.0599      2.5781      0.1184      4.3593    144.4102     29.9472
  1122.5000      8.0302      2.5672      0.0618      5.0153    147.8858     29.2788
  1122.6000      8.0302      2.5474      0.0497      6.2212    148.2974     28.6999
  1122.7000      8.0302      2.5342      0.0250      7.0212    148.3027     28.1668
  1122.8000      8.0207      2.5373      0.0116      6.8277    149.1378     27.7666
  1122.9000      8.0207      2.5525      0.0444      5.9079    150.3721     27.5531
  1123.0000      8.0032      2.5662      0.0135      5.0777    150.4228     27.5697
  1123.1000      8.0032      2.5784      0.0890      4.3395    147.9669     27.8602
  1123.2000      8.0032      2.5963      0.0688      3.2571    146.4633     28.2002
  1123.3000      7.9758      2.6178      0.0916      1.9497    148.6046     28.2154
  1123.4000      7.9758      2.6341      0.0576      0.9664    148.2654     27.9432
  1123.5000      7.9721      2.6348      0.1028      0.9197    143.9225     27.7095
  1123.6000      7.9721      2.6226      0.0542      1.6589    142.9940     27.7190
  1123.7000      7.9721      2.6212      0.0243      1.7446    146.5275     27.9727
  1123.8000      7.9553      2.6408      0.0934      0.5547    149.3311     28.0309
  1123.9000      7.9553      2.6624      0.1060     -0.7534    149.7920     27.5408
  1124.0000      7.9500      2.6691      0.0534     -1.1561    149.7208     26.9214
  1124.1000      7.9500      2.6623      0.0396     -0.7429    149.6514     26.5193
  1124.2000      7.9500      2.6518      0.0413     -0.1093    149.7044     26.2524
  1124.3000      7.9586      2.6446     -0.0107      0.3246    149.3559     26.1699
  1124.4000      7.9586      2.6366      0.0240      0.8117    147.9599     26.3596
  1124.5000      7.9691      2.6218     -0.0603      1.7068    148.2054     26.6592
  1124.6000      7.9691      2.6065     -0.0174      2.6384    152.3069     26.8634
  1124.7000      7.9691      2.5947     -0.0439      3.3498    156.7097     26.8612
  1124.8000      7.9924      2.5851     -0.0228      3.9308    157.4404     26.7970
  1124.9000      7.9924      2.5798     -0.0534      4.2548    155.1696     26.8190
  1125.0000      7.9857      2.5770      0.0152      4.4245    153.5706     26.9220
  1125.1000      7.9857      2.5657      0.0020      5.1120    154.7538     27.3612
  1125.2000      7.9857      2.5508      0.0018      6.0132    159.5152     27.9447
  1125.3000      7.9871      2.5514      0.0040      5.9775    165.7077     27.8592
  1125.4000      7.9871      2.5649      0.0345      5.1578    168.5308     27.3278
  1125.5000      7.9842      2.5707      0.0334      4.8082    167.8035     27.1569
  1125.6000      7.9842      2.5596      0.0157      5.4774    168.3761     27.0311
  1125.7000      7.9842      2.5424      0.0173      6.5201    172.7104     26.5657
  1125.8000      7.9754      2.5375      0.0003      6.8161    177.6525     26.2375
  1125.9000      7.9754      2.5537      0.0168      5.8352    177.7602     26.2479
  1126.0000      7.9798      2.5826      0.0116      4.0869    171.8797     26.2079
  1126.1000      7.9798      2.6092      0.0398      2.4757    163.6499     26.0197
  1126.2000      7.9798      2.6218      0.0626      1.7065    155.1792     26.0749
  1126.3000      7.9754      2.6237      0.0416      1.5961    148.4026     26.5354
  1126.4000      7.9754      2.6277      0.0189      1.3495    146.9356     27.1096
  1126.5000      7.9670      2.6304      0.0531      1.1895    152.0165     27.4914
  1126.6000      7.9670      2.6126      0.0484      2.2642    159.0194     27.5678
  1126.7000      7.9670      2.5777     -0.0066      4.3797    162.3734     27.6697
