~Version Information
VERS.                      2.0: CWLS Log ASCII Standard - VERSION 2.0
WRAP.                       NO: One line per depth step
~Well Information Block
STRT.FT               860.0000: 
STOP.FT              2362.5000: 
STEP.FT                 0.2500: 
NULL.                -999.2500: 
COMP.          Pioneer Natural Resources: COMPANY
WELL.            Cayenne 23-23: WELL
FLD.           Purgatoire River: FIELD
LOC.           2555' FSL & 2386' FWL: LOCATION
PROV.                 Colorado: PROVINCE
CNTY.               Las Animas: COUNTRY
SRVC.                Patterson: SERVICE COMPANY
DATE.          Wed Aug 17 06:47:40 2005: LOG DATE
UWI.           05 071 08476 00: UNIQUE WELL ID
~Curve Information Block
DEPT.FT            0 000 00 00: Depth
SN.Ohm-m                      : IEL Short Normal
SP.mV                         : IEL Spontaneous Potential
DIR.Ohm-m                     : IEL Induction Resistivity
GR.GAPI                       : Gamma Ray
~Parameter Information Block
~A  Depth        SN          SP         DIR          GR     
# ...
  1932.0000     19.4520    120.8467     20.4564     30.3103
  1932.2500     20.0550    120.6758     20.7914     29.5658
  1932.5000     20.8489    120.5733     21.1394     28.7437
  1932.7500     21.7509    120.5774     21.4765     28.6640
  1933.0000     22.5545    120.6823     21.7760     29.3920
  1933.2500     23.0756    120.8303     22.0242     30.1785
  1933.5000     23.2896    120.9420     22.2249     31.2076
  1933.7500     23.2948    120.9565     22.3850     31.6527
  1934.0000     23.1587    120.8468     22.4924     32.0199
  1934.2500     22.8812    120.6139     22.5057     32.1064
  1934.5000     22.4490    120.2775     22.3727     32.1545
  1934.7500     21.8798    119.8651     22.0670     32.3518
  1935.0000     21.2687    119.3980     21.6133     33.1892
  1935.2500     20.7537    118.8875     21.0745     34.0126
  1935.5000     20.3872    118.3491     20.5111     35.0938
  1935.7500     20.1099    117.8160     19.9463     35.4033
  1936.0000     19.8551    117.3330     19.3658     35.2218
  1936.2500     19.5923    116.9343     18.7479     35.1219
  1936.5000     19.3020    116.6249     18.0933     36.5515
  1936.7500     18.9518    116.3723     17.4289     39.6516
  1937.0000     18.4635    116.1211     16.7892     48.9156
  1937.2500     17.7507    115.8262     16.2004     58.2496
  1937.5000     16.8316    115.4839     15.6773     75.5498
  1937.7500     15.8641    115.1274     15.2280     87.8810
  1938.0000     15.0687    114.7915     14.8557    105.4376
  1938.2500     14.5698    114.4844     14.5560    115.8137
  1938.5000     14.2817    114.1988     14.3168    128.8042
  1938.7500     14.0174    113.9405     14.1228    135.3838
  1939.0000     13.6742    113.7340     13.9624    141.4776
  1939.2500     13.2895    113.5983     13.8313    143.0965
  1939.5000     12.9851    113.5192     13.7303    143.2419
  1939.7500     12.8353    113.4431     13.6603    142.8608
  1940.0000     12.8054    113.2985     13.6214    142.2872
  1940.2500     12.8687    113.0351     13.6199    141.5258
  1940.5000     13.0847    112.6545     13.6773    139.0100
  1940.7500     13.4910    112.2128     13.8297    136.4849
  1941.0000     14.0003    111.7912     14.1106    132.2056
  1941.2500     14.4931    111.4591     14.5275    129.2316
  1941.5000     15.0026    111.2525     15.0478    124.1251
  1941.7500     15.6782    111.1772     15.6066    119.9484
  1942.0000     16.4881    111.2289     16.1370    112.5790
  1942.2500     17.1558    111.4199     16.5994    107.2866
  1942.5000     17.5224    111.7950     16.9877     99.3996
  1942.7500     17.7332    112.4168     17.3118     94.3940
  1943.0000     18.0101    113.3074     17.5802     87.5348
  1943.2500     18.4218    114.3817     17.7982     83.5486
  1943.5000     18.8246    115.4436     17.9747     78.3589
  1943.7500     18.9969    116.2830     18.1221     74.9657
  1944.0000     18.8693    116.7979     18.2456     68.8868
  1944.2500     18.5507    117.0314     18.3332     63.9131
  1944.5000     18.1617    117.1117     18.3563     55.8070
  1944.7500     17.7501    117.1756     18.2866     50.8690
  1945.0000     17.3660    117.3327     18.1180     45.5489
  1945.2500     17.0842    117.6566     17.8765     43.6304
  1945.5000     16.9290    118.1744     17.6090     42.3992
  1945.7500     16.8591    118.8589     17.3609     41.9404
  1946.0000     16.8116    119.6418     17.1590     41.1917
  1946.2500     16.7583    120.4394     17.0099     40.8591
  1946.5000     16.7212    121.1752     16.9084     41.2119
  1946.7500     16.7079    121.7942     16.8484     42.0074
  1947.0000     16.7132    122.2703     16.8288     43.1878
  1947.2500     16.7746    122.6027     16.8526     43.3741
  1947.5000     16.9125    122.8084     16.9214     42.5812
  1947.7500     17.0550    122.9181     17.0310     41.8741
  1948.0000     17.0957    122.9733     17.1708     41.7306
  1948.2500     16.9974    123.0112     17.3295     42.4949
  1948.5000     16.8311    123.0407     17.5016     44.3217
  1948.7500     16.7226    123.0338     17.6920     45.4373
  1949.0000     16.7601    122.9486     17.9145     46.5411
  1949.2500     16.9445    122.7623     18.1841     47.0585
  1949.5000     17.2092    122.4848     18.5045     47.9715
  1949.7500     17.5150    122.1493     18.8576     48.7356
  1950.0000     17.8903    121.7935     19.2024     49.7215
  1950.2500     18.3305    121.4426     19.4914     49.9792
  1950.5000     18.7664    121.1028     19.7001     49.7525
  1950.7500     19.1726    120.7669     19.8475     49.5316
  1951.0000     19.5973    120.4235     19.9872     49.7102
  1951.2500     20.0700    120.0583     20.1758     50.1688
  1951.5000     20.5624    119.6548     20.4420     50.5736
  1951.7500     21.0246    119.2036     20.7782     50.0560
  1952.0000     21.3772    118.7198     21.1552     47.8213
  1952.2500     21.5405    118.2490     21.5441     45.8849
  1952.5000     21.5590    117.8528     21.9239     43.8159
  1952.7500     21.5652    117.5804     22.2699     43.6766
  1953.0000     21.5933    117.4440     22.5382     45.5763
  1953.2500     21.5898    117.4128     22.6704     47.9506
  1953.5000     21.5553    117.4269     22.6257     52.8016
  1953.7500     21.5273    117.4250     22.4146     57.2389
  1954.0000     21.4843    117.3688     22.1044     66.8244
  1954.2500     21.3742    117.2550     21.7875     75.1951
  1954.5000     21.1845    117.1075     21.5406     88.5607
  1954.7500     20.9323    116.9567     21.3998     96.0025
  1955.0000     20.6442    116.8187     21.3604    102.4230
  1955.2500     20.3847    116.6928     21.3942    103.2404
  1955.5000     20.2413    116.5716     21.4681    100.1849
  1955.7500     20.2538    116.4478     21.5535    103.9652
  1956.0000     20.4021    116.3071     21.6283     94.4252
  1956.2500     20.6168    116.1285     21.6771     86.7240
  1956.5000     20.8120    115.9028     21.6937     74.4369
  1956.7500     20.9470    115.6502     21.6782     71.9184
  1957.0000     21.0298    115.4145     21.6283     62.0144
  1957.2500     21.1079    115.2352     21.5299     57.3915
  1957.5000     21.2346    115.1235     21.3616     53.1171
  1957.7500     21.3667    115.0570     21.1164     51.7320
  1958.0000     21.4000    114.9952     20.8253     51.4136
  1958.2500     21.3457    114.9046     20.5590     52.0290
  1958.5000     21.3220    114.7791     20.3976     53.2921
  1958.7500     21.3892    114.6419     20.3906     53.8318
  1959.0000     21.5014    114.5282     20.5359     53.7353
  1959.2500     21.5574    114.4566     20.7891     53.1104
  1959.5000     21.4827    114.4063     21.0920     51.6912
  1959.7500     21.3282    114.3171     21.3945     50.6647
  1960.0000     21.2092    114.1239     21.6571     49.3258
  1960.2500     21.1286    113.8106     21.8406     48.5792
  1960.5000     21.0163    113.4382     21.9043     47.2251
  1960.7500     20.8741    113.1193     21.8161     45.7928
  1961.0000     20.7490    112.9665     21.5674     42.7004
  1961.2500     20.6691    113.0470     21.1812     40.4205
  1961.5000     20.6234    113.3480     20.7131     37.8497
  1961.7500     20.5658    113.7566     20.2445     37.1942
  1962.0000     20.4785    114.0853     19.8605     37.6681
  1962.2500     20.4085    114.1501     19.6194     38.3820
  1962.5000     20.3669    113.8484     19.5269     38.9790
  1962.7500     20.2317    113.1730     19.5334     38.7828
  1963.0000     19.8758    112.1707     19.5580     37.8799
  1963.2500     19.3569    110.8973     19.5280     37.3344
  1963.5000     18.8689    109.3964     19.4073     37.5112
  1963.7500     18.5387    107.6910     19.1994     38.6371
  1964.0000     18.3014    105.7747     18.9296     41.5602
  1964.2500     17.9798    103.6049     18.6290     43.5917
  1964.5000     17.5190    101.1081     18.3261     45.2243
  1964.7500     17.0779     98.1953     18.0460     44.9046
  1965.0000     16.8217     94.7744     17.8067     42.7346
  1965.2500     16.7503     90.7430     17.6136     40.8721
