~Version Information
VERS.                      2.0: CWLS Log ASCII Standard - VERSION 2.0
WRAP.                       NO: One line per depth step
~Well Information Block
STRT.FT               555.0000: 
STOP.FT              1159.0000: 
STEP.FT                 0.2500: 
NULL.                -999.2500: 
COMP.          Pioneer Natural Resources: COMPANY
WELL.              Draco 31-21: WELL
FLD.           Purgatoire River: FIELD
LOC.           491' FNL & 2446' FEL: LOCATION
CNTY.               Las Animas: COUNTY
SRVC.                Patterson: SERVICE COMPANY
DATE.          Tue Jan 31 17:48:38 2006: LOG DATE
UWI.           05 071 08672 00: UNIQUE WELL ID
STAT.                 Colorado: STATE
~Curve Information Block
DEPT.FT            0 000 00 00: Depth
SN.Ohm-m                      : IEL Short Normal
SP.mV                         : IEL Spontaneous Potential
DIR.Ohm-m                     : IEL Induction Resistivity
GR.GAPI                       : Gamma Ray
~Parameter Information Block
~A  Depth        SN          SP         DIR          GR     
# ...
   856.5000     26.1214     -1.9992     24.4945     54.1119
   856.7500     26.4844     -2.2884     24.9669     54.3872
   857.0000     26.8963     -2.5569     25.3691     55.4589
   857.2500     27.3463     -2.7581     25.6484     56.1476
   857.5000     27.8130     -2.8420     25.7392     56.3777
   857.7500     28.2123     -2.7766     25.5694     55.9348
   858.0000     28.4783     -2.5598     25.0860     54.8775
   858.2500     28.6422     -2.2127     24.2905     54.4374
   858.5000     28.7259     -1.7667     23.2544     55.4185
   858.7500     28.6121     -1.2567     22.0958     57.8968
   859.0000     28.1096     -0.7140     20.9337     64.8139
   859.2500     27.0728     -0.1559     19.8506     71.1125
   859.5000     25.4551      0.4210     18.8833     81.5881
   859.7500     23.4166      1.0309     18.0328     88.4865
   860.0000     21.3418      1.6787     17.2806     97.9474
   860.2500     19.6086      2.3448     16.6011    103.3233
   860.5000     18.3761      2.9864     15.9699    109.4011
   860.7500     17.5655      3.5555     15.3705    112.0992
   861.0000     17.0000      4.0226     14.7976    114.8944
   861.2500     16.5818      4.3859     14.2561    116.3970
   861.5000     16.3085      4.6625     13.7547    118.1061
   861.7500     16.1906      4.8718     13.3005    118.6172
   862.0000     16.2045      5.0255     12.8996    118.2880
   862.2500     16.3097      5.1296     12.5589    117.3955
   862.5000     16.4462      5.1883     12.2859    115.0139
   862.7500     16.4766      5.2040     12.0844    112.7234
   863.0000     16.2737      5.1759     11.9508    108.5803
   863.2500     15.9165      5.1048     11.8748    105.7341
   863.5000     15.6316      5.0043     11.8421    102.1161
   863.7500     15.5239      4.9024     11.8386    100.6145
   864.0000     15.5286      4.8291     11.8514    100.4156
   864.2500     15.5839      4.8018     11.8687    101.7598
   864.5000     15.6582      4.8193     11.8802    105.5816
   864.7500     15.6771      4.8661     11.8811    108.9581
   865.0000     15.6112      4.9206     11.8753    114.6135
   865.2500     15.5346      4.9660     11.8771    118.1623
   865.5000     15.5074      4.9980     11.9076    121.3867
   865.7500     15.5136      5.0282     11.9870    121.1206
   866.0000     15.5082      5.0795     12.1277    116.8124
   866.2500     15.4637      5.1791     12.3318    112.2478
   866.5000     15.4193      5.3521     12.5925    104.9721
   866.7500     15.4850      5.6177     12.8981    100.4152
   867.0000     15.7684      5.9879     13.2368     93.4837
   867.2500     16.3060      6.4671     13.6020     88.1861
   867.5000     17.0640      7.0502     13.9974     78.9126
   867.7500     18.0200      7.7197     14.4384     72.3616
   868.0000     19.2271      8.4471     14.9488     63.8215
   868.2500     20.7555      9.2006     15.5493     60.2346
   868.5000     22.5599      9.9579     16.2434     59.2634
   868.7500     24.4028     10.7162     17.0061     61.1681
   869.0000     25.9608     11.4908     17.7836     65.4281
   869.2500     27.0341     12.3023     18.5059     67.7839
   869.5000     27.6219     13.1628     19.1058     70.2671
   869.7500     27.8179     14.0683     19.5323     72.3634
   870.0000     27.6698     15.0019     19.7547     78.2927
   870.2500     27.1710     15.9379     19.7607     84.0957
   870.5000     26.4049     16.8443     19.5569     92.9349
   870.7500     25.5428     17.6850     19.1736     96.9656
   871.0000     24.6783     18.4250     18.6662     98.8130
   871.2500     23.8128     19.0375     18.1045     97.9277
   871.5000     22.9437     19.5116     17.5500     95.7858
   871.7500     22.1006     19.8539     17.0367     95.0597
   872.0000     21.3578     20.0844     16.5660     96.2605
   872.2500     20.8054     20.2288     16.1208     98.5634
   872.5000     20.4747     20.3089     15.6881    102.8809
   872.7500     20.2963     20.3403     15.2741    105.2891
   873.0000     20.1692     20.3356     14.9020    107.5202
   873.2500     20.0850     20.3074     14.5945    108.4391
   873.5000     20.1018     20.2651     14.3574    109.5056
   873.7500     20.1901     20.2089     14.1780    109.8122
   874.0000     20.2335     20.1315     14.0413    109.2547
   874.2500     20.1723     20.0261     13.9504    108.4792
   874.5000     20.0605     19.8952     13.9322    107.6921
   874.7500     19.9726     19.7522     14.0192    107.6501
   875.0000     19.8882     19.6195     14.2222    107.7350
   875.2500     19.7310     19.5266     14.5146    107.3469
   875.5000     19.4997     19.5034     14.8426    105.5340
   875.7500     19.3048     19.5712     15.1549    103.4228
   876.0000     19.2638     19.7333     15.4299     98.8324
   876.2500     19.3499     19.9743     15.6760     94.7953
   876.5000     19.4199     20.2667     15.9088     87.6813
   876.7500     19.4049     20.5777     16.1310     82.9257
   877.0000     19.4102     20.8746     16.3321     77.3927
   877.2500     19.6499     21.1313     16.5037     75.5215
   877.5000     20.1938     21.3369     16.6515     75.8700
   877.7500     20.7660     21.4971     16.7897     77.9203
   878.0000     21.0260     21.6277     16.9238     82.3909
   878.2500     20.9572     21.7448     17.0365     85.1861
   878.5000     20.7145     21.8573     17.0931     87.5584
   878.7500     20.3577     21.9639     17.0640     87.8892
   879.0000     19.9769     22.0572     16.9434     88.0006
   879.2500     19.7528     22.1331     16.7494     88.8513
   879.5000     19.7859     22.1944     16.5107     91.8422
   879.7500     20.0548     22.2467     16.2564     94.4288
   880.0000     20.4686     22.2909     16.0130     97.7216
   880.2500     20.9085     22.3220     15.7988     99.0520
   880.5000     21.2659     22.3320     15.6169    100.2228
   880.7500     21.4740     22.3135     15.4541    101.1672
   881.0000     21.5541     22.2603     15.2934    103.5865
   881.2500     21.5757     22.1700     15.1289    105.6594
   881.5000     21.5323     22.0500     14.9673    108.2284
   881.7500     21.3656     21.9176     14.8160    108.6973
   882.0000     21.1165     21.7933     14.6720    106.4802
   882.2500     20.8102     21.6906     14.5237    103.1945
   882.5000     20.2558     21.6108     14.3634     97.2472
   882.7500     19.3347     21.5422     14.1973     93.8176
   883.0000     18.3126     21.4642     14.0445     90.5696
   883.2500     17.5576     21.3526     13.9250     89.6782
   883.5000     17.1747     21.1897     13.8472     90.0891
   883.7500     17.0786     20.9714     13.8013     91.5222
   884.0000     17.1713     20.7058     13.7627     94.7620
   884.2500     17.2854     20.4042     13.7055     96.5400
   884.5000     17.1990     20.0733     13.6151     96.4746
   884.7500     16.8710     19.7141     13.4954     94.2803
   885.0000     16.5084     19.3280     13.3619     89.5434
   885.2500     16.3190     18.9248     13.2317     87.0713
   885.5000     16.2960     18.5212     13.1139     86.1443
   885.7500     16.2843     18.1297     13.0087     87.2331
   886.0000     16.1682     17.7459     12.9120     89.8791
   886.2500     15.9720     17.3522     12.8190     91.4699
   886.5000     15.7955     16.9345     12.7265     93.0007
   886.7500     15.6449     16.4984     12.6319     93.3603
   887.0000     15.4052     16.0668     12.5331     92.5006
   887.2500     15.0427     15.6654     12.4292     90.6943
   887.5000     14.7073     15.3095     12.3216     86.3358
   887.7500     14.5424     14.9998     12.2173     83.0454
   888.0000     14.5482     14.7247     12.1311     78.9564
   888.2500     14.6661     14.4662     12.0844     77.1513
   888.5000     14.8082     14.2062     12.0998     75.6255
   888.7500     14.8736     13.9329     12.1927     75.2788
   889.0000     14.8779     13.6412     12.3676     75.8625
   889.2500     14.9494     13.3297     12.6191     76.8715
   889.5000     15.1920     12.9993     12.9357     78.3566
   889.7500     15.6236     12.6559     13.3047     78.5569
