~Version Information
VERS.                      2.0: CWLS Log ASCII Standard - VERSION 2.0
WRAP.                       NO: One line per depth step
~Well Information Block
STRT.FT                10.0000: 
STOP.FT              1665.0000: 
STEP.FT                 0.1000: 
NULL.                -999.2500: 
COMP.          Pioneer Natural Resources: COMPANY
WELL.          Stock Canyon 34-33: WELL
FLD.           Purgatorie River: FIELD
LOC.           980' FSL & 2191' FEL: LOCATION
PROV.                 Colorado: PROVINCE
CNTY.               Las Animas: COUNTRY
SRVC.                Patterson: SERVICE COMPANY
DATE.          Mon Dec 05 10:33:50 2005: LOG DATE
UWI.                          : UNIQUE WELL ID
~Curve Information Block
DEPT.FT            0 000 00 00: Depth
DCAL.in                       : CDL Caliper
RHOB.g/cc                     : CDL Bulk Density
RHOC.g/cc                     : CDL Density Correction
DPOR.pu                       : CDL Density Porosity
GR.GAPI                       : Gamma Ray
NPOR.pu                       : Neutron Porosity
~Parameter Information Block
~A  Depth       DCAL        RHOB        RHOC        DPOR         GR         NPOR    
# ...
  1651.6000      7.7068      2.4233      0.0447     13.7383     56.6268   -999.2500
  1651.7000      7.7068      2.4559      0.0710     11.7638     30.4358   -999.2500
  1651.8000      7.7043      2.4694      0.0754     10.9476      9.9575   -999.2500
  1651.9000      7.7043      2.4570      0.0289     11.6968      1.8517   -999.2500
  1652.0000      7.7060      2.4479      0.0235     12.2495      0.1886   -999.2500
  1652.1000      7.7060      2.4570      0.0706     11.6992      0.0101   -999.2500
  1652.2000      7.7060      2.4746      0.0598     10.6282      0.0000   -999.2500
  1652.3000      7.7073      2.4934      0.0728      9.4898   -999.2500   -999.2500
  1652.4000      7.7073      2.5139      0.0672      8.2460   -999.2500   -999.2500
  1652.5000      7.7242      2.5367      0.0584      6.8693   -999.2500   -999.2500
  1652.6000      7.7242      2.5518      0.1184      5.9527   -999.2500   -999.2500
  1652.7000      7.7242      2.5546      0.0546      5.7834   -999.2500   -999.2500
  1652.8000      7.7410      2.5581      0.0841      5.5673   -999.2500   -999.2500
  1652.9000      7.7410      2.5695      0.0780      4.8799   -999.2500   -999.2500
  1653.0000      7.7530      2.5772      0.1419      4.4111   -999.2500   -999.2500
  1653.1000      7.7530      2.5687      0.0982      4.9275   -999.2500   -999.2500
  1653.2000      7.7530      2.5516      0.0609      5.9616   -999.2500   -999.2500
  1653.3000      7.6492      2.5422      0.0509      6.5361   -999.2500   -999.2500
  1653.4000      7.6492      2.5463      0.0562      6.2844   -999.2500   -999.2500
  1653.5000      7.6318      2.5622      0.0399      5.3190   -999.2500   -999.2500
  1653.6000      7.6318      2.5802      0.0829      4.2283   -999.2500   -999.2500
  1653.7000      7.6318      2.5846      0.1176      3.9646   -999.2500   -999.2500
  1653.8000      7.6377      2.5777      0.0593      4.3805   -999.2500   -999.2500
  1653.9000      7.6377      2.5742      0.0790      4.5957   -999.2500   -999.2500
  1654.0000      7.6242      2.5730      0.1048      4.6663   -999.2500   -999.2500
  1654.1000      7.6242      2.5701      0.1003      4.8435   -999.2500   -999.2500
  1654.2000      7.6242      2.5637      0.1341      5.2304   -999.2500   -999.2500
  1654.3000      7.6147      2.5483      0.0889      6.1608   -999.2500   -999.2500
  1654.4000      7.6147      2.5271      0.0720      7.4479   -999.2500   -999.2500
  1654.5000      7.6143      2.5092      0.0411      8.5363   -999.2500   -999.2500
  1654.6000      7.6143      2.4991      0.0925      9.1464   -999.2500   -999.2500
  1654.7000      7.6143      2.5041      0.0323      8.8398   -999.2500   -999.2500
  1654.8000      7.5901      2.5303      0.1095      7.2517   -999.2500   -999.2500
  1654.9000      7.5901      2.5665      0.1055      5.0617   -999.2500   -999.2500
  1655.0000      7.5832      2.5981      0.1608      3.1425   -999.2500   -999.2500
  1655.1000      7.5832      2.6197      0.1865      1.8354   -999.2500   -999.2500
  1655.2000      7.5832      2.6247      0.2123      1.5362   -999.2500   -999.2500
  1655.3000      7.5545      2.6059      0.1951      2.6755   -999.2500   -999.2500
  1655.4000      7.5545      2.5677      0.1529      4.9856   -999.2500   -999.2500
  1655.5000      7.5326      2.5297      0.0935      7.2915   -999.2500   -999.2500
  1655.6000      7.5326      2.5103      0.0813      8.4688   -999.2500   -999.2500
  1655.7000      7.5326      2.5097      0.0676      8.5034   -999.2500   -999.2500
  1655.8000      7.5538      2.5200      0.0533      7.8795   -999.2500   -999.2500
  1655.9000      7.5538      2.5335      0.0747      7.0625   -999.2500   -999.2500
  1656.0000      7.6118      2.5403      0.0762      6.6462   -999.2500   -999.2500
  1656.1000      7.6118      2.5385      0.0920      6.7559   -999.2500   -999.2500
  1656.2000      7.6118      2.5331      0.1041      7.0820   -999.2500   -999.2500
  1656.3000      7.6269      2.5257      0.0876      7.5319   -999.2500   -999.2500
  1656.4000      7.6269      2.5077      0.1378      8.6259   -999.2500   -999.2500
  1656.5000      7.6301      2.4742      0.0424     10.6539   -999.2500   -999.2500
  1656.6000      7.6301      2.4405      0.0276     12.6992   -999.2500   -999.2500
  1656.7000      7.6301      2.4174      0.0483     14.0997   -999.2500   -999.2500
  1656.8000      7.6244      2.4050      0.0158     14.8478   -999.2500   -999.2500
  1656.9000      7.6244      2.4055      0.0389     14.8211   -999.2500   -999.2500
  1657.0000      7.6244      2.4147      0.0612     14.2591   -999.2500   -999.2500
  1657.1000      7.6244      2.4309      0.0633     13.2817   -999.2500   -999.2500
  1657.2000      7.6244      2.4556      0.0555     11.7788   -999.2500   -999.2500
  1657.3000      7.6304      2.4763      0.1238     10.5259   -999.2500   -999.2500
  1657.4000      7.6304      2.4792      0.1081     10.3494   -999.2500   -999.2500
  1657.5000      7.6309      2.4745      0.0745     10.6364   -999.2500   -999.2500
  1657.6000      7.6309      2.4793      0.0797     10.3473   -999.2500   -999.2500
  1657.7000      7.6309      2.4934      0.1152      9.4915   -999.2500   -999.2500
  1657.8000      7.6351      2.5013      0.1084      9.0128   -999.2500   -999.2500
  1657.9000      7.6351      2.4941      0.0717      9.4470   -999.2500   -999.2500
  1658.0000      7.6300      2.4768      0.0575     10.4986   -999.2500   -999.2500
  1658.1000      7.6300      2.4581      0.0165     11.6308   -999.2500   -999.2500
  1658.2000      7.6300      2.4456      0.0378     12.3872   -999.2500   -999.2500
  1658.3000      7.6331      2.4333      0.0767     13.1342   -999.2500   -999.2500
  1658.4000      7.6331      2.4118      0.0631     14.4344   -999.2500   -999.2500
  1658.5000      7.6395      2.3925     -0.0039     15.6075   -999.2500   -999.2500
  1658.6000      7.6395      2.3883      0.0227     15.8613   -999.2500   -999.2500
  1658.7000      7.6395      2.3928      0.0342     15.5860   -999.2500   -999.2500
  1658.8000      7.6378      2.3949      0.0789     15.4580   -999.2500   -999.2500
  1658.9000      7.6378      2.3946      0.0135     15.4792   -999.2500   -999.2500
  1659.0000      7.6338      2.4006      0.0493     15.1174   -999.2500   -999.2500
  1659.1000      7.6338      2.4117      0.0510     14.4444   -999.2500   -999.2500
  1659.2000      7.6338      2.4233      0.0644     13.7399   -999.2500   -999.2500
  1659.3000      7.6286      2.4372      0.0582     12.8960   -999.2500   -999.2500
  1659.4000      7.6286      2.4488      0.1111     12.1953   -999.2500   -999.2500
  1659.5000      7.6304      2.4497      0.0730     12.1388   -999.2500   -999.2500
  1659.6000      7.6304      2.4394      0.0650     12.7608   -999.2500   -999.2500
  1659.7000      7.6304      2.4224      0.0811     13.7930   -999.2500   -999.2500
  1659.8000      7.6253      2.4317      0.0046     13.2310   -999.2500   -999.2500
  1659.9000      7.6253      2.5231      0.0538      7.6879   -999.2500   -999.2500
  1660.0000      7.5949      2.5781      0.0695      4.3605   -999.2500   -999.2500
  1660.1000      7.5949      2.1724      0.5006     28.9480   -999.2500   -999.2500
  1660.2000      7.5949      1.2379      0.0200     85.5810   -999.2500   -999.2500
  1660.3000      6.9590      0.4205      0.0200    135.1233   -999.2500   -999.2500
  1660.4000      6.9590      0.0799   -999.2500    155.7632   -999.2500   -999.2500
  1660.5000      3.2458      0.0082   -999.2500    160.1067   -999.2500   -999.2500
  1660.6000      3.2458      0.0004   -999.2500    160.5789   -999.2500   -999.2500
  1660.7000      3.2458      0.0000   -999.2500    160.6061   -999.2500   -999.2500
  1660.8000      2.7456      0.0000   -999.2500    160.6061   -999.2500   -999.2500
  1660.9000      2.7456   -999.2500   -999.2500   -999.2500   -999.2500   -999.2500
  1661.0000   -999.2500   -999.2500   -999.2500   -999.2500   -999.2500   -999.2500
  1661.1000   -999.2500   -999.2500   -999.2500   -999.2500   -999.2500   -999.2500
