~Version Information
VERS.                      2.0: CWLS Log ASCII Standard - VERSION 2.0
WRAP.                       NO: One line per depth step
~Well Information Block
STRT.FT                10.0000: 
STOP.FT               715.0000: 
STEP.FT                 0.1000: 
NULL.                -999.2500: 
COMP.          Pioneer Natural Resources: COMPANY
WELL.           Belvedere 14-7: WELL
FLD.           Purgatorie River: FIELD
LOC.           786' FSL & 1283' FWL: LOCATION
PROV.                 Colorado: PROVINCE
CNTY.               Las Animas: COUNTRY
SRVC.                Patterson: SERVICE COMPANY
DATE.          Mon Nov 28 07:30:54 2005: LOG DATE
UWI.           05-071-08557               : UNIQUE WELL ID
~Curve Information Block
DEPT.FT            0 000 00 00: Depth
DCAL.in                       : CDL Caliper
RHOB.g/cc                     : CDL Bulk Density
RHOC.g/cc                     : CDL Density Correction
DPOR.pu                       : CDL Density Porosity
GR.GAPI                       : Gamma Ray
NPOR.pu                       : Neutron Porosity
~Parameter Information Block
~A  Depth       DCAL        RHOB        RHOC        DPOR         GR         NPOR    
# ...
   701.2000      7.8159      2.5095     -0.0103      8.5140     96.8444   -999.2500
   701.3000      7.8201      2.5074     -0.0482      8.6446    102.3562   -999.2500
   701.4000      7.8201      2.5410      0.0419      6.6068    105.7340   -999.2500
   701.5000      7.8202      2.5751      0.0413      4.5391     99.2948   -999.2500
   701.6000      7.8202      2.5910      0.0501      3.5766     74.6124   -999.2500
   701.7000      7.8202      2.6009      0.0692      2.9750     38.7006   -999.2500
   701.8000      7.8362      2.6112      0.0490      2.3499     12.3610   -999.2500
   701.9000      7.8362      2.6189      0.0793      1.8863      2.2658   -999.2500
   702.0000      7.7985      2.6251      0.0946      1.5116      0.2289   -999.2500
   702.1000      7.7985      2.6308      0.0902      1.1624      0.0122   -999.2500
   702.2000      7.7985      2.6307      0.1161      1.1671      0.0000   -999.2500
   702.3000      7.7858      2.6193      0.0954      1.8576   -999.2500   -999.2500
   702.4000      7.7858      2.6005      0.0785      3.0016   -999.2500   -999.2500
   702.5000      7.8021      2.5844      0.0637      3.9773   -999.2500   -999.2500
   702.6000      7.8021      2.5837      0.0212      4.0152   -999.2500   -999.2500
   702.7000      7.8021      2.5997      0.0783      3.0494   -999.2500   -999.2500
   702.8000      7.8295      2.6161      0.0922      2.0572   -999.2500   -999.2500
   702.9000      7.8295      2.6145      0.1158      2.1491   -999.2500   -999.2500
   703.0000      7.7946      2.5919      0.0599      3.5201   -999.2500   -999.2500
   703.1000      7.7946      2.5722      0.0127      4.7130   -999.2500   -999.2500
   703.2000      7.7946      2.5692      0.0853      4.8967   -999.2500   -999.2500
   703.3000      7.7979      2.5667      0.0789      5.0508   -999.2500   -999.2500
   703.4000      7.7979      2.5638      0.0428      5.2272   -999.2500   -999.2500
   703.5000      7.7943      2.5748      0.0502      4.5603   -999.2500   -999.2500
   703.6000      7.7943      2.5915      0.0930      3.5472   -999.2500   -999.2500
   703.7000      7.7943      2.5976      0.0696      3.1733   -999.2500   -999.2500
   703.8000      7.7883      2.5963      0.0859      3.2545   -999.2500   -999.2500
   703.9000      7.7883      2.5960      0.0713      3.2721   -999.2500   -999.2500
   704.0000      7.7858      2.5963      0.0922      3.2537   -999.2500   -999.2500
   704.1000      7.7858      2.5934      0.0934      3.4313   -999.2500   -999.2500
   704.2000      7.7858      2.5914      0.0506      3.5494   -999.2500   -999.2500
   704.3000      7.7892      2.5974      0.0813      3.1859   -999.2500   -999.2500
   704.4000      7.7892      2.6086      0.0903      2.5090   -999.2500   -999.2500
   704.5000      7.8038      2.6166      0.0803      2.0224   -999.2500   -999.2500
   704.6000      7.8038      2.6210      0.0533      1.7554   -999.2500   -999.2500
   704.7000      7.8038      2.6257      0.0901      1.4718   -999.2500   -999.2500
   704.8000      7.8259      2.6261      0.0864      1.4465   -999.2500   -999.2500
   704.9000      7.8259      2.6189      0.0620      1.8835   -999.2500   -999.2500
   705.0000      7.8192      2.6081      0.0953      2.5407   -999.2500   -999.2500
   705.1000      7.8192      2.5997      0.0481      3.0501   -999.2500   -999.2500
   705.2000      7.8192      2.6031      0.0672      2.8439   -999.2500   -999.2500
   705.3000      7.8081      2.6171      0.1182      1.9929   -999.2500   -999.2500
   705.4000      7.8081      2.6250      0.0940      1.5169   -999.2500   -999.2500
   705.5000      7.8090      2.6141      0.0723      2.1745   -999.2500   -999.2500
   705.6000      7.8090      2.5962      0.0288      3.2593   -999.2500   -999.2500
   705.7000      7.8090      2.5948      0.0403      3.3445   -999.2500   -999.2500
   705.8000      7.8028      2.6101      0.0914      2.4153   -999.2500   -999.2500
   705.9000      7.8028      2.6250      0.0954      1.5162   -999.2500   -999.2500
   706.0000      7.7934      2.6368      0.1134      0.7975   -999.2500   -999.2500
   706.1000      7.7934      2.6489      0.1292      0.0660   -999.2500   -999.2500
   706.2000      7.7934      2.6573      0.0783     -0.4439   -999.2500   -999.2500
   706.3000      7.7558      2.6609      0.0959     -0.6616   -999.2500   -999.2500
   706.4000      7.7558      2.6648      0.0735     -0.8957   -999.2500   -999.2500
   706.5000      7.7749      2.6778      0.0889     -1.6870   -999.2500   -999.2500
   706.6000      7.7749      2.6888      0.1130     -2.3537   -999.2500   -999.2500
   706.7000      7.7749      2.6691      0.1172     -1.1580   -999.2500   -999.2500
   706.8000      7.7832      2.6256      0.0580      1.4807   -999.2500   -999.2500
   706.9000      7.7832      2.5959      0.0095      3.2789   -999.2500   -999.2500
   707.0000      7.7831      2.5894      0.0586      3.6737   -999.2500   -999.2500
   707.1000      7.7831      2.5853      0.0279      3.9242   -999.2500   -999.2500
   707.2000      7.7831      2.5785      0.0366      4.3310   -999.2500   -999.2500
   707.3000      7.7761      2.5786      0.0351      4.3246   -999.2500   -999.2500
   707.4000      7.7761      2.5893      0.0667      3.6778   -999.2500   -999.2500
   707.5000      7.7707      2.6111      0.0505      2.3604   -999.2500   -999.2500
   707.6000      7.7707      2.6375      0.1042      0.7586   -999.2500   -999.2500
   707.7000      7.7707      2.6563      0.0968     -0.3844   -999.2500   -999.2500
   707.8000      7.7820      2.6565      0.1212     -0.3965   -999.2500   -999.2500
   707.9000      7.7820      2.6342      0.0767      0.9573   -999.2500   -999.2500
   708.0000      7.7838      2.6068      0.0290      2.6182   -999.2500   -999.2500
   708.1000      7.7838      2.5915      0.0314      3.5464   -999.2500   -999.2500
   708.2000      7.7838      2.5819      0.0559      4.1292   -999.2500   -999.2500
   708.3000      7.7989      2.5792      0.0273      4.2879   -999.2500   -999.2500
   708.4000      7.7989      2.5942      0.0787      3.3810   -999.2500   -999.2500
   708.5000      7.7918      2.6131      0.0768      2.2340   -999.2500   -999.2500
   708.6000      7.7918      2.6165      0.0685      2.0285   -999.2500   -999.2500
   708.7000      7.7918      2.6053      0.0691      2.7100   -999.2500   -999.2500
   708.8000      7.7903      2.5950      0.0195      3.3350   -999.2500   -999.2500
   708.9000      7.7903      2.5972      0.0488      3.1976   -999.2500   -999.2500
   709.0000      7.7862      2.6082      0.0669      2.5326   -999.2500   -999.2500
   709.1000      7.7862      2.6195      0.1020      1.8488   -999.2500   -999.2500
   709.2000      7.7862      2.6324      0.0659      1.0640   -999.2500   -999.2500
   709.3000      7.7724      2.6531      0.0973     -0.1892   -999.2500   -999.2500
   709.4000      7.7724      2.6745      0.1000     -1.4873   -999.2500   -999.2500
   709.5000      7.7760      2.6807      0.1421     -1.8593   -999.2500   -999.2500
   709.6000      7.7760      2.6654      0.1199     -0.9305   -999.2500   -999.2500
   709.7000      7.7760      2.6433      0.0880      0.4084   -999.2500   -999.2500
   709.8000      7.7676      2.6547      0.0489     -0.2858   -999.2500   -999.2500
   709.9000      7.7676      2.7418      0.0756     -5.5642   -999.2500   -999.2500
   710.0000      7.7875      2.7699      0.0854     -7.2653   -999.2500   -999.2500
   710.1000      7.7875      2.3080      0.4774     20.7300   -999.2500   -999.2500
   710.2000      7.7875      1.3053      0.0000     81.4958   -999.2500   -999.2500
   710.3000      7.2613      0.4414      0.0000    133.8522   -999.2500   -999.2500
   710.4000      7.2613      0.0837   -999.2500    155.5337   -999.2500   -999.2500
   710.5000      3.2842      0.0086   -999.2500    160.0837   -999.2500   -999.2500
   710.6000      3.2842      0.0005   -999.2500    160.5777   -999.2500   -999.2500
   710.7000      3.2842      0.0000   -999.2500    160.6061   -999.2500   -999.2500
