~Version Information
VERS.                      2.0: CWLS Log ASCII Standard - VERSION 2.0
WRAP.                       NO: One line per depth step
~Well Information Block
STRT.FT               330.0000: 
STOP.FT              1923.5000: 
STEP.FT                 0.1000: 
NULL.                -999.2500: 
COMP.          Pioneer Natural Resources: COMPANY
WELL.          State Wildlife 32-16 Tr: WELL
FLD.           Purgatoire River: FIELD
LOC.           1838' FNL & 1850' FEL: LOCATION
STAT.                 Colorado: State
CNTY.               Las Animas: COUNTY
CTRY. USA : Country
SECT. 16 : Section
TOWN. 32S : Township
RANG. 66W : Range
SRVC.                Patterson: SERVICE COMPANY
DATE.          Mon Nov 14 07:20:48 2005: LOG DATE
API.           05 071 08568 00: UNIQUE WELL ID
~Curve Information Block
DEPT.FT            0 000 00 00: Depth
DCAL.in                       : CDL Caliper
RHOB.g/cc                     : CDL Bulk Density
RHOC.g/cc                     : CDL Density Correction
DPOR.pu                       : CDL Density Porosity
GR.GAPI                       : Gamma Ray
NPOR.pu                       : Neutron Porosity
~Parameter Information Block
~A  Depth       DCAL        RHOB        RHOC        DPOR         GR         NPOR    
# ...
  1482.0000      7.9632      2.6208     -0.0028      1.7714    125.7020     26.2859
  1482.1000      7.9632      2.6219      0.0051      1.7044    128.7134     26.4262
  1482.2000      7.9632      2.6118     -0.0055      2.3150    130.1056     25.7554
  1482.3000      7.9747      2.6065     -0.0097      2.6373    128.8671     25.1649
  1482.4000      7.9747      2.6202      0.0374      1.8058    128.1484     25.3100
  1482.5000      7.9684      2.6460      0.0479      0.2417    131.7037     25.7220
  1482.6000      7.9684      2.6724      0.0789     -1.3568    138.6494     25.8573
  1482.7000      7.9684      2.6841      0.0750     -2.0683    141.6513     25.7471
  1482.8000      7.9574      2.6720      0.0425     -1.3317    133.8321     25.6892
  1482.9000      7.9574      2.6484     -0.0123      0.0959    120.6106     26.0079
  1483.0000      7.9536      2.6248      0.0148      1.5250    112.9040     26.4956
  1483.1000      7.9536      2.5960     -0.0208      3.2728    112.5470     26.4346
  1483.2000      7.9536      2.5577      0.0196      5.5955    115.9681     25.7111
  1483.3000      7.9616      2.5210     -0.0781      7.8177    120.9675     25.0054
  1483.4000      7.9616      2.5058     -0.0500      8.7372    126.9715     24.8309
  1483.5000      7.9571      2.5112      0.0063      8.4101    131.8725     24.8183
  1483.6000      7.9571      2.5220      0.0338      7.7563    132.8511     24.4883
  1483.7000      7.9571      2.5347      0.0030      6.9879    130.9971     24.0071
  1483.8000      7.9730      2.5469      0.0718      6.2471    130.7942     24.0266
  1483.9000      7.9730      2.5529      0.0812      5.8823    131.9701     24.5616
  1484.0000      7.9910      2.5613      0.0590      5.3776    130.3362     24.8567
  1484.1000      7.9910      2.5832      0.1285      4.0501    128.1269     24.8615
  1484.2000      7.9910      2.6183      0.1164      1.9200    130.6367     25.2097
  1484.3000      7.9392      2.6559      0.1032     -0.3584    134.5890     25.9837
  1484.4000      7.9392      2.6723      0.1307     -1.3487    134.0580     26.6799
  1484.5000      7.8969      2.6530      0.0831     -0.1789    131.0759     27.0715
  1484.6000      7.8969      2.6191      0.0160      1.8709    129.0646     27.4612
  1484.7000      7.8969      2.6005     -0.0252      2.9985    125.6421     28.0684
  1484.8000      7.8990      2.5990      0.0185      3.0922    119.4940     28.5382
  1484.9000      7.8990      2.6035      0.0021      2.8207    114.9819     28.6763
  1485.0000      7.9412      2.6111      0.0512      2.3549    113.2806     28.6612
  1485.1000      7.9412      2.6227      0.0763      1.6537    108.9464     28.4626
  1485.2000      7.9412      2.6435      0.0628      0.3953    101.7617     28.3068
  1485.3000      7.9531      2.6741      0.0933     -1.4580     98.2746     28.5100
  1485.4000      7.9531      2.6935      0.1132     -2.6337    101.5945     28.7491
  1485.5000      7.9177      2.6831      0.1242     -2.0032    107.7175     28.8164
  1485.6000      7.9177      2.6557      0.0984     -0.3450    110.4589     29.1394
  1485.7000      7.9177      2.6320      0.1058      1.0883    109.1130     29.4107
  1485.8000      7.9128      2.6093      0.1257      2.4654    108.3918     28.8242
  1485.9000      7.9128      2.5837      0.0452      4.0208    111.6668     27.7089
  1486.0000      7.9026      2.5682      0.0288      4.9577    116.9407     26.7065
  1486.1000      7.9026      2.5710      0.0322      4.7870    123.0984     25.6651
  1486.2000      7.9026      2.5784      0.0716      4.3408    130.5658     24.4746
  1486.3000      7.8944      2.5780      0.0212      4.3615    133.2547     23.6647
  1486.4000      7.8944      2.5785      0.0629      4.3347    128.1754     23.5486
  1486.5000      7.9169      2.5810      0.0044      4.1824    123.6586     23.9348
  1486.6000      7.9169      2.5722      0.0572      4.7135    124.6492     24.5155
  1486.7000      7.9169      2.5503      0.0150      6.0449    125.1290     24.9973
  1486.8000      7.9285      2.5280      0.0666      7.3916    122.7189     25.1163
  1486.9000      7.9285      2.5134      0.0347      8.2789    125.3973     24.7641
  1487.0000      7.9153      2.5045      0.0391      8.8205    136.0688     24.3852
  1487.1000      7.9153      2.4982      0.0096      9.2012    147.1418     24.6232
  1487.2000      7.9153      2.4984      0.0403      9.1880    151.7757     25.2206
  1487.3000      7.9046      2.5146      0.0242      8.2058    151.5623     25.4463
  1487.4000      7.9046      2.5449      0.0659      6.3676    151.8979     25.1547
  1487.5000      7.8846      2.5755      0.1127      4.5126    157.1672     24.6557
  1487.6000      7.8846      2.6038      0.0844      2.8007    164.0789     24.5386
  1487.7000      7.8846      2.6299      0.1319      1.2157    165.0893     25.0599
  1487.8000      7.8842      2.6348      0.1467      0.9238    161.9731     25.5235
  1487.9000      7.8842      2.6070      0.1078      2.6034    158.4994     25.4923
  1488.0000      7.8791      2.5706      0.0672      4.8102    154.3710     25.3349
  1488.1000      7.8791      2.5514      0.0695      5.9754    150.7393     25.1635
  1488.2000      7.8791      2.5501      0.1185      6.0563    151.1584     24.8193
  1488.3000      7.8719      2.5520      0.1009      5.9408    156.8794     24.2147
  1488.4000      7.8719      2.5416      0.0865      6.5685    161.9108     23.5631
  1488.5000      7.8963      2.5123      0.0336      8.3456    160.5945     23.1097
  1488.6000      7.8963      2.4674      0.0033     11.0661    156.0398     22.7334
  1488.7000      7.8963      2.4190     -0.0371     14.0023    154.5380     22.3992
  1488.8000      7.9568      2.3800      0.0028     16.3635    156.3999     22.2618
  1488.9000      7.9568      2.3475      0.0224     18.3347    156.7945     22.0735
  1489.0000      7.9890      2.3119      0.0025     20.4889    154.0775     21.4669
  1489.1000      7.9890      2.2743      0.0324     22.7679    151.2521     20.6881
  1489.2000      7.9890      2.2358      0.0085     25.1056    148.5652     20.4384
  1489.3000      8.0169      2.1946      0.0324     27.6016    144.3485     20.8366
  1489.4000      8.0169      2.1521      0.0670     30.1766    141.7476     21.5269
  1489.5000      7.9737      2.1268      0.0316     31.7086    142.2863     22.3235
  1489.6000      7.9737      2.1482      0.0744     30.4123    142.7547     23.1748
  1489.7000      7.9737      2.2122      0.2201     26.5343    142.3391     23.9468
  1489.8000      7.9603      2.2921      0.1769     21.6889    143.1613     24.4516
  1489.9000      7.9603      2.3756      0.2941     16.6313    146.0915     24.7979
  1490.0000      7.9378      2.4482      0.3304     12.2328    148.3670     25.1197
  1490.1000      7.9378      2.4994      0.3390      9.1250    146.0767     25.4706
  1490.2000      7.9378      2.5387      0.2351      6.7435    142.9252     26.0096
  1490.3000      7.8519      2.5716      0.2380      4.7498    145.7699     26.7062
  1490.4000      7.8519      2.5867      0.1923      3.8378    154.2182     27.0988
  1490.5000      7.8591      2.5822      0.1299      4.1073    163.9245     26.8236
  1490.6000      7.8591      2.5714      0.0760      4.7642    170.8459     25.9309
  1490.7000      7.8591      2.5557      0.1002      5.7167    173.2694     24.7031
  1490.8000      7.8874      2.5324     -0.0042      7.1269    171.5187     23.4504
  1490.9000      7.8874      2.5067      0.0236      8.6829    165.9101     22.4165
  1491.0000      7.9321      2.4636      0.0550     11.2969    159.6425     21.7004
  1491.1000      7.9321      2.3894     -0.0073     15.7970    155.5991     21.1534
  1491.2000      7.9321      2.3122     -0.0323     20.4738    153.1809     20.3860
  1491.3000      7.9427      2.2594     -0.0312     23.6702    153.5058     19.3780
  1491.4000      7.9427      2.2189     -0.0361     26.1274    155.4669     18.5042
  1491.5000      7.9554      2.1704     -0.0348     29.0685    155.2529     17.8630
