~Version Information
VERS.                      2.0: CWLS Log ASCII Standard - VERSION 2.0
WRAP.                       NO: One line per depth step
~Well Information Block
STRT.FT               420.0000: 
STOP.FT              2888.7500: 
STEP.FT                 0.2500: 
NULL.                -999.2500: 
COMP.          Pioneer Natural Resources: COMPANY
WELL.          Touchstone 11-32: WELL
FLD.           Purgatoire River: FIELD
LOC.           853' FNL & 407' FWL--: LOCATION
CNTY.               Las Animas: COUNTY
SRVC.                Patterson: SERVICE COMPANY
DATE.          Thu Feb 23 14:02:36 2006: LOG DATE
UWI.           05 071 08564 00: UNIQUE WELL ID
STAT.                 Colorado: STATE
~Curve Information Block
DEPT.FT            0 000 00 00: Depth
SN.Ohm-m                      : IEL Short Normal
SP.mV                         : IEL Spontaneous Potential
DIR.Ohm-m                     : IEL Induction Resistivity
GR.GAPI                       : Gamma Ray
~Parameter Information Block
~A  Depth        SN          SP         DIR          GR     
# ...
  2229.0000     10.7559      0.2627      9.3814    134.8319
  2229.2500     11.4712     -0.2101      9.7332    128.5261
  2229.5000     12.2731     -0.7508     10.1323    120.1814
  2229.7500     13.0729     -1.3175     10.5657    115.7122
  2230.0000     13.7612     -1.8697     11.0096    110.6133
  2230.2500     14.2649     -2.3726     11.4332    108.2980
  2230.5000     14.5829     -2.8015     11.8068    106.8977
  2230.7500     14.7697     -3.1438     12.1097    107.8995
  2231.0000     14.8865     -3.3988     12.3346    113.3169
  2231.2500     14.9637     -3.5765     12.4872    119.5145
  2231.5000     14.9932     -3.6945     12.5810    130.6055
  2231.7500     14.9414     -3.7746     12.6320    137.0880
  2232.0000     14.7690     -3.8390     12.6543    142.3112
  2232.2500     14.4537     -3.9083     12.6602    142.1782
  2232.5000     14.0112     -3.9993     12.6644    137.7188
  2232.7500     13.5109     -4.1251     12.6876    133.2894
  2233.0000     13.0738     -4.2961     12.7570    126.8435
  2233.2500     12.8494     -4.5217     12.8998    123.6771
  2233.5000     12.9780     -4.8116     13.1364    121.1319
  2233.7500     13.5555     -5.1780     13.4746    120.2820
  2234.0000     14.6096     -5.6353     13.9094    118.0770
  2234.2500     16.0874     -6.1991     14.4258    114.8964
  2234.5000     17.8582     -6.8837     15.0019    107.6041
  2234.7500     19.7403     -7.6972     15.6136    102.1976
  2235.0000     21.5493     -8.6357     16.2394     95.4515
  2235.2500     23.1413     -9.6774     16.8648     92.3677
  2235.5000     24.4315    -10.7785     17.4833     89.1879
  2235.7500     25.3862    -11.8722     18.0897     87.3523
  2236.0000     25.9986    -12.8729     18.6671     84.5088
  2236.2500     26.2577    -13.6855     19.1734     82.7578
  2236.5000     26.1308    -14.2178     19.5355     80.8889
  2236.7500     25.5815    -14.3957     19.6591     80.1803
  2237.0000     24.6213    -14.1767     19.4589     79.5305
  2237.2500     23.3480    -13.5583     18.9033     79.2376
  2237.5000     21.9273    -12.5802     18.0432     79.5215
  2237.7500     20.5248    -11.3194     16.9963     80.9450
  2238.0000     19.2421     -9.8780     15.8957     86.2121
  2238.2500     18.1038     -8.3679     14.8405     91.8035
  2238.5000     17.0893     -6.8941     13.8788    101.3070
  2238.7500     16.1759     -5.5416     13.0198    106.6941
  2239.0000     15.3592     -4.3663     12.2565    111.6800
  2239.2500     14.6484     -3.3924     11.5827    113.1614
  2239.5000     14.0532     -2.6158     11.0000    114.0026
  2239.7500     13.5775     -2.0113     10.5164    114.3045
  2240.0000     13.2183     -1.5417     10.1408    115.1160
  2240.2500     12.9660     -1.1670      9.8785    116.3783
  2240.5000     12.8035     -0.8510      9.7284    119.8391
  2240.7500     12.7093     -0.5657      9.6822    122.5904
  2241.0000     12.6621     -0.2929      9.7249    124.7639
  2241.2500     12.6454     -0.0230      9.8373    123.6087
  2241.5000     12.6485      0.2467      9.9971    118.3829
  2241.7500     12.6687      0.5147     10.1817    114.1804
  2242.0000     12.7131      0.7764     10.3711    109.5426
  2242.2500     12.7976      1.0251     10.5519    108.1761
  2242.5000     12.9410      1.2515     10.7208    108.0986
  2242.7500     13.1545      1.4424     10.8852    108.5594
  2243.0000     13.4363      1.5797     11.0590    109.0090
  2243.2500     13.7730      1.6404     11.2571    109.1627
  2243.5000     14.1493      1.5978     11.4905    109.7983
  2243.7500     14.5556      1.4241     11.7661    110.4968
  2244.0000     14.9906      1.0943     12.0881    110.8416
  2244.2500     15.4589      0.5909     12.4604    109.8205
  2244.5000     15.9697     -0.0916     12.8878    106.0765
  2244.7500     16.5336     -0.9428     13.3755    102.6086
  2245.0000     17.1593     -1.9336     13.9268     97.2444
  2245.2500     17.8515     -3.0159     14.5389     94.1222
  2245.5000     18.6106     -4.1256     15.2010     90.5152
  2245.7500     19.4262     -5.1890     15.8942     88.8865
  2246.0000     20.2637     -6.1335     16.5927     87.6834
  2246.2500     21.0560     -6.8992     17.2623     87.6982
  2246.5000     21.7151     -7.4495     17.8600     88.5694
  2246.7500     22.1627     -7.7772     18.3389     89.3518
  2247.0000     22.3633     -7.9033     18.6625     90.5929
  2247.2500     22.3320     -7.8689     18.8202     91.7929
  2247.5000     22.1095     -7.7233     18.8275     95.0592
  2247.7500     21.7211     -7.5106     18.7111     98.4098
  2248.0000     21.1555     -7.2621     18.4897    104.4472
  2248.2500     20.3894     -6.9936     18.1693    108.3260
  2248.5000     19.4482     -6.7088     17.7547    112.7345
  2248.7500     18.4461     -6.4069     17.2644    114.4618
  2249.0000     17.5565     -6.0884     16.7329    115.6270
  2249.2500     16.9283     -5.7592     16.1989    116.1384
  2249.5000     16.6140     -5.4304     15.6917    117.9549
  2249.7500     16.5628     -5.1141     15.2270    120.2934
  2250.0000     16.6648     -4.8197     14.8099    124.8105
  2250.2500     16.7997     -4.5499     14.4395    127.6061
  2250.5000     16.8642     -4.3001     14.1118    130.3936
  2250.7500     16.7827     -4.0607     13.8219    131.2894
  2251.0000     16.5132     -3.8208     13.5658    131.8173
  2251.2500     16.0525     -3.5734     13.3437    131.9870
  2251.5000     15.4422     -3.3183     13.1608    132.0378
  2251.7500     14.7727     -3.0634     13.0271    131.6538
  2252.0000     14.1728     -2.8236     12.9549    130.1205
  2252.2500     13.7805     -2.6170     12.9534    128.7595
  2252.5000     13.7000     -2.4616     13.0245    127.4251
  2252.7500     13.9631     -2.3715     13.1588    127.6241
  2253.0000     14.5139     -2.3547     13.3365    129.6533
  2253.2500     15.2263     -2.4133     13.5313    131.6459
  2253.5000     15.9518     -2.5438     13.7173    134.3360
  2253.7500     16.5718     -2.7386     13.8779    135.3780
  2254.0000     17.0305     -2.9877     14.0111    135.6099
  2254.2500     17.3357     -3.2786     14.1294    135.1446
  2254.5000     17.5327     -3.5974     14.2514    134.0498
  2254.7500     17.6708     -3.9286     14.3931    133.0074
  2255.0000     17.7802     -4.2561     14.5614    130.2831
  2255.2500     17.8663     -4.5644     14.7526    127.5212
  2255.5000     17.9179     -4.8396     14.9547    123.0218
  2255.7500     17.9210     -5.0711     15.1532    120.9244
  2256.0000     17.8708     -5.2514     15.3369    120.4038
  2256.2500     17.7783     -5.3759     15.5007    121.6182
  2256.5000     17.6667     -5.4412     15.6428    124.2447
  2256.7500     17.5622     -5.4437     15.7592    125.4818
  2257.0000     17.4822     -5.3782     15.8396    125.2665
  2257.2500     17.4277     -5.2383     15.8676    123.5054
  2257.5000     17.3830     -5.0161     15.8254    119.3624
  2257.7500     17.3240     -4.7044     15.7003    116.9440
  2258.0000     17.2317     -4.2979     15.4885    116.3166
  2258.2500     17.0980     -3.7954     15.1951    118.4692
  2258.5000     16.9181     -3.2013     14.8316    124.3363
  2258.7500     16.6812     -2.5269     14.4132    128.5211
  2259.0000     16.3719     -1.7918     13.9588    132.9178
  2259.2500     15.9839     -1.0234     13.4899    134.1463
  2259.5000     15.5319     -0.2560     13.0275    134.6023
  2259.7500     15.0504      0.4730     12.5892    135.1124
  2260.0000     14.5796      1.1276     12.1868    136.9262
  2260.2500     14.1502      1.6795     11.8261    138.2421
  2260.5000     13.7743      2.1135     11.5086    138.7370
  2260.7500     13.4453      2.4318     11.2340    137.5128
  2261.0000     13.1480      2.6542     11.0020    133.6117
  2261.2500     12.8726      2.8144     10.8130    130.4606
  2261.5000     12.6232      2.9520     10.6665    126.9118
  2261.7500     12.4158      3.1028     10.5589    126.2987
  2262.0000     12.2682      3.2882     10.4835    128.2875
  2262.2500     12.1871      3.5087     10.4330    130.7747
