~Version Information
VERS.                      2.0: CWLS Log ASCII Standard - VERSION 2.0
WRAP.                       NO: One line per depth step
~Well Information Block
STRT.FT                -7.2500: 
STOP.FT              1196.2500: 
STEP.FT                 0.2500: 
NULL.                -999.2500: 
COMP.          Pioneer Natural Resources: COMPANY
WELL.             Mahalo 12-20: WELL
FLD.           Purgatorie River: FIELD
LOC.           1689' FNL & 479' FWL--: LOCATION
CNTY.               Las Animas: COUNTY
SRVC.          Patterson Wireline: SERVICE COMPANY
DATE.          Tue Mar 14 15:40:32 2006: LOG DATE
UWI.           05 071 08700 00: UNIQUE WELL ID
STAT.                       CO: STATE
~Curve Information Block
DEPT.FT            0 000 00 00: Depth
CCL.                          : Casing Collar Locator
TT3.usec                      : CBL 3' Travel Time
AMP3.mV                       : CBL 3' Amplitude
GR.GAPI                       : Gamma Ray
~Parameter Information Block
~A  Depth       CCL         TT3         AMP3         GR     
# ...
   863.7500      0.0000    689.9575      5.2057    130.9568
   864.0000      0.0000    684.6529      5.0160    133.7079
   864.2500      0.0000    681.9483      4.8374    134.3541
   864.5000      0.0000    683.1884      4.6489    132.6951
   864.7500      0.0000    687.5056      4.4554    129.8768
   865.0000      0.0000    692.6908      4.2810    126.9082
   865.2500      0.0000    697.0838      4.1455    122.9049
   865.5000      0.0000    700.6164      4.0538    115.9413
   865.7500      0.0000    704.3617      4.0051    105.5842
   866.0000      0.0000    709.2084      4.0106     93.9265
   866.2500      0.0000    714.6163      4.0993     84.1062
   866.5000      0.0000    718.5106      4.3028     78.1921
   866.7500      0.0000    718.8475      4.6329     76.5373
   867.0000      0.0000    715.5522      5.0729     78.5180
   867.2500      0.0000    710.6622      5.5843     83.1028
   867.5000      0.0000    706.4962      6.1139     88.6429
   867.7500      0.0000    703.9481      6.5969     92.9529
   868.0000      0.0000    702.4061      6.9636     94.5442
   868.2500      0.0000    700.9578      7.1551     93.8019
   868.5000      0.0000    699.7587      7.1393     92.2585
   868.7500      0.0000    700.2856      6.9250     90.4848
   869.0000      0.0000    703.7021      6.5663     87.2290
   869.2500      0.0000    708.8273      6.1475     80.9827
   869.5000      0.0000    712.6408      5.7520     72.0090
   869.7500      0.0000    713.2482      5.4362     62.3736
   870.0000      0.0000    711.4329      5.2252     54.2837
   870.2500      0.0000    708.8154      5.1234     48.9159
   870.5000      0.0000    705.5047      5.1270     46.6006
   870.7500      0.0000    700.4899      5.2384     47.3900
   871.0000      0.0000    694.0922      5.4794     51.2533
   871.2500      0.0000    688.9426      5.8845     58.0122
   871.5000      0.0000    687.5375      6.4674     66.9279
   871.7500      0.0000    688.1702      7.1865     76.3090
   872.0000      0.0000    683.7574      7.9426     84.1922
   872.2500      0.0000    667.2225      8.6087     89.7014
   872.5000      0.0000    640.1424      9.0646     93.1912
   872.7500      0.0000    614.2843      9.2287     95.0941
   873.0000      0.0000    601.8845      9.0853     95.4104
   873.2500      0.0000    605.8961      8.6919     94.4644
   873.5000      0.0000    621.4454      8.1527     93.4469
   873.7500      0.0000    642.7505      7.5787     93.9041
   874.0000      0.0000    664.9913      7.0582     96.8564
   874.2500      0.0000    683.0730      6.6377    102.1052
   874.5000      0.0000    693.1298      6.3144    107.8969
   874.7500      0.0000    694.7792      6.0547    111.5397
   875.0000      0.0000    690.6011      5.8293    111.3171
   875.2500      0.0000    684.0281      5.6303    108.2819
   875.5000      0.0000    677.8802      5.4618    105.4896
   875.7500      0.0000    673.7283      5.3253    104.7829
   876.0000      0.0000    671.9133      5.2182    104.8611
   876.2500      0.0000    672.1085      5.1388    103.2523
   876.5000      0.0000    673.8212      5.0879     99.6378
   876.7500      0.0000    676.4928      5.0686     96.2420
   877.0000      0.0000    679.6331      5.0857     95.2504
   877.2500      0.0000    683.1794      5.1413     96.9263
   877.5000      0.0000    687.4233      5.2273    100.2613
   877.7500      0.0000    692.2396      5.3275    104.2915
   878.0000      0.0000    696.6312      5.4256    108.1057
   878.2500      0.0000    699.2389      5.5064    110.3602
   878.5000      0.0000    699.0889      5.5492    110.0954
   878.7500      0.0000    695.9147      5.5347    108.1610
   879.0000      0.0000    690.3253      5.4661    106.9410
   879.2500      0.0000    683.9177      5.3758    108.2355
   879.5000      0.0000    678.8677      5.3018    111.7326
   879.7500      0.0000    676.9963      5.2581    115.5544
   880.0000      0.0000    678.9733      5.2315    117.8497
   880.2500      0.0000    684.0462      5.2012    117.9402
   880.5000      0.0000    690.3283      5.1543    116.5800
   880.7500      0.0000    695.5174      5.0892    115.2858
   881.0000      0.0000    697.4465      5.0104    115.0559
   881.2500      0.0000    693.6705      4.9268    115.4194
   881.5000      0.0000    680.7946      4.8490    114.7959
   881.7500      0.0000    655.8401      4.7868    112.0429
   882.0000      0.0000    620.0712      4.7476    107.7285
   882.2500      0.0000    581.2559      4.7352    103.7027
   882.5000      0.0000    550.2056      4.7509    101.3711
   882.7500      0.0000    534.3996      4.7933    100.4931
   883.0000      0.0000    535.5106      4.8572     99.5829
   883.2500      0.0000    551.6540      4.9285     97.2143
   883.5000      0.0000    579.1549      4.9828     92.9890
   883.7500      0.0000    612.0207      4.9927     87.7219
   884.0000      0.0000    642.6283      4.9430     82.9683
   884.2500      0.0000    665.0908      4.8393     80.0667
   884.5000      0.0000    677.9817      4.7013     79.4208
   884.7500      0.0000    683.5944      4.5456     80.6589
   885.0000      0.0000    685.0528      4.3739     83.1612
   885.2500      0.0000    684.3695      4.1782     86.1148
   885.5000      0.0000    682.5563      3.9566     88.4934
   885.7500      0.0000    680.3608      3.7228     89.6618
   886.0000      0.0000    678.4686      3.4992     89.9525
   886.2500      0.0000    677.5834      3.3017     90.1078
   886.5000      0.0000    678.6899      3.1337     90.1866
   886.7500      0.0000    682.9617      2.9923     89.5694
   887.0000      0.0000    690.9781      2.8776     87.9913
   887.2500      0.0000    701.8471      2.7931     85.8676
   887.5000      0.0000    712.7852      2.7391     83.5564
   887.7500      0.0000    719.6672      2.7189     81.1787
   888.0000      0.0000    719.1801      2.7500     79.3291
   888.2500      0.0000    711.7142      2.8523     78.9157
   888.5000      0.0000    702.2874      3.0132     79.7377
   888.7500      0.0000    698.1440      3.1853     79.8547
   889.0000      0.0000    704.7287      3.3374     76.9597
   889.2500      0.0000    722.5690      3.4861     70.2949
   889.5000      0.0000    746.3477      3.6541     61.1599
   889.7500      2.0000    766.8251      3.8178     51.9027
   890.0000      0.0000    775.3312      3.9187     44.5678
   890.2500      0.0000    768.5222      3.9162     40.1452
   890.5000      0.0000    750.2059      3.8223     38.5778
   890.7500      0.0000    728.8669      3.6967     39.1793
   891.0000      0.0000    712.6277      3.6039     41.1123
   891.2500      0.0000    704.9537      3.5542     43.7216
   891.5000      0.0000    703.6987      3.4901     46.5655
   891.7500      0.0000    703.8771      3.3527     49.2393
   892.0000      0.0000    701.6978      3.1550     51.3925
   892.2500      0.0000    696.8047      2.9732     53.0203
   892.5000      0.0000    691.8577      2.8751     54.5437
   892.7500      0.0000    690.1927      2.8769     56.4143
   893.0000      0.0000    692.8844      2.9549     58.6467
   893.2500      0.0000    697.6833      3.0775     60.7449
   893.5000      0.0000    701.0993      3.2245     61.9310
   893.7500      0.0000    701.2903      3.3924     61.5011
   894.0000      0.0000    698.8091      3.5900     59.3438
   894.2500      0.0000    695.3898      3.8248     56.3601
   894.5000      0.0000    692.4622      4.0905     54.2217
   894.7500      0.0000    690.2728      4.3679     54.4320
   895.0000      0.0000    688.1144      4.6410     57.3284
   895.2500      0.0000    685.4883      4.9080     61.7424
   895.5000      0.0000    682.8580      5.1743     65.6525
   895.7500      0.0000    681.2053      5.4356     67.5233
   896.0000      0.0000    681.3434      5.6714     67.2806
   896.2500      0.0000    683.8853      5.8555     65.9892
   896.5000      0.0000    689.2901      5.9716     64.5678
   896.7500      0.0000    697.1970      6.0209     62.9713
   897.0000      0.0000    705.6931      6.0187     60.6529
