~Version Information
VERS.                      2.0: CWLS Log ASCII Standard - VERSION 2.0
WRAP.                       NO: One line per depth step
~Well Information Block
STRT.FT               360.0000: 
STOP.FT              1349.5000: 
STEP.FT                 0.1000: 
NULL.                -999.2500: 
COMP.          Pioneer Natural Resources: COMPANY
WELL.          Challenger 31-29: WELL
FLD.           Purgatoire River: FIELD
LOC.           51' FNL & 1923' FEL: LOCATION
STAT.                 Colorado: State
CNTY.               Las Animas: COUNTY
CTRY. USA : Country
SECT. 29 : Section
TOWN. 33S : Township
RANG. 65W : Range
SRVC.                Patterson: SERVICE COMPANY
DATE.          Thu Sep 15 13:35:50 2005: LOG DATE
API.           05 071 08514 00: UNIQUE WELL ID
~Curve Information Block
DEPT.FT            0 000 00 00: Depth
DCAL.in                       : CDL Caliper
RHOB.g/cc                     : CDL Bulk Density
RHOC.g/cc                     : CDL Density Correction
DPOR.pu                       : CDL Density Porosity
GR.GAPI                       : Gamma Ray
NPOR.pu                       : Neutron Porosity
~Parameter Information Block
~A  Depth       DCAL        RHOB        RHOC        DPOR         GR         NPOR    
# ...
  1204.8000      8.0209      2.4125      0.0052     14.3961     95.2242     18.5438
  1204.9000      8.0209      2.3999      0.0618     15.1581     93.6823     17.1859
  1205.0000      8.0257      2.3967      0.0557     15.3515    100.2705     15.2908
  1205.1000      8.0257      2.3971     -0.0087     15.3246    108.3415     14.4562
  1205.2000      8.0257      2.4089      0.0452     14.6118    112.7787     15.2123
  1205.3000      8.0279      2.4277      0.0668     13.4719    113.4634     16.1495
  1205.4000      8.0279      2.4371      0.0796     12.9001    110.2263     16.7502
  1205.5000      8.0256      2.4341      0.0861     13.0819    105.5769     17.7294
  1205.6000      8.0256      2.4352      0.0364     13.0186    102.3959     18.8331
  1205.7000      8.0256      2.4505      0.0168     12.0922    102.9000     19.0503
  1205.8000      8.0175      2.4690      0.1057     10.9725    105.9321     18.2848
  1205.9000      8.0175      2.4765      0.0793     10.5162    108.5877     18.0176
  1206.0000      8.0200      2.4749      0.0589     10.6147    112.1563     18.8386
  1206.1000      8.0200      2.4729      0.0840     10.7351    117.6089     19.8134
  1206.2000      8.0200      2.4732      0.0917     10.7161    122.6970     21.0174
  1206.3000      8.0177      2.4770      0.0846     10.4833    126.3111     22.4819
  1206.4000      8.0177      2.4776      0.1073     10.4463    130.2921     22.6037
  1206.5000      7.9995      2.4658      0.0593     11.1629    134.0870     21.2793
  1206.6000      7.9995      2.4530      0.0275     11.9407    135.2169     20.4924
  1206.7000      7.9995      2.4487      0.0508     12.1987    134.7258     20.7730
  1206.8000      7.9979      2.4415      0.1047     12.6370    132.3730     21.0087
  1206.9000      7.9979      2.4221      0.0629     13.8093    125.6119     20.6254
  1207.0000      8.0199      2.3984      0.0904     15.2484    120.6129     20.3199
  1207.1000      8.0199      2.3888      0.0339     15.8273    123.1771     20.7208
  1207.2000      8.0199      2.4091      0.0512     14.6023    127.4527     21.1535
  1207.3000      8.0162      2.4459      0.1066     12.3693    127.1644     20.8120
  1207.4000      8.0162      2.4702      0.1013     10.8970    125.2528     19.9549
  1207.5000      8.0255      2.4715      0.1237     10.8152    125.5408     19.3958
  1207.6000      8.0255      2.4597      0.0597     11.5321    126.3797     19.3057
  1207.7000      8.0255      2.4484      0.0796     12.2157    130.5752     19.1929
  1207.8000      8.0181      2.4351      0.0727     13.0255    137.8928     19.1703
  1207.9000      8.0181      2.4137      0.0677     14.3227    138.0830     19.3675
  1208.0000      8.0208      2.3918      0.0616     15.6491    130.3376     19.6114
  1208.1000      8.0208      2.3791      0.0571     16.4185    124.8939     20.2611
  1208.2000      8.0208      2.3779      0.0439     16.4924    125.8870     21.1667
  1208.3000      8.0040      2.3825      0.0634     16.2118    127.1729     21.4876
  1208.4000      8.0040      2.3872      0.0554     15.9250    122.6577     21.7634
  1208.5000      8.0110      2.3957      0.0599     15.4149    116.2696     22.5944
  1208.6000      8.0110      2.4100      0.0819     14.5452    116.0964     23.5190
  1208.7000      8.0110      2.4250      0.0980     13.6342    125.4708     24.3016
  1208.8000      8.0197      2.4397      0.1044     12.7454    138.2696     24.9138
  1208.9000      8.0197      2.4526      0.1259     11.9608    142.1352     24.6932
  1209.0000      8.0220      2.4580      0.1020     11.6352    134.7439     23.3703
  1209.1000      8.0220      2.4511      0.1045     12.0558    124.3239     22.4542
  1209.2000      8.0220      2.4286      0.0955     13.4201    120.2699     22.6027
  1209.3000      8.0242      2.4053      0.0034     14.8310    125.2490     22.0872
  1209.4000      8.0242      2.4023      0.0547     15.0138    131.1431     20.5388
  1209.5000      8.0232      2.4100      0.0796     14.5450    130.0739     19.7551
  1209.6000      8.0232      2.4062      0.0717     14.7750    124.5247     20.5091
  1209.7000      8.0232      2.3910      0.0372     15.6967    117.3385     21.7827
  1209.8000      8.0265      2.3831      0.0301     16.1782    109.3175     22.1446
  1209.9000      8.0265      2.3936      0.0414     15.5395    105.0347     21.4775
  1210.0000      8.0256      2.4121      0.0576     14.4189    105.2198     20.6350
  1210.1000      8.0256      2.4181      0.1076     14.0562    110.4307     20.6142
  1210.2000      8.0256      2.4066      0.0769     14.7500    121.8200     21.8305
  1210.3000      8.0247      2.3938      0.0313     15.5247    132.4256     23.3180
  1210.4000      8.0247      2.3912      0.0836     15.6876    134.3404     23.7160
  1210.5000      8.0200      2.3930      0.0566     15.5772    127.8130     22.7714
  1210.6000      8.0200      2.3965      0.0894     15.3620    119.3530     21.5536
  1210.7000      8.0200      2.4037      0.0878     14.9291    115.5755     20.7721
  1210.8000      8.0227      2.4089      0.0403     14.6126    117.9886     20.2009
  1210.9000      8.0227      2.4031      0.0315     14.9608    122.8390     19.9490
  1211.0000      8.0240      2.3882      0.0048     15.8664    125.4065     20.0988
  1211.1000      8.0240      2.3767      0.0646     16.5628    124.9704     20.9635
  1211.2000      8.0240      2.3739      0.0275     16.7325    122.5337     22.7573
  1211.3000      8.0245      2.3757      0.0212     16.6238    117.8539     23.9762
  1211.4000      8.0245      2.3753      0.0462     16.6490    111.1608     23.5788
  1211.5000      8.0300      2.3714      0.0613     16.8820    104.9930     23.0266
  1211.6000      8.0300      2.3757      0.0241     16.6236    101.8419     22.3383
  1211.7000      8.0300      2.3944      0.0812     15.4937    103.0358     20.3481
  1211.8000      8.0266      2.4154      0.0872     14.2161    106.5886     18.3630
  1211.9000      8.0266      2.4307      0.0913     13.2917    107.8968     18.3801
  1212.0000      8.0250      2.4408      0.0746     12.6783    106.8120     20.1971
  1212.1000      8.0250      2.4446      0.0783     12.4503    106.6474     21.9410
  1212.2000      8.0250      2.4431      0.0981     12.5399    106.2004     22.1266
  1212.3000      8.0171      2.4434      0.0666     12.5193    103.6326     21.4163
  1212.4000      8.0171      2.4529      0.0723     11.9475    102.8401     20.7898
  1212.5000      8.0145      2.4716      0.0858     10.8140    104.3669     19.8880
  1212.6000      8.0145      2.4962      0.0811      9.3232    101.8013     18.7884
  1212.7000      8.0145      2.5236      0.0692      7.6633     92.1237     17.5470
  1212.8000      8.0184      2.5473      0.1360      6.2260     84.0094     15.9634
  1212.9000      8.0184      2.5636      0.1082      5.2342     85.8787     14.3211
  1213.0000      8.0129      2.5785      0.1078      4.3330     91.4517     12.6102
  1213.1000      8.0129      2.5995      0.0729      3.0577     90.8653     11.3694
  1213.2000      8.0129      2.6269      0.0868      1.3979     83.7958     11.6664
  1213.3000      8.0176      2.6418      0.1239      0.4948     80.3820     12.7491
  1213.4000      8.0176      2.6330      0.0715      1.0323     86.2437     12.7259
  1213.5000      8.0150      2.6274      0.0593      1.3668     91.9467     11.4946
  1213.6000      8.0150      2.6492      0.0976      0.0502     91.5700     10.2808
  1213.7000      8.0150      2.6761      0.1476     -1.5844     89.9892      9.3492
  1213.8000      8.0138      2.6803      0.0969     -1.8364     90.6190      8.3928
  1213.9000      8.0138      2.6637      0.0911     -0.8328     90.0936      7.6124
  1214.0000      8.0114      2.6379      0.0745      0.7305     86.2208      7.0351
  1214.1000      8.0114      2.6113      0.0506      2.3480     81.4404      6.5389
  1214.2000      8.0114      2.5919      0.0547      3.5183     76.5638      6.5390
  1214.3000      8.0092      2.5858      0.0497      3.8936     72.6681      7.2144
