~Version Information
VERS.                      2.0: CWLS Log ASCII Standard - VERSION 2.0
WRAP.                       NO: One line per depth step
~Well Information Block
STRT.FT               830.0000: 
STOP.FT              1782.5000: 
STEP.FT                 0.1000: 
NULL.                -999.2500: 
COMP.          Pioneer Natural Resources: COMPANY
WELL.          Manville 42-14 Tr: WELL
FLD.           Purgatoire River: FIELD
LOC.           2018 FNL & 562' FEL: LOCATION
STAT.                 Colorado: State
CNTY.               Las Animas: COUNTY
CTRY. USA : Country
SECT. 14 : Section
TOWN. 32S : Township
RANG. 66W : Range
SRVC.                Patterson: SERVICE COMPANY
DATE.          Mon Sep 19 09:44:06 2005: LOG DATE
API.           05 071 08522 00: UNIQUE WELL ID
~Curve Information Block
DEPT.FT            0 000 00 00: Depth
DCAL.in                       : CDL Caliper
RHOB.g/cc                     : CDL Bulk Density
RHOC.g/cc                     : CDL Density Correction
DPOR.pu                       : CDL Density Porosity
GR.GAPI                       : Gamma Ray
NPOR.pu                       : Neutron Porosity
~Parameter Information Block
~A  Depth       DCAL        RHOB        RHOC        DPOR         GR         NPOR    
# ...
  1396.4000      8.1971      2.5180      0.0397      7.9989    102.7947     29.6408
  1396.5000      8.1481      2.5120      0.1068      8.3623     99.9901     29.8565
  1396.6000      8.1481      2.5509      0.1465      6.0091     98.9606     30.6525
  1396.7000      8.1481      2.6078      0.2144      2.5568     98.9115     31.0099
  1396.8000      8.1588      2.6460      0.2001      0.2447     97.9350     30.2853
  1396.9000      8.1588      2.6509      0.1777     -0.0526     96.7362     29.3107
  1397.0000      8.1379      2.6287      0.1365      1.2888     99.3900     29.2722
  1397.1000      8.1379      2.5950      0.1118      3.3316    106.3215     30.4957
  1397.2000      8.1379      2.5538      0.1573      5.8311    112.7264     32.1872
  1397.3000      8.1438      2.5037      0.1096      8.8656    115.6343     32.7926
  1397.4000      8.1438      2.4572      0.0842     11.6825    115.5592     32.0550
  1397.5000      8.1538      2.4192      0.0760     13.9853    113.2051     31.0338
  1397.6000      8.1538      2.3952     -0.0246     15.4406    108.4440     30.4519
  1397.7000      8.1538      2.4024      0.0539     15.0054    102.5046     30.2454
  1397.8000      8.2105      2.4330      0.1240     13.1544    100.1179     30.3501
  1397.9000      8.2105      2.4557      0.1472     11.7735    103.0418     30.7760
  1398.0000      8.2565      2.4531      0.1505     11.9351    106.3301     31.1489
  1398.1000      8.2565      2.4331      0.1710     13.1476    106.6285     31.6188
  1398.2000      8.2565      2.4133      0.1867     14.3483    106.3092     32.3523
  1398.3000      8.2906      2.4044      0.1685     14.8846    106.0723     32.8130
  1398.4000      8.2906      2.4135      0.1020     14.3349    104.4448     32.8057
  1398.5000      8.3081      2.4386      0.1302     12.8101    105.1544     32.5828
  1398.6000      8.3081      2.4707      0.1311     10.8659    111.6164     32.1798
  1398.7000      8.3081      2.5098      0.1446      8.4998    118.7145     31.7546
  1398.8000      8.3986      2.5473      0.1980      6.2269    120.9039     31.8698
  1398.9000      8.3986      2.5609      0.2521      5.3980    119.6109     32.5772
  1399.0000      8.5928      2.5428      0.2446      6.4985    118.2306     32.8829
  1399.1000      8.5928      2.5040      0.2192      8.8472    117.4380     32.4929
  1399.2000      8.5928      2.4674      0.1028     11.0680    117.8235     32.2084
  1399.3000      8.6252      2.4500      0.0892     12.1210    120.7584     32.0752
  1399.4000      8.6252      2.4422      0.0532     12.5966    122.1123     31.7698
  1399.5000      8.4937      2.4321      0.0513     13.2062    119.1189     31.6703
  1399.6000      8.4937      2.4268      0.0780     13.5265    115.5447     32.3030
  1399.7000      8.4937      2.4350      0.0705     13.0303    113.6629     33.6387
  1399.8000      8.4069      2.4598      0.0519     11.5295    113.8314     34.5558
  1399.9000      8.4069      2.4897      0.1439      9.7141    116.1072     33.9892
  1400.0000      8.3438      2.5029      0.1176      8.9158    120.7758     32.7576
  1400.1000      8.3438      2.4992      0.0900      9.1418    125.6069     32.3856
  1400.2000      8.3438      2.4880      0.1427      9.8191    125.9976     32.6544
  1400.3000      8.2583      2.4717      0.0936     10.8084    125.0069     32.3617
  1400.4000      8.2583      2.4596      0.1135     11.5422    129.6259     31.3209
  1400.5000      8.2509      2.4569      0.1035     11.7018    137.6912     30.0784
  1400.6000      8.2509      2.4607      0.1052     11.4702    143.2952     29.3006
  1400.7000      8.2509      2.4648      0.1238     11.2216    146.0567     29.5943
  1400.8000      8.2361      2.4661      0.0886     11.1446    145.9960     30.7454
  1400.9000      8.2361      2.4749      0.0864     10.6091    142.3653     31.7143
  1401.0000      8.2058      2.4916      0.1097      9.6021    134.8861     32.2285
  1401.1000      8.2058      2.4932      0.1571      9.5005    125.3810     32.4451
  1401.2000      8.2058      2.4709      0.0612     10.8565    119.3437     32.2204
  1401.3000      8.1705      2.4407      0.0392     12.6842    119.1510     31.9374
  1401.4000      8.1705      2.4175      0.0682     14.0904    121.5217     31.6342
  1401.5000      8.1553      2.4058      0.0369     14.7977    120.7412     31.2555
  1401.6000      8.1553      2.4032      0.0455     14.9564    116.3087     31.0804
  1401.7000      8.1553      2.3988      0.0852     15.2226    113.7903     30.7135
  1401.8000      8.1418      2.3845      0.0813     16.0937    117.0776     29.8317
  1401.9000      8.1418      2.3650      0.0819     17.2699    124.3021     29.3602
  1402.0000      8.2512      2.3369      0.1605     18.9745    128.5955     30.0590
  1402.1000      8.2512      2.2891      0.1029     21.8716    123.2238     31.4086
  1402.2000      8.2512      2.2368      0.0809     25.0419    110.1465     32.2597
  1402.3000      8.3524      2.2023      0.0958     27.1332    101.3602     32.0943
  1402.4000      8.3524      2.1864      0.0222     28.0967    103.8579     31.7415
  1402.5000      8.3501      2.1846      0.0693     28.2071    110.9312     31.9169
  1402.6000      8.3501      2.1998      0.0833     27.2869    112.5072     31.9432
  1402.7000      8.3501      2.2387      0.1119     24.9251    106.8958     31.2638
  1402.8000      8.1833      2.2998      0.2264     21.2253    100.8589     31.2555
  1402.9000      8.1833      2.3655      0.3246     17.2426     99.5395     32.8337
  1403.0000      8.1509      2.4135      0.3150     14.3333    100.7443     34.4712
  1403.1000      8.1509      2.4356      0.2895     12.9954    100.4629     34.6398
  1403.2000      8.1509      2.4466      0.1828     12.3261    100.8850     34.0181
  1403.3000      8.2024      2.4643      0.2100     11.2521    107.0703     33.5581
  1403.4000      8.2024      2.4830      0.1850     10.1218    114.7894     33.0927
  1403.5000      8.1745      2.4904      0.1086      9.6723    114.6923     32.4375
  1403.6000      8.1745      2.4954      0.0635      9.3719    108.3902     31.7474
  1403.7000      8.1745      2.5101      0.0771      8.4810    102.9811     31.2857
  1403.8000      8.1656      2.5294      0.0812      7.3077     98.3270     31.1001
  1403.9000      8.1656      2.5384      0.0979      6.7660     94.2028     30.7346
  1404.0000      8.1980      2.5304      0.0981      7.2482     92.1514     29.7643
  1404.1000      8.1980      2.5221      0.0375      7.7504     91.6354     28.7471
  1404.2000      8.1980      2.5378     -0.0123      6.7993     94.0390     28.2875
  1404.3000      8.2191      2.5682      0.0900      4.9547    100.4004     28.0384
  1404.4000      8.2191      2.5792      0.0646      4.2894    105.5872     27.7668
  1404.5000      8.1952      2.5684      0.0811      4.9440    105.6717     27.9507
  1404.6000      8.1952      2.5578      0.0667      5.5861    103.1781     28.3592
  1404.7000      8.1952      2.5533      0.0905      5.8628    101.0889     28.4449
  1404.8000      8.1510      2.5494      0.0358      6.0950     99.4430     28.6528
  1404.9000      8.1510      2.5512      0.0364      5.9851     95.9497     29.3375
  1405.0000      8.1559      2.5655      0.0629      5.1186     91.0848     29.8851
  1405.1000      8.1559      2.5965      0.0371      3.2435     90.6660     29.6784
  1405.2000      8.1559      2.6438      0.0615      0.3749     97.1794     28.9689
  1405.3000      8.0856      2.6881      0.0911     -2.3102    104.0689     28.2707
  1405.4000      8.0856      2.7079      0.1005     -3.5075    103.0450     27.9064
  1405.5000      8.0449      2.7086      0.0630     -3.5507     96.3879     27.5986
  1405.6000      8.0449      2.7153      0.0968     -3.9603     88.8430     26.6980
  1405.7000      8.0449      2.7326      0.0912     -5.0047     79.4019     25.7393
  1405.8000      8.0500      2.7385      0.1144     -5.3655     69.6824     25.3710
  1405.9000      8.0500      2.7227      0.0659     -4.4053     64.1805     25.0488
