~Version Information
VERS.                      2.0: CWLS Log ASCII Standard - VERSION 2.0
WRAP.                       NO: One line per depth step
~Well Information Block
STRT.FT                14.0000: 
STOP.FT              1631.0000: 
STEP.FT                 0.1000: 
NULL.                -999.2500: 
COMP.          Pioneer Natural Resources: COMPANY
WELL.            Bluesky 44-17: WELL
FLD.           Purgatorie River: FIELD
LOC.           39' FSL & 288' FEL: LOCATION
STAT.                 Colorado: State
CNTY.               Las Animas: COUNTY
CTRY. USA : Country
SECT. 17 : Section
TOWN. 33S : Township
RANG. 66W : Range
SRVC.                Patterson: SERVICE COMPANY
DATE.          Thu Sep 08 07:30:20 2005: LOG DATE
API. 05-071-08511                         : UNIQUE WELL ID
~Curve Information Block
DEPT.FT            0 000 00 00: Depth
DCAL.in                       : CDL Caliper
RHOB.g/cc                     : CDL Bulk Density
RHOC.g/cc                     : CDL Density Correction
DPOR.pu                       : CDL Density Porosity
GR.GAPI                       : Gamma Ray
NPOR.pu                       : Neutron Porosity
~Parameter Information Block
~A  Depth       DCAL        RHOB        RHOC        DPOR         GR         NPOR    
# ...
  1281.2000      7.8480      2.4642      0.0435     11.2621     55.1309     17.1248
  1281.3000      7.8827      2.4605     -0.0038     11.4862     51.5052     16.4553
  1281.4000      7.8827      2.4777      0.0374     10.4439     49.3378     15.4045
  1281.5000      7.8688      2.5118      0.1178      8.3772     48.8966     13.9630
  1281.6000      7.8688      2.5424      0.1189      6.5217     45.8499     12.8651
  1281.7000      7.8688      2.5633      0.0833      5.2572     39.4851     12.6001
  1281.8000      7.7927      2.5737      0.1420      4.6257     34.4786     12.4497
  1281.9000      7.7927      2.5645      0.1118      5.1792     33.0177     11.6760
  1282.0000      7.7663      2.5471      0.0542      6.2366     33.2248     10.4911
  1282.1000      7.7663      2.5508      0.0627      6.0106     33.5611      9.8323
  1282.2000      7.7663      2.5807      0.0959      4.2004     33.6307     10.3190
  1282.3000      7.7738      2.6076      0.1508      2.5690     34.0769     11.0877
  1282.4000      7.7738      2.6082      0.0871      2.5315     35.3535     10.7033
  1282.5000      7.7939      2.5967      0.0767      3.2277     36.0339      9.3931
  1282.6000      7.7939      2.5940      0.1078      3.3910     34.6320      8.8041
  1282.7000      7.7939      2.6001      0.0563      3.0227     32.9324      9.7451
  1282.8000      7.7923      2.6034      0.0944      2.8252     33.7755     11.3733
  1282.9000      7.7923      2.5945      0.0694      3.3608     35.8380     12.5156
  1283.0000      7.7907      2.5762      0.0503      4.4711     37.4794     12.9432
  1283.1000      7.7907      2.5555      0.0186      5.7247     40.0581     12.9218
  1283.2000      7.7907      2.5354      0.0399      6.9473     42.6817     12.6698
  1283.3000      7.7896      2.5154     -0.0003      8.1550     42.6689     12.2927
  1283.4000      7.7896      2.4919      0.0595      9.5848     40.7334     11.9419
  1283.5000      7.7855      2.4577      0.0471     11.6524     40.0342     11.7864
  1283.6000      7.7855      2.4236     -0.0562     13.7196     40.6940     11.7009
  1283.7000      7.7855      2.4101      0.0025     14.5381     40.8282     11.2091
  1283.8000      7.8082      2.4148      0.0218     14.2571     39.6657     10.1653
  1283.9000      7.8082      2.4195      0.0331     13.9679     37.8432      9.4552
  1284.0000      7.8119      2.4182      0.0360     14.0460     37.1557      9.8681
  1284.1000      7.8119      2.4186      0.0656     14.0263     37.8930     10.7915
  1284.2000      7.8119      2.4241      0.0950     13.6890     38.7252     11.2900
  1284.3000      7.8207      2.4303      0.1090     13.3122     37.8313     11.6100
  1284.4000      7.8207      2.4377      0.0882     12.8648     35.3241     12.0585
  1284.5000      7.8037      2.4536      0.1031     11.9002     34.6112     12.3261
  1284.6000      7.8037      2.4781      0.1117     10.4155     35.8980     12.4534
  1284.7000      7.8037      2.4968      0.1439      9.2844     35.6878     12.3978
  1284.8000      7.8014      2.4951      0.1417      9.3861     34.0938     11.7142
  1284.9000      7.8014      2.4787      0.1202     10.3830     33.8487     10.7912
  1285.0000      7.7973      2.4641      0.1003     11.2640     35.2821     10.5370
  1285.1000      7.7973      2.4542      0.0821     11.8672     37.0044     11.0081
  1285.2000      7.7973      2.4374      0.1044     12.8831     38.0018     11.5817
  1285.3000      7.8097      2.4105      0.0390     14.5166     37.8011     11.9557
  1285.4000      7.8097      2.3894     -0.0100     15.7964     36.4127     12.2066
  1285.5000      7.8003      2.3851      0.0508     16.0547     34.1680     12.2235
  1285.6000      7.8003      2.3939      0.0546     15.5218     31.7408     11.9387
  1285.7000      7.8003      2.4106      0.0892     14.5109     30.2645     11.6561
  1285.8000      7.7838      2.4246      0.1100     13.6597     30.9623     10.9842
  1285.9000      7.7838      2.4293      0.0882     13.3728     33.2325      9.6916
  1286.0000      7.7807      2.4301      0.1052     13.3273     34.9880      9.2449
  1286.1000      7.7807      2.4289      0.1016     13.4007     35.0259     10.4930
  1286.2000      7.7807      2.4215      0.0973     13.8486     32.9985     12.1290
  1286.3000      7.8274      2.4101      0.0704     14.5393     31.0675     12.7575
  1286.4000      7.8274      2.4006      0.0937     15.1171     32.1798     12.8893
  1286.5000      7.9094      2.3963      0.0516     15.3781     34.3736     13.3369
  1286.6000      7.9094      2.4014      0.0424     15.0670     33.7983     13.9641
  1286.7000      7.9094      2.4138      0.0568     14.3161     31.4171     14.4297
  1286.8000      7.9229      2.4203      0.0943     13.9215     30.9343     14.8046
  1286.9000      7.9229      2.4173      0.0478     14.1037     32.6487     15.1174
  1287.0000      7.9241      2.4185      0.0283     14.0299     35.7138     14.8948
  1287.1000      7.9241      2.4252      0.0692     13.6268     39.5713     14.1246
  1287.2000      7.9241      2.4247      0.0516     13.6532     43.3440     13.5237
  1287.3000      7.9297      2.4162      0.0264     14.1702     48.4314     13.4337
  1287.4000      7.9297      2.4071      0.0377     14.7218     53.6705     13.7470
  1287.5000      7.9335      2.4029      0.0136     14.9766     54.8572     14.2718
  1287.6000      7.9335      2.4077      0.0245     14.6830     52.2346     14.6669
  1287.7000      7.9335      2.4214      0.0234     13.8547     50.0697     14.8298
  1287.8000      7.9329      2.4408      0.0492     12.6796     50.7403     14.9688
  1287.9000      7.9329      2.4606      0.0689     11.4816     55.2044     14.6148
  1288.0000      7.9255      2.4758      0.0515     10.5564     63.6211     13.8834
  1288.1000      7.9255      2.4866      0.0584      9.9020     72.0160     14.3534
  1288.2000      7.9255      2.4927      0.0872      9.5344     75.6058     16.3933
  1288.3000      7.9182      2.4991      0.0187      9.1461     75.2902     18.3158
  1288.4000      7.9182      2.5164      0.0424      8.0982     75.8287     19.1657
  1288.5000      7.8741      2.5433      0.0625      6.4682     79.5871     19.6202
  1288.6000      7.8741      2.5687      0.1039      4.9269     83.6469     20.3514
  1288.7000      7.8741      2.5788      0.1118      4.3170     83.7642     21.0283
  1288.8000      7.8342      2.5678      0.0774      4.9837     80.8238     20.4764
  1288.9000      7.8342      2.5459      0.0488      6.3074     78.4038     18.7023
  1289.0000      7.8283      2.5306     -0.0115      7.2348     78.5223     17.6169
  1289.1000      7.8283      2.5299      0.0507      7.2767     81.3351     18.4015
  1289.2000      7.8283      2.5387      0.0328      6.7425     84.0004     19.7786
  1289.3000      7.8391      2.5529      0.0562      5.8830     83.5761     20.0141
  1289.4000      7.8391      2.5654      0.0507      5.1289     81.2599     18.8310
  1289.5000      7.8207      2.5719      0.0433      4.7324     80.9019     16.9796
  1289.6000      7.8207      2.5809      0.0377      4.1879     83.4671     15.9263
  1289.7000      7.8207      2.5936      0.0675      3.4162     86.3183     16.3439
  1289.8000      7.7931      2.5944      0.0850      3.3719     86.6949     17.0827
  1289.9000      7.7931      2.5766      0.0476      4.4485     84.1840     17.4112
  1290.0000      7.8000      2.5594      0.0106      5.4908     82.1373     18.2522
  1290.1000      7.8000      2.5623      0.0426      5.3163     82.5024     19.6352
  1290.2000      7.8000      2.5772      0.0556      4.4135     83.9299     20.5724
  1290.3000      7.7945      2.5804      0.0913      4.2196     83.9863     20.8655
  1290.4000      7.7945      2.5677      0.0113      4.9903     80.9455     20.7841
  1290.5000      7.7891      2.5603      0.0355      5.4371     76.8426     20.4199
  1290.6000      7.7891      2.5638      0.0749      5.2251     75.5310     19.8938
  1290.7000      7.7891      2.5623      0.0534      5.3132     77.3758     19.4773
