~Version Information
VERS.                      2.0: CWLS Log ASCII Standard - VERSION 2.0
WRAP.                       NO: One line per depth step
~Well Information Block
STRT.FT               390.0000: 
STOP.FT               825.0000: 
STEP.FT                 0.1000: 
NULL.                -999.2500: 
COMP.          Pioneer Natural Resources: COMPANY
WELL.             Veedol 34-28: WELL
FLD.           Purgatoire River: FIELD
LOC.           357' FSL & 2520' FEL: LOCATION
PROV.                 Colorado: PROVINCE
CNTY.               Las Animas: COUNTRY
SRVC.                Patterson: SERVICE COMPANY
DATE.          Thu Dec 22 14:38:20 2005: LOG DATE
UWI.           05 071 08628 00: UNIQUE WELL ID
~Curve Information Block
DEPT.FT            0 000 00 00: Depth
DCAL.in                       : CDL Caliper
RHOB.g/cc                     : CDL Bulk Density
RHOC.g/cc                     : CDL Density Correction
DPOR.pu                       : CDL Density Porosity
GR.GAPI                       : Gamma Ray
NPOR.pu                       : Neutron Porosity
~Parameter Information Block
~A  Depth       DCAL        RHOB        RHOC        DPOR         GR         NPOR    
# ...
   726.0000      7.8570      2.3961      0.0415     15.3908     84.6909     17.0160
   726.1000      7.8570      2.3822      0.0068     16.2314     88.1258     17.0504
   726.2000      7.8570      2.3684      0.0382     17.0676     93.8493     16.8003
   726.3000      7.8555      2.3529      0.0443     18.0046     95.9059     16.8085
   726.4000      7.8555      2.3394     -0.0169     18.8226     95.4542     16.8733
   726.5000      7.8535      2.3351     -0.0301     19.0868     96.2723     16.6852
   726.6000      7.8535      2.3353      0.0016     19.0744     97.7430     16.4307
   726.7000      7.8535      2.3339     -0.0245     19.1594     98.1183     16.4763
   726.8000      7.8531      2.3338     -0.0162     19.1618     97.0571     16.9998
   726.9000      7.8531      2.3415     -0.0002     18.6955     94.3880     17.4508
   727.0000      7.8536      2.3584      0.0444     17.6728     91.9841     17.7187
   727.1000      7.8536      2.3720      0.0618     16.8505     92.2971     18.0357
   727.2000      7.8536      2.3722      0.0754     16.8357     91.1201     17.7727
   727.3000      7.8545      2.3704      0.0403     16.9464     86.5266     16.8557
   727.4000      7.8545      2.3800      0.0468     16.3648     84.6468     16.1611
   727.5000      7.8543      2.3964      0.0512     15.3678     85.2797     16.3167
   727.6000      7.8543      2.4069      0.0469     14.7312     82.9727     17.3029
   727.7000      7.8543      2.4049      0.0278     14.8558     77.9560     18.1173
   727.8000      7.8533      2.3926      0.0550     15.5981     74.2485     17.8665
   727.9000      7.8533      2.3791     -0.0039     16.4179     75.4390     17.1525
   728.0000      7.8524      2.3750     -0.0093     16.6650     80.6327     16.5689
   728.1000      7.8524      2.3851     -0.0209     16.0521     84.3827     16.2022
   728.2000      7.8524      2.4009      0.0515     15.0948     86.2832     16.5675
   728.3000      7.8519      2.4022      0.0346     15.0164     89.0319     17.5939
   728.4000      7.8519      2.3842      0.0107     16.1082     91.6214     18.0603
   728.5000      7.8521      2.3677     -0.0171     17.1079     91.7357     17.6112
   728.6000      7.8521      2.3722     -0.0044     16.8334     88.7493     17.4061
   728.7000      7.8521      2.3935     -0.0088     15.5454     85.5726     17.9177
   728.8000      7.8532      2.4078      0.0614     14.6784     85.8111     18.4010
   728.9000      7.8532      2.4009      0.0030     15.0956     85.2390     18.3275
   729.0000      7.8539      2.3869     -0.0169     15.9425     82.0385     18.0820
   729.1000      7.8539      2.3847      0.0180     16.0778     82.9372     18.1864
   729.2000      7.8539      2.3934      0.0145     15.5528     90.6870     18.2737
   729.3000      7.8527      2.4037      0.0182     14.9290     99.3642     17.8970
   729.4000      7.8527      2.4149     -0.0034     14.2505     99.9228     17.4722
   729.5000      7.8519      2.4273     -0.0051     13.4973     90.5833     17.3306
   729.6000      7.8519      2.4283      0.0301     13.4381     81.3675     17.2056
   729.7000      7.8519      2.4108      0.0050     14.4981     81.3805     17.0732
   729.8000      7.8523      2.3901     -0.0142     15.7523     86.5046     17.1111
   729.9000      7.8523      2.3807      0.0090     16.3237     89.8678     17.1775
   730.0000      7.8527      2.3813     -0.0096     16.2836     90.7760     16.8784
   730.1000      7.8527      2.3840      0.0055     16.1205     88.7477     16.3880
   730.2000      7.8527      2.3809      0.0049     16.3074     84.0772     16.0684
   730.3000      7.8529      2.3750     -0.0089     16.6644     77.5723     15.8794
   730.4000      7.8529      2.3748      0.0327     16.6781     72.0937     15.6816
   730.5000      7.8521      2.3800      0.0191     16.3649     72.8428     15.5815
   730.6000      7.8521      2.3898      0.0264     15.7701     78.8569     15.9659
   730.7000      7.8521      2.4019      0.0404     15.0355     84.5845     16.9339
   730.8000      7.8509      2.4087      0.0427     14.6248     86.8534     17.8464
   730.9000      7.8509      2.4055      0.0600     14.8206     87.5551     17.9031
   731.0000      7.8514      2.3908      0.0624     15.7078     89.8229     17.4545
   731.1000      7.8514      2.3720      0.0160     16.8479     92.8444     17.3768
   731.2000      7.8514      2.3625      0.0148     17.4251     94.8710     17.6674
   731.3000      7.8527      2.3610      0.0338     17.5163     95.6613     17.7676
   731.4000      7.8527      2.3537      0.0283     17.9578     94.5962     17.4987
   731.5000      7.8533      2.3377     -0.0007     18.9279     93.2474     17.1345
   731.6000      7.8533      2.3262     -0.0316     19.6220     94.7317     16.9957
   731.7000      7.8533      2.3303     -0.0256     19.3736     96.0574     17.1300
   731.8000      7.8530      2.3485      0.0172     18.2755     93.5621     17.4910
   731.9000      7.8530      2.3756      0.0084     16.6294     91.5440     17.9673
   732.0000      7.8519      2.4021      0.0487     15.0220     92.9760     18.1297
   732.1000      7.8519      2.4070      0.0838     14.7269     93.9952     17.9125
   732.2000      7.8519      2.3873      0.0210     15.9199     90.6779     17.8361
   732.3000      7.8484      2.3686      0.0251     17.0516     84.0947     18.2658
   732.4000      7.8484      2.3625      0.0481     17.4243     79.5869     18.9523
   732.5000      7.8450      2.3604      0.0383     17.5534     78.1794     19.3308
   732.6000      7.8450      2.3624      0.0251     17.4279     80.0985     19.3955
   732.7000      7.8450      2.3687      0.0606     17.0502     89.6767     19.6220
   732.8000      7.8482      2.3746      0.0286     16.6891    102.9904     20.0360
   732.9000      7.8482      2.3877      0.0092     15.8992    109.4393     20.1973
   733.0000      7.8521      2.4092      0.0456     14.5916    108.3259     20.3337
   733.1000      7.8521      2.4213      0.0849     13.8596    109.8401     20.9294
   733.2000      7.8521      2.4161      0.0323     14.1732    119.6028     21.7047
   733.3000      7.8529      2.4146      0.0274     14.2641    130.6615     22.2658
   733.4000      7.8529      2.4301      0.0476     13.3279    134.5627     22.4364
   733.5000      7.8530      2.4435      0.0958     12.5181    133.7180     22.2466
   733.6000      7.8530      2.4338      0.0722     13.1004    131.0777     21.8659
   733.7000      7.8530      2.4110      0.0155     14.4826    122.7425     21.2519
   733.8000      7.8527      2.3979      0.0415     15.2804    111.0554     20.5981
   733.9000      7.8527      2.3970      0.0183     15.3311    104.1356     20.1241
   734.0000      7.8525      2.3992      0.0103     15.2003    105.9669     19.5948
   734.1000      7.8525      2.4047      0.0036     14.8695    111.0942     18.8757
   734.2000      7.8525      2.4187      0.0163     14.0158    111.5814     18.3844
   734.3000      7.8524      2.4325      0.0705     13.1808    107.2633     18.4330
   734.4000      7.8524      2.4314      0.0619     13.2498    101.1388     18.8151
   734.5000      7.8522      2.4193      0.0698     13.9794     93.5792     19.3107
   734.6000      7.8522      2.4097      0.0708     14.5627     86.0934     19.9092
   734.7000      7.8522      2.4117      0.0512     14.4435     81.6291     20.1297
   734.8000      7.8521      2.4270      0.0723     13.5123     80.9516     19.5551
   734.9000      7.8521      2.4463      0.0380     12.3468     84.5772     18.8426
   735.0000      7.8520      2.4572      0.0676     11.6822     92.3585     18.4637
   735.1000      7.8520      2.4575      0.0439     11.6657     98.9575     18.2905
   735.2000      7.8520      2.4547      0.0724     11.8356     99.2892     18.3254
   735.3000      7.8518      2.4543      0.0501     11.8613     95.1015     18.5439
   735.4000      7.8518      2.4507      0.0541     12.0807     91.5662     18.6541
   735.5000      7.8514      2.4375      0.0159     12.8806     92.5382     18.4583
