~Version Information
VERS.                      2.0: CWLS Log ASCII Standard - VERSION 2.0
WRAP.                       NO: One line per depth step
~Well Information Block
STRT.FT                 0.0000: 
STOP.FT              1871.2500: 
STEP.FT                 0.2500: 
NULL.                -999.2500: 
COMP.          Petrogulf Corporation: COMPANY
WELL.             Norton 9-14R: WELL
FLD.           Purgatorie River: FIELD
LOC.           725' FSL & 1103' FWL: LOCATION
STAT.                 Colorado: State
CNTY.               Las Animas: COUNTY
CTRY. USA : Country
SECT. 9 : Section
TOWN. 33S : Township
RANG. 67W : Range
SRVC.                Patterson: SERVICE COMPANY
DATE.          Thu Nov 10 13:05:53 2005: LOG DATE
API. 05-071-08444                         : UNIQUE WELL ID
~Curve Information Block
DEPT.FT            0 000 00 00: Depth
CCL.                          : Casing Collar Locator
TT3.usec                      : CBL 3' Travel Time
AMP3.mV                       : CBL 3' Amplitude
GR.GAPI                       : Gamma Ray
~Parameter Information Block
~A  Depth       CCL         TT3         AMP3         GR     
# ...
   871.0000      0.0000    590.7813      1.8627     85.6985
   871.2500      0.0000    557.6378      1.6205     82.4023
   871.5000      0.0000    537.5867      1.4528     79.5188
   871.7500      0.0000    535.8826      1.3408     77.6925
   872.0000      0.0000    534.9717      1.2630     77.6413
   872.2500      0.0000    516.6933      1.1924     79.4898
   872.5000      0.0000    485.0603      1.1031     82.1297
   872.7500      0.0000    457.4982      0.9805     83.7237
   873.0000      0.0000    442.8550      0.8358     83.2046
   873.2500      0.0000    440.1095      0.7178     81.1381
   873.5000      0.0000    449.5343      0.6846     79.0412
   873.7500      0.0000    468.7621      0.7466     78.0827
   874.0000      0.0000    488.4319      0.8574     78.4856
   874.2500      0.0000    501.4650      0.9843     79.8225
   874.5000      0.0000    504.6824      1.1522     81.5018
   874.7500      0.0000    495.9429      1.3844     82.9652
   875.0000      0.0000    484.9515      1.6283     83.6499
   875.2500      0.0000    491.5335      1.7979     83.0441
   875.5000      0.0000    517.8595      1.8893     81.1166
   875.7500      0.0000    545.0678      1.9824     78.7543
   876.0000      0.0000    561.5883      2.1545     77.3603
   876.2500      0.0000    568.8527      2.4444     77.6018
   876.5000      0.0000    567.1581      2.8260     78.6719
   876.7500      0.0000    559.1383      3.2052     79.0510
   877.0000      0.0000    557.0551      3.5250     77.9133
   877.2500      0.0000    572.2863      3.8375     75.6475
   877.5000      0.0000    603.1852      4.2057     73.2258
   877.7500      0.0000    637.3566      4.6053     71.3909
   878.0000      0.0000    664.3883      4.9593     70.4545
   878.2500      0.0000    686.1960      5.2166     70.5410
   878.5000      0.0000    706.7844      5.3887     71.7038
   878.7500      0.0000    713.4899      5.5202     73.7759
   879.0000      0.0000    695.4917      5.6438     76.3173
   879.2500      0.0000    670.3311      5.7663     78.8979
   879.5000      0.0000    659.1423      5.8753     81.4013
   879.7500      0.0000    660.0379      5.9461     83.8089
   880.0000      0.0000    661.7501      5.9578     85.6848
   880.2500      0.0000    659.1227      5.9121     86.2224
   880.5000      0.0000    653.5175      5.8260     85.0826
   880.7500      0.0000    651.3902      5.7213     83.1167
   881.0000      0.0000    661.6268      5.6096     81.8802
   881.2500      0.0000    687.1713      5.4908     82.2164
   881.5000      0.0000    714.9358      5.3837     83.5848
   881.7500      0.0000    721.3447      5.3240     84.8881
   882.0000      0.0000    697.7379      5.3172     85.4499
   882.2500      0.0000    660.8557      5.3296     84.9701
   882.5000      0.0000    632.2091      5.3183     83.1683
   882.7500      0.0000    618.3777      5.2591     80.0939
   883.0000      0.0000    614.0025      5.1588     76.7009
   883.2500      0.0000    613.0255      5.0529     74.7871
   883.5000      0.0000    612.7584      4.9896     76.0152
   883.7500      0.0000    612.5159      4.9888     80.5528
   884.0000      0.0000    612.2101      5.0144     86.5606
   884.2500      0.0000    612.0465      5.0319     91.2963
   884.5000      0.0000    612.7222      5.0496     92.9872
   884.7500      0.0000    616.0104      5.0730     91.7489
   885.0000      0.0000    624.8814      5.0983     88.8857
   885.2500      0.0000    639.7319      5.1415     85.7072
   885.5000      0.0000    652.8262      5.2044     83.1606
   885.7500      0.0000    653.8235      5.2436     81.9697
   886.0000      0.0000    644.0869      5.2242     82.3211
   886.2500      0.0000    635.2035      5.1791     83.4799
   886.5000      0.0000    632.7437      5.1756     84.2728
   886.7500      0.0000    633.2078      5.2361     84.0550
   887.0000      0.0000    634.1841      5.3247     83.1400
   887.2500      0.0000    636.3146      5.4020     82.4425
   887.5000      0.0000    637.9839      5.4683     82.6163
   887.7500      0.0000    635.1592      5.5629     83.3905
   888.0000      0.0000    625.5090      5.7147     83.8860
   888.2500      0.0000    612.8214      5.8558     83.6233
   888.5000      0.0000    607.0023      5.8219     83.0807
   888.7500      0.0000    614.5285      5.4999     83.3258
   889.0000      0.0000    632.5862      4.9766     85.1455
   889.2500      0.0000    657.5201      4.5373     88.3329
   889.5000      0.0000    686.5742      4.4171     91.7031
   889.7500      0.0000    708.5554      4.5106     93.8422
   890.0000      2.0000    712.3491      4.5383     93.9665
   890.2500     -2.0000    706.0573      4.4203     92.3703
   890.5000      0.0000    708.1155      4.2704     90.2221
   890.7500      0.0000    718.4464      4.1877     88.6896
   891.0000      0.0000    718.5591      4.2021     88.0024
   891.2500      0.0000    701.4780      4.3324     87.4651
   891.5000      0.0000    679.4905      4.5818     86.5067
   891.7500      0.0000    662.9106      4.8812     85.5201
   892.0000      0.0000    651.0555      5.1335     85.3848
   892.2500      0.0000    640.4142      5.2947     86.2245
   892.5000      0.0000    629.0420      5.3467     86.8821
   892.7500      0.0000    614.3966      5.2783     85.6479
   893.0000      0.0000    591.1016      5.1327     81.4630
   893.2500      0.0000    557.7110      5.0008     74.6907
   893.5000      0.0000    523.7920      4.9523     67.0490
   893.7500      0.0000    497.2858      4.9914     60.6863
   894.0000      0.0000    478.2368      5.0713     57.0063
   894.2500      0.0000    473.8484      5.1434     56.1979
   894.5000      0.0000    492.0938      5.1855     57.6434
   894.7500      0.0000    521.5883      5.2047     60.5596
   895.0000      0.0000    546.0767      5.2350     64.3715
   895.2500      0.0000    569.8867      5.3154     68.6721
   895.5000      0.0000    602.0910      5.4516     72.8387
   895.7500      0.0000    631.8055      5.6042     75.8462
   896.0000      0.0000    644.0940      5.7298     76.7173
   896.2500      0.0000    639.7602      5.8198     75.1827
   896.5000      0.0000    627.1074      5.8828     71.8739
   896.7500      0.0000    610.9127      5.9109     67.9990
   897.0000      0.0000    588.9412      5.8862     64.7949
   897.2500      0.0000    554.1885      5.8131     62.9847
   897.5000      0.0000    508.5810      5.7254     62.6310
   897.7500      0.0000    466.5303      5.6610     63.5733
   898.0000      0.0000    437.4907      5.6409     65.8566
   898.2500      0.0000    419.5370      5.6643     69.5784
   898.5000      0.0000    408.9845      5.7092     74.3704
   898.7500      0.0000    403.8346      5.7458     79.1234
   899.0000      0.0000    401.9278      5.7612     82.4320
   899.2500      0.0000    401.4045      5.7729     83.6597
   899.5000      0.0000    401.4500      5.7993     83.5008
   899.7500      0.0000    401.9582      5.8279     83.0863
   900.0000      0.0000    403.4815      5.8418     82.5816
   900.2500      0.0000    407.6948      5.8501     81.1246
   900.5000      0.0000    416.1698      5.8741     78.1175
   900.7500      0.0000    427.9308      5.9202     74.0743
   901.0000      0.0000    441.7795      5.9798     70.1313
   901.2500      0.0000    461.8972      6.0501     67.1760
   901.5000      0.0000    493.8506      6.1546     65.5761
   901.7500      0.0000    532.7752      6.3025     65.2439
   902.0000      0.0000    565.7873      6.4293     65.5180
   902.2500      0.0000    587.6324      6.4455     65.2061
   902.5000      0.0000    601.6346      6.3629     63.3263
   902.7500      0.0000    608.3901      6.2887     60.0313
   903.0000      0.0000    607.2847      6.2930     56.5347
   903.2500      0.0000    602.9137      6.3577     54.0311
   903.5000      0.0000    599.1569      6.4293     52.9113
   903.7500      0.0000    595.2439      6.4696     52.9169
   904.0000      0.0000    591.0001      6.4743     53.5621
   904.2500      0.0000    587.8386      6.4749     54.3584
