~Version Information
VERS.                      2.0: CWLS Log ASCII Standard - VERSION 2.0
WRAP.                       NO: One line per depth step
~Well Information Block
STRT.FT               315.0000: 
STOP.FT              1292.5000: 
STEP.FT                 0.1000: 
NULL.                -999.2500: 
COMP.          Pioneer Natural Resources: COMPANY
WELL.          Hot Tomatoes 22-20: WELL
FLD.           Purgatoire River: FIELD
LOC.           2120' FNL & 2585' FWL: LOCATION
CNTY.               Las Animas: COUNTY
SRVC.                Patterson: SERVICE COMPANY
DATE.          Mon Feb 27 07:06:41 2006: LOG DATE
UWI.           05 071 08701 00: UNIQUE WELL ID
STAT.                 Colorado: STATE
~Curve Information Block
DEPT.FT            0 000 00 00: Depth
DCAL.in                       : CDL Caliper
RHOB.g/cc                     : CDL Bulk Density
RHOC.g/cc                     : CDL Density Correction
DPOR.pu                       : CDL Density Porosity
GR.GAPI                       : Gamma Ray
NPOR.pu                       : Neutron Porosity
~Parameter Information Block
~A  Depth       DCAL        RHOB        RHOC        DPOR         GR         NPOR    
# ...
  1275.0000      7.7614      2.5387      0.0558      6.7430     98.6398     25.4992
  1275.1000      7.7614      2.5596      0.0451      5.4800     71.4006     24.9227
  1275.2000      7.7614      2.5901      0.0860      3.6278     36.9118     23.6927
  1275.3000      7.7715      2.6184      0.0957      1.9160     11.8985     22.5583
  1275.4000      7.7715      2.6420      0.1046      0.4825      2.2017     22.4392
  1275.5000      7.7929      2.6596      0.1276     -0.5833      0.2238     22.5986
  1275.6000      7.7929      2.6603      0.1012     -0.6263      0.0120     22.0434
  1275.7000      7.7929      2.6398      0.0671      0.6205      0.0000     21.0846
  1275.8000      7.8256      2.6080      0.0733      2.5465   -999.2500     20.2208
  1275.9000      7.8256      2.5794      0.0566      4.2774   -999.2500     19.7619
  1276.0000      7.7566      2.5697      0.0517      4.8690   -999.2500     19.7445
  1276.1000      7.7566      2.5860      0.0411      3.8790   -999.2500     19.4693
  1276.2000      7.7566      2.6094      0.1003      2.4616   -999.2500     18.9662
  1276.3000      7.7303      2.6124      0.0844      2.2791   -999.2500     19.0908
  1276.4000      7.7303      2.5921      0.0924      3.5082   -999.2500     19.7408
  1276.5000      7.7207      2.5651      0.1028      5.1455   -999.2500     20.2648
  1276.6000      7.7207      2.5509      0.0500      6.0032   -999.2500     20.5267
  1276.7000      7.7207      2.5548      0.0251      5.7718   -999.2500     20.7790
  1276.8000      7.7315      2.5560      0.0928      5.6985   -999.2500     21.3023
  1276.9000      7.7315      2.5409      0.0637      6.6120   -999.2500     22.1180
  1277.0000      7.7439      2.5254      0.0732      7.5510   -999.2500     22.6632
  1277.1000      7.7439      2.5206      0.0447      7.8416   -999.2500     22.8098
  1277.2000      7.7439      2.5122      0.0668      8.3486   -999.2500     23.4244
  1277.3000      7.7731      2.4901      0.0215      9.6915   -999.2500     24.7353
  1277.4000      7.7731      2.4689      0.0403     10.9753   -999.2500     25.8089
  1277.5000      7.8008      2.4672      0.0188     11.0785   -999.2500     26.2366
  1277.6000      7.8008      2.4870      0.0346      9.8810   -999.2500     27.5009
  1277.7000      7.8008      2.5165      0.0576      8.0894   -999.2500     32.3021
  1277.8000      7.7730      2.5519      0.0590      5.9439   -999.2500     39.9773
  1277.9000      7.7730      2.5940      0.1038      3.3946   -999.2500     45.6825
  1278.0000      7.7582      2.6181      0.1730      1.9354   -999.2500     47.8233
  1278.1000      7.7582      2.6015      0.1123      2.9396   -999.2500     48.2513
  1278.2000      7.7582      2.5722      0.0397      4.7124   -999.2500     48.2969
  1278.3000      7.7381      2.5703      0.0612      4.8312   -999.2500     48.2995
  1278.4000      7.7381      2.5864      0.1397      3.8566   -999.2500   -999.2500
  1278.5000      7.7113      2.5843      0.0997      3.9810   -999.2500   -999.2500
  1278.6000      7.7113      2.5591      0.0912      5.5103   -999.2500   -999.2500
  1278.7000      7.7113      2.5372      0.0361      6.8342   -999.2500   -999.2500
  1278.8000      7.7143      2.5374      0.1054      6.8225   -999.2500   -999.2500
  1278.9000      7.7143      2.5577      0.0455      5.5914   -999.2500   -999.2500
  1279.0000      7.8361      2.5871      0.0990      3.8126   -999.2500   -999.2500
  1279.1000      7.8361      2.6048      0.1517      2.7380   -999.2500   -999.2500
  1279.2000      7.8361      2.6020      0.1000      2.9106   -999.2500   -999.2500
  1279.3000      7.8736      2.5936      0.1171      3.4200   -999.2500   -999.2500
  1279.4000      7.8736      2.5926      0.1295      3.4792   -999.2500   -999.2500
  1279.5000      7.8065      2.5954      0.1930      3.3064   -999.2500   -999.2500
  1279.6000      7.8065      2.5964      0.1655      3.2486   -999.2500   -999.2500
  1279.7000      7.8065      2.5915      0.1614      3.5470   -999.2500   -999.2500
  1279.8000      7.7360      2.5719      0.1160      4.7344   -999.2500   -999.2500
  1279.9000      7.7360      2.5409      0.0254      6.6124   -999.2500   -999.2500
  1280.0000      7.6905      2.5156      0.0066      8.1447   -999.2500   -999.2500
  1280.1000      7.6905      2.5159      0.0502      8.1259   -999.2500   -999.2500
  1280.2000      7.6905      2.5571      0.0785      5.6302   -999.2500   -999.2500
  1280.3000      7.8568      2.6229      0.2141      1.6398   -999.2500   -999.2500
  1280.4000      7.8568      2.6614      0.2738     -0.6896   -999.2500   -999.2500
  1280.5000      7.9516      2.6466      0.2004      0.2060   -999.2500   -999.2500
  1280.6000      7.9516      2.6048      0.1081      2.7382   -999.2500   -999.2500
  1280.7000      7.9516      2.5578      0.1019      5.5874   -999.2500   -999.2500
  1280.8000      7.8020      2.5028      0.0583      8.9196   -999.2500   -999.2500
  1280.9000      7.8020      2.4392      0.0616     12.7767   -999.2500   -999.2500
  1281.0000      7.7964      2.3736      0.0281     16.7534   -999.2500   -999.2500
  1281.1000      7.7964      2.3200     -0.0286     19.9982   -999.2500   -999.2500
  1281.2000      7.7964      2.2938     -0.0116     21.5888   -999.2500   -999.2500
  1281.3000      7.7958      2.2989      0.0119     21.2763   -999.2500   -999.2500
  1281.4000      7.7958      2.3370      0.0044     18.9689   -999.2500   -999.2500
  1281.5000      7.8029      2.4079      0.1364     14.6741   -999.2500   -999.2500
  1281.6000      7.8029      2.4937      0.2442      9.4702   -999.2500   -999.2500
  1281.7000      7.8029      2.5707      0.3415      4.8090   -999.2500   -999.2500
  1281.8000      7.8158      2.6303      0.3655      1.1933   -999.2500   -999.2500
  1281.9000      7.8158      2.6735      0.3811     -1.4216   -999.2500   -999.2500
  1282.0000      7.6710      2.6902      0.3767     -2.4345   -999.2500   -999.2500
  1282.1000      7.6710      2.6743      0.2422     -1.4723   -999.2500   -999.2500
  1282.2000      7.6710      2.6431      0.1867      0.4153   -999.2500   -999.2500
  1282.3000      7.5953      2.6162      0.1453      2.0456   -999.2500   -999.2500
  1282.4000      7.5953      2.5988      0.1350      3.1036   -999.2500   -999.2500
  1282.5000      7.6398      2.5840      0.1548      3.9991   -999.2500   -999.2500
  1282.6000      7.6398      2.5677      0.1180      4.9873   -999.2500   -999.2500
  1282.7000      7.6398      2.5504      0.0774      6.0381   -999.2500   -999.2500
  1282.8000      7.7268      2.5323      0.0814      7.1308   -999.2500   -999.2500
  1282.9000      7.7268      2.5240      0.0234      7.6352   -999.2500   -999.2500
  1283.0000      7.7641      2.5264      0.1256      7.4897   -999.2500   -999.2500
  1283.1000      7.7641      2.5236      0.0550      7.6595   -999.2500   -999.2500
  1283.2000      7.7641      2.5201      0.0156      7.8704   -999.2500   -999.2500
  1283.3000      7.7666      2.5297      0.0624      7.2921   -999.2500   -999.2500
  1283.4000      7.7666      2.5493      0.0506      6.1007   -999.2500   -999.2500
  1283.5000      7.7511      2.5616      0.1560      5.3559   -999.2500   -999.2500
  1283.6000      7.7511      2.5454      0.0853      6.3404   -999.2500   -999.2500
  1283.7000      7.7511      2.5062      0.0205      8.7161   -999.2500   -999.2500
  1283.8000      7.7476      2.4660      0.0205     11.1490   -999.2500   -999.2500
  1283.9000      7.7476      2.4303      0.0686     13.3173   -999.2500   -999.2500
  1284.0000      7.7579      2.3999      0.0067     15.1568   -999.2500   -999.2500
  1284.1000      7.7579      2.3807      0.0567     16.3223   -999.2500   -999.2500
  1284.2000      7.7579      2.3776      0.0008     16.5095   -999.2500   -999.2500
  1284.3000      7.7469      2.4057      0.0423     14.8044   -999.2500   -999.2500
  1284.4000      7.7469      2.4719      0.1006     10.7922   -999.2500   -999.2500
  1284.5000      7.8368      2.5546      0.2236      5.7813   -999.2500   -999.2500
