~Version Information
VERS.                      2.0: CWLS Log ASCII Standard - VERSION 2.0
WRAP.                       NO: One line per depth step
~Well Information Block
STRT.FT               460.0000: 
STOP.FT              2311.7000: 
STEP.FT                 0.1000: 
NULL.                -999.2500: 
COMP.          Pioneer Natural Resources: COMPANY
WELL.          McDonald 33-31 R: WELL
FLD.           Purgatoire River: FIELD
LOC.           1386' FSL & 1926' FEL: LOCATION
STAT.                 Colorado: State
CNTY.               Las Animas: COUNTY
CTRY.                      USA: Country
SECT.                       31: Section
TOWN.                      32S: Township
RANG.                      66W: Range
SRVC.                Patterson: SERVICE COMPANY
DATE.          Sat Sep 24 09:00:13 2005: LOG DATE
API.           05 071 08533 00: API
~Curve Information Block
DEPT.FT            0 000 00 00: Depth
DCAL.in                       : CDL Caliper
RHOB.g/cc                     : CDL Bulk Density
RHOC.g/cc                     : CDL Density Correction
DPOR.pu                       : CDL Density Porosity
NPOR.pu                       : Neutron Porosity
GR.GAPI                       : Gamma Ray
~Parameter Information Block
~A  Depth       DCAL        RHOB        RHOC        DPOR        NPOR         GR     
# ...
   824.8000      8.0234      2.3903      0.1242     15.7421     21.2295    113.2323
   824.9000      8.0234      2.4211      0.1050     13.8728     22.4984    114.7309
   825.0000      8.0172      2.4508      0.1170     12.0748     24.0564    119.2761
   825.1000      8.0172      2.4669      0.1344     11.0943     25.3113    121.5434
   825.2000      8.0172      2.4550      0.0953     11.8182     25.7105    121.9173
   825.3000      8.0146      2.4147      0.0529     14.2603     25.2278    124.0227
   825.4000      8.0146      2.3684     -0.0155     17.0649     24.2575    126.2845
   825.5000      8.0136      2.3329     -0.0136     19.2193     23.2263    127.2785
   825.6000      8.0136      2.2933      0.0009     21.6205     22.3889    128.0831
   825.7000      8.0136      2.2306     -0.0231     25.4185     21.5799    126.9976
   825.8000      8.0123      2.1594     -0.0551     29.7345     20.2908    122.5207
   825.9000      8.0123      2.1131     -0.0657     32.5398     18.4985    117.3445
   826.0000      8.0131      2.1016     -0.0593     33.2370     16.6445    116.5060
   826.1000      8.0131      2.1088     -0.0109     32.7974     15.0844    121.9164
   826.2000      8.0131      2.1281     -0.0450     31.6302     14.1104    127.5766
   826.3000      8.0161      2.1646      0.0468     29.4175     13.5738    128.5218
   826.4000      8.0161      2.2133      0.1102     26.4668     13.1030    128.6651
   826.5000      8.0223      2.2710      0.1697     22.9675     12.7229    131.7321
   826.6000      8.0223      2.3454      0.2230     18.4631     12.7235    133.7685
   826.7000      8.0223      2.4366      0.2526     12.9316     13.3072    129.8234
   826.8000      8.0327      2.5250      0.2860      7.5774     14.5552    122.2723
   826.9000      8.0327      2.5763      0.2368      4.4657     16.1945    117.7975
   827.0000      8.0401      2.5827      0.0744      4.0779     17.4887    116.5647
   827.1000      8.0401      2.5791      0.0314      4.2968     18.1228    113.7234
   827.2000      8.0401      2.5926      0.0705      3.4806     18.7521    109.0961
   827.3000      8.0408      2.6114      0.0966      2.3409     20.0069    105.3355
   827.4000      8.0408      2.6129      0.0952      2.2461     21.5951    104.5788
   827.5000      8.0386      2.5975      0.0509      3.1810     23.0468    106.0512
   827.6000      8.0386      2.5910      0.0445      3.5736     24.2672    106.5159
   827.7000      8.0386      2.6108      0.0573      2.3757     25.3100    105.7539
   827.8000      8.0382      2.6406      0.0698      0.5704     26.2417    104.5020
   827.9000      8.0382      2.6493      0.0694      0.0419     26.9985    101.2129
   828.0000      8.0398      2.6244      0.0491      1.5493     27.2774     96.9051
   828.1000      8.0398      2.5824     -0.0045      4.0994     27.2178     96.9097
   828.2000      8.0398      2.5531     -0.0276      5.8745     27.4632    104.4011
   828.3000      8.0405      2.5492     -0.0105      6.1073     28.0283    111.7382
   828.4000      8.0405      2.5551      0.0120      5.7496     28.1008    109.9000
   828.5000      8.0411      2.5535     -0.0069      5.8468     27.6546    103.3905
   828.6000      8.0411      2.5463     -0.0002      6.2856     27.6319     99.0954
   828.7000      8.0411      2.5456      0.0046      6.3299     27.8936     97.2116
   828.8000      8.0413      2.5543      0.0419      5.8017     27.6114     98.3828
   828.9000      8.0413      2.5569      0.0460      5.6432     27.0552    103.0251
   829.0000      8.0407      2.5458      0.0189      6.3147     26.8164    107.3112
   829.1000      8.0407      2.5394      0.0029      6.7006     26.8261    107.9298
   829.2000      8.0407      2.5522      0.0119      5.9263     26.9601    107.4248
   829.3000      8.0416      2.5723      0.0589      4.7112     27.3199    110.0119
   829.4000      8.0416      2.5798      0.0530      4.2553     27.9974    113.6270
   829.5000      8.0426      2.5694      0.0422      4.8866     28.7950    115.6031
   829.6000      8.0426      2.5540      0.0398      5.8163     29.3278    117.7334
   829.7000      8.0426      2.5532      0.0094      5.8658     29.5906    117.8374
   829.8000      8.0415      2.5679      0.0339      4.9745     29.6033    112.7900
   829.9000      8.0415      2.5808      0.0463      4.1914     29.2430    107.7954
   830.0000      8.0401      2.5852      0.0341      3.9280     28.7996    110.4868
   830.1000      8.0401      2.5892      0.0508      3.6828     28.8298    118.8827
   830.2000      8.0401      2.5934      0.0684      3.4292     29.1544    125.7568
   830.3000      8.0402      2.5902      0.0363      3.6262     29.2158    128.8812
   830.4000      8.0402      2.5843      0.0151      3.9791     28.8028    129.7279
   830.5000      8.0403      2.5831      0.0599      4.0541     28.2130    128.5234
   830.6000      8.0403      2.5787      0.0538      4.3185     28.0976    124.6233
   830.7000      8.0403      2.5687      0.0490      4.9288     28.4703    121.3160
   830.8000      8.0394      2.5576      0.0559      5.6005     28.9234    122.0553
   830.9000      8.0394      2.5426      0.0188      6.5090     29.2472    123.9106
   831.0000      8.0388      2.5271      0.0099      7.4472     29.0193    121.4778
   831.1000      8.0388      2.5275      0.0051      7.4219     28.0082    116.9904
   831.2000      8.0388      2.5445      0.0472      6.3951     27.0987    116.9746
   831.3000      8.0395      2.5526      0.0306      5.9026     27.0940    118.8322
   831.4000      8.0395      2.5380      0.0210      6.7868     27.4995    118.9861
   831.5000      8.0393      2.5189      0.0112      7.9482     27.4413    124.2750
   831.6000      8.0393      2.5190      0.0328      7.9379     26.9304    137.1275
   831.7000      8.0393      2.5439      0.0539      6.4321     26.7044    145.5838
   831.8000      8.0385      2.5784      0.0973      4.3406     26.9084    143.3897
   831.9000      8.0385      2.5974      0.1046      3.1879     27.3109    137.4744
   832.0000      8.0397      2.5912      0.0888      3.5638     27.8995    132.9590
   832.1000      8.0397      2.5779      0.0607      4.3713     28.2140    130.8426
   832.2000      8.0397      2.5746      0.0655      4.5668     27.9548    130.2251
   832.3000      8.0419      2.5708      0.0505      4.7982     27.5967    129.2578
   832.4000      8.0419      2.5546      0.0129      5.7791     27.5255    127.1270
   832.5000      8.0405      2.5383      0.0267      6.7714     27.7146    124.0215
   832.6000      8.0405      2.5353      0.0317      6.9521     27.8030    118.9560
   832.7000      8.0405      2.5442      0.0462      6.4143     27.3061    110.2096
   832.8000      8.0324      2.5518      0.0838      5.9524     26.4276    102.8044
   832.9000      8.0324      2.5519      0.0645      5.9459     26.1117    106.6125
   833.0000      8.0167      2.5524      0.0422      5.9129     26.5104    120.1070
   833.1000      8.0167      2.5537      0.0926      5.8356     27.0419    127.5408
   833.2000      8.0167      2.5561      0.0338      5.6909     27.3417    122.8198
   833.3000      7.9973      2.5702      0.0730      4.8391     27.3044    116.2153
   833.4000      7.9973      2.5936      0.0890      3.4207     27.0118    113.9179
   833.5000      7.9859      2.6173      0.0665      1.9802     26.7225    113.0883
   833.6000      7.9859      2.6388      0.0880      0.6780     26.7656    113.1747
   833.7000      7.9859      2.6527      0.1039     -0.1663     27.1564    117.2690
   833.8000      7.9825      2.6542      0.1046     -0.2570     27.5403    122.0843
   833.9000      7.9825      2.6474      0.0979      0.1580     27.6518    120.3918
   834.0000      7.9833      2.6391      0.0302      0.6625     27.3118    113.0780
   834.1000      7.9833      2.6329      0.0470      1.0388     26.5075    106.6031
   834.2000      7.9833      2.6257      0.0643      1.4717     25.6974    104.2496
   834.3000      7.9868      2.6128      0.0347      2.2572     25.3466    104.2501
