~Version Information
VERS.                      2.0: CWLS Log ASCII Standard - VERSION 2.0
WRAP.                       NO: One line per depth step
~Well Information Block
STRT.FT               294.3000: 
STOP.FT              1461.0000: 
STEP.FT                 0.1000: 
NULL.                -999.2500: 
COMP.          Pioneer Natural Resources: COMPANY
WELL.              Lucky 21-36: WELL
FLD.           Purgatoire River: FIELD
CDN. :
PROV. :
UWI. :
STAT. :
CNTY. :
CTRY. :
API. :
COMP. :
WELL. :
FLD. :
LOC. :
DATE. :
SRVC. :
LOC.           799' FNL & 1578' FWL--: LOCATION
CNTY.               Las Animas: COUNTY
SRVC.          Superior Well Services: SERVICE COMPANY
DATE.          Tue Jul 08 08-29-33 2008: LOG DATE
UWI.           05 071 08456 00: UNIQUE WELL ID
STAT.                 Colorado: STATE
~Curve Information Block
DEPT.FT            0 000 00 00: Depth
DCAL.in                       : CDL Caliper
RHOB.g/cc                     : CDL Bulk Density
RHOC.g/cc                     : CDL Density Correction
DPOR.pu                       : CDL Density Porosity
NPOR.pu                       : Neutron Porosity
GR.GAPI                       : Gamma Ray
~Parameter Information Block
~A  Depth       DCAL        RHOB        RHOC        DPOR        NPOR         GR     
# ...
  1427.1000      7.8147      2.5481      0.0569      6.1734     19.6319     96.2463
  1427.2000      7.8099      2.5666      0.0866      5.0546     18.6271     98.5787
  1427.3000      7.8054      2.5752      0.0917      4.5340     17.7768    101.9029
  1427.4000      7.8017      2.5655      0.0680      5.1214     17.3580    103.6961
  1427.5000      7.7993      2.5520      0.0279      5.9402     17.2164    105.1921
  1427.6000      7.7981      2.5485      0.0477      6.1522     17.3918    109.2580
  1427.7000      7.7975      2.5514      0.0476      5.9752     17.9807    114.8569
  1427.8000      7.7972      2.5541      0.0143      5.8133     18.4496    118.9804
  1427.9000      7.7968      2.5605      0.0356      5.4212     18.3145    120.2040
  1428.0000      7.7965      2.5728      0.0229      4.6811     18.1121    120.0971
  1428.1000      7.7966      2.5826      0.0472      4.0863     18.4768    122.0242
  1428.2000      7.7973      2.5792      0.0341      4.2879     19.3559    125.0938
  1428.3000      7.7993      2.5627      0.0590      5.2883     20.2578    127.6393
  1428.4000      7.8026      2.5460      0.0096      6.3047     20.8222    128.6873
  1428.5000      7.8076      2.5377      0.0417      6.8046     21.0540    117.7390
  1428.6000      7.8137      2.5319      0.0091      7.1593     21.0005     84.8617
  1428.7000      7.8204      2.5233      0.0274      7.6780     20.8630     42.2138
  1428.8000      7.8265      2.5162      0.0197      8.1072     21.0283     13.0793
  1428.9000      7.8313      2.5197     -0.0184      7.8959     21.3930      2.3530
  1429.0000      7.8344      2.5333      0.0393      7.0740     21.6573      0.2351
  1429.1000      7.8360      2.5404      0.0749      6.6408     21.9377      0.0123
  1429.2000      7.8365      2.5355      0.0284      6.9416     22.4084      0.0000
  1429.3000      7.8363      2.5277      0.0658      7.4118     23.1377   -999.2500
  1429.4000      7.8361      2.5200      0.0521      7.8813     24.1386   -999.2500
  1429.5000      7.8362      2.5199      0.0402      7.8821     25.1885   -999.2500
  1429.6000      7.8370      2.5400      0.0626      6.6671     25.9761   -999.2500
  1429.7000      7.8387      2.5652      0.1291      5.1402     26.2083   -999.2500
  1429.8000      7.8410      2.5746      0.0663      4.5710     25.8260   -999.2500
  1429.9000      7.8437      2.5763      0.0904      4.4663     25.3493   -999.2500
  1430.0000      7.8463      2.5789      0.0479      4.3084     25.3659   -999.2500
  1430.1000      7.8484      2.5751      0.0626      4.5398     25.7251   -999.2500
  1430.2000      7.8497      2.5632      0.0500      5.2602     25.7384   -999.2500
  1430.3000      7.8503      2.5507      0.0718      6.0164     25.1238   -999.2500
  1430.4000      7.8506      2.5364      0.0411      6.8827     24.4877   -999.2500
  1430.5000      7.8509      2.5166      0.0041      8.0867     24.2948   -999.2500
  1430.6000      7.8516      2.4947      0.0360      9.4130     24.3135   -999.2500
  1430.7000      7.8525      2.4771     -0.0242     10.4759     24.2627   -999.2500
  1430.8000      7.8530      2.4672     -0.0118     11.0815     24.2066   -999.2500
  1430.9000      7.8524      2.4583     -0.0114     11.6182     24.0632   -999.2500
  1431.0000      7.8492      2.4541     -0.0133     11.8741     23.3891   -999.2500
  1431.1000      7.8424      2.4640      0.0047     11.2746     22.3636   -999.2500
  1431.2000      7.8309      2.4761      0.0242     10.5367     21.7582   -999.2500
  1431.3000      7.8147      2.4771      0.0502     10.4807     21.6381   -999.2500
  1431.4000      7.7951      2.4766      0.0004     10.5114     21.5745   -999.2500
  1431.5000      7.7745      2.4835      0.0478     10.0885     21.5260   -999.2500
  1431.6000      7.7557      2.4838      0.0499     10.0739     21.6243   -999.2500
  1431.7000      7.7408      2.4707      0.0274     10.8658     21.8693   -999.2500
  1431.8000      7.7310      2.4551      0.0455     11.8131     22.1424   -999.2500
  1431.9000      7.7256      2.4395      0.0268     12.7549     22.3713   -999.2500
  1432.0000      7.7238      2.4283      0.0064     13.4343     22.5287   -999.2500
  1432.1000      7.7241      2.4334      0.0130     13.1281     22.7109   -999.2500
  1432.2000      7.7253      2.4508      0.0723     12.0753     23.0283   -999.2500
  1432.3000      7.7265      2.4643      0.0717     11.2530     23.2840   -999.2500
  1432.4000      7.7271      2.4673      0.0499     11.0712     23.1771   -999.2500
  1432.5000      7.7269      2.4647      0.0502     11.2304     22.7406   -999.2500
  1432.6000      7.7261      2.4673      0.0443     11.0744     22.4242   -999.2500
  1432.7000      7.7249      2.4861      0.0269      9.9359     22.3287   -999.2500
  1432.8000      7.7239      2.5165      0.0702      8.0916     22.1708   -999.2500
  1432.9000      7.7230      2.5359      0.0877      6.9134     21.9533   -999.2500
  1433.0000      7.7224      2.5351      0.0745      6.9653     21.8197   -999.2500
  1433.1000      7.7216      2.5283      0.0885      7.3737     21.6256   -999.2500
  1433.2000      7.7201      2.5251      0.0555      7.5693     21.3358   -999.2500
  1433.3000      7.7176      2.5192      0.0583      7.9275     21.3397   -999.2500
  1433.4000      7.7141      2.5049      0.0712      8.7922     21.6079   -999.2500
  1433.5000      7.7099      2.4921      0.0084      9.5710     21.8431   -999.2500
  1433.6000      7.7059      2.4934      0.0251      9.4937     22.1252   -999.2500
  1433.7000      7.7028      2.5094      0.0176      8.5202     22.3688   -999.2500
  1433.8000      7.7013      2.5375      0.0466      6.8212     22.3798   -999.2500
  1433.9000      7.7018      2.5680      0.0587      4.9724     22.7985   -999.2500
  1434.0000      7.7043      2.5821      0.0765      4.1167     25.3903   -999.2500
  1434.1000      7.7082      2.5716      0.0455      4.7534     31.9423   -999.2500
  1434.2000      7.7129      2.5520      0.0562      5.9368     40.5482   -999.2500
  1434.3000      7.7173      2.5414      0.0462      6.5832     46.3596   -999.2500
  1434.4000      7.7208      2.5412      0.0620      6.5944     48.4468   -999.2500
  1434.5000      7.7231      2.5461      0.0495      6.2978     48.8563   -999.2500
  1434.6000      7.7241      2.5466      0.1136      6.2644     48.8996   -999.2500
  1434.7000      7.7239      2.5337      0.0420      7.0489     48.9020   -999.2500
  1434.8000      7.7225      2.5135      0.0475      8.2729   -999.2500   -999.2500
  1434.9000      7.7199      2.4965     -0.0123      9.3056   -999.2500   -999.2500
  1435.0000      7.7162      2.4897      0.0145      9.7153   -999.2500   -999.2500
  1435.1000      7.7118      2.4961      0.0305      9.3285   -999.2500   -999.2500
  1435.2000      7.7071      2.5134      0.0394      8.2805   -999.2500   -999.2500
  1435.3000      7.7028      2.5351      0.0675      6.9623   -999.2500   -999.2500
  1435.4000      7.6994      2.5488      0.0824      6.1358   -999.2500   -999.2500
  1435.5000      7.6972      2.5444      0.1017      6.3974   -999.2500   -999.2500
  1435.6000      7.6960      2.5339      0.0363      7.0370   -999.2500   -999.2500
  1435.7000      7.6955      2.5367      0.0988      6.8646   -999.2500   -999.2500
  1435.8000      7.6951      2.5473      0.0740      6.2232   -999.2500   -999.2500
  1435.9000      7.6945      2.5489      0.0896      6.1269   -999.2500   -999.2500
  1436.0000      7.6935      2.5348      0.0779      6.9807   -999.2500   -999.2500
  1436.1000      7.6923      2.5103      0.0376      8.4695   -999.2500   -999.2500
  1436.2000      7.6912      2.4871      0.0364      9.8713   -999.2500   -999.2500
  1436.3000      7.6907      2.4721      0.0282     10.7826   -999.2500   -999.2500
  1436.4000      7.6910      2.4693      0.0031     10.9504   -999.2500   -999.2500
  1436.5000      7.6918      2.4819      0.0270     10.1859   -999.2500   -999.2500
  1436.6000      7.6927      2.5070     -0.0293      8.6646   -999.2500   -999.2500
