~Version Information
VERS.                      2.0: CWLS Log ASCII Standard - VERSION 2.0
WRAP.                       NO: One line per depth step
~Well Information Block
STRT.FT                 0.0000: 
STOP.FT              2473.5000: 
STEP.FT                 0.2500: 
NULL.                -999.2500: 
COMP.          Petrogulf Corporation: COMPANY
WELL.          Montoya 18-11V-B: WELL
FLD.           Purgatorie River: FIELD
LOC.           848' FNL & 619' FWL: LOCATION
PROV.                 Colorado: PROVINCE
CNTY.               Las Animas: COUNTRY
SRVC.                Patterson: SERVICE COMPANY
DATE.          Wed Nov 09 10:15:13 2005: LOG DATE
UWI.                          : UNIQUE WELL ID
~Curve Information Block
DEPT.FT            0 000 00 00: Depth
CCL.                          : Casing Collar Locator
TT3.usec                      : CBL 3' Travel Time
AMP3.mV                       : CBL 3' Amplitude
GR.GAPI                       : Gamma Ray
~Parameter Information Block
~A  Depth       CCL         TT3         AMP3         GR     
# ...
   636.5000      0.0000    262.3700     61.9220     37.8664
   636.7500      0.0000    264.1537     55.8807     33.6451
   637.0000      0.0000    265.3847     51.9547     29.9187
   637.2500      0.0000    265.9453     50.9795     27.8659
   637.5000      0.0000    266.0901     51.4955     27.9251
   637.7500      0.0000    266.0924     52.0569     29.5409
   638.0000     -2.0000    266.0758     52.2916     31.6488
   638.2500      2.0000    266.0532     52.2649     33.5779
   638.5000      0.0000    265.9709     52.0693     35.4541
   638.7500      0.0000    265.6921     52.3307     37.8595
   639.0000      0.0000    265.0300     54.5040     41.3213
   639.2500      0.0000    263.9240     59.2765     45.9114
   639.5000      0.0000    262.5326     65.0510     50.9623
   639.7500      0.0000    261.0962     69.6438     55.2757
   640.0000      0.0000    259.8578     72.4042     57.9252
   640.2500      0.0000    259.0336     73.7440     58.7531
   640.5000      0.0000    258.6508     74.2151     57.9894
   640.7500      0.0000    258.5376     74.3178     55.7988
   641.0000      0.0000    258.5198     74.3382     52.5695
   641.2500      0.0000    258.5170     74.3488     49.4453
   641.5000      0.0000    258.5067     74.3821     48.1292
   641.7500      0.0000    258.4870     74.4577     49.8614
   642.0000      0.0000    258.4653     74.5362     54.5397
   642.2500      0.0000    258.4473     74.5661     60.7952
   642.5000      0.0000    258.4348     74.5353     66.7316
   642.7500      0.0000    258.4279     74.4585     70.6428
   643.0000      0.0000    258.4210     74.3647     71.6136
   643.2500      0.0000    258.4073     74.3039     70.0254
   643.5000      0.0000    258.3849     74.3063     67.4797
   643.7500      0.0000    258.3591     74.3261     65.7882
   644.0000      0.0000    258.3407     74.3094     65.7173
   644.2500      0.0000    258.3352     74.2759     66.6831
   644.5000      0.0000    258.3391     74.2557     67.6934
   644.7500      0.0000    258.3494     74.2447     68.3151
   645.0000      0.0000    258.3661     74.2279     68.5008
   645.2500      0.0000    258.3822     74.1837     68.0060
   645.5000      0.0000    258.3834     74.1351     66.7107
   645.7500      0.0000    258.3645     74.1430     65.3195
   646.0000      0.0000    258.3344     74.1988     65.0362
   646.2500      0.0000    258.3055     74.2273     66.4781
   646.5000      0.0000    258.2909     74.1733     69.3841
   646.7500      0.0000    258.3012     74.0429     73.4563
   647.0000      0.0000    258.3321     73.9242     79.0583
   647.2500      0.0000    258.3615     73.9243     86.7793
   647.5000      0.0000    258.3680     74.0607     96.3124
   647.7500      0.0000    258.3568     74.2595    105.8671
   648.0000      0.0000    258.3511     74.4291    112.8595
   648.2500      0.0000    258.3563     74.5218    115.3249
   648.5000      0.0000    258.3571     74.5436    112.8472
   648.7500      0.0000    258.3532     74.5242    106.5067
   649.0000      0.0000    258.3673     74.4937     98.3528
   649.2500      0.0000    258.4077     74.4575     90.7371
   649.5000      0.0000    258.4528     74.3940     85.3457
   649.7500      0.0000    258.4782     74.3045     82.3783
   650.0000      0.0000    258.4738     74.2508     80.7498
   650.2500      0.0000    258.4475     74.2936     79.1404
   650.5000      0.0000    258.4230     74.4030     76.6863
   650.7500      0.0000    258.4149     74.5092     72.9717
   651.0000      0.0000    258.4166     74.5900     68.0272
   651.2500      0.0000    258.4219     74.6491     62.4794
   651.5000      0.0000    258.4343     74.6824     57.3705
   651.7500      0.0000    258.4545     74.6904     53.6075
   652.0000      0.0000    258.4750     74.6896     51.4566
   652.2500      0.0000    258.4818     74.6907     50.4428
   652.5000      0.0000    258.4673     74.6863     49.7720
   652.7500      0.0000    258.4428     74.6784     48.9489
   653.0000      0.0000    258.4265     74.6772     48.0827
   653.2500      0.0000    258.4238     74.6800     47.6309
   653.5000      0.0000    258.4293     74.6779     47.7859
   653.7500      0.0000    258.4373     74.6665     48.0951
   654.0000      0.0000    258.4445     74.6399     47.8570
   654.2500      0.0000    258.4486     74.6069     47.0017
   654.5000      0.0000    258.4473     74.5957     46.4055
   654.7500      0.0000    258.4363     74.6095     47.1257
   655.0000      0.0000    258.4144     74.6257     49.3867
   655.2500      0.0000    258.3906     74.6359     52.4206
   655.5000      0.0000    258.3724     74.6483     55.1569
   655.7500      0.0000    258.3602     74.6705     56.8493
   656.0000      0.0000    258.3645     74.6876     57.2184
   656.2500      0.0000    258.3928     74.6744     56.4247
   656.5000      0.0000    258.4264     74.6374     54.9772
   656.7500      0.0000    258.4447     74.6078     53.4624
   657.0000      0.0000    258.4507     74.5927     52.2613
   657.2500      0.0000    258.4592     74.5767     51.3867
   657.5000      0.0000    258.4713     74.5651     50.4795
   657.7500      0.0000    258.4688     74.5822     49.1177
   658.0000      0.0000    258.4446     74.6236     47.2434
   658.2500      0.0000    258.4225     74.6431     45.1295
   658.5000      0.0000    258.4220     74.6103     42.9464
   658.7500      0.0000    258.4315     74.5590     40.6561
   659.0000      0.0000    258.4376     74.5433     38.3359
   659.2500      0.0000    258.4461     74.5688     36.3134
   659.5000      0.0000    258.4596     74.6029     34.9961
   659.7500      0.0000    258.4634     74.6269     34.6931
   660.0000      0.0000    258.4478     74.6551     35.4862
   660.2500      0.0000    258.4236     74.6994     37.1030
   660.5000      0.0000    258.4045     74.7447     38.9959
   660.7500      0.0000    258.3925     74.7697     40.7054
   661.0000      0.0000    258.3916     74.7577     42.1598
   661.2500      0.0000    258.4103     74.7115     43.6243
   661.5000      0.0000    258.4427     74.6638     45.3697
   661.7500      0.0000    258.4684     74.6499     47.2683
   662.0000      0.0000    258.4749     74.6797     48.6753
   662.2500      0.0000    258.4671     74.7372     49.0028
   662.5000      0.0000    258.4592     74.7955     48.5745
   662.7500      0.0000    258.4594     74.8305     48.6094
   663.0000      0.0000    258.4672     74.8209     50.1581
   663.2500      0.0000    258.4790     74.7631     53.3704
   663.5000      0.0000    258.4934     74.6899     57.9228
   663.7500      0.0000    258.5082     74.6609     63.6603
   664.0000      0.0000    258.5170     74.6997     70.4303
   664.2500      0.0000    258.5148     74.7503     77.5672
   664.5000      0.0000    258.5065     74.7443     83.9315
   664.7500      0.0000    258.5042     74.6945     88.3938
   665.0000      0.0000    258.5142     74.6643     90.2351
   665.2500      0.0000    258.5323     74.6635     89.4143
   665.5000      0.0000    258.5492     74.6435     86.7532
   665.7500      0.0000    258.5567     74.5967     83.7742
   666.0000      0.0000    258.5531     74.5770     82.0301
   666.2500      0.0000    258.5451     74.6052     82.2558
   666.5000      0.0000    258.5451     74.6457     84.0777
   666.7500      0.0000    258.5572     74.6765     86.6998
   667.0000      0.0000    258.5650     74.6965     89.7281
   667.2500      0.0000    258.5503     74.6908     93.0164
   667.5000      0.0000    258.5220     74.6470     95.9357
   667.7500      0.0000    258.5075     74.5865     97.4125
   668.0000      0.0000    258.5127     74.5606     96.8455
   668.2500      0.0000    258.5185     74.6027     94.6556
   668.5000      0.0000    258.5192     74.6717     91.8201
   668.7500      0.0000    258.5250     74.6927     89.1280
   669.0000      0.0000    258.5367     74.6669     86.9639
   669.2500      0.0000    258.5498     74.6555     85.4430
   669.5000      0.0000    258.5650     74.6721     84.4598
   669.7500      0.0000    258.5809     74.6810     83.7049
