~Version Information
VERS.                      2.0: CWLS Log ASCII Standard - VERSION 2.0
WRAP.                       NO: One line per depth step
~Well Information Block
STRT.FT               310.0000: 
STOP.FT              2298.0000: 
STEP.FT                 0.2500: 
NULL.                -999.2500: 
COMP.          Pioneer Natural Resources: COMPANY
WELL.               Relay 12-7: WELL
FLD.           Purgatoire River: FIELD
LOC.           1999' FNL & 848' FWL: LOCATION
PROV.                 Colorado: PROVINCE
CNTY.               Las Animas: COUNTRY
SRVC.                Patterson: SERVICE COMPANY
DATE.          Fri Dec 16 17:39:57 2005: LOG DATE
UWI.           05 071 08453 00: UNIQUE WELL ID
~Curve Information Block
DEPT.FT            0 000 00 00: Depth
SN.Ohm-m                      : IEL Short Normal
SP.mV                         : IEL Spontaneous Potential
DIR.Ohm-m                     : IEL Induction Resistivity
GR.GAPI                       : Gamma Ray
~Parameter Information Block
~A  Depth        SN          SP         DIR          GR     
   310.0000   2000.0000   2000.0000    135.3210    109.6993
   310.2500   2000.0000   2000.0000    138.3287    111.0664
   310.5000   2000.0000   2000.0000    142.0397    112.7115
   310.7500   2000.0000   2000.0000    145.6868    113.5600
   311.0000   2000.0000   2000.0000    148.6588    114.4479
   311.2500   2000.0000   2000.0000    150.5555    115.1434
   311.5000   2000.0000   2000.0000    151.1744    117.4970
   311.7500   2000.0000   2000.0000    150.5989    120.1800
   312.0000   2000.0000   2000.0000    149.3204    124.4380
   312.2500   2000.0000   2000.0000    148.1541    126.1323
   312.5000   2000.0000   2000.0000    147.9177    126.3035
   312.7500   2000.0000   2000.0000    149.0826    125.6309
   313.0000   2000.0000   2000.0000    151.5195    124.9003
   313.2500   2000.0000   2000.0000    154.4044    124.6771
   313.5000   2000.0000   2000.0000    156.4183    123.9757
   313.7500   2000.0000   2000.0000    156.3724    122.8207
   314.0000   2000.0000   2000.0000    153.9186    119.4545
   314.2500   2000.0000   2000.0000    149.6930    115.8183
   314.5000   2000.0000   2000.0000    144.7824    108.3246
   314.7500   2000.0000   2000.0000    140.1304    102.6212
   315.0000   2000.0000   2000.0000    136.3181     94.8596
   315.2500   2000.0000   2000.0000    133.6441     91.1041
   315.5000   2000.0000   2000.0000    132.2372     87.9450
   315.7500   2000.0000   2000.0000    132.0680     87.1356
   316.0000   2000.0000   2000.0000    132.8723     87.2188
   316.2500   2000.0000   2000.0000    134.1367     88.0244
   316.5000   2000.0000   2000.0000    135.2590     90.3201
   316.7500   2000.0000   2000.0000    135.8178     92.2636
   317.0000   2000.0000   2000.0000    135.7116     94.4410
   317.2500   2000.0000   2000.0000    135.0103     94.5524
   317.5000   2000.0000   2000.0000    133.7267     92.5342
   317.7500   2000.0000   2000.0000    131.8110     90.5838
   318.0000   2000.0000   2000.0000    129.3945     88.5308
   318.2500   2000.0000   2000.0000    126.9761     88.1121
   318.5000   2000.0000   2000.0000    125.2699     88.2072
   318.7500   2000.0000   2000.0000    124.8213     85.1766
   319.0000   2000.0000   2000.0000    125.7208     84.0948
   319.2500   2000.0000   2000.0000    127.6023     82.4492
   319.5000   2000.0000   2000.0000    129.8825     78.0765
   319.7500   2000.0000   2000.0000    132.0639     66.1600
   320.0000   2000.0000   2000.0000    133.8928     59.3059
   320.2500   2000.0000   2000.0000    135.3380     54.9495
   320.5000   2000.0000   2000.0000    136.4619     50.4315
   320.7500   2000.0000   2000.0000    137.2647     43.5849
   321.0000   2000.0000   2000.0000    137.5786     44.1302
   321.2500   2000.0000   2000.0000    137.1423     45.2321
   321.5000   2000.0000   2000.0000    135.8756     47.1204
   321.7500   2000.0000   2000.0000    134.0445     42.1532
   322.0000   2000.0000   2000.0000    132.0890     44.1379
   322.2500   2000.0000   2000.0000    130.1918     45.3710
   322.5000   2000.0000   2000.0000    128.0334     46.3759
   322.7500   2000.0000   2000.0000    125.0770     46.3169
   323.0000   2000.0000   2000.0000    121.2682     45.5502
   323.2500   2000.0000   2000.0000    117.4808     44.9508
   323.5000   2000.0000   2000.0000    115.1495     44.1143
   323.7500   2000.0000   2000.0000    115.4539     43.4013
   324.0000   2000.0000   2000.0000    118.7166     41.7336
   324.2500   2000.0000   2000.0000    124.1778     40.3367
   324.5000   2000.0000   2000.0000    130.2285     38.5916
   324.7500   2000.0000   2000.0000    135.2658     38.1126
   325.0000   2000.0000   2000.0000    138.6815     38.5757
   325.2500   2000.0000   2000.0000    140.9469     39.3972
   325.5000   2000.0000   2000.0000    142.7599     40.7742
   325.7500   2000.0000   2000.0000    144.3220     41.5794
   326.0000   2000.0000   2000.0000    145.3362     42.5938
   326.2500   2000.0000   2000.0000    145.5021     43.1616
   326.5000   2000.0000   2000.0000    144.9369     43.6442
   326.7500   2000.0000   2000.0000    144.0960     43.5048
   327.0000   2000.0000   2000.0000    143.3674     42.5497
   327.2500   2000.0000   2000.0000    142.7512     41.7587
   327.5000   2000.0000   2000.0000    141.9561     41.2192
   327.7500   2000.0000   2000.0000    140.7850     41.4857
   328.0000   2000.0000   2000.0000    139.4496     42.2328
   328.2500   2000.0000   2000.0000    138.5083     42.4759
   328.5000   2000.0000   2000.0000    138.4601     42.3898
   328.7500   2000.0000   2000.0000    139.3459     42.4370
   329.0000   2000.0000   2000.0000    140.6424     43.1043
   329.2500   2000.0000   2000.0000    141.5042     43.6815
   329.5000   2000.0000   2000.0000    141.2167     43.9382
   329.7500   2000.0000   2000.0000    139.4564     43.6068
   330.0000   2000.0000   2000.0000    136.1872     43.0022
   330.2500   2000.0000   2000.0000    131.5000     42.9023
   330.5000   2000.0000   2000.0000    125.7590     43.1411
   330.7500   2000.0000   2000.0000    119.7888     43.2418
   331.0000   2000.0000   2000.0000    114.5437     42.9542
   331.2500   2000.0000   2000.0000    110.3763     42.5754
   331.5000   2000.0000   2000.0000    106.5223     42.3454
   331.7500   2000.0000   2000.0000    101.4142     42.7834
   332.0000   2000.0000   2000.0000     93.8951     44.3392
   332.2500   2000.0000   2000.0000     84.3758     45.5408
   332.5000   2000.0000   2000.0000     74.5488     46.7131
   332.7500   2000.0000   2000.0000     66.2575     46.9097
   333.0000   2000.0000   2000.0000     60.9793     46.7743
   333.2500   2000.0000   2000.0000     60.2013     46.7484
   333.5000   2000.0000   2000.0000     66.7126     46.8848
   333.7500   2000.0000   2000.0000     89.1072     46.8403
   334.0000   2000.0000   2000.0000    171.9804     46.2888
   334.2500   2000.0000   2000.0000  27653.5059     45.7471
   334.5000   2000.0000   2000.0000 100000.0000     45.2568
   334.7500   2000.0000   2000.0000 100000.0000     45.5128
   335.0000   2000.0000   2000.0000 100000.0000     47.2261
   335.2500   2000.0000   2000.0000 100000.0000     49.1650
   335.5000   2000.0000   2000.0000 100000.0000     52.1328
   335.7500   2000.0000   2000.0000 100000.0000     53.2361
   336.0000   2000.0000   2000.0000 100000.0000     52.7626
   336.2500   2000.0000   2000.0000 100000.0000     51.2442
   336.5000   2000.0000   2000.0000 100000.0000     48.1158
   336.7500   2000.0000   2000.0000 100000.0000     45.9272
   337.0000   2000.0000   2000.0000 100000.0000     42.9312
   337.2500   2000.0000   2000.0000 100000.0000     41.3384
   337.5000   2000.0000   2000.0000 100000.0000     40.0232
   337.7500   2000.0000   2000.0000 100000.0000     40.0457
   338.0000   2000.0000   2000.0000 100000.0000     41.2811
   338.2500   2000.0000   2000.0000 100000.0000     42.6265
   338.5000   2000.0000   2000.0000 100000.0000     44.9965
   338.7500   2000.0000   2000.0000 100000.0000     46.6567
   339.0000   2000.0000   2000.0000 100000.0000     49.0474
   339.2500   2000.0000   2000.0000 100000.0000     50.4585
   339.5000   2000.0000   2000.0000 100000.0000     52.3243
   339.7500   2000.0000   2000.0000 100000.0000     53.6812
   340.0000   2000.0000   2000.0000 100000.0000     56.9455
   340.2500   2000.0000   2000.0000 100000.0000     60.7350
   340.5000   2000.0000   2000.0000    498.6010     69.6083
   340.7500   2000.0000   2000.0000      8.8910     77.3025
   341.0000   2000.0000   2000.0000      4.6976     89.7971
   341.2500   2000.0000   2000.0000      3.6337     97.7193
   341.5000   2000.0000   2000.0000      3.4196    107.7435
   341.7500   2000.0000   2000.0000      3.6315    112.6714
   342.0000   2000.0000   2000.0000      4.1747    116.9520
   342.2500   2000.0000   2000.0000      5.1191    117.9972
   342.5000   2000.0000   2000.0000      6.7840    118.3396
   342.7500   2000.0000   2000.0000     10.0765    118.6670
   343.0000   2000.0000   2000.0000     17.6389    119.8085
   343.2500   2000.0000   2000.0000     37.5149    120.6933
