~Version Information
VERS.                      2.0: CWLS Log ASCII Standard - VERSION 2.0
WRAP.                       NO: One line per depth step
~Well Information Block
STRT.FT               400.0000: 
STOP.FT              1804.7000: 
STEP.FT                 0.1000: 
NULL.                -999.2500: 
COMP.          Pioneer Natural Resources: COMPANY
WELL.           Lynch 43-30 Tr: WELL
FLD.           Purgatoire River: FIELD
LOC.           1431' FSL & 296' FEL--: LOCATION
PROV.                 Colorado: PROVINCE
CNTY.               Las Animas: COUNTRY
SRVC.                Patterson: SERVICE COMPANY
DATE.          Thu Jul 28 10:43:37 2005: LOG DATE
UWI.           05 071 08447 00: UNIQUE WELL ID
~Curve Information Block
DEPT.FT            0 000 00 00: Depth
DCAL.in                       : CDL Caliper
RHOB.g/cc                     : CDL Bulk Density
RHOC.g/cc                     : CDL Density Correction
DPOR.pu                       : CDL Density Porosity
NPOR.pu                       : Neutron Porosity
GR.GAPI                       : Gamma Ray
~Parameter Information Block
~A  Depth       DCAL        RHOB        RHOC        DPOR        NPOR         GR     
# ...
   582.4000      8.0805      2.5201      0.0168      7.8733     20.6798     71.7893
   582.5000      8.0810      2.5124      0.0266      8.3373     20.3278     70.1750
   582.6000      8.0810      2.5078      0.0194      8.6174     20.3198     68.7471
   582.7000      8.0810      2.5088      0.0170      8.5569     20.5454     66.9125
   582.8000      8.0806      2.5117      0.0337      8.3844     20.5294     63.9263
   582.9000      8.0806      2.5083      0.0241      8.5849     20.3303     60.8213
   583.0000      8.0799      2.5033      0.0211      8.8881     20.3917     58.6165
   583.1000      8.0799      2.5082      0.0181      8.5930     20.6666     59.9328
   583.2000      8.0799      2.5221      0.0396      7.7504     20.6604     65.6090
   583.3000      8.0778      2.5342      0.0360      7.0197     19.9711     70.5307
   583.4000      8.0778      2.5404      0.0406      6.6409     18.9831     71.2148
   583.5000      8.0775      2.5426      0.0418      6.5083     18.6628     71.9342
   583.6000      8.0775      2.5435      0.0408      6.4560     19.4047     74.5004
   583.7000      8.0775      2.5488      0.0352      6.1312     20.6278     76.3422
   583.8000      8.0808      2.5610      0.0502      5.3948     21.5549     77.7076
   583.9000      8.0808      2.5756      0.0471      4.5076     21.9463     80.4917
   584.0000      8.0826      2.5873      0.0523      3.8004     21.9259     83.2096
   584.1000      8.0826      2.5859      0.0663      3.8857     21.4183     82.5306
   584.2000      8.0826      2.5687      0.0374      4.9299     20.5439     78.3001
   584.3000      8.0813      2.5516      0.0293      5.9634     20.0220     71.8747
   584.4000      8.0813      2.5441      0.0407      6.4155     20.2143     65.7705
   584.5000      8.0799      2.5425      0.0230      6.5136     20.6827     63.3595
   584.6000      8.0799      2.5457      0.0383      6.3217     21.0284     64.3706
   584.7000      8.0799      2.5551      0.0266      5.7514     21.1220     65.7462
   584.8000      8.0785      2.5700      0.0397      4.8465     20.9511     66.8382
   584.9000      8.0785      2.5786      0.0543      4.3296     20.6507     68.3719
   585.0000      8.0775      2.5700      0.0406      4.8469     20.3530     69.0520
   585.1000      8.0775      2.5562      0.0289      5.6851     20.0078     65.4899
   585.2000      8.0775      2.5564      0.0272      5.6729     19.5442     58.2559
   585.3000      8.0788      2.5708      0.0467      4.7997     19.2987     55.0904
   585.4000      8.0788      2.5828      0.0507      4.0738     19.5280     60.4469
   585.5000      8.0803      2.5788      0.0477      4.3122     19.8807     67.1033
   585.6000      8.0803      2.5556      0.0549      5.7214     19.8232     67.3948
   585.7000      8.0803      2.5282      0.0054      7.3826     19.4295     64.1153
   585.8000      8.0804      2.5204      0.0319      7.8516     19.2251     61.2208
   585.9000      8.0804      2.5341      0.0258      7.0234     19.3886     58.5156
   586.0000      8.0800      2.5582      0.0412      5.5627     19.6480     55.5820
   586.1000      8.0800      2.5810      0.0475      4.1799     19.6552     52.6465
   586.2000      8.0800      2.5860      0.0635      3.8806     19.3877     50.5197
   586.3000      8.0804      2.5658      0.0432      5.1020     19.1217     50.4155
   586.4000      8.0804      2.5413      0.0192      6.5906     18.9489     53.0302
   586.5000      8.0805      2.5380      0.0211      6.7906     18.7672     58.1500
   586.6000      8.0805      2.5472      0.0459      6.2315     18.6628     63.3059
   586.7000      8.0805      2.5374      0.0465      6.8222     18.7117     65.3305
   586.8000      8.0789      2.5040      0.0153      8.8493     18.5388     65.9231
   586.9000      8.0789      2.4750     -0.0013     10.6071     18.0953     68.1038
   587.0000      8.0787      2.4664      0.0170     11.1247     17.8265     69.5662
   587.1000      8.0787      2.4691      0.0119     10.9606     17.8074     66.7512
   587.2000      8.0787      2.4742      0.0189     10.6520     17.8443     61.3943
   587.3000      8.0797      2.4772      0.0266     10.4725     17.8171     59.1814
   587.4000      8.0797      2.4742      0.0266     10.6562     17.8447     60.3531
   587.5000      8.0799      2.4668      0.0220     11.1044     18.0174     60.7234
   587.6000      8.0799      2.4574      0.0328     11.6753     18.0577     60.3215
   587.7000      8.0799      2.4481      0.0191     12.2352     17.6164     60.2444
   587.8000      8.0805      2.4464      0.0277     12.3385     16.9115     59.7743
   587.9000      8.0805      2.4584      0.0301     11.6151     16.5323     59.0116
   588.0000      8.0817      2.4824      0.0407     10.1562     16.5464     58.3501
   588.1000      8.0817      2.5051      0.0719      8.7800     16.7275     58.2744
   588.2000      8.0817      2.5123      0.0515      8.3430     17.0914     59.3703
   588.3000      8.0799      2.5024      0.0756      8.9477     17.5554     61.9823
   588.4000      8.0799      2.4841      0.0404     10.0536     17.7076     64.2847
   588.5000      8.0779      2.4740      0.0466     10.6697     17.3172     64.7925
   588.6000      8.0779      2.4709      0.0614     10.8536     16.9610     65.8594
   588.7000      8.0779      2.4605      0.0532     11.4873     17.4160     67.8713
   588.8000      8.0793      2.4474      0.0370     12.2795     18.3207     68.5659
   588.9000      8.0793      2.4458      0.0404     12.3785     18.7495     67.4760
   589.0000      8.0808      2.4499      0.0648     12.1302     18.7262     66.0323
   589.1000      8.0808      2.4524      0.0361     11.9727     18.5313     65.9858
   589.2000      8.0808      2.4651      0.0515     11.2069     18.2884     67.4579
   589.3000      8.0814      2.4890      0.0607      9.7551     18.2387     69.6328
   589.4000      8.0814      2.5051      0.0841      8.7837     18.5422     71.3507
   589.5000      8.0811      2.5039      0.0568      8.8574     18.7991     70.8408
   589.6000      8.0811      2.4963      0.0618      9.3144     18.4716     66.9592
   589.7000      8.0811      2.4890      0.0644      9.7604     18.1357     61.8378
   589.8000      8.0791      2.4847      0.0414     10.0192     18.5615     58.6259
   589.9000      8.0791      2.4871      0.0599      9.8729     19.3259     57.0211
   590.0000      8.0771      2.4877      0.0564      9.8372     19.7076     56.3561
   590.1000      8.0771      2.4817      0.0493     10.2001     19.5721     58.3734
   590.2000      8.0771      2.4809      0.0362     10.2465     19.1642     61.3612
   590.3000      8.0764      2.4936      0.0539      9.4776     18.9020     62.9858
   590.4000      8.0764      2.5102      0.0574      8.4699     18.8739     64.3012
   590.5000      8.0773      2.5177      0.0648      8.0169     18.6875     64.8311
   590.6000      8.0773      2.5138      0.0564      8.2527     18.3319     63.7810
   590.7000      8.0773      2.5077      0.0510      8.6233     18.1712     63.3347
   590.8000      8.0780      2.5080      0.0524      8.6090     18.2317     65.3136
   590.9000      8.0780      2.5126      0.0597      8.3268     18.2891     66.6072
   591.0000      8.0766      2.5150      0.0567      8.1788     18.2612     64.1689
   591.1000      8.0766      2.5134      0.0588      8.2804     18.2419     63.5429
   591.2000      8.0766      2.5114      0.0505      8.3995     18.3070     68.3382
   591.3000      8.0758      2.5126      0.0540      8.3275     18.4456     72.6068
   591.4000      8.0758      2.5117      0.0609      8.3822     18.4708     71.7223
   591.5000      8.0769      2.5016      0.0492      8.9962     18.2959     67.6527
   591.6000      8.0769      2.4851      0.0472      9.9927     18.1504     65.3363
   591.7000      8.0769      2.4729      0.0286     10.7308     18.0624     66.8259
   591.8000      8.0788      2.4697      0.0426     10.9272     18.0306     69.1201
   591.9000      8.0788      2.4676      0.0423     11.0521     18.2854     68.8355
