~Version Information
VERS.                      2.0: CWLS Log ASCII Standard - VERSION 2.0
WRAP.                       NO: One line per depth step
~Well Information Block
STRT.FT               555.0000: 
STOP.FT              2322.2000: 
STEP.FT                 0.1000: 
NULL.                -999.2500: 
COMP.          Pioneer Natural Resources: COMPANY
WELL.          Fittipaldi 21-12: WELL
FLD.           Purgatoire River: FIELD
LOC.           207' FNL & 2110' FWL--: LOCATION
CNTY.               Las Animas: COUNTY
SRVC.                Patterson: SERVICE COMPANY
DATE.          Wed Mar 22 07:11:06 2006: LOG DATE
UWI.           05 071 08492 00: UNIQUE WELL ID
STAT.                 Colorado: STATE
~Curve Information Block
DEPT.FT            0 000 00 00: Depth
DCAL.in                       : CDL Caliper
RHOB.g/cc                     : CDL Bulk Density
RHOC.g/cc                     : CDL Density Correction
DPOR.pu                       : CDL Density Porosity
NPOR.pu                       : Neutron Porosity
GR.GAPI                       : Gamma Ray
~Parameter Information Block
~A  Depth       DCAL        RHOB        RHOC        DPOR        NPOR         GR     
# ...
  1831.8000      7.9913      2.5933      0.1038      3.4357     25.6538     97.9407
  1831.9000      7.9913      2.6060      0.0815      2.6670     25.5010     96.7741
  1832.0000      7.9716      2.5935      0.1375      3.4227     25.0786     94.3193
  1832.1000      7.9716      2.5663      0.0586      5.0697     24.9346     90.0524
  1832.2000      7.9716      2.5462      0.0949      6.2919     25.1492     86.2127
  1832.3000      7.9535      2.5479      0.0807      6.1861     25.5199     84.8933
  1832.4000      7.9535      2.5650      0.0967      5.1515     25.9108     89.3834
  1832.5000      7.9574      2.5796      0.1233      4.2678     26.0303     98.0773
  1832.6000      7.9574      2.5869      0.0696      3.8251     26.0408    101.6742
  1832.7000      7.9574      2.5957      0.1141      3.2936     26.4664     98.3707
  1832.8000      7.9994      2.6035      0.0812      2.8183     27.3291     96.1144
  1832.9000      7.9994      2.6028      0.0581      2.8587     28.1210     98.5768
  1833.0000      8.0544      2.5943      0.0328      3.3750     28.3402    100.7283
  1833.1000      8.0544      2.5864      0.0668      3.8551     28.0147     99.1563
  1833.2000      8.0544      2.5908      0.0382      3.5850     27.4318     96.5564
  1833.3000      8.0805      2.6078      0.1262      2.5596     27.0594     97.7234
  1833.4000      8.0805      2.6181      0.1163      1.9337     27.3414    103.6469
  1833.5000      8.0810      2.6132      0.0743      2.2291     27.9455    107.4778
  1833.6000      8.0810      2.6042      0.0573      2.7759     28.4097    105.1218
  1833.7000      8.0810      2.5943      0.1112      3.3745     28.7425    102.5412
  1833.8000      8.0782      2.5827      0.0891      4.0767     28.7392    103.9027
  1833.9000      8.0782      2.5759      0.0509      4.4934     28.3227    105.4694
  1834.0000      8.0801      2.5724      0.0432      4.7009     28.0083    103.5411
  1834.1000      8.0801      2.5703     -0.0123      4.8276     28.0221    101.8143
  1834.2000      8.0801      2.5728      0.0749      4.6783     28.1660    104.0398
  1834.3000      8.0838      2.5719      0.0701      4.7322     28.1824    105.9958
  1834.4000      8.0838      2.5637      0.0058      5.2312     28.1709    103.7629
  1834.5000      8.0887      2.5572      0.0142      5.6265     28.3459    100.5561
  1834.6000      8.0887      2.5558      0.0248      5.7121     28.3581    101.8888
  1834.7000      8.0887      2.5482      0.0729      6.1708     28.0669    106.8941
  1834.8000      8.0957      2.5270      0.0157      7.4555     27.9360    111.0555
  1834.9000      8.0957      2.5067     -0.0049      8.6868     28.1404    112.9217
  1835.0000      8.1004      2.5019      0.0260      8.9782     28.3835    111.7074
  1835.1000      8.1004      2.5062      0.0207      8.7168     28.4442    109.8481
  1835.2000      8.1004      2.4997      0.0581      9.1093     28.3856    110.5790
  1835.3000      8.1031      2.4814      0.0161     10.2211     28.4449    110.6851
  1835.4000      8.1031      2.4713      0.0384     10.8333     28.7423    106.1537
  1835.5000      8.1059      2.4657      0.0477     11.1692     29.0224    100.7055
  1835.6000      8.1059      2.4458      0.0269     12.3750     29.1187    100.1327
  1835.7000      8.1059      2.4176      0.0022     14.0820     29.2224    104.3450
  1835.8000      8.1092      2.4058      0.0320     14.7979     29.3352    109.3335
  1835.9000      8.1092      2.4167      0.1101     14.1399     29.3802    111.9589
  1836.0000      8.1016      2.4304      0.1073     13.3079     29.4407    111.0976
  1836.1000      8.1016      2.4414      0.0956     12.6445     29.6255    108.4598
  1836.2000      8.1016      2.4745      0.0865     10.6355     29.7366    108.2974
  1836.3000      8.0754      2.5343      0.2351      7.0146     29.4362    111.9696
  1836.4000      8.0754      2.5884      0.2535      3.7314     29.0211    114.7974
  1836.5000      8.0527      2.6313      0.2357      1.1361     28.7722    113.3857
  1836.6000      8.0527      2.6849      0.2460     -2.1160     28.4040    108.7716
  1836.7000      8.0527      2.7399      0.3234     -5.4488     27.8745    102.4487
  1836.8000      8.0815      2.7601      0.2882     -6.6755     27.5493     96.4235
  1836.9000      8.0815      2.7335      0.2425     -5.0603     27.6793     93.1200
  1837.0000      8.1614      2.6819      0.1613     -1.9358     28.1122     93.3825
  1837.1000      8.1614      2.6354      0.1044      0.8837     28.4816     94.4052
  1837.2000      8.1614      2.6056      0.0959      2.6903     28.4866     92.0948
  1837.3000      8.1977      2.5938      0.0298      3.4037     28.0941     88.3964
  1837.4000      8.1977      2.6035      0.0432      2.8185     27.7318     86.2357
  1837.5000      8.1478      2.6191      0.0622      1.8699     27.7199     84.0402
  1837.6000      8.1478      2.6195      0.0549      1.8491     27.6788     81.2912
  1837.7000      8.1478      2.6072      0.0157      2.5922     27.3639     81.0913
  1837.8000      8.0795      2.5918      0.0381      3.5299     27.3146     85.6246
  1837.9000      8.0795      2.5747     -0.0250      4.5652     27.7194     92.1052
  1838.0000      8.0388      2.5606     -0.0018      5.4197     27.9653     97.8680
  1838.1000      8.0388      2.5532      0.0426      5.8694     27.8220    100.9698
  1838.2000      8.0388      2.5542      0.0369      5.8038     27.6274     98.3792
  1838.3000      8.0175      2.5633      0.1320      5.2569     27.8407     93.6404
  1838.4000      8.0175      2.5722      0.1215      4.7163     28.5981     92.2620
  1838.5000      8.0080      2.5756      0.1170      4.5095     29.3703     95.0697
  1838.6000      8.0080      2.5785      0.0413      4.3342     29.4974    100.0660
  1838.7000      8.0080      2.5897      0.0852      3.6530     29.0291    101.8921
  1838.8000      8.0059      2.6026      0.1587      2.8741     28.3908     99.9984
  1838.9000      8.0059      2.6058      0.0943      2.6795     27.8245     99.4436
  1839.0000      8.0068      2.6064      0.0640      2.6436     27.4202    101.3767
  1839.1000      8.0068      2.6119      0.1090      2.3076     27.1869    102.6156
  1839.2000      8.0068      2.6161      0.0602      2.0555     27.2263    101.2859
  1839.3000      8.0085      2.6065      0.0883      2.6356     27.5265     96.0187
  1839.4000      8.0085      2.5787      0.0335      4.3183     27.7834     88.6610
  1839.5000      8.0134      2.5531     -0.0105      5.8745     27.8592     86.1123
  1839.6000      8.0134      2.5540      0.0065      5.8153     27.7738     89.4014
  1839.7000      8.0134      2.5799      0.0157      4.2489     27.4844     92.4313
  1839.8000      8.0207      2.6096      0.0533      2.4501     27.1440     92.3431
  1839.9000      8.0207      2.6283      0.0452      1.3139     27.1328     92.0309
  1840.0000      8.0251      2.6337      0.0996      0.9855     27.3606     96.2353
  1840.1000      8.0251      2.6268      0.0970      1.4036     27.4477    102.4664
  1840.2000      8.0251      2.6123      0.0826      2.2867     27.5747    105.6535
  1840.3000      8.0259      2.5917      0.0633      3.5360     28.0703    106.2067
  1840.4000      8.0259      2.5716      0.0524      4.7509     28.6156    104.3330
  1840.5000      8.0241      2.5706      0.0760      4.8121     28.7461    100.5630
  1840.6000      8.0241      2.5906      0.1049      3.6007     28.5036     97.1854
  1840.7000      8.0241      2.6105      0.1150      2.3938     28.2462     96.7887
  1840.8000      8.0205      2.6121      0.1480      2.2947     28.2187    101.0503
  1840.9000      8.0205      2.5997      0.0583      3.0487     28.3613    106.0047
  1841.0000      8.0151      2.5979      0.0511      3.1551     28.3942    106.5365
  1841.1000      8.0151      2.6092      0.1309      2.4729     28.1000    103.4669
  1841.2000      8.0151      2.6077      0.1093      2.5623     27.6148     99.8859
  1841.3000      8.0086      2.5892      0.0624      3.6863     27.2839     97.4972
