~Version Information
VERS.                      2.0: CWLS Log ASCII Standard - VERSION 2.0
WRAP.                       NO: One line per depth step
~Well Information Block
STRT.FT               -10.7500: 
STOP.FT              1466.2500: 
STEP.FT                 0.2500: 
NULL.                -999.2500: 
COMP.          Pioneer Natural Resources: COMPANY
WELL.             Andrew 23-15: WELL
FLD.           Purgatorie River: FIELD
LOC.           2137' FSL & 2292' FWL--: LOCATION
PROV.                       CO: PROVINCE
CNTY.               Las Animas: COUNTRY
SRVC.          Patterson Wireline: SERVICE COMPANY
DATE.          Thu Aug 18 11:51:45 2005: LOG DATE
UWI.           05 071 08460 00: UNIQUE WELL ID
~Curve Information Block
DEPT.FT            0 000 00 00: Depth
CCL.                          : Casing Collar Locator
TT3.usec                      : CBL 3' Travel Time
AMP3.mV                       : CBL 3' Amplitude
GR.GAPI                       : Gamma Ray
~Parameter Information Block
~A  Depth       CCL         TT3         AMP3         GR     
# ...
   960.7500      0.0000    799.1693      8.5623    154.1927
   961.0000      0.0000    800.3807      8.4700    148.0821
   961.2500      0.0000    802.9178      8.4047    143.7444
   961.5000      0.0000    807.2805      8.3760    139.8632
   961.7500      0.0000    813.1320      8.3804    134.4209
   962.0000      0.0000    819.1339      8.4078    126.5362
   962.2500      0.0000    823.7828      8.4460    117.0597
   962.5000      0.0000    826.1385      8.4823    107.7618
   962.7500      0.0000    825.3550      8.5075    100.4266
   963.0000      0.0000    820.2321      8.5231     96.4307
   963.2500      0.0000    810.3869      8.5418     96.2351
   963.5000      0.0000    797.7374      8.5782     99.0356
   963.7500      0.0000    785.7984      8.6359    103.3430
   964.0000      0.0000    777.2408      8.7046    107.9560
   964.2500      0.0000    772.4838      8.7690    112.1386
   964.5000      0.0000    770.4132      8.8182    115.1441
   964.7500      0.0000    769.7696      8.8489    116.2538
   965.0000      0.0000    769.8384      8.8624    115.7345
   965.2500      0.0000    770.4254      8.8616    115.5252
   965.5000      0.0000    771.6747      8.8465    118.0862
   965.7500      0.0000    773.7985      8.8088    124.0253
   966.0000      0.0000    776.7922      8.7286    131.4534
   966.2500      0.0000    780.7733      8.5771    138.2083
   966.5000      0.0000    787.4182      8.3295    143.8765
   966.7500      0.0000    800.7421      7.9873    149.0083
   967.0000      0.0000    824.6531      7.5964    153.3566
   967.2500      0.0000    858.8151      7.2427    155.8148
   967.5000      0.0000    898.1823      7.0089    155.4797
   967.7500      0.0000    936.8953      6.9214    152.0032
   968.0000     -2.0000    970.7911      6.9412    145.5437
   968.2500      2.0000    996.3448      7.0106    137.3780
   968.5000      0.0000   1010.1147      7.1073    130.3531
   968.7500      0.0000   1009.6384      7.2666    127.7253
   969.0000      0.0000    993.2975      7.5596    131.0166
   969.2500      0.0000    961.4449      8.0215    138.8587
   969.5000      0.0000    920.1799      8.5639    147.8330
   969.7500      0.0000    880.9896      8.9843    154.6124
   970.0000      0.0000    853.5727      9.1178    157.9846
   970.2500      0.0000    840.0338      8.9778    159.4999
   970.5000      0.0000    836.2291      8.7184    161.9753
   970.7500      0.0000    836.3261      8.4839    166.6570
   971.0000      0.0000    835.7531      8.3250    171.9023
   971.2500      0.0000    832.0966      8.2241    175.1651
   971.5000      0.0000    825.2015      8.1508    176.0741
   971.7500      0.0000    816.7573      8.0896    176.6583
   972.0000      0.0000    809.2374      8.0387    178.3222
   972.2500      0.0000    804.6148      8.0009    179.4572
   972.5000      0.0000    803.6193      7.9772    176.7364
   972.7500      0.0000    805.5704      7.9677    168.3781
   973.0000      0.0000    808.2780      7.9738    155.7111
   973.2500      0.0000    808.5504      7.9979    142.0557
   973.5000      0.0000    804.1089      8.0415    130.6366
   973.7500      0.0000    795.5538      8.1023    123.0725
   974.0000      0.0000    785.9471      8.1724    119.0327
   974.2500      0.0000    778.2495      8.2422    117.0258
   974.5000      0.0000    773.4667      8.3069    115.4499
   974.7500      0.0000    770.9664      8.3690    113.1669
   975.0000      0.0000    769.7426      8.4293    109.8711
   975.2500      0.0000    769.1450      8.4789    106.1688
   975.5000      0.0000    768.8994      8.5013    102.8391
   975.7500      0.0000    768.9095      8.4831     99.9433
   976.0000      0.0000    769.1397      8.4215     96.9671
   976.2500      0.0000    769.6738      8.3234     93.5795
   976.5000      0.0000    771.0564      8.1998     89.9110
   976.7500      0.0000    774.9432      8.0623     86.3866
   977.0000      0.0000    784.7441      7.9224     83.6156
   977.2500      0.0000    804.9098      7.7887     82.2183
   977.5000      0.0000    837.4521      7.6633     82.4595
   977.7500      0.0000    877.0419      7.5423     83.8877
   978.0000      0.0000    910.0915      7.4215     85.3493
   978.2500      0.0000    922.1174      7.3015     85.6701
   978.5000      0.0000    908.9833      7.1869     84.5699
   978.7500      0.0000    880.8501      7.0819     82.6747
   979.0000      0.0000    853.6161      6.9894     80.5194
   979.2500      0.0000    836.4109      6.9125     77.9459
   979.5000      0.0000    827.7258      6.8557     74.7250
   979.7500      0.0000    821.6434      6.8211     71.4326
   980.0000      0.0000    814.9347      6.8042     69.2549
   980.2500      0.0000    808.2559      6.7968     68.8863
   980.5000      0.0000    803.2725      6.7939     69.8596
   980.7500      0.0000    800.4289      6.7987     71.0391
   981.0000      0.0000    798.9477      6.8172     71.5367
   981.2500      0.0000    797.6824      6.8493     71.1335
   981.5000      0.0000    795.6577      6.8869     70.1962
   981.7500      0.0000    792.5914      6.9222     69.4051
   982.0000      0.0000    790.0375      6.9547     69.3051
   982.2500      0.0000    792.5781      6.9895     69.9274
   982.5000      0.0000    806.7631      7.0309     70.8858
   982.7500      0.0000    835.6160      7.0769     71.7519
   983.0000      0.0000    871.4775      7.1196     72.2710
   983.2500      0.0000    896.3597      7.1508     72.4380
   983.5000      0.0000    894.7109      7.1675     72.6339
   983.7500      0.0000    867.3361      7.1743     73.5255
   984.0000      0.0000    830.2282      7.1783     75.4286
   984.2500      0.0000    800.1363      7.1840     77.7703
   984.5000      0.0000    783.7559      7.1911     79.4242
   984.7500      0.0000    778.6515      7.1960     79.5378
   985.0000      0.0000    779.3419      7.1953     77.9815
   985.2500      0.0000    781.3407      7.1874     75.4121
   985.5000      0.0000    782.5457      7.1736     73.1694
   985.7500      0.0000    783.2464      7.1608     72.7061
   986.0000      0.0000    784.6961      7.1602     74.5193
   986.2500      0.0000    787.1118      7.1801     77.5848
   986.5000      0.0000    789.1308      7.2198     80.2057
   986.7500      0.0000    789.2600      7.2707     81.5625
   987.0000      0.0000    787.5863      7.3230     82.1000
   987.2500      0.0000    785.8820      7.3707     82.3499
   987.5000      0.0000    786.0278      7.4121     81.9318
   987.7500      0.0000    788.3827      7.4474     80.1609
   988.0000      0.0000    791.7292      7.4766     77.3558
   988.2500      0.0000    794.5936      7.5009     74.9158
   988.5000      0.0000    796.3336      7.5252     73.8772
   988.7500      0.0000    797.1266      7.5548     73.8198
   989.0000      0.0000    797.4047      7.5894     73.5189
   989.2500      0.0000    797.4804      7.6211     72.3818
   989.5000      0.0000    797.4952      7.6431     70.8975
   989.7500      0.0000    797.4882      7.6583     69.9460
   990.0000      0.0000    797.4573      7.6774     69.9775
   990.2500      0.0000    797.3945      7.7050     70.7087
   990.5000      0.0000    797.3033      7.7309     71.3768
   990.7500      0.0000    797.2024      7.7357     71.3222
   991.0000      0.0000    797.1168      7.7098     70.3562
   991.2500      0.0000    797.0723      7.6643     68.5664
   991.5000      0.0000    797.0921      7.6219     66.0067
   991.7500      0.0000    797.1887      7.5963     62.9917
   992.0000      0.0000    797.3527      7.5828     60.6755
   992.2500      0.0000    797.5493      7.5691     60.7594
   992.5000      0.0000    797.7244      7.5528     64.0782
   992.7500      0.0000    797.8335      7.5429     69.5390
   993.0000      0.0000    797.8854      7.5482     74.6965
   993.2500      0.0000    797.9985      7.5662     77.4197
   993.5000      0.0000    798.4763      7.5864     77.1466
   993.7500      0.0000    799.9120      7.6009     74.9060
   994.0000      0.0000    803.1760      7.6108     72.2898
