~Version Information
VERS.                      2.0: CWLS Log ASCII Standard - VERSION 2.0
WRAP.                       NO: One line per depth step
~Well Information Block
STRT.FT               440.0000: 
STOP.FT              1702.7000: 
STEP.FT                 0.1000: 
NULL.                -999.2500: 
COMP.          Pioneer Natural Resources: COMPANY
WELL.          Culver 14-12 Tr: WELL
FLD.           Purgatoire River: FIELD
LOC.           915' FSL & 1048' FWL--: LOCATION
STAT.                 Colorado: State
CNTY.               Las Animas: COUNTY
CTRY. USA : Country
SECT. 12 : Section
TOWN. 32S : Township
RANG. 66W : Range
SRVC.                Patterson: SERVICE COMPANY
DATE.          Wed Sep 28 10:00:59 2005: LOG DATE
API.           05 071 08520 00: UNIQUE WELL ID
~Curve Information Block
DEPT.FT            0 000 00 00: Depth
DCAL.in                       : CDL Caliper
RHOB.g/cc                     : CDL Bulk Density
RHOC.g/cc                     : CDL Density Correction
DPOR.pu                       : CDL Density Porosity
NPOR.pu                       : Neutron Porosity
GR.GAPI                       : Gamma Ray
~Parameter Information Block
~A  Depth       DCAL        RHOB        RHOC        DPOR        NPOR         GR     
# ...
  1092.8000      8.0594      2.5302      0.0273      7.2628     31.8847    133.2180
  1092.9000      8.0594      2.5351      0.0266      6.9655     32.4168    130.1428
  1093.0000      8.0609      2.5345      0.0321      6.9981     31.9113    128.6317
  1093.1000      8.0609      2.5273      0.0402      7.4334     31.1640    130.0514
  1093.2000      8.0609      2.5173      0.0451      8.0417     30.7700    135.4092
  1093.3000      8.0814      2.5071      0.0420      8.6597     30.6779    138.3206
  1093.4000      8.0814      2.4992      0.0501      9.1392     31.0036    139.4039
  1093.5000      8.1250      2.4919      0.0379      9.5837     31.7646    139.5807
  1093.6000      8.1250      2.4806      0.0397     10.2652     32.7420    137.1074
  1093.7000      8.1250      2.4537      0.0675     11.8971     33.6980    135.6700
  1093.8000      8.1697      2.3942      0.0367     15.5013     34.2941    137.8194
  1093.9000      8.1697      2.2984      0.0014     21.3102     34.4033    139.2319
  1094.0000      8.1943      2.1760     -0.0543     28.7268     34.6037    133.9489
  1094.1000      8.1943      2.0421     -0.0978     36.8397     35.5128    123.1246
  1094.2000      8.1943      1.9198     -0.1617     44.2554     36.5611    113.3895
  1094.3000      8.2018      1.8322     -0.1863     49.5611     36.8068    105.9117
  1094.4000      8.2018      1.7848     -0.1542     52.4353     36.4371     98.6780
  1094.5000      8.2046      1.7681     -0.1153     53.4501     36.1753     94.5264
  1094.6000      8.2046      1.7764     -0.0846     52.9470     36.1296     93.7349
  1094.7000      8.2046      1.8137     -0.0283     50.6862     35.8838     92.8395
  1094.8000      8.2080      1.8816      0.0699     46.5727     35.4445     91.4658
  1094.9000      8.2080      1.9628      0.1990     41.6465     35.3358     90.9102
  1095.0000      8.1999      2.0300      0.2126     37.5741     35.5525     92.7320
  1095.1000      8.1999      2.0726      0.2181     34.9926     35.5256     96.7221
  1095.2000      8.1999      2.1045      0.1877     33.0618     35.0082    101.1001
  1095.3000      8.1698      2.1467      0.1266     30.5046     34.1861    107.2821
  1095.4000      8.1698      2.1993      0.1412     27.3139     33.2922    116.6340
  1095.5000      8.1475      2.2408      0.1380     24.7998     32.7570    123.5933
  1095.6000      8.1475      2.2650      0.0923     23.3311     32.7155    125.8241
  1095.7000      8.1475      2.2865      0.1068     22.0279     32.6421    129.6421
  1095.8000      8.1438      2.3087      0.1494     20.6823     32.4464    135.8465
  1095.9000      8.1438      2.3287      0.1143     19.4724     32.2393    137.7296
  1096.0000      8.1357      2.3579      0.1106     17.7011     31.9274    133.3168
  1096.1000      8.1357      2.4082      0.1213     14.6534     31.7004    128.7656
  1096.2000      8.1357      2.4705      0.1310     10.8808     31.6433    129.4040
  1096.3000      8.1286      2.5163      0.1114      8.1015     31.5113    134.5550
  1096.4000      8.1286      2.5319      0.0433      7.1579     31.2355    140.4481
  1096.5000      8.1312      2.5297      0.0446      7.2923     30.9249    144.8584
  1096.6000      8.1312      2.5238      0.0705      7.6486     30.6531    148.3254
  1096.7000      8.1312      2.5245      0.0672      7.6033     30.4263    147.6077
  1096.8000      8.1369      2.5368      0.0801      6.8631     30.3348    141.3658
  1096.9000      8.1369      2.5526      0.0527      5.9033     30.7338    136.7261
  1097.0000      8.1322      2.5589      0.0869      5.5211     31.4237    137.4486
  1097.1000      8.1322      2.5488      0.0301      6.1317     31.7615    139.2552
  1097.2000      8.1322      2.5321      0.0294      7.1479     31.6007    139.4289
  1097.3000      8.1209      2.5173      0.0672      8.0404     31.2884    139.7046
  1097.4000      8.1209      2.4967      0.0375      9.2907     30.9808    140.7788
  1097.5000      8.1208      2.4690      0.0136     10.9683     30.4985    141.2570
  1097.6000      8.1208      2.4489      0.0133     12.1901     30.0631    138.7476
  1097.7000      8.1208      2.4395      0.0556     12.7588     30.3012    136.1686
  1097.8000      8.1310      2.4297      0.0544     13.3516     31.3404    135.4392
  1097.9000      8.1310      2.4201      0.0329     13.9347     32.1817    133.9735
  1098.0000      8.1354      2.4306     -0.0016     13.2948     31.9623    134.6652
  1098.1000      8.1354      2.4704      0.0398     10.8823     31.0940    140.3631
  1098.2000      8.1354      2.5148      0.0954      8.1909     30.1821    145.2803
  1098.3000      8.1104      2.5422      0.0754      6.5327     29.0128    144.7759
  1098.4000      8.1104      2.5595      0.0972      5.4866     27.6203    138.7916
  1098.5000      8.0639      2.5722      0.1121      4.7155     26.9169    127.1328
  1098.6000      8.0639      2.5815      0.0610      4.1531     26.9871    113.7217
  1098.7000      8.0639      2.5934      0.0880      3.4321     26.7640    102.2787
  1098.8000      8.0296      2.6053      0.0584      2.7112     25.7487     94.5571
  1098.9000      8.0296      2.6107      0.0651      2.3818     24.5139     91.3902
  1099.0000      8.0171      2.6103      0.0270      2.4070     23.8088     91.5003
  1099.1000      8.0171      2.6105      0.0127      2.3934     23.7445     96.7565
  1099.2000      8.0171      2.6115      0.0545      2.3353     23.8205    106.8098
  1099.3000      8.0123      2.6077      0.0276      2.5634     23.9942    116.0747
  1099.4000      8.0123      2.6010      0.0296      2.9689     24.5758    121.1094
  1099.5000      8.0088      2.5974      0.0147      3.1878     25.3364    121.7450
  1099.6000      8.0088      2.6013      0.0164      2.9544     26.0001    119.8803
  1099.7000      8.0088      2.6101      0.0327      2.4207     26.5382    118.2622
  1099.8000      8.0102      2.6214      0.0269      1.7331     26.4249    115.6870
  1099.9000      8.0102      2.6419      0.0008      0.4898     25.3984    110.1212
  1100.0000      8.0155      2.6703      0.0468     -1.2323     24.1900    103.8299
  1100.1000      8.0155      2.6890      0.0332     -2.3621     23.8952     99.4923
  1100.2000      8.0155      2.6842      0.0522     -2.0731     24.6194     96.0207
  1100.3000      8.0199      2.6592      0.0273     -0.5565     25.4311     91.1356
  1100.4000      8.0199      2.6348      0.0116      0.9237     25.8906     88.2254
  1100.5000      8.0167      2.6322      0.0225      1.0791     25.9356     90.5689
  1100.6000      8.0167      2.6571      0.0175     -0.4293     25.4590     96.1242
  1100.7000      8.0167      2.6957      0.0629     -2.7719     24.7271    102.3801
  1100.8000      8.0066      2.7210      0.1376     -4.3042     24.1466    107.0912
  1100.9000      8.0066      2.7209      0.1116     -4.2972     23.8983    107.4251
  1101.0000      8.0008      2.7115      0.1157     -3.7271     23.8126    102.1162
  1101.1000      8.0008      2.7123      0.0830     -3.7735     23.6312     96.6235
  1101.2000      8.0008      2.7250      0.1140     -4.5453     23.4291     99.2220
  1101.3000      8.0047      2.7356      0.1064     -5.1884     23.1620    108.2168
  1101.4000      8.0047      2.7373      0.0465     -5.2888     22.6198    115.8893
  1101.5000      8.0178      2.7327      0.0645     -5.0141     22.0630    116.5838
  1101.6000      8.0178      2.7145      0.0272     -3.9119     21.8012    111.6338
  1101.7000      8.0178      2.6798     -0.0131     -1.8087     21.6179    108.2164
  1101.8000      8.0376      2.6479     -0.0201      0.1283     21.6668    106.7656
  1101.9000      8.0376      2.6331     -0.0015      1.0264     22.3279    103.2461
  1102.0000      8.0576      2.6265      0.0035      1.4271     23.1151     97.3666
  1102.1000      8.0576      2.6176      0.0036      1.9650     23.3667     93.2991
  1102.2000      8.0576      2.6130     -0.0160      2.2405     23.1653     94.6654
  1102.3000      8.0720      2.6188      0.0218      1.8890     23.0157     97.0727
