~Version Information
VERS.                      2.0: CWLS Log ASCII Standard - VERSION 2.0
WRAP.                       NO: One line per depth step
~Well Information Block
STRT.FT                 0.0000: 
STOP.FT              1507.7500: 
STEP.FT                 0.2500: 
NULL.                -999.2500: 
COMP.          Pioneer Natural Resources: COMPANY
WELL.          Pioneer 34-27 Tr: WELL
FLD.           Purgatorie River: FIELD
LOC.           243' FSL & 1593' FEL: LOCATION
STAT.                 Colorado: State
CNTY.               Las Animas: COUNTY
CTRY. USA : Country
SECT. 27 : Section
TOWN. 32S : Township
RANG. 67W : Range
SRVC.                Patterson: SERVICE COMPANY
DATE.          Wed Oct 12 09:30:25 2005: LOG DATE
API.                          : UNIQUE WELL ID
~Curve Information Block
DEPT.FT            0 000 00 00: Depth
GR.GAPI                       : Gamma Ray
CCL.                          : Casing Collar Locator
TT3.usec                      : CBL 3' Travel Time
AMP3.mV                       : CBL 3' Amplitude
~Parameter Information Block
~A  Depth        GR         CCL         TT3         AMP3    
# ...
   770.5000    136.4644      0.0000    702.8775     21.6512
   770.7500    142.0372      0.0000    724.1954     21.6641
   771.0000    146.6369      0.0000    731.9983     21.5649
   771.2500    147.5506      0.0000    733.8444     21.3819
   771.5000    144.7251      0.0000    733.9122     21.1266
   771.7500    140.7493      0.0000    732.8715     20.8526
   772.0000    138.0622      0.0000    730.0688     20.5861
   772.2500    136.6180      0.0000    726.0980     20.2680
   772.5000    134.9484      0.0000    724.0710     19.8342
   772.7500    132.8107      0.0000    726.0777     19.3491
   773.0000    131.5314      0.0000    729.7522     18.9759
   773.2500    131.9740      0.0000    731.1678     18.7733
   773.5000    133.3161      0.0000    728.0758     18.6252
   773.7500    134.0413      0.0000    720.3275     18.4121
   774.0000    133.4110      0.0000    711.3107     18.1859
   774.2500    131.8062      0.0000    707.2255     18.1383
   774.5000    130.1610      0.0000    711.2196     18.4005
   774.7500    129.1277      0.0000    719.1783     18.9034
   775.0000    128.3654      0.0000    723.1682     19.4538
   775.2500    126.7181      0.0000    719.0674     19.9080
   775.5000    123.5736      0.0000    710.1367     20.2324
   775.7500    119.8460      0.0000    703.2599     20.4674
   776.0000    116.9725      0.0000    702.8450     20.7125
   776.2500    115.1165      0.0000    707.1237     21.0613
   776.5000    113.1022      0.0000    704.7398     21.5038
   776.7500    109.9567      0.0000    675.5992     21.9581
   777.0000    105.6756      0.0000    609.7012     22.3522
   777.2500    100.7628      0.0000    531.4950     22.6382
   777.5000     96.0370      0.0000    483.5734     22.7995
   777.7500     92.7199      0.0000    480.8831     22.8493
   778.0000     91.6456      0.0000    507.3069     22.7878
   778.2500     92.3158      0.0000    542.6447     22.6310
   778.5000     93.3580      0.0000    569.3476     22.4621
   778.7500     93.8863      0.0000    579.6876     22.3362
   779.0000     93.9939      0.0000    583.8036     22.2023
   779.2500     93.9397      0.0000    597.6500     21.9986
   779.5000     93.3410      0.0000    621.3557     21.7449
   779.7500     91.5346      0.0000    626.8024     21.5097
   780.0000     88.5983      0.0000    592.5159     21.3432
   780.2500     85.6561      0.0000    550.0042     21.2447
   780.5000     84.1624      0.0000    554.7892     21.1803
   780.7500     85.0146      0.0000    615.1006     21.1335
   781.0000     88.0732      0.0000    687.8099     21.1156
   781.2500     92.1439      0.0000    736.3091     21.1087
   781.5000     95.5485      0.0000    758.3495     21.0454
   781.7500     97.0775      0.0000    767.7292     20.9133
   782.0000     96.5393      0.0000    772.6381     20.8330
   782.2500     94.6176      0.0000    772.5341     20.9503
   782.5000     92.4382      0.0000    764.3967     21.2637
   782.7500     91.0578      0.0000    742.7206     21.6056
   783.0000     91.0419      0.0000    706.2501     21.7806
   783.2500     92.4574      0.0000    673.0148     21.6918
   783.5000     95.1730      0.0000    665.0369     21.3819
   783.7500     98.9713      0.0000    678.6170     20.9943
   784.0000    103.4644      0.0000    694.4952     20.6761
   784.2500    108.1566      0.0000    701.8149     20.5275
   784.5000    112.6407      0.0000    698.6558     20.5995
   784.7500    116.6877      0.0000    685.0953     20.8576
   785.0000    120.0942      0.0000    666.7076     21.1595
   785.2500    122.5706      0.0000    660.6140     21.3403
   785.5000    124.1667      0.0000    678.1575     21.3398
   785.7500    125.7316      0.0000    705.7355     21.1944
   786.0000    128.2814      0.0000    723.7081     20.9451
   786.2500    131.6504      0.0000    728.2158     20.6180
   786.5000    134.1827      0.0000    725.8635     20.2350
   786.7500    134.0380      0.0000    723.9019     19.8490
   787.0000    130.7785      0.0000    725.7394     19.5677
   787.2500    125.8290      0.0000    729.5436     19.4400
   787.5000    121.6602      0.0000    732.2732     19.3713
   787.7500    120.3671      0.0000    733.2883     19.2460
   788.0000    122.5045      0.0000    733.2488     19.0656
   788.2500    126.8576      0.0000    731.7553     18.9251
   788.5000    131.1569      0.0000    725.4093     18.8722
   788.7500    133.2017      0.0000    708.5577     18.8624
   789.0000    131.8972      0.0000    682.7595     18.8701
   789.2500    127.8328      0.0000    664.7227     18.9218
   789.5000    122.9186      0.0000    669.6017     19.0107
   789.7500    119.0453      0.0000    690.1274     19.0915
   790.0000    116.8356      0.0000    707.5276     19.1302
   790.2500    115.7598      0.0000    712.3109     19.1069
   790.5000    115.3439      0.0000    707.4835     19.0178
   790.7500    115.7797      0.0000    700.6198     18.8915
   791.0000    117.1399      0.0000    696.1668     18.7795
   791.2500    118.3720      0.0000    694.2892     18.7289
   791.5000    117.6713      0.0000    694.0330     18.7323
   791.7500    114.1356      0.0000    695.5452     18.7242
   792.0000    108.9240      0.0000    700.8390     18.6746
   792.2500    104.6778      0.0000    712.0881     18.6307
   792.5000    103.7684      0.0000    727.0531     18.6267
   792.7500    106.7016      0.0000    739.0158     18.6403
   793.0000    111.7211      0.0000    744.3824     18.6687
   793.2500    115.9028      0.0000    744.6539     18.7750
   793.5000    116.9596      0.0000    738.4269     19.0411
   793.7500    114.4113      0.0000    719.3972     19.4768
   794.0000    109.5079      0.0000    683.1194     19.9937
   794.2500    104.4202      0.0000    635.4528     20.4927
   794.5000    101.3058      0.0000    600.7645     20.9305
   794.7500    101.4615      0.0000    606.9115     21.3063
   795.0000    104.7328      0.0000    648.7032     21.6501
   795.2500    109.5373      0.0000    689.0611     21.9918
   795.5000    113.7369      0.0000    698.2523     22.3248
   795.7500    115.8789      0.0000    667.0278     22.6423
   796.0000    115.7564      0.0000    598.9358     22.9880
   796.2500    113.8677      0.0000    520.5043     23.4204
   796.5000    110.7485      0.0000    477.3477     23.9093
   796.7500    107.0918      0.0000    491.6856     24.3272
   797.0000    104.0006      0.0000    541.1363     24.5828
   797.2500    102.4331      0.0000    588.7920     24.6934
   797.5000    102.3400      0.0000    606.0734     24.7295
   797.7500    102.6508      0.0000    574.5569     24.7332
   798.0000    102.2401      0.0000    508.0112     24.6871
   798.2500    100.8877      0.0000    451.9138     24.5591
   798.5000     99.3942      0.0000    435.1169     24.3351
   798.7500     98.9550      0.0000    447.3577     24.0150
   799.0000    100.3930      0.0000    464.7429     23.6353
   799.2500    103.7830      0.0000    475.0089     23.2751
   799.5000    108.4462      0.0000    478.6203     23.0104
   799.7500    112.9713      0.0000    479.2922     22.8644
   800.0000    115.4657      0.0000    479.3790     22.8123
   800.2500    114.4705      0.0000    481.0593     22.8634
   800.5000    110.1820      0.0000    490.0529     23.1059
   800.7500    104.7396      0.0000    517.6437     23.6014
   801.0000    100.9125      0.0000    569.8482     24.2794
   801.2500    100.1879      0.0000    625.5433     25.0157
   801.5000    101.8907      0.0000    638.0023     25.7825
   801.7500    103.9454      0.0000    577.8041     26.6740
   802.0000    104.5635      0.0000    471.5428     27.7814
   802.2500    103.3744      0.0000    378.0560     29.0751
   802.5000    101.1450      0.0000    328.0715     30.4342
   802.7500     98.8270      0.0000    310.9253     31.7479
   803.0000     97.0889      0.0000    306.7935     32.9435
   803.2500     96.2395      0.0000    305.7857     33.9546
   803.5000     95.9126      0.0000    305.3696     34.7034
   803.7500     95.0421      0.0000    305.1754     35.1343
