~Version Information
VERS.                      2.0: CWLS Log ASCII Standard - VERSION 2.0
WRAP.                       NO: One line per depth step
~Well Information Block
STRT.FT                -4.7500: 
STOP.FT              2723.2500: 
STEP.FT                 0.2500: 
NULL.                -999.2500: 
COMP.          Pioneer Natural Resources: COMPANY
WELL.           Dolzanie 34-12: WELL
FLD.           Purgatorie River: FIELD
LOC.           1001' FSL & 1750' FEL: LOCATION
PROV.                 Colorado: PROVINCE
CNTY.               Las Animas: COUNTRY
SRVC.                Patterson: SERVICE COMPANY
DATE.          Wed Jul 27 14:23:29 2005: LOG DATE
UWI.                          : UNIQUE WELL ID
~Curve Information Block
DEPT.FT            0 000 00 00: Depth
GR.GAPI                       : Gamma Ray
CCL.                          : Casing Collar Locator
TT3.usec                      : CBL 3' Travel Time
AMP3.mV                       : CBL 3' Amplitude
~Parameter Information Block
~A  Depth        GR         CCL         TT3         AMP3    
# ...
   698.7500     81.0614      0.0000    796.9603      8.6814
   699.0000     79.2016      0.0000    797.3490      8.7375
   699.2500     79.2096      0.0000    790.8245      8.5068
   699.5000     79.2208      0.0000    773.4075      7.8919
   699.7500     76.9903      0.0000    749.5844      7.1130
   700.0000     72.2503      0.0000    734.4229      6.4928
   700.2500     67.3069      0.0000    738.2782      6.0654
   700.5000     64.9615      0.0000    753.7450      5.7770
   700.7500     65.9813      0.0000    768.1641      5.7342
   701.0000     68.8356      0.0000    776.6533      5.9493
   701.2500     71.5768      0.0000    776.6849      6.2468
   701.5000     73.5124      2.0000    768.6831      6.4773
   701.7500     75.0951      0.0000    762.0853      6.5926
   702.0000     76.7107      0.0000    764.8965      6.6282
   702.2500     77.9775      0.0000    773.6037      6.8260
   702.5000     78.1736      0.0000    781.1480      7.6838
   702.7500     77.0855      0.0000    785.3828      9.3558
   703.0000     75.3575      0.0000    789.6130     11.0358
   703.2500     74.1402      0.0000    799.4357     11.8191
   703.5000     74.3424      0.0000    814.3566     11.8213
   703.7500     75.9553      0.0000    824.4531     11.6228
   704.0000     78.0349      0.0000    822.4341     11.4467
   704.2500     79.6177      0.0000    815.1094     11.2657
   704.5000     80.7735      0.0000    813.3950     11.0817
   704.7500     82.6514      0.0000    816.7342     10.9581
   705.0000     86.4061      0.0000    817.2759     10.9385
   705.2500     91.9181      0.0000    811.5140     10.9998
   705.5000     97.4203      0.0000    802.4118     11.0786
   705.7500    100.6400      0.0000    794.9138     11.1129
   706.0000    100.6648      0.0000    791.1683     11.0776
   706.2500     98.5660      0.0000    790.1782     11.0016
   706.5000     96.1046      0.0000    790.9360     10.9258
   706.7500     94.1966      0.0000    794.2518     10.8547
   707.0000     92.7509      0.0000    801.1870     10.7823
   707.2500     91.2859      0.0000    810.0955     10.7290
   707.5000     89.1612      0.0000    817.3114     10.6924
   707.7500     85.6867      0.0000    821.0468     10.6085
   708.0000     80.6585      0.0000    822.2306     10.4397
   708.2500     74.7488      0.0000    822.2182     10.2435
   708.5000     69.1941      0.0000    821.6545     10.0914
   708.7500     65.2792      0.0000    820.8862      9.9907
   709.0000     63.9880      0.0000    820.2499      9.9069
   709.2500     65.5414      0.0000    819.9326      9.8080
   709.5000     69.0357      0.0000    819.7766      9.6913
   709.7500     72.9651      0.0000    818.8665      9.5861
   710.0000     76.3924      0.0000    815.3595      9.5194
   710.2500     79.4005      0.0000    807.9692      9.4811
   710.5000     82.2722      0.0000    798.2812      9.4260
   710.7500     84.4896      0.0000    790.0311      9.3078
   711.0000     84.9398      0.0000    785.5095      9.1135
   711.2500     83.1082      0.0000    784.3198      8.8665
   711.5000     79.7151      0.0000    785.1556      8.6078
   711.7500     76.0298      0.0000    787.3978      8.3810
   712.0000     72.8554      0.0000    791.5162      8.2187
   712.2500     70.2924      0.0000    797.7029      8.1193
   712.5000     68.1664      0.0000    803.7673      8.0455
   712.7500     66.3979      0.0000    807.1007      7.9696
   713.0000     64.9848      0.0000    808.8645      7.8970
   713.2500     63.7528      0.0000    811.7679      7.8327
   713.5000     62.3542      0.0000    815.3231      7.7605
   713.7500     60.7073      0.0000    817.5769      7.6588
   714.0000     59.2713      0.0000    818.3553      7.5253
   714.2500     58.6295      0.0000    818.3630      7.3791
   714.5000     58.9349      0.0000    817.2236      7.2307
   714.7500     60.0399      0.0000    813.2121      7.0746
   715.0000     61.9666      0.0000    805.1025      6.9214
   715.2500     64.6720      0.0000    794.7671      6.7955
   715.5000     67.3109      0.0000    786.3425      6.6931
   715.7500     68.3771      0.0000    782.2010      6.5877
   716.0000     67.0715      0.0000    782.0852      6.4809
   716.2500     64.2975      0.0000    785.8633      6.3974
   716.5000     61.8569      0.0000    793.8444      6.3376
   716.7500     60.6524      0.0000    803.9747      6.2763
   717.0000     60.0562      0.0000    812.1963      6.2000
   717.2500     59.0789      0.0000    816.5502      6.1332
   717.5000     57.6622      0.0000    818.1638      6.1104
   717.7500     56.5864      0.0000    818.6389      6.1156
   718.0000     56.5561      0.0000    818.4723      6.1014
   718.2500     57.6920      0.0000    816.9984      6.0712
   718.5000     59.5502      0.0000    812.7485      6.0675
   718.7500     61.3074      0.0000    805.4681      6.1039
   719.0000     62.1433      0.0000    798.8159      6.1681
   719.2500     61.7718      0.0000    797.3686      6.2499
   719.5000     60.6756      0.0000    799.2878      6.3430
   719.7500     59.8665      0.0000    797.8754      6.4449
   720.0000     60.4558      0.0000    791.3734      6.5576
   720.2500     63.1700      0.0000    784.3745      6.6883
   720.5000     67.7887      0.0000    780.2875      6.8423
   720.7500     72.9986      0.0000    778.5380      7.0150
   721.0000     77.2556      0.0000    777.6385      7.2052
   721.2500     79.9944      0.0000    777.0994      7.4051
   721.5000     81.6986      0.0000    777.4847      7.5701
   721.7500     82.8303      0.0000    779.9373      7.6535
   722.0000     83.2362      0.0000    784.0008      7.6641
   722.2500     82.6676      0.0000    786.3063      7.6380
   722.5000     81.2894      0.0000    784.6057      7.5902
   722.7500     79.5353      0.0000    781.3087      7.5305
   723.0000     77.8257      0.0000    780.1916      7.4801
   723.2500     76.2682      0.0000    783.1294      7.4497
   723.5000     74.2999      0.0000    789.6550      7.4216
   723.7500     70.9653      0.0000    795.6060      7.3647
   724.0000     65.9585      0.0000    795.7121      7.2708
   724.2500     60.2181      0.0000    790.9185      7.1685
   724.5000     55.3553      0.0000    788.5982      7.0964
   724.7500     52.6090      0.0000    793.6002      7.0752
   725.0000     52.2359      0.0000    802.5670      7.1001
   725.2500     53.5798      0.0000    808.4034      7.1485
   725.5000     55.6357      0.0000    808.8506      7.1960
   725.7500     57.6488      0.0000    808.3095      7.2305
   726.0000     59.1806      0.0000    810.8188      7.2580
   726.2500     59.8727      0.0000    815.0558      7.2817
   726.5000     59.6668      0.0000    818.1035      7.2832
   726.7500     59.2148      0.0000    819.5614      7.2524
   727.0000     59.5207      0.0000    820.4406      7.2127
   727.2500     61.1311      0.0000    821.2211      7.1927
   727.5000     63.9647      0.0000    821.5355      7.1988
   727.7500     67.6354      0.0000    820.4355      7.2244
   728.0000     71.5178      0.0000    816.8224      7.2490
   728.2500     74.8006      0.0000    810.6523      7.2464
   728.5000     76.8932      0.0000    803.6143      7.2301
   728.7500     77.6510      0.0000    797.0129      7.2648
   729.0000     77.2225      0.0000    790.5776      7.4013
   729.2500     76.0077      0.0000    784.0624      7.6104
   729.5000     74.7224      0.0000    776.6956      7.8079
   729.7500     74.1330      0.0000    767.0203      7.9512
   730.0000     74.7218      0.0000    756.0681      8.0822
   730.2500     76.8274      0.0000    747.5313      8.2576
   730.5000     80.8484      0.0000    743.8942      8.4697
   730.7500     86.8913      0.0000    744.9733      8.6548
   731.0000     94.2066      0.0000    748.7008      8.7584
   731.2500    101.2441      0.0000    751.7495      8.7933
   731.5000    106.5583      0.0000    752.7374      8.8131
   731.7500    109.9615      0.0000    753.9487      8.8410
   732.0000    112.8372      0.0000    757.2180      8.8730
