~Version Information
VERS.                      2.0: CWLS Log ASCII Standard - VERSION 2.0
WRAP.                       NO: One line per depth step
~Well Information Block
STRT.FT               615.0000: 
STOP.FT              1609.0000: 
STEP.FT                 0.2500: 
NULL.                -999.2500: 
COMP.          Pioneer Natural Resources: COMPANY
WELL.          Galloway 32-13 Tr: WELL
FLD.           Purgatoire River: FIELD
LOC.           1910' FNL & 2002' FEL: LOCATION
PROV.                 Colorado: PROVINCE
CNTY.               Las Animas: COUNTRY
SRVC.                Patterson: SERVICE COMPANY
DATE.          Sat Nov 12 20:19:28 2005: LOG DATE
UWI.           05 071 08608 00: UNIQUE WELL ID
~Curve Information Block
DEPT.FT            0 000 00 00: Depth
SN.Ohm-m                      : IEL Short Normal
SP.mV                         : IEL Spontaneous Potential
DIR.Ohm-m                     : IEL Induction Resistivity
GR.GAPI                       : Gamma Ray
~Parameter Information Block
~A  Depth        SN          SP         DIR          GR     
   615.0000   2000.0000   2000.0000     88.8612    111.5406
   615.2500   2000.0000   2000.0000     87.9398    108.8865
   615.5000   2000.0000   2000.0000     87.4527    102.4272
   615.7500   2000.0000   2000.0000     87.6062     97.6545
   616.0000   2000.0000   2000.0000     88.3830     91.0588
   616.2500   2000.0000   2000.0000     89.6713     87.4525
   616.5000   2000.0000   2000.0000     91.3634     83.5464
   616.7500   2000.0000   2000.0000     93.3351     70.8992
   617.0000   2000.0000   2000.0000     95.3703     69.1023
   617.2500   2000.0000   2000.0000     97.1765     67.7849
   617.5000   2000.0000   2000.0000     98.5218     65.3880
   617.7500   2000.0000   2000.0000     99.3212     63.8000
   618.0000   2000.0000   2000.0000     99.5577     62.3773
   618.2500   2000.0000   2000.0000     99.1708     62.5248
   618.5000   2000.0000   2000.0000     98.0869     64.5420
   618.7500   2000.0000   2000.0000     96.3562     59.1067
   619.0000   2000.0000   2000.0000     94.2054     62.7099
   619.2500   2000.0000   2000.0000     91.9610     65.1258
   619.5000   2000.0000   2000.0000     89.9526     68.2188
   619.7500   2000.0000   2000.0000     88.4671     60.5415
   620.0000   2000.0000   2000.0000     87.7056     61.0086
   620.2500   2000.0000   2000.0000     87.7196     60.1325
   620.5000   2000.0000   2000.0000     88.3783     56.9896
   620.7500   2000.0000   2000.0000     89.4154     54.1297
   621.0000   2000.0000   2000.0000     90.5276     50.1335
   621.2500   2000.0000   2000.0000     91.4504     48.4608
   621.5000   2000.0000   2000.0000     91.9716     48.0590
   621.7500   2000.0000   2000.0000     91.9400     49.1409
   622.0000   2000.0000   2000.0000     91.3057     52.4619
   622.2500   2000.0000   2000.0000     90.1389     55.6657
   622.5000   2000.0000   2000.0000     88.5920     61.7048
   622.7500   2000.0000   2000.0000     86.8540     66.2554
   623.0000   2000.0000   2000.0000     85.1658     73.0807
   623.2500   2000.0000   2000.0000     83.8472     77.2029
   623.5000   2000.0000   2000.0000     83.1920     82.3668
   623.7500   2000.0000   2000.0000     83.2496     85.0374
   624.0000   2000.0000   2000.0000     83.5958     87.5968
   624.2500   2000.0000   2000.0000     83.2727     88.1259
   624.5000   2000.0000   2000.0000     81.1526     87.1491
   624.7500   2000.0000   2000.0000     76.7816     85.6519
   625.0000   2000.0000   2000.0000     70.9641     83.0053
   625.2500   2000.0000   2000.0000     65.2383     81.4330
   625.5000   2000.0000   2000.0000     60.8208     79.9288
   625.7500   2000.0000   2000.0000     58.0773     79.6674
   626.0000   2000.0000   2000.0000     56.5877     80.2343
   626.2500   2000.0000   2000.0000     55.4442     80.8507
   626.5000   2000.0000   2000.0000     53.7438     81.2067
   626.7500   2000.0000   2000.0000     51.1930     80.7127
   627.0000   2000.0000   2000.0000     48.3414     79.0735
   627.2500   2000.0000   2000.0000     46.2577     77.9086
   627.5000   2000.0000   2000.0000     46.2257     76.9591
   627.7500   2000.0000   2000.0000     50.0713     77.0739
   628.0000   2000.0000   2000.0000     61.9212     78.3209
   628.2500   2000.0000   2000.0000     96.6320     79.7952
   628.5000   2000.0000   2000.0000    279.6851     82.7562
   628.7500   2000.0000   2000.0000 100000.0000     84.9545
   629.0000   2000.0000   2000.0000 100000.0000     87.9697
   629.2500   2000.0000   2000.0000 100000.0000     89.5109
   629.5000   2000.0000   2000.0000 100000.0000     90.8492
   629.7500   2000.0000   2000.0000 100000.0000     91.0152
   630.0000   2000.0000   2000.0000 100000.0000     90.3260
   630.2500   2000.0000   2000.0000 100000.0000     89.6092
   630.5000   2000.0000   2000.0000 100000.0000     88.9690
   630.7500   2000.0000   2000.0000 100000.0000     89.0203
   631.0000   2000.0000   2000.0000 100000.0000     89.3956
   631.2500   2000.0000   2000.0000 100000.0000     89.5711
   631.5000   2000.0000   2000.0000 100000.0000     89.9539
   631.7500   2000.0000   2000.0000 100000.0000     90.6489
   632.0000   2000.0000   2000.0000 100000.0000     92.5931
   632.2500   2000.0000   2000.0000 100000.0000     94.4808
   632.5000   2000.0000   2000.0000 100000.0000     98.5899
   632.7500   2000.0000   2000.0000 100000.0000    102.5823
   633.0000   2000.0000   2000.0000 100000.0000    110.5072
   633.2500   2000.0000   2000.0000 100000.0000    116.4347
   633.5000   2000.0000   2000.0000 100000.0000    124.4767
   633.7500   2000.0000   2000.0000 100000.0000    128.3885
   634.0000   2000.0000   2000.0000 100000.0000    131.6727
   634.2500   2000.0000   2000.0000 100000.0000    132.5000
   634.5000   2000.0000   2000.0000 100000.0000    132.5943
   634.7500   2000.0000   2000.0000 100000.0000    132.1735
   635.0000   2000.0000   2000.0000     11.9548    130.7433
   635.2500   2000.0000   2000.0000      5.2229    129.1715
   635.5000   2000.0000   2000.0000      3.7090    126.1878
   635.7500   2000.0000   2000.0000      3.3160    124.0933
   636.0000   2000.0000   2000.0000      3.4275    120.7255
   636.2500   2000.0000   2000.0000      3.9049    117.6694
   636.5000   2000.0000   2000.0000      4.7858    110.4146
   636.7500   2000.0000   2000.0000      6.3363    103.6084
   637.0000   2000.0000   2000.0000      9.4341     92.0806
   637.2500   2000.0000   2000.0000     17.3735     85.0958
   637.5000   2000.0000   2000.0000     53.0705     77.5669
   637.7500   2000.0000   2000.0000 100000.0000     74.5334
   638.0000   2000.0000   2000.0000 100000.0000     71.5800
   638.2500   2000.0000   2000.0000 100000.0000     69.7673
   638.5000   2000.0000   2000.0000    134.7532     66.5937
   638.7500   2000.0000   2000.0000     49.0048     64.3157
   639.0000   2000.0000   2000.0000     33.8072     61.1903
   639.2500   2000.0000   2000.0000     29.3230     59.5053
   639.5000   2000.0000   2000.0000     28.4740     57.7736
   639.7500   2000.0000   2000.0000     29.2937     57.2095
   640.0000   2000.0000   2000.0000     31.0383     56.8844
   640.2500   2000.0000   2000.0000     33.4476     56.4686
   640.5000   2000.0000   2000.0000     36.6390     54.7842
   640.7500   2000.0000   2000.0000     41.2974     53.0372
   641.0000   2000.0000   2000.0000     49.0745     50.3023
   641.2500   2000.0000   2000.0000     63.4690     48.8644
   641.5000   2000.0000   2000.0000     91.9714     47.7225
   641.7500   2000.0000   2000.0000    149.5723     47.7410
   642.0000   2000.0000   2000.0000    244.4302     48.9135
   642.2500   2000.0000   2000.0000    289.7749     50.3037
   642.5000   2000.0000   2000.0000    221.8895     52.8440
   642.7500   2000.0000   2000.0000    150.0493     54.5805
   643.0000   2000.0000   2000.0000    106.8162     57.1186
   643.2500   2000.0000   2000.0000     81.5768     58.9827
   643.5000   2000.0000   2000.0000     65.8515     62.7339
   643.7500   2000.0000   2000.0000     55.5756     66.1635
   644.0000   2000.0000   2000.0000     48.8721     72.5152
   644.2500   2000.0000   2000.0000     44.7374     77.0656
   644.5000   2000.0000   2000.0000     42.4621     83.4203
   644.7500   2000.0000   2000.0000     41.4047     87.0117
   645.0000   2000.0000   2000.0000     40.9332     91.3494
   645.2500   2000.0000   2000.0000     40.4935     93.6623
   645.5000   2000.0000   2000.0000     39.7552     96.4640
   645.7500   2000.0000   2000.0000     38.6892     97.8805
   646.0000   2000.0000   2000.0000     37.4865     99.1602
   646.2500   2000.0000   2000.0000     36.3819     99.4615
   646.5000   2000.0000   2000.0000     35.5181     99.4847
   646.7500   2000.0000   2000.0000     34.8965     99.5100
   647.0000   2000.0000   2000.0000     34.4034     99.8192
   647.2500   2000.0000   2000.0000     33.8875    100.1648
   647.5000   2000.0000   2000.0000     33.2396    100.4817
   647.7500   2000.0000   2000.0000     32.4283    100.1792
   648.0000   2000.0000   2000.0000     31.4831     98.6732
   648.2500   2000.0000   2000.0000     30.4592     97.3833
