~Version Information
VERS.                      2.0: CWLS Log ASCII Standard - VERSION 2.0
WRAP.                       NO: One line per depth step
~Well Information Block
STRT.FT                 0.0000: 
STOP.FT              1981.7500: 
STEP.FT                 0.2500: 
NULL.                -999.2500: 
COMP.          Petrogulf Corporation: COMPANY
WELL.          Collister 17-31R: WELL
FLD.           Purgatorie River: FIELD
LOC.           962' FNL & 1520' FEL: LOCATION
STAT.                 Colorado: State
CNTY.               Las Animas: COUNTY
CTRY. USA : Country
SECT. 17 : Section
TOWN. 33S : Township
RANG. 67W : Range
SRVC.                Patterson: SERVICE COMPANY
DATE.          Fri Jan 06 10:32:29 2006: LOG DATE
API. 05-071-08436                         : UNIQUE WELL ID
~Curve Information Block
DEPT.FT            0 000 00 00: Depth
CCL.                          : Casing Collar Locator
TT3.usec                      : CBL 3' Travel Time
AMP3.mV                       : CBL 3' Amplitude
GR.GAPI                       : Gamma Ray
~Parameter Information Block
~A  Depth       CCL         TT3         AMP3         GR     
# ...
  1038.5000      0.0000    575.5339      8.4438     55.6517
  1038.7500      0.0000    581.0681      8.3572     54.1639
  1039.0000      0.0000    588.2187      8.2900     53.8690
  1039.2500      0.0000    600.5148      8.2870     54.1186
  1039.5000      0.0000    618.1815      8.3597     53.9843
  1039.7500      0.0000    636.6242      8.4595     53.0194
  1040.0000      0.0000    647.9207      8.5460     51.5461
  1040.2500      0.0000    645.0013      8.6177     50.2758
  1040.5000      0.0000    629.4900      8.7023     49.6002
  1040.7500      0.0000    613.4215      8.8256     49.3678
  1041.0000      0.0000    608.0660      8.9588     49.3406
  1041.2500      0.0000    613.1957      9.0414     49.4445
  1041.5000      0.0000    620.7108      9.0609     49.4448
  1041.7500      0.0000    624.9645      9.0512     48.8642
  1042.0000      0.0000    625.3052      9.0527     47.5667
  1042.2500      0.0000    622.1708      9.1057     46.2026
  1042.5000      0.0000    615.6196      9.2117     45.8500
  1042.7500      0.0000    607.0532      9.3173     47.1520
  1043.0000      0.0000    598.5237      9.3873     49.6890
  1043.2500      0.0000    589.4465      9.4280     52.1923
  1043.5000      0.0000    577.6190      9.4351     53.5593
  1043.7500      0.0000    564.1998      9.4029     53.7183
  1044.0000      0.0000    553.5899      9.3547     53.4045
  1044.2500      0.0000    548.0795      9.3197     53.1750
  1044.5000      0.0000    546.5053      9.2975     52.8640
  1044.7500      0.0000    547.7656      9.2502     52.0064
  1045.0000      0.0000    552.9095      9.1399     50.5954
  1045.2500      0.0000    563.0665      8.9773     49.2682
  1045.5000      0.0000    575.9122      8.8180     48.8030
  1045.7500      0.0000    587.1233      8.7269     49.5656
  1046.0000      0.0000    596.6780      8.7243     51.5050
  1046.2500      0.0000    610.9419      8.7370     54.5721
  1046.5000      0.0000    635.8751      8.6691     59.0007
  1046.7500      0.0000    666.4073      8.5264     65.0336
  1047.0000      0.0000    686.5802      8.3950     72.3874
  1047.2500      0.0000    686.4383      8.3309     80.0733
  1047.5000      0.0000    673.2885      8.3164     86.8424
  1047.7500      0.0000    660.8510      8.2910     91.8917
  1048.0000      0.0000    654.9360      8.2267     95.1689
  1048.2500      0.0000    653.4747      8.1736     96.9590
  1048.5000      0.0000    653.3725      8.1862     97.2275
  1048.7500      0.0000    653.6511      8.2435     95.4950
  1049.0000      0.0000    655.1866      8.3038     91.4173
  1049.2500      0.0000    659.6987      8.3742     85.3726
  1049.5000      0.0000    667.4750      8.4520     78.3767
  1049.7500      0.0000    675.2517      8.4805     71.7177
  1050.0000      0.0000    679.0175      8.4201     66.8856
  1050.2500      0.0000    678.3035      8.2831     65.4010
  1050.5000      0.0000    673.9263      8.0891     68.0793
  1050.7500      0.0000    663.7801      7.8399     74.2331
  1051.0000      0.0000    645.8219      7.5232     81.5902
  1051.2500      0.0000    625.2708      7.1267     87.1704
  1051.5000      0.0000    613.0744      6.6425     88.8305
  1051.7500      0.0000    614.0099      6.0682     86.4527
  1052.0000      0.0000    621.7102      5.4456     81.6255
  1052.2500      0.0000    628.5583      4.8764     76.1538
  1052.5000      0.0000    633.2570      4.4527     71.1086
  1052.7500      0.0000    635.8656      4.1898     67.0923
  1053.0000      0.0000    636.4893      4.0356     64.7404
  1053.2500      0.0000    639.9885      3.9419     64.6085
  1053.5000      0.0000    650.6913      3.9364     66.8308
  1053.7500      0.0000    663.2490      4.0874     71.2400
  1054.0000      0.0000    668.2443      4.4076     77.6599
  1054.2500      0.0000    665.3378      4.8728     85.6024
  1054.5000      0.0000    660.1442      5.4938     93.6829
  1054.7500      0.0000    653.0207      6.2680    100.0217
  1055.0000      0.0000    642.2294      7.1160    103.7003
  1055.2500      0.0000    630.8836      7.9614    105.4765
  1055.5000      0.0000    624.9093      8.8099    106.6364
  1055.7500      0.0000    628.1755      9.6738    107.3571
  1056.0000      0.0000    639.1197     10.4932    106.5189
  1056.2500      0.0000    651.9410     11.1542    103.0547
  1056.5000      0.0000    662.1638     11.5368     97.4180
  1056.7500      0.0000    669.2149     11.5977     91.7970
  1057.0000      0.0000    673.6595     11.4385     88.8115
  1057.2500      0.0000    675.1751     11.2126     89.6247
  1057.5000      0.0000    672.5901     10.9820     92.9702
  1057.7500      0.0000    664.5275     10.7664     96.0788
  1058.0000      0.0000    652.0849     10.6663     96.9528
  1058.2500      0.0000    640.3578     10.7356     95.9334
  1058.5000      0.0000    635.1382     10.7564     94.9509
  1058.7500      0.0000    639.1420     10.3681     95.4243
  1059.0000      0.0000    651.0464      9.4757     97.2912
  1059.2500      0.0000    665.6317      8.4616     99.6945
  1059.5000      0.0000    675.9070      7.8954    101.6156
  1059.7500      0.0000    678.3984      7.9295    101.8379
  1060.0000      2.0000    680.5789      8.1502     99.5699
  1060.2500     -2.0000    700.7610      8.1275     95.7474
  1060.5000      0.0000    744.7209      7.8332     92.9398
  1060.7500      0.0000    784.4514      7.4557     93.4195
  1061.0000      0.0000    786.9370      7.1472     97.6464
  1061.2500      0.0000    755.4722      7.0338    104.5731
  1061.5000      0.0000    718.5613      7.1381    112.5951
  1061.7500      0.0000    696.3192      7.2353    119.9046
  1062.0000      0.0000    688.5855      7.0989    124.6467
  1062.2500      0.0000    684.5169      6.8405    125.6062
  1062.5000      0.0000    677.3105      6.6919    123.1041
  1062.7500      0.0000    665.7419      6.6409    119.1339
  1063.0000      0.0000    647.1262      6.5878    116.1290
  1063.2500      0.0000    621.9241      6.5716    115.2565
  1063.5000      0.0000    602.7094      6.6266    115.8732
  1063.7500      0.0000    601.3690      6.6674    116.5232
  1064.0000      0.0000    611.8590      6.6232    116.3365
  1064.2500      0.0000    621.1082      6.5307    115.6919
  1064.5000      0.0000    625.3710      6.4610    115.6941
  1064.7500      0.0000    628.2036      6.4460    116.7079
  1065.0000      0.0000    633.5115      6.4857    117.4054
  1065.2500      0.0000    641.4501      6.5570    115.9387
  1065.5000      0.0000    643.5729      6.6156    112.2148
  1065.7500      0.0000    623.6096      6.6493    108.2249
  1066.0000      0.0000    575.3946      6.6865    105.7499
  1066.2500      0.0000    523.9789      6.7040    104.3484
  1066.5000      0.0000    508.0989      6.6249    102.0457
  1066.7500      0.0000    534.2080      6.4499     97.6440
  1067.0000      0.0000    573.8663      6.2731     91.9352
  1067.2500      0.0000    603.6146      6.1375     86.7995
  1067.5000      0.0000    621.2720      5.9974     83.4637
  1067.7500      0.0000    630.7151      5.8451     81.6611
  1068.0000      0.0000    628.2014      5.7462     80.2289
  1068.2500      0.0000    607.3378      5.7229     78.3290
  1068.5000      0.0000    574.3092      5.7128     76.1305
  1068.7500      0.0000    546.1736      5.6655     74.4008
  1069.0000      0.0000    532.3216      5.5954     73.5497
  1069.2500      0.0000    529.0889      5.5244     73.2072
  1069.5000      0.0000    529.7594      5.4448     72.7966
  1069.7500      0.0000    530.8891      5.3526     72.3243
  1070.0000      0.0000    531.6589      5.2812     72.3240
  1070.2500      0.0000    532.1630      5.2724     73.0758
  1070.5000      0.0000    532.6875      5.3133     74.3768
  1070.7500      0.0000    533.4458      5.3429     76.1610
  1071.0000      0.0000    534.3693      5.3301     78.6457
  1071.2500      0.0000    535.1218      5.3003     81.5032
  1071.5000      0.0000    535.4347      5.2832     83.5764
  1071.7500      0.0000    535.3680      5.2833     83.9061
