~Version Information
VERS.                      2.0: CWLS Log ASCII Standard - VERSION 2.0
WRAP.                       NO: One line per depth step
~Well Information Block
STRT.FT                 0.0000: 
STOP.FT               787.2500: 
STEP.FT                 0.2500: 
NULL.                -999.2500: 
COMP.          Pioneer Natural Resources: COMPANY
WELL.             Veedol 34-28: WELL
FLD.           Purgatorie River: FIELD
LOC.           357' FSL & 2520' FEL: LOCATION
PROV.                 Colorado: PROVINCE
CNTY.               Las Animas: COUNTRY
SRVC.                Patterson: SERVICE COMPANY
DATE.          Wed Dec 28 10:10:37 2005: LOG DATE
UWI.                          : UNIQUE WELL ID
~Curve Information Block
DEPT.FT            0 000 00 00: Depth
CCL.                          : Casing Collar Locator
TT3.usec                      : CBL 3' Travel Time
AMP3.mV                       : CBL 3' Amplitude
GR.GAPI                       : Gamma Ray
~Parameter Information Block
~A  Depth       CCL         TT3         AMP3         GR     
     0.0000   -999.2500   1197.0000      0.0051     90.0521
     0.2500   -999.2500   1197.0000     -0.0021     84.3366
     0.5000   -999.2500   1197.0000     -0.0046     77.0439
     0.7500   -999.2500   1197.0000     -0.0038     69.6114
     1.0000   -999.2500   1197.0000     -0.0077     63.5612
     1.2500   -999.2500   1197.0000     -0.0200     59.2581
     1.5000   -999.2500   1197.0000     -0.0245     55.7556
     1.7500   -999.2500   1197.0000      0.0009     51.6875
     2.0000   -999.2500   1197.0000      0.0500     46.4455
     2.2500   -999.2500   1197.0000      0.0943     40.8284
     2.5000   -999.2500   1197.0000      0.1159     36.5966
     2.7500   -999.2500   1197.0000      0.1197     35.2123
     3.0000   -999.2500   1197.0000      0.1175     36.9272
     3.2500   -999.2500   1197.0000      0.1061     40.9582
     3.5000   -999.2500   1197.0000      0.0842     46.2867
     3.7500      0.0000   1197.0000      0.0718     52.1180
     4.0000      0.0000   1197.0000      0.0835     57.8446
     4.2500      0.0000   1197.0000      0.1030     63.0163
     4.5000      0.0000   1197.0000      0.1088     67.3841
     4.7500      0.0000   1197.0000      0.1040     70.6861
     5.0000      0.0000   1197.0000      0.0950     72.3610
     5.2500      0.0000   1197.0000      0.0707     71.7237
     5.5000      0.0000   1197.0000      0.0327     68.6015
     5.7500      0.0000   1196.9199      0.0083     63.8123
     6.0000      0.0000   1195.9973      0.0331     58.9306
     6.2500      0.0000   1189.1813      0.2780     55.4933
     6.5000      0.0000   1156.8956      1.4611     54.3561
     6.7500      0.0000   1058.8564      5.0966     55.5362
     7.0000      0.0000    868.0150     12.2063     58.2521
     7.2500      0.0000    629.9222     20.9490     61.1382
     7.5000      0.0000    439.7065     27.3448     62.9072
     7.7500      0.0000    343.3464     29.2792     63.0434
     8.0000      0.0000    318.6038     27.8262     61.8027
     8.2500      0.0000    344.6608     24.9976     59.6549
     8.5000      0.0000    441.9622     22.0444     56.9734
     8.7500      0.0000    632.2924     19.3719     54.2360
     9.0000      0.0000    869.6837     16.9806     52.1364
     9.2500      0.0000   1059.6417     14.8447     51.1820
     9.5000      0.0000   1157.1399     12.9702     51.4302
     9.7500      0.0000   1189.2308     11.3484     52.9572
    10.0000      0.0000   1196.0039     10.0752     56.3183
    10.2500      0.0000   1196.9204      9.3354     62.0917
    10.5000      0.0000   1197.0000      9.1275     70.0318
    10.7500      0.0000   1197.0000      9.2099     78.8644
    11.0000      0.0000   1197.0000      9.3560     86.7666
    11.2500      0.0000   1197.0000      9.4972     92.0268
    11.5000      0.0000   1197.0000      9.6496     93.6829
    11.7500      0.0000   1197.0000      9.8196     91.9574
    12.0000      0.0000   1196.9962      9.9900     88.1579
    12.2500      0.0000   1196.9149     10.1409     84.0464
    12.5000      0.0000   1196.2006     10.2513     81.0515
    12.7500      0.0000   1191.9482     10.2862     79.7952
    13.0000      0.0000   1175.6650     10.2277     80.2726
    13.2500      0.0000   1137.2518     10.1471     82.2724
    13.5000      0.0000   1086.9475     10.0951     85.3612
    13.7500      0.0000   1064.6228      9.8809     88.6519
    14.0000      0.0000   1093.5994      9.3701     91.1584
    14.2500      0.0000   1144.7678      8.8716     92.4670
    14.5000      0.0000   1179.9861      8.7349     92.6979
    14.7500      0.0000   1193.3912      8.9368     91.8197
    15.0000      2.0000   1195.9597      9.2836     89.5528
    15.2500     -2.0000   1192.4781      9.6395     86.1714
    15.5000      0.0000   1173.2004      9.9332     82.8574
    15.7500      0.0000   1111.6720     10.2172     80.7843
    16.0000      0.0000    986.2384     10.8110     80.0569
    16.2500      0.0000    826.5481     11.9837     79.7629
    16.5000      0.0000    705.3693     13.3078     78.7737
    16.7500      0.0000    651.2609     14.1496     76.3591
    17.0000      0.0000    629.8148     14.6104     72.5465
    17.2500      0.0000    625.1581     14.9906     68.3894
    17.5000      0.0000    649.6258     15.1884     65.6723
    17.7500      0.0000    689.2513     15.1051     65.7778
    18.0000      0.0000    716.7898     14.8668     68.6641
    18.2500      0.0000    727.1619     14.6349     72.9773
    18.5000      0.0000    729.2502     14.4863     77.0083
    18.7500      0.0000    729.2901     14.4144     79.6004
    19.0000      0.0000    729.1350     14.3836     80.6501
    19.2500      0.0000    729.0080     14.3751     80.9820
    19.5000      0.0000    728.7860     14.3771     81.5028
    19.7500      0.0000    728.4766     14.3657     82.4782
    20.0000      0.0000    728.3232     14.3387     83.7712
    20.2500      0.0000    728.4830     14.3333     85.2798
    20.5000      0.0000    728.7751     14.3723     86.5784
    20.7500      0.0000    728.9194     14.4315     86.5687
    21.0000      0.0000    728.8873     14.4796     84.2604
    21.2500      0.0000    728.8206     14.5165     79.7902
    21.5000      0.0000    728.7451     14.5557     74.2615
    21.7500      0.0000    728.5566     14.5969     68.7825
    22.0000      0.0000    728.2506     14.6224     63.9310
    22.2500      0.0000    727.9996     14.6162     59.9952
    22.5000      0.0000    727.9028     14.5810     57.3309
    22.7500      0.0000    727.8439     14.5400     56.1962
    23.0000      0.0000    727.7209     14.5225     56.3733
    23.2500      0.0000    727.5984     14.5283     57.2951
    23.5000      0.0000    727.5327     14.5248     58.5015
    23.7500      0.0000    727.4634     14.4885     59.7338
    24.0000      0.0000    727.4026     14.4437     60.7500
    24.2500      0.0000    727.4714     14.4407     61.4481
    24.5000      0.0000    727.6223     14.4981     62.0757
    24.7500      0.0000    727.6588     14.5962     62.9109
    25.0000      0.0000    727.5817     14.7029     63.7158
    25.2500      0.0000    727.5770     14.8034     63.8490
    25.5000      0.0000    727.6606     14.9154     63.0969
    25.7500      0.0000    727.6592     15.0576     62.1910
    26.0000      0.0000    727.5308     15.2163     62.1834
    26.2500      0.0000    727.4207     15.3682     63.2733
    26.5000      0.0000    727.3967     15.5027     64.4884
    26.7500      0.0000    727.3798     15.5987     64.6135
    27.0000      0.0000    727.3378     15.6300     63.2416
    27.2500      0.0000    727.3235     15.5990     60.8862
    27.5000      0.0000    727.3478     15.5522     58.3315
    27.7500      0.0000    727.3773     15.5654     56.0672
    28.0000      0.0000    727.4286     15.6744     54.2180
    28.2500      0.0000    727.5607     15.8404     52.6595
    28.5000      0.0000    727.7565     16.0190     51.1013
    28.7500      0.0000    727.8828     16.1958     49.3442
    29.0000      0.0000    727.8083     16.3339     47.4966
    29.2500      0.0000    727.5181     16.3833     45.8106
    29.5000      0.0000    727.1298     16.3485     44.5692
    29.7500      0.0000    726.8409     16.2678     44.3508
    30.0000      0.0000    726.7780     16.1641     46.0415
    30.2500      0.0000    726.8932     16.0563     50.2459
    30.5000      0.0000    727.1036     15.9785     56.9174
    30.7500      0.0000    727.4308     15.9826     65.7142
    31.0000      0.0000    727.8788     16.0929     76.3297
    31.2500      0.0000    728.2593     16.2612     88.1267
    31.5000      0.0000    728.3106     16.4189     99.7020
    31.7500      0.0000    728.0661     16.5317    109.1597
    32.0000      0.0000    727.8759     16.5956    114.7461
    32.2500      0.0000    727.9617     16.6300    115.2710
    32.5000      0.0000    728.1940     16.6458    110.5620
    32.7500      0.0000    728.2526     16.6042    102.0243
    33.0000      0.0000    727.9592     16.4619     92.4869
    33.2500      0.0000    727.5126     16.2654     84.8864
