~Version Information
VERS.                      2.0: CWLS Log ASCII Standard - VERSION 2.0
WRAP.                       NO: One line per depth step
~Well Information Block
STRT.FT                -5.5000: 
STOP.FT               791.0000: 
STEP.FT                 0.2500: 
NULL.                -999.2500: 
COMP.          Pioneer Natural Resources: COMPANY
WELL.           Beringer 33-18: WELL
FLD.           Purgatoire River: FIELD
LOC.           2356' FSL & 2338' FEL--: LOCATION
CNTY.               Las Animas: COUNTY
SRVC.                Patterson: SERVICE COMPANY
DATE.          Mon Apr 03 11:39:01 2006: LOG DATE
UWI.           05 071 08725 00: UNIQUE WELL ID
STAT.                 Colorado: STATE
~Curve Information Block
DEPT.FT            0 000 00 00: Depth
CCL.                          : Casing Collar Locator
TT3.usec                      : CBL 3' Travel Time
AMP3.mV                       : CBL 3' Amplitude
GR.GAPI                       : Gamma Ray
~Parameter Information Block
~A  Depth       CCL         TT3         AMP3         GR     
# ...
   396.5000      0.0000    701.9139      5.1586    154.6158
   396.7500      0.0000    704.0830      5.1105    157.3537
   397.0000      0.0000    718.6198      4.9589    158.5652
   397.2500      0.0000    733.6207      4.8026    158.5117
   397.5000      0.0000    762.9941      4.5287    158.4498
   397.7500      0.0000    789.9878      4.3595    158.3074
   398.0000      0.0000    848.0850      4.1636    156.7085
   398.2500      0.0000    897.2997      4.0682    154.1080
   398.5000      0.0000    968.6353      3.9677    147.9030
   398.7500      0.0000    999.3783      3.9311    142.9384
   399.0000      0.0000   1009.1611      3.9159    136.3538
   399.2500      2.0000   1000.5610      3.9167    133.9787
   399.5000      2.0000    993.1378      3.9062    135.5224
   399.7500      0.0000   1000.8488      3.8870    140.2267
   400.0000      0.0000   1021.0686      3.8665    150.6039
   400.2500      0.0000   1025.0605      3.8916    157.4431
   400.5000      0.0000    998.5027      4.0309    164.8681
   400.7500      0.0000    961.5060      4.1787    168.0146
   401.0000      0.0000    897.2519      4.4039    171.7875
   401.2500      0.0000    859.4102      4.5178    174.2341
   401.5000      0.0000    816.8962      4.6265    177.0534
   401.7500      0.0000    797.2941      4.6731    177.6906
   402.0000      0.0000    778.4253      4.7272    176.8417
   402.2500      0.0000    771.6976      4.7584    175.8123
   402.5000      0.0000    768.0445      4.7971    175.1125
   402.7500      0.0000    768.1321      4.8152    176.1013
   403.0000      0.0000    769.1591      4.8363    181.1306
   403.2500      0.0000    769.3973      4.8584    186.8813
   403.5000      0.0000    768.4280      4.9244    196.7041
   403.7500      0.0000    766.8406      4.9897    201.7929
   404.0000      0.0000    762.8951      5.0912    204.4652
   404.2500      0.0000    759.1248      5.1410    202.8480
   404.5000      0.0000    752.1945      5.1744    197.0496
   404.7500      0.0000    747.4800      5.1738    191.8206
   405.0000      0.0000    741.7084      5.1532    181.7277
   405.2500      0.0000    739.1297      5.1318    172.9269
   405.5000      0.0000    736.9427      5.0977    157.1178
   405.7500      0.0000    736.2230      5.0826    146.4401
   406.0000      0.0000    735.6524      5.0867    133.7915
   406.2500      0.0000    735.4142      5.1106    128.9109
   406.5000      0.0000    735.2975      5.1754    126.2288
   406.7500      0.0000    735.5863      5.2342    125.7458
   407.0000      0.0000    737.0497      5.3360    124.3312
   407.2500      0.0000    738.9368      5.4020    122.9853
   407.5000      0.0000    743.3859      5.4770    122.8998
   407.7500      0.0000    747.4906      5.5048    125.6173
   408.0000      0.0000    754.8698      5.5224    133.9138
   408.2500      0.0000    759.7168      5.5313    140.6016
   408.5000      0.0000    764.8571      5.5600    148.5480
   408.7500      0.0000    766.1603      5.5901    151.0331
   409.0000      0.0000    765.1064      5.6362    150.3074
   409.2500      0.0000    762.8503      5.6625    147.4399
   409.5000      0.0000    757.7117      5.7130    140.9391
   409.7500      0.0000    753.4427      5.7759    136.1993
   410.0000      0.0000    746.7062      5.9435    130.4016
   410.2500      0.0000    742.6411      6.1065    127.9181
   410.5000      0.0000    737.9695      6.4102    125.5617
   410.7500      0.0000    735.9408      6.6380    124.2223
   411.0000      0.0000    734.2614      6.9991    122.4528
   411.2500      0.0000    733.7686      7.2459    121.8550
   411.5000      0.0000    733.5616      7.6137    121.8509
   411.7500      0.0000    733.6497      7.8484    121.7513
   412.0000      0.0000    733.9949      8.1638    120.3689
   412.2500      0.0000    734.2898      8.3359    118.7005
   412.5000      0.0000    734.7028      8.5139    116.2002
   412.7500      0.0000    734.9496      8.5710    115.2157
   413.0000      0.0000    735.5269      8.5661    115.0417
   413.2500      0.0000    736.4219      8.5146    115.2532
   413.5000      0.0000    739.4302      8.3981    114.8377
   413.7500      0.0000    742.8564      8.3110    114.0341
   414.0000      0.0000    749.2920      8.1711    113.2326
   414.2500      0.0000    753.0893      8.0620    113.4044
   414.5000      0.0000    755.7655      7.8628    113.6828
   414.7500      0.0000    755.3076      7.7129    112.8878
   415.0000      0.0000    752.8856      7.4839    110.0101
   415.2500      0.0000    751.3084      7.3347    107.8668
   415.5000      0.0000    750.1428      7.1129    105.8097
   415.7500      0.0000    750.3621      6.9633    105.2703
   416.0000      0.0000    751.9755      6.7382    104.7272
   416.2500      0.0000    753.3441      6.5906    104.0170
   416.5000      0.0000    754.3145      6.3755    102.4287
   416.7500      0.0000    753.5626      6.2378    101.4881
   417.0000      0.0000    750.3643      6.0493    101.2609
   417.2500      0.0000    747.5183      5.9477    102.3232
   417.5000      0.0000    743.7756      5.8587    105.9557
   417.7500      0.0000    742.4904      5.8537    109.5951
   418.0000      0.0000    743.3218      5.9280    116.2733
   418.2500      0.0000    745.7343      6.0174    120.9961
   418.5000      0.0000    750.9479      6.1699    127.5742
   418.7500      0.0000    754.3174      6.2612    131.5285
   419.0000      0.0000    757.6947      6.3594    137.5494
   419.2500      0.0000    758.7838      6.3946    142.0279
   419.5000      0.0000    759.7836      6.4047    149.3148
   419.7500      0.0000    760.7267      6.3893    154.1477
   420.0000      0.0000    762.9310      6.3490    160.3909
   420.2500      0.0000    764.6248      6.3209    163.0094
   420.5000      0.0000    766.7081      6.2909    163.2052
   420.7500      0.0000    767.4883      6.2803    160.9128
   421.0000      0.0000    767.7186      6.2660    155.8072
   421.2500      0.0000    767.5380      6.2469    152.7063
   421.5000      0.0000    767.7635      6.1988    150.2333
   421.7500      0.0000    768.7943      6.1588    150.7370
   422.0000      0.0000    771.4557      6.0974    155.2836
   422.2500      0.0000    772.8660      6.0588    160.2682
   422.5000      0.0000    771.9394      6.0067    168.0974
   422.7500      0.0000    768.7744      5.9750    171.9815
   423.0000      0.0000    762.6996      5.9247    174.9397
   423.2500      0.0000    760.7704      5.8858    175.8132
   423.5000      0.0000    765.4254      5.8226    177.7484
   423.7500      0.0000    773.7162      5.7829    180.2312
   424.0000      0.0000    789.6506      5.7331    185.3135
   424.2500      0.0000    799.1523      5.7058    188.5177
   424.5000      0.0000    807.9306      5.6688    190.6806
   424.7500      0.0000    809.9579      5.6444    189.3363
   425.0000      0.0000    809.1398      5.6117    183.1585
   425.2500      0.0000    807.0428      5.6002    177.4459
   425.5000      0.0000    801.5739      5.6144    169.6810
   425.7500      0.0000    795.7277      5.6481    166.8511
   426.0000      0.0000    784.1787      5.7260    167.4450
   426.2500      0.0000    777.0696      5.7852    169.9492
   426.5000      0.0000    773.0655      5.8623    172.3966
   426.7500      0.0000    776.2299      5.8911    171.0698
   427.0000      0.0000    786.1250      5.8806    165.1563
   427.2500      0.0000    792.3546      5.8374    160.8739
   427.5000      0.0000    796.4639      5.7429    157.8472
   427.7500      0.0000    794.7736      5.6807    158.9445
   428.0000      0.0000    786.4698      5.6114    163.5500
   428.2500      0.0000    779.3073      5.5842    166.3174
   428.5000      0.0000    772.3709      5.5688    166.4079
   428.7500      0.0000    772.9484      5.5764    163.0605
   429.0000      0.0000    779.7489      5.6196    154.0473
   429.2500      0.0000    784.1390      5.6693    146.3352
   429.5000      0.0000    785.0838      5.7587    133.4324
   429.7500      0.0000    782.2335      5.8076    124.9973
