~Version Information
VERS.                      2.0: CWLS Log ASCII Standard - VERSION 2.0
WRAP.                       NO: One line per depth step
~Well Information Block
STRT.FT                -8.0000: 
STOP.FT              2135.0000: 
STEP.FT                 0.2500: 
NULL.                -999.2500: 
COMP.          Pioneer Natural Resources: COMPANY
WELL.             AMX 13-13 Tr: WELL
FLD.           Purgatorie River: FIELD
LOC.           2401' FSL & 895' FWL--: LOCATION
PROV.                       CO: PROVINCE
CNTY.               Las Animas: COUNTRY
SRVC.          Patterson Wireline: SERVICE COMPANY
DATE.          Thu Jan 05 10:37:28 2006: LOG DATE
UWI.           05 071 08631 00: UNIQUE WELL ID
~Curve Information Block
DEPT.FT            0 000 00 00: Depth
CCL.                          : Casing Collar Locator
TT3.usec                      : CBL 3' Travel Time
AMP3.mV                       : CBL 3' Amplitude
GR.GAPI                       : Gamma Ray
~Parameter Information Block
~A  Depth       CCL         TT3         AMP3         GR     
# ...
  1131.0000      0.0000    695.0306     12.0237    116.7584
  1131.2500      0.0000    695.3831     11.8890    115.9673
  1131.5000      0.0000    695.4322     11.7246    117.6175
  1131.7500      0.0000    694.0760     11.5872    120.9009
  1132.0000      0.0000    691.5737     11.5300    125.2101
  1132.2500      0.0000    689.0092     11.5663    129.8065
  1132.5000      0.0000    687.1687     11.6598    133.4751
  1132.7500      0.0000    686.1457     11.7531    135.3061
  1133.0000      0.0000    685.6664     11.8066    135.6399
  1133.2500      0.0000    685.4635     11.8110    135.7991
  1133.5000      0.0000    685.3840     11.7730    136.9083
  1133.7500      0.0000    685.3568     11.7001    139.0246
  1134.0000      0.0000    685.3592     11.6042    140.9921
  1134.2500      0.0000    685.3990     11.5117    141.0183
  1134.5000      0.0000    685.4897     11.4561    138.1334
  1134.7500      0.0000    685.6103     11.4567    133.6396
  1135.0000      0.0000    685.6960     11.5048    130.4498
  1135.2500      0.0000    685.6851     11.5720    130.1843
  1135.5000      0.0000    685.5818     11.6258    131.4816
  1135.7500      0.0000    685.4726     11.6406    131.9838
  1136.0000      0.0000    685.4749     11.6054    131.3654
  1136.2500      0.0000    685.6655     11.5280    131.2847
  1136.5000      0.0000    686.0461     11.4278    132.6897
  1136.7500      0.0000    686.5573     11.3282    134.4695
  1137.0000      0.0000    687.1132     11.2527    135.2190
  1137.2500      0.0000    687.6345     11.2155    135.3611
  1137.5000      0.0000    688.0711     11.2055    136.3148
  1137.7500      0.0000    688.4067     11.1775    137.7836
  1138.0000      0.0000    688.6314     11.0634    137.3326
  1138.2500      0.0000    688.7534     10.7984    133.1198
  1138.5000      0.0000    688.9553     10.3502    126.0558
  1138.7500      0.0000    689.9628      9.7398    118.8425
  1139.0000      0.0000    693.2717      9.0445    113.5411
  1139.2500      0.0000    700.5585      8.3775    110.2732
  1139.5000      0.0000    712.0195      7.8472    107.6602
  1139.7500      0.0000    725.0547      7.5096    104.1747
  1140.0000      0.0000    735.4385      7.3448     99.4848
  1140.2500      0.0000    740.5945      7.2776     94.9000
  1140.5000      0.0000    741.3678      7.2278     92.3852
  1140.7500      0.0000    740.1108      7.1559     92.9181
  1141.0000      0.0000    737.7877      7.0804     95.8524
  1141.2500      0.0000    733.6729      7.0661     99.7516
  1141.5000      0.0000    726.0917      7.1976    103.4020
  1141.7500      0.0000    711.5946      7.5484    106.0084
  1142.0000      0.0000    685.0263      8.1482    107.2099
  1142.2500      0.0000    643.8330      8.9570    107.4070
  1142.5000      0.0000    592.7790      9.8668    107.5050
  1142.7500      0.0000    543.5666     10.7378    107.9350
  1143.0000      0.0000    510.6110     11.4470    108.4404
  1143.2500      0.0000    505.6932     11.9194    108.9976
  1143.5000      0.0000    531.2020     12.1429    110.2693
  1143.7500      0.0000    576.2934     12.1706    112.9569
  1144.0000      0.0000    622.7692     12.0991    117.2766
  1144.2500      0.0000    656.9917     12.0219    123.3158
  1144.5000      0.0000    676.1960     11.9894    131.3873
  1144.7500      0.0000    685.2529     12.0075    141.3025
  1145.0000      0.0000    690.2599     12.0636    151.0420
  1145.2500      0.0000    694.8813     12.1443    156.8996
  1145.5000      0.0000    699.6673     12.2294    155.9085
  1145.7500      0.0000    703.0301     12.2860    148.1697
  1146.0000      0.0000    703.2068     12.2833    136.4306
  1146.2500      0.0000    700.1709     12.2160    123.6622
  1146.5000      0.0000    695.7407     12.1118    111.5877
  1146.7500      0.0000    691.9595     12.0105    101.3179
  1147.0000      0.0000    689.6867     11.9314     94.2279
  1147.2500      0.0000    688.6384     11.8578     91.1758
  1147.5000      0.0000    688.2099     11.7535     91.1368
  1147.7500      0.0000    688.0027     11.5955     91.6870
  1148.0000      0.0000    687.8165     11.3903     91.1222
  1148.2500      0.0000    687.2826     11.1651     89.4895
  1148.5000      0.0000    685.2294     10.9510     87.5143
  1148.7500      0.0000    679.0227     10.7744     85.5086
  1149.0000      0.0000    664.9722     10.6564     83.6936
  1149.2500      0.0000    641.4592     10.6058     82.7471
  1149.5000      0.0000    613.7131     10.6096     83.2798
  1149.7500      0.0000    594.1974     10.6362     84.8249
  1150.0000      0.0000    594.2452     10.6548     85.6639
  1150.2500      0.0000    613.8613     10.6484     84.0779
  1150.5000      0.0000    641.7651     10.6121     80.0791
  1150.7500      0.0000    665.6804     10.5452     75.7527
  1151.0000      0.0000    680.8097     10.4524     73.6450
  1151.2500      0.0000    689.4091     10.3467     74.8288
  1151.5000      0.0000    695.7003     10.2467     78.3058
  1151.7500      0.0000    702.2750     10.1692     81.8582
  1152.0000      0.0000    709.4028     10.1242     83.6602
  1152.2500      0.0000    715.7988     10.1130     83.5541
  1152.5000      0.0000    719.7399     10.1277     82.8001
  1152.7500      0.0000    720.2441     10.1533     82.5908
  1153.0000      0.0000    718.0677     10.1739     83.1061
  1153.2500      0.0000    715.8301     10.1835     83.9041
  1153.5000      0.0000    716.7007     10.1938     84.6538
  1153.7500      0.0000    722.1210     10.2288     85.3544
  1154.0000      0.0000    730.3890     10.3060     86.1332
  1154.2500      0.0000    737.8606     10.4188     86.9411
  1154.5000      0.0000    741.7719     10.5388     87.3570
  1154.7500      0.0000    741.6396     10.6353     86.5757
  1155.0000      0.0000    738.4184     10.6916     83.7935
  1155.2500      0.0000    733.4017     10.7057     79.1015
  1155.5000      0.0000    727.8740     10.6813     73.9437
  1155.7500      0.0000    722.6945     10.6242     70.0896
  1156.0000      0.0000    718.1171     10.5422     68.1882
  1156.2500      0.0000    714.6010     10.4405     67.8873
  1156.5000      0.0000    713.2700     10.3168     68.9629
  1156.7500      0.0000    714.9284     10.1637     71.5032
  1157.0000      0.0000    719.2570      9.9747     75.3023
  1157.2500      0.0000    725.3419      9.7469     79.9070
  1157.5000      0.0000    732.1972      9.4814     85.1712
  1157.7500      0.0000    738.3728      9.1842     91.1840
  1158.0000      0.0000    741.9874      8.8684     97.5187
  1158.2500      0.0000    742.0577      8.5526    102.8311
  1158.5000      0.0000    739.6301      8.2601    105.5435
  1158.7500      0.0000    736.7933      8.0147    105.0307
  1159.0000      0.0000    734.2535      7.8337    101.9224
  1159.2500      0.0000    730.6172      7.7198     97.1277
  1159.5000      0.0000    724.6071      7.6578     90.9336
  1159.7500      0.0000    717.1212      7.6223     83.4077
  1160.0000      0.0000    710.2103      7.5910     75.3928
  1160.2500      0.0000    704.9598      7.5560     68.6072
  1160.5000      0.0000    701.4593      7.5243     64.6899
  1160.7500      0.0000    699.8170      7.5122     64.1398
  1161.0000      0.0000    699.7385      7.5402     65.7916
  1161.2500      0.0000    699.8931      7.6300     67.3433
  1161.5000      0.0000    699.1628      7.7963     67.0554
  1161.7500      0.0000    698.1327      8.0340     65.1883
  1162.0000      0.0000    698.5576      8.3108     63.4495
  1162.2500      0.0000    701.9347      8.5734     63.1004
  1162.5000      0.0000    709.0134      8.7669     63.9483
  1162.7500      0.0000    719.5308      8.8587     64.8811
  1163.0000      0.0000    731.5266      8.8542     64.7753
  1163.2500      0.0000    741.6549      8.7923     63.0285
  1163.5000      0.0000    747.0433      8.7182     59.9544
  1163.7500      0.0000    746.9874      8.6553     56.9528
  1164.0000      0.0000    743.1710      8.6025     55.8102
  1164.2500      0.0000    738.7254      8.5563     57.3456
