~Version Information
VERS.                      2.0: CWLS Log ASCII Standard - VERSION 2.0
WRAP.                       NO: One line per depth step
~Well Information Block
STRT.FT               619.7000: 
STOP.FT               951.7000: 
STEP.FT                 0.1000: 
NULL.                -999.2500: 
COMP.          Pioneer Natural Resources: COMPANY
WELL.          Screamin 12-29 Tr: WELL
FLD.           Purgatoire River: FIELD
LOC.           1979' FNL & 532' FWL--: LOCATION
CNTY.               Las Animas: COUNTY
SRVC.                Patterson: SERVICE COMPANY
DATE.          Fri Mar 31 15:43:57 2006: LOG DATE
UWI.           05 071 08660 00: UNIQUE WELL ID
STAT.                 Colorado: STATE
~Curve Information Block
DEPT.FT            0 000 00 00: Depth
DCAL.in                       : CDL Caliper
RHOB.g/cc                     : CDL Bulk Density
RHOC.g/cc                     : CDL Density Correction
DPOR.pu                       : CDL Density Porosity
GR.GAPI                       : Gamma Ray
~Parameter Information Block
~A  Depth       DCAL        RHOB        RHOC        DPOR         GR     
# ...
   731.7000      7.9845      2.5059     -0.2270      8.7315    124.7722
   731.8000      7.9844      2.4693     -0.1719     10.9540    122.9606
   731.9000      7.9844      2.4652     -0.1051     11.2014    113.2725
   732.0000      7.9503      2.4836      0.0804     10.0871    106.9739
   732.1000      7.9503      2.4978      0.0838      9.2232    106.1813
   732.2000      7.9503      2.4963      0.0919      9.3149    106.9512
   732.3000      7.9302      2.4922      0.0330      9.5623    110.0206
   732.4000      7.9302      2.4998      0.0583      9.1006    114.2212
   732.5000      7.9360      2.5147      0.0646      8.2011    115.0158
   732.6000      7.9360      2.5255      0.1062      7.5446    114.3088
   732.7000      7.9360      2.5291      0.0657      7.3275    117.8423
   732.8000      7.9524      2.5239      0.1115      7.6443    123.8778
   732.9000      7.9524      2.5064      0.0628      8.7025    126.0626
   733.0000      7.9713      2.4881      0.0437      9.8125    125.6214
   733.1000      7.9713      2.4829      0.0482     10.1299    127.5525
   733.2000      7.9713      2.4929      0.0346      9.5208    130.5592
   733.3000      7.9869      2.5214      0.0521      7.7929    128.7960
   733.4000      7.9869      2.5659      0.1107      5.0986    122.9348
   733.5000      7.9913      2.6035      0.1516      2.8178    122.7064
   733.6000      7.9913      2.6131      0.0996      2.2378    127.2787
   733.7000      7.9913      2.6027      0.1032      2.8647    124.0301
   733.8000      7.9897      2.5963      0.0597      3.2532    114.6066
   733.9000      7.9897      2.5995      0.1022      3.0624    111.6418
   734.0000      7.9941      2.5929      0.1014      3.4607    115.4817
   734.1000      7.9941      2.5678      0.0756      4.9816    118.8068
   734.2000      7.9941      2.5431      0.0053      6.4766    120.4290
   734.3000      8.0038      2.5387      0.0219      6.7442    121.9885
   734.4000      8.0038      2.5507      0.0289      6.0167    120.5121
   734.5000      8.0124      2.5627      0.0641      5.2898    114.6552
   734.6000      8.0124      2.5691      0.0433      4.9006    109.8518
   734.7000      8.0124      2.5763      0.0712      4.4662    109.7802
   734.8000      8.0133      2.5833      0.0578      4.0412    110.3642
   734.9000      8.0133      2.5897      0.0394      3.6555    107.3710
   735.0000      8.0100      2.5958      0.0912      3.2870    103.2192
   735.1000      8.0100      2.5865      0.1126      3.8505    101.3309
   735.2000      8.0100      2.5578      0.0471      5.5853    101.7692
   735.3000      8.0104      2.5297      0.0529      7.2907    103.8062
   735.4000      8.0104      2.5032      0.0512      8.8961    108.3134
   735.5000      8.0158      2.4564      0.0707     11.7319    112.3233
   735.6000      8.0158      2.3808      0.0000     16.3146    111.3296
   735.7000      8.0158      2.2832      0.0037     22.2301    107.6420
   735.8000      8.0218      2.1676     -0.0663     29.2339    107.8438
   735.9000      8.0218      2.0400     -0.0885     36.9691    113.7093
   736.0000      8.0253      1.9053     -0.1341     45.1333    121.8345
   736.1000      8.0253      1.7647     -0.1668     53.6538    126.3036
   736.2000      8.0253      1.6255     -0.2019     62.0881    122.4538
   736.3000      8.0328      1.5095     -0.2157     69.1201    114.1903
   736.4000      8.0328      1.4392     -0.1498     73.3845    107.2428
   736.5000      8.0725      1.4235     -0.1030     74.3333    101.3142
   736.6000      8.0725      1.4671     -0.0211     71.6884     95.5115
   736.7000      8.0725      1.5634      0.0903     65.8551     92.7152
   736.8000      8.1686      1.6868      0.2147     58.3761     93.2775
   736.9000      8.1686      1.8175      0.2345     50.4515     91.9300
   737.0000      8.2968      1.9507      0.2612     42.3794     89.4396
   737.1000      8.2968      2.0770      0.3200     34.7266     92.8841
   737.2000      8.2968      2.1906      0.3092     27.8409    102.0417
   737.3000      8.3773      2.3059      0.2899     20.8542    111.8066
   737.4000      8.3773      2.4279      0.3064     13.4613    121.4132
   737.5000      8.3204      2.5266      0.3087      7.4770    129.6654
   737.6000      8.3204      2.5730      0.2041      4.6650    132.6458
   737.7000      8.3204      2.5769      0.1104      4.4329    130.4521
   737.8000      8.1505      2.5603      0.1355      5.4358    128.0885
   737.9000      8.1505      2.5232      0.0973      7.6844    130.9570
   738.0000      8.0056      2.4588      0.0631     11.5890    138.8390
   738.1000      8.0056      2.3877     -0.0528     15.8951    147.0313
   738.2000      8.0056      2.3467     -0.0388     18.3846    151.6292
   738.3000      7.9421      2.3385     -0.0088     18.8800    152.2048
   738.4000      7.9421      2.3405     -0.0273     18.7550    153.4331
   738.5000      7.9227      2.3485     -0.0078     18.2697    157.1328
   738.6000      7.9227      2.3705     -0.0004     16.9385    158.1516
   738.7000      7.9227      2.3994      0.0422     15.1897    153.2215
   738.8000      7.9160      2.4179      0.0921     14.0639    145.4299
   738.9000      7.9160      2.4260      0.0775     13.5778    140.6893
   739.0000      7.9078      2.4431      0.0955     12.5373    142.0908
   739.1000      7.9078      2.4763      0.1539     10.5250    146.5091
   739.2000      7.9078      2.5048      0.2112      8.7976    151.1766
   739.3000      7.8911      2.5153      0.1920      8.1653    155.5853
   739.4000      7.8911      2.5287      0.1280      7.3509    157.6029
   739.5000      7.8782      2.5568      0.2143      5.6463    156.8948
   739.6000      7.8782      2.5727      0.2089      4.6849    155.2442
   739.7000      7.8782      2.5634      0.1182      5.2513    152.9509
   739.8000      7.8785      2.5460      0.1587      6.3056    152.8722
   739.9000      7.8785      2.5291      0.1462      7.3264    157.4324
   740.0000      7.8848      2.5161      0.1028      8.1152    161.4458
   740.1000      7.8848      2.5174      0.0461      8.0337    160.9405
   740.2000      7.8848      2.5394      0.1002      6.7028    157.3172
   740.3000      7.8889      2.5747      0.1345      4.5662    152.0018
   740.4000      7.8889      2.6113      0.1375      2.3457    146.8278
   740.5000      7.8896      2.6434      0.0940      0.4022    144.3497
   740.6000      7.8896      2.6618      0.1479     -0.7169    146.2789
   740.7000      7.8896      2.6557      0.1371     -0.3471    149.8647
   740.8000      7.8896      2.6387      0.0743      0.6876    150.0063
   740.9000      7.8896      2.6312      0.0513      1.1374    145.9818
   741.0000      7.8903      2.6302      0.0889      1.2026    138.2994
   741.1000      7.8903      2.6365      0.0425      0.8178    128.8819
   741.2000      7.8903      2.6581      0.0814     -0.4888    123.9159
   741.3000      7.8902      2.6722      0.0836     -1.3433    125.9614
   741.4000      7.8902      2.6570      0.0583     -0.4264    128.4354
   741.5000      7.8861      2.6238      0.0610      1.5874    125.8782
   741.6000      7.8861      2.5936      0.0123      3.4152    121.6318
   741.7000      7.8861      2.5805      0.0072      4.2098    120.3496
   741.8000      7.8765      2.5807      0.0237      4.1986    120.6290
   741.9000      7.8765      2.5791      0.0384      4.2979    120.0466
   742.0000      7.8672      2.5715      0.0393      4.7598    118.4421
   742.1000      7.8672      2.5591      0.0370      5.5088    115.7633
   742.2000      7.8672      2.5374      0.0535      6.8250    111.9220
   742.3000      7.8645      2.5143     -0.0122      8.2239    111.2571
   742.4000      7.8645      2.5106     -0.0182      8.4496    116.6458
   742.5000      7.8720      2.5218      0.0505      7.7689    122.4799
   742.6000      7.8720      2.5314      0.0140      7.1909    124.6449
   742.7000      7.8720      2.5449      0.0568      6.3676    124.7040
   742.8000      7.8858      2.5714      0.1035      4.7665    123.7749
