~Version Information
VERS.                      2.0: CWLS Log ASCII Standard - VERSION 2.0
WRAP.                       NO: One line per depth step
~Well Information Block
STRT.FT                -8.7500: 
STOP.FT              2331.5000: 
STEP.FT                 0.2500: 
NULL.                -999.2500: 
COMP.          Pioneer Natural Resources: COMPANY
WELL.          Sparrowhawk 22-12: WELL
FLD.           Purgatorie River: FIELD
LOC.           2049' FNL & 2060' FWL--: LOCATION
CNTY.               Las Animas: COUNTY
SRVC.          Patterson Wireline: SERVICE COMPANY
DATE.          Wed Apr 12 08:53:41 2006: LOG DATE
UWI.           05 071 08484 00: UNIQUE WELL ID
STAT.                       CO: STATE
~Curve Information Block
DEPT.FT            0 000 00 00: Depth
CCL.                          : Casing Collar Locator
TT3.usec                      : CBL 3' Travel Time
AMP3.mV                       : CBL 3' Amplitude
GR.GAPI                       : Gamma Ray
~Parameter Information Block
MAXAMPL.mV              0.0000: Maximum Amplitude
~A  Depth       CCL         TT3         AMP3         GR     
# ...
  1532.2500      0.0000    265.8224     51.8614    139.0065
  1532.5000      0.0000    265.7734     52.5279    127.5326
  1532.7500      0.0000    265.7473     52.9638    118.7830
  1533.0000      0.0000    265.7400     53.1682    114.3328
  1533.2500      0.0000    265.7462     53.1683    114.0005
  1533.5000      0.0000    265.7626     52.9812    117.3025
  1533.7500      0.0000    265.7879     52.6095    123.5160
  1534.0000      0.0000    265.8215     52.0656    130.6954
  1534.2500      0.0000    265.8633     51.3869    135.8646
  1534.5000      0.0000    265.9160     50.6199    137.0158
  1534.7500      0.0000    265.9849     49.7858    134.7537
  1535.0000      0.0000    266.0773     48.8574    131.4585
  1535.2500      0.0000    266.2000     47.7762    128.9951
  1535.5000      0.0000    266.3568     46.5019    127.5753
  1535.7500      0.0000    266.5504     45.0396    126.5717
  1536.0000      0.0000    266.7870     43.4223    125.7039
  1536.2500      0.0000    267.0760     41.6918    124.9720
  1536.5000      0.0000    267.4208     39.9090    123.5312
  1536.7500      0.0000    267.8060     38.1757    119.1984
  1537.0000      0.0000    268.1904     36.6341    109.9657
  1537.2500      0.0000    268.5172     35.4348     96.6666
  1537.5000      0.0000    268.7353     34.6857     83.8426
  1537.7500      0.0000    268.8199     34.4105     77.1981
  1538.0000      0.0000    268.7779     34.5478     79.7160
  1538.2500      0.0000    268.6360     34.9964     89.8413
  1538.5000      0.0000    268.4223     35.6759    102.9357
  1538.7500      0.0000    268.1555     36.5604    114.3503
  1539.0000      0.0000    267.8470     37.6680    121.5206
  1539.2500      0.0000    267.5107     39.0251    123.9655
  1539.5000      0.0000    267.1668     40.6360    122.2894
  1539.7500      0.0000    266.8389     42.4730    117.8099
  1540.0000      0.0000    266.5469     44.4718    112.8297
  1540.2500      0.0000    266.3027     46.5153    110.1679
  1540.5000      0.0000    266.1114     48.4313    111.5738
  1540.7500      0.0000    265.9729     50.0497    116.5067
  1541.0000      0.0000    265.8822     51.2966    122.6940
  1541.2500      0.0000    265.8304     52.2318    127.9268
  1541.5000      0.0000    265.8058     52.9913    131.3919
  1541.7500      0.0000    265.7966     53.6969    133.6134
  1542.0000      0.0000    265.7930     54.3979    135.5456
  1542.2500      0.0000    265.7902     55.0579    137.7580
  1542.5000      0.0000    265.7896     55.5837    139.9230
  1542.7500      0.0000    265.7959     55.8859    140.5941
  1543.0000      0.0000    265.8127     55.9397    137.9214
  1543.2500      0.0000    265.8391     55.7992    131.3221
  1543.5000      0.0000    265.8703     55.5597    122.5867
  1543.7500      0.0000    265.9005     55.3037    115.0213
  1544.0000      0.0000    265.9250     55.0722    111.2667
  1544.2500      0.0000    265.9415     54.8752    111.8148
  1544.5000      0.0000    265.9503     54.7158    115.3614
  1544.7500      0.0000    265.9534     54.5952    120.2080
  1545.0000      0.0000    265.9540     54.5013    125.2147
  1545.2500      0.0000    265.9545     54.4116    129.6564
  1545.5000      0.0000    265.9552     54.3132    132.7221
  1545.7500      0.0000    265.9537     54.2150    133.6981
  1546.0000      0.0000    265.9459     54.1398    132.6395
  1546.2500      0.0000    265.9279     54.1107    130.4793
  1546.5000      0.0000    265.8997     54.1371    128.3576
  1546.7500      0.0000    265.8661     54.1997    126.9112
  1547.0000      0.0000    265.8360     54.2394    126.1565
  1547.2500      0.0000    265.8184     54.1700    125.9129
  1547.5000      0.0000    265.8190     53.9128    126.0525
  1547.7500      0.0000    265.8385     53.4348    126.1596
  1548.0000      0.0000    265.8731     52.7660    125.4698
  1548.2500      0.0000    265.9179     51.9799    123.7794
  1548.5000      0.0000    265.9699     51.1451    122.0844
  1548.7500      0.0000    266.0293     50.2800    121.6540
  1549.0000      0.0000    266.0992     49.3504    122.6460
  1549.2500      0.0000    266.1840     48.3076    124.1034
  1549.5000      0.0000    266.2889     47.1255    125.0267
  1549.7500      0.0000    266.4195     45.8039    124.8984
  1550.0000      0.0000    266.5820     44.3587    123.5985
  1550.2500      0.0000    266.7820     42.8233    121.6058
  1550.5000      0.0000    267.0246     41.2524    120.0387
  1550.7500      0.0000    267.3133     39.7058    119.6753
  1551.0000      0.0000    267.6459     38.2307    119.8329
  1551.2500      0.0000    268.0053     36.8725    118.5241
  1551.5000      0.0000    268.3517     35.7056    113.6462
  1551.7500      0.0000    268.6304     34.8359    104.1359
  1552.0000      0.0000    268.7946     34.3550     90.7710
  1552.2500      0.0000    268.8262     34.2851     76.2083
  1552.5000      0.0000    268.7393     34.5649     63.6635
  1552.7500      0.0000    268.5677     35.0808     55.2028
  1553.0000      0.0000    268.3474     35.7173     51.4714
  1553.2500      0.0000    268.1057     36.3940     52.4821
  1553.5000      0.0000    267.8594     37.0759     57.5819
  1553.7500      0.0000    267.6205     37.7602     64.7825
  1554.0000      0.0000    267.3983     38.4577     71.5830
  1554.2500      0.0000    267.1997     39.1785     77.2455
  1554.5000      0.0000    267.0286     39.9142     83.4817
  1554.7500      0.0000    266.8899     40.6176     92.1550
  1555.0000      0.0000    266.7901     41.2076    102.8336
  1555.2500      0.0000    266.7330     41.6079    113.1859
  1555.5000      0.0000    266.7153     41.7835    121.2143
  1555.7500      0.0000    266.7281     41.7446    126.5769
  1556.0000      0.0000    266.7610     41.5311    130.2532
  1556.2500      0.0000    266.8045     41.1982    133.5420
  1556.5000      0.0000    266.8510     40.8088    137.2222
  1556.7500      0.0000    266.8943     40.4240    141.1581
  1557.0000      0.0000    266.9322     40.0871    144.4848
  1557.2500      0.0000    266.9684     39.8075    146.3386
  1557.5000      0.0000    267.0117     39.5625    146.9066
  1557.7500      0.0000    267.0691     39.3247    147.9353
  1558.0000      0.0000    267.1390     39.0868    151.7546
  1558.2500      0.0000    267.2121     38.8616    159.1164
  1558.5000      0.0000    267.2791     38.6627    167.7124
  1558.7500      0.0000    267.3358     38.4940    173.1665
  1559.0000      0.0000    267.3808     38.3569    172.1635
  1559.2500      0.0000    267.4105     38.2613    164.9927
  1559.5000      0.0000    267.4191     38.2268    155.1654
  1559.7500      0.0000    267.4014     38.2765    146.8743
  1560.0000      0.0000    267.3547     38.4334    142.7359
  1560.2500      0.0000    267.2787     38.7196    142.8752
  1560.5000      0.0000    267.1748     39.1532    145.1032
  1560.7500      0.0000    267.0473     39.7394    146.4149
  1561.0000      0.0000    266.9040     40.4614    145.3617
  1561.2500      0.0000    266.7547     41.2841    143.0966
  1561.5000      0.0000    266.6085     42.1787    142.1049
  1561.7500      0.0000    266.4696     43.1560    144.3244
  1562.0000      0.0000    266.3373     44.2699    150.2008
  1562.2500      0.0000    266.2094     45.5612    158.5235
  1562.5000      0.0000    266.0901     46.9666    166.8298
  1562.7500      0.0000    265.9928     48.2947    172.3062
  1563.0000      0.0000    265.9304     49.3397    172.8222
  1563.2500      0.0000    265.9006     50.0451    167.6073
  1563.5000      0.0000    265.8864     50.5369    157.4433
  1563.7500      0.0000    265.8687     50.9964    144.4369
  1564.0000      0.0000    265.8391     51.5305    131.2303
  1564.2500      0.0000    265.7990     52.1519    119.8727
  1564.5000      0.0000    265.7528     52.8225    111.1571
  1564.7500      0.0000    265.7045     53.4851    104.7898
  1565.0000      0.0000    265.6585     54.0696    100.1393
  1565.2500      0.0000    265.6198     54.4888     97.0980
  1565.5000      0.0000    265.5988     54.6333     96.3097
