~Version Information
 VERS.                                  2.0 : CWLS LAS VERSION
 WRAP.                                   NO : WRAPING MODE
 SWARE .                 MController 2.5.0N : SOFTWARE VERSION
~Well Information
 WELL.                          AMX 13-13TR : WELL
 COMP.       Pioneer Natural Resources, USA : COMPANY
 FLD.                       Purgatory River : FIELD
 LOC.                NW/SW Sec 13 T32S R67W : LOCATION
 DATE.                             12/21/05 : DATE(S) LOGGED
 SRVC.      Blanco Geological Services, LLC : SERVICE COMPANY
 STAT.                             Colorado : STATE
 CNTY.                           Las Animas : COUNTY
 CTRY.                                  USA : COUNTRY
 API.                       05-071-08631-00 : API NUMBER
 STRT.FT                             395.00 : START DEPTH
 STOP.FT                            2187.00 : STOP DEPTH
 STEP.FT                               1.00 : DEPTH INCREMENT
 NULL.                                -9999 : NULL VALUE
~Curve information
 DEPTH.FT                                   :
 ROP.MIN/FT                                 :
 GAS.UNITS                                  :
~ASCII Log data
# ...
      1795.0         0.27         49.3 
      1796.0         1.95        116.7 
      1797.0         0.20         88.9 
      1798.0         0.23         62.3 
      1799.0         0.23         38.4 
      1800.0         0.23         25.3 
      1801.0         0.23         31.4 
      1802.0         0.27         49.1 
      1803.0         0.20         59.3 
      1804.0         0.17         65.8 
      1805.0         0.23         73.4 
      1806.0         0.17         78.3 
      1807.0         0.23         83.9 
      1808.0         0.20         86.7 
      1809.0         0.38         87.6 
      1810.0         0.23         86.8 
      1811.0         0.27         84.7 
      1812.0         0.27         82.2 
      1813.0         0.23         79.7 
      1814.0         0.30         77.3 
      1815.0         0.27         73.2 
      1816.0         0.30         68.1 
      1817.0         0.23         69.1 
      1818.0         0.17         70.4 
      1819.0         0.13         71.2 
      1820.0         0.13         71.5 
      1821.0         0.20         71.5 
      1822.0         0.27         71.0 
      1823.0         0.25         67.9 
      1824.0         0.13         59.3 
      1825.0         0.27         55.1 
      1826.0         2.57        121.9 
      1827.0         0.23        123.3 
      1828.0         0.32        122.9 
      1829.0         0.30        116.0 
      1830.0         0.30        105.0 
      1831.0         0.23         94.2 
      1832.0         0.20         88.0 
      1833.0         0.17         85.6 
      1834.0         0.20         85.9 
      1835.0         0.20         87.9 
      1836.0         0.27         90.6 
      1837.0         0.30         91.1 
      1838.0         0.33         90.8 
      1839.0         0.30         88.0 
      1840.0         0.27         83.2 
      1841.0         0.32         79.0 
      1842.0         0.27         75.0 
      1843.0         0.20         73.2 
      1844.0         0.23         71.7 
      1845.0         0.23         68.8 
      1846.0         0.23         66.1 
      1847.0         0.47         66.2 
      1848.0         0.13         66.9 
      1849.0         0.13         67.4 
      1850.0         0.23         67.7 
      1851.0         0.30         67.5 
      1852.0         0.27         66.2 
      1853.0         0.27         64.5 
      1854.0         0.28         59.4 
      1855.0         0.27         50.1 
      1856.0         2.33        107.6 
      1857.0         0.13        117.3 
      1858.0         0.23        132.6 
      1859.0         0.10        137.6 
      1860.0         0.22        144.2 
      1861.0         0.23        144.6 
      1862.0         0.23        142.3 
      1863.0         0.20        133.2 
      1864.0         0.20        123.6 
      1865.0         0.20        114.2 
      1866.0         0.27        105.5 
      1867.0         0.10         96.2 
      1868.0         0.17         92.8 
      1869.0         0.33         88.4 
      1870.0         0.40         92.9 
      1871.0         0.27         96.3 
      1872.0         0.20         97.2 
      1873.0         0.17         97.1 
      1874.0         0.30         95.9 
      1875.0         0.38         92.0 
      1876.0         0.37         85.9 
      1877.0         0.33         79.5 
      1878.0         0.30         74.3 
      1879.0         0.27         70.8 
      1880.0         0.23         68.0 
      1881.0         0.23         65.6 
      1882.0         0.23         69.1 
      1883.0         0.27         70.9 
      1884.0         0.20         69.8 
      1885.0         0.17         64.4 
      1886.0         3.65        146.9 
      1887.0         0.48        145.5 
      1888.0         0.33        128.4 
      1889.0         0.30        111.7 
      1890.0         0.50         98.6 
      1891.0         0.47         86.6 
      1892.0         0.47         88.3 
      1893.0         0.47         88.2 
      1894.0         0.52         86.6 
      1895.0         0.27         81.0 
      1896.0         0.30         76.9 
      1897.0         0.23         73.2 
      1898.0         0.23         70.5 
      1899.0         0.23         68.4 
      1900.0         0.23         66.0 
      1901.0         0.23         64.3 
      1902.0         0.23         63.1 
      1903.0         0.27         62.8 
      1904.0         0.23         63.0 
      1905.0         0.40         63.3 
      1906.0         0.30         63.5 
      1907.0         0.32         63.8 
      1908.0         0.23         65.6 
      1909.0         0.27         66.9 
      1910.0         0.20         66.8 
      1911.0         0.17         65.3 
      1912.0         0.17         62.3 
      1913.0         0.20         56.9 
      1914.0         0.23         50.7 
      1915.0         0.23         45.0 
      1916.0         2.52        168.3 
      1917.0         0.23        170.1 
      1918.0         0.27        168.2 
      1919.0         0.23        154.6 
      1920.0         0.27        132.4 
      1921.0         0.40        108.6 
      1922.0         0.30         92.4 
      1923.0         0.27         88.7 
      1924.0         0.32         88.3 
      1925.0         0.20         89.8 
      1926.0         0.23         90.8 
      1927.0         0.23         91.5 
      1928.0         0.27         91.6 
      1929.0         0.20         91.4 
      1930.0         0.33         90.5 
      1931.0         0.30         86.2 
      1932.0         0.27         81.9 
      1933.0         0.30         78.0 
      1934.0         0.30         73.9 
      1935.0         0.27         69.2 
      1936.0         0.27         66.4 
      1937.0         0.25         65.0 
      1938.0         0.23         64.4 
      1939.0         0.30         63.6 
      1940.0         0.30         62.3 
      1941.0         0.27         60.3 
      1942.0         0.30         59.9 
      1943.0         0.23         58.4 
      1944.0         0.33         57.9 
      1945.0         0.23         51.7 
      1946.0         2.78        169.0 
      1947.0         0.17        184.0 
      1948.0         0.20        195.3 
      1949.0         0.37        198.6 
      1950.0         0.20        195.5 
      1951.0         0.20        186.3 
      1952.0         0.33        172.3 
      1953.0         0.45        144.7 
      1954.0         0.30        113.2 
      1955.0         0.30         98.6 
      1956.0         0.27         90.3 
      1957.0         0.27         89.3 
      1958.0         0.27         94.8 
      1959.0         0.23         98.1 
      1960.0         0.20         98.5 
      1961.0         0.13         98.1 
      1962.0         0.17         96.7 
      1963.0         0.23         94.4 
      1964.0         0.33         90.7 
      1965.0         0.32         85.2 
      1966.0         0.30         80.3 
      1967.0         0.23         87.6 
      1968.0         0.27        194.4 
      1969.0         0.23        291.7 
      1970.0         0.23        333.8 
      1971.0         0.20        348.4 
      1972.0         0.10        351.8 
      1973.0         0.20        356.9 
      1974.0         0.20        357.3 
      1975.0         0.23        350.6 
      1976.0         8.65       1346.1 
      1977.0         0.17        670.5 
      1978.0         0.30        644.2 
      1979.0         0.27        608.0 
      1980.0         0.30        572.0 
      1981.0         0.37        538.6 
      1982.0         0.30        513.6 
      1983.0         0.27        513.0 
      1984.0         0.23        508.6 
      1985.0         0.22        503.9 
      1986.0         0.23        502.3 
      1987.0         0.20        500.8 
      1988.0         0.30        491.4 
      1989.0         0.37        474.5 
      1990.0         0.40        455.5 
      1991.0         0.40        440.0 
      1992.0         0.40        149.7 
      1993.0         0.40        145.8 
      1994.0         0.37        141.6 
