~Version Information
VERS.                      2.0: CWLS Log ASCII Standard - VERSION 2.0
WRAP.                       NO: One line per depth step
~Well Information Block
STRT.FT               -10.2500: 
STOP.FT              2871.7500: 
STEP.FT                 0.2500: 
NULL.                -999.2500: 
COMP.          Pioneer Natural Resources: COMPANY
WELL.          Grey Goose 33-30: WELL
FLD.           Purgatorie River: FIELD
LOC.           2136' FSL & 2065' FEL--: LOCATION
STAT.                       CO: State
CNTY.               Las Animas: COUNTY
CTRY. USA : Country
SECT. 30  : Section
TOWN. 32S : Township
RANG. 67W : Range
SRVC.          Patterson Wireline: SERVICE COMPANY
DATE.          Tue Dec 06 12:24:57 2005: LOG DATE
API.            05 071 0854600: UNIQUE WELL ID
~Curve Information Block
DEPT.FT            0 000 00 00: Depth
CCL.                          : Casing Collar Locator
TT3.usec                      : CBL 3' Travel Time
AMP3.mV                       : CBL 3' Amplitude
GR.GAPI                       : Gamma Ray
~Parameter Information Block
~A  Depth       CCL         TT3         AMP3         GR     
# ...
  1329.7500      0.0000    789.1029     10.2890     92.1054
  1330.0000      0.0000    761.6647     11.2388     99.1212
  1330.2500      0.0000    731.6096     12.1580    104.1395
  1330.5000      0.0000    693.7192     12.9137    107.0256
  1330.7500      0.0000    651.4727     13.3631    108.4138
  1331.0000      0.0000    617.7128     13.4015    109.4065
  1331.2500      0.0000    602.3621     13.0287    110.9122
  1331.5000      0.0000    599.8075     12.3749    113.0126
  1331.7500      0.0000    591.7469     11.6516    114.9948
  1332.0000      0.0000    563.8882     11.0579    116.1659
  1332.2500      0.0000    518.4745     10.6956    116.3674
  1332.5000      0.0000    470.3662     10.5393    115.6019
  1332.7500      0.0000    433.4919     10.4841    113.9908
  1333.0000      0.0000    412.2877     10.4328    112.5807
  1333.2500      0.0000    403.3097     10.3481    113.1036
  1333.5000      0.0000    401.0970     10.2406    115.9061
  1333.7500      0.0000    401.7992     10.1331    118.9075
  1334.0000      0.0000    403.4903     10.0440    119.7207
  1334.2500      0.0000    405.2572      9.9886    118.4198
  1334.5000      0.0000    406.6258      9.9755    117.3284
  1334.7500      0.0000    407.6862      9.9951    118.3819
  1335.0000      0.0000    409.6451     10.0180    121.2797
  1335.2500      0.0000    415.2411     10.0104    123.7552
  1335.5000      0.0000    427.6956      9.9521    123.0870
  1335.7500      0.0000    447.0900      9.8430    117.7784
  1336.0000      0.0000    466.7057      9.7020    108.6792
  1336.2500      0.0000    475.4543      9.5677     98.8911
  1336.5000      0.0000    467.1528      9.4947     92.1533
  1336.7500      0.0000    446.7889      9.5343     90.6330
  1337.0000      0.0000    425.8143      9.7083     93.9160
  1337.2500      0.0000    412.7005      9.9908     99.9241
  1337.5000      0.0000    409.3533     10.3140    106.4750
  1337.7500      0.0000    413.9136     10.6012    112.1579
  1338.0000      0.0000    423.8546     10.8055    116.4202
  1338.2500      0.0000    436.8194     10.9227    119.3834
  1338.5000      0.0000    450.9344     10.9675    121.5785
  1338.7500      0.0000    465.2801     10.9495    123.6058
  1339.0000      0.0000    479.1409     10.8797    125.7666
  1339.2500      0.0000    490.4105     10.7922    127.9317
  1339.5000      0.0000    495.9392     10.7428    129.8310
  1339.7500      0.0000    494.5052     10.7738    131.3601
  1340.0000      0.0000    488.4474     10.8812    132.4169
  1340.2500      0.0000    481.2423     11.0155    132.5822
  1340.5000      0.0000    474.2534     11.1160    131.4344
  1340.7500      0.0000    466.4881     11.1491    129.3146
  1341.0000      0.0000    456.3936     11.1219    127.3785
  1341.2500      0.0000    443.1286     11.0671    126.6042
  1341.5000      0.0000    427.0721     11.0197    126.7551
  1341.7500      0.0000    409.9377     11.0060    126.4499
  1342.0000      0.0000    394.0510     11.0483    124.5046
  1342.2500      0.0000    381.1611     11.1669    121.4385
  1342.5000      0.0000    371.9300     11.3681    119.3447
  1342.7500      0.0000    366.1311     11.6226    119.9054
  1343.0000      0.0000    362.9925     11.8625    122.5527
  1343.2500      0.0000    361.5387     12.0157    124.5830
  1343.5000      0.0000    360.9555     12.0515    123.0441
  1343.7500      0.0000    360.8163     11.9931    116.8242
  1344.0000      0.0000    361.2016     11.8862    107.3681
  1344.2500      0.0000    362.8751     11.7565     97.7008
  1344.5000      0.0000    367.6275     11.5923     90.8891
  1344.7500      0.0000    378.3677     11.3614     88.9692
  1345.0000      0.0000    398.5061     11.0571     92.3953
  1345.2500      0.0000    430.3526     10.7416     99.8719
  1345.5000      0.0000    472.8028     10.5320    108.8386
  1345.7500      0.0000    519.9750     10.5173    116.5989
  1346.0000      0.0000    563.4517     10.6828    121.5890
  1346.2500      0.0000    597.6047     10.9268    123.9661
  1346.5000      0.0000    622.3582     11.1443    124.8114
  1346.7500      0.0000    640.2289     11.2793    124.6893
  1347.0000      0.0000    652.5432     11.3044    123.3650
  1347.2500      0.0000    659.6849     11.1779    120.9402
  1347.5000      0.0000    663.1600     10.8429    118.4560
  1347.7500      0.0000    665.7925     10.2755    117.0452
  1348.0000      0.0000    670.3397      9.5465    117.2096
  1348.2500      0.0000    678.2343      8.8329    119.1681
  1348.5000      0.0000    689.0093      8.3457    123.0772
  1348.7500      0.0000    700.0343      8.2152    128.4390
  1349.0000      0.0000    706.9528      8.4234    133.8519
  1349.2500      0.0000    706.2365      8.8312    137.8776
  1349.5000      0.0000    699.2905      9.2668    140.1715
  1349.7500      0.0000    692.8752      9.6019    141.6578
  1350.0000      0.0000    692.8444      9.7709    143.4997
  1350.2500      0.0000    698.2851      9.7515    145.7242
  1350.5000      0.0000    703.8458      9.5468    147.1139
  1350.7500      0.0000    705.9517      9.1898    146.7047
  1351.0000      0.0000    704.3364      8.7550    144.9056
  1351.2500      0.0000    699.5367      8.3518    142.9272
  1351.5000      0.0000    691.9751      8.0830    141.7594
  1351.7500      0.0000    683.0346      7.9927    141.8935
  1352.0000      0.0000    675.0149      8.0510    143.3584
  1352.2500      0.0000    669.6559      8.1912    145.7222
  1352.5000      0.0000    667.3203      8.3486    148.2362
  1352.7500      0.0000    667.3754      8.4672    149.9733
  1353.0000      0.0000    668.7595      8.5012    149.9917
  1353.2500      0.0000    670.2177      8.4395    147.8938
  1353.5000      0.0000    670.7936      8.3252    144.4788
  1353.7500      0.0000    670.7028      8.2308    141.2969
  1354.0000      0.0000    671.4123      8.2040    139.0711
  1354.2500      0.0000    674.2969      8.2319    136.9662
  1354.5000      0.0000    679.2698      8.2559    133.7585
  1354.7500      0.0000    685.0674      8.2206    129.3443
  1355.0000      0.0000    690.6035      8.1169    124.8636
  1355.2500      0.0000    695.4760      7.9870    121.6164
  1355.5000      0.0000    699.2766      7.8916    120.1941
  1355.7500      0.0000    701.2393      7.8739    120.5548
  1356.0000      0.0000    701.0300      7.9479    122.5163
  1356.2500      0.0000    699.4351      8.1072    125.9209
  1356.5000      0.0000    697.7908      8.3314    130.5788
  1356.7500      0.0000    696.9006      8.5833    136.1646
  1357.0000      0.0000    696.7280      8.8105    141.8467
  1357.2500      0.0000    696.8619      8.9636    146.1091
  1357.5000      0.0000    696.9877      9.0225    147.6260
  1357.7500      0.0000    697.0174      9.0080    146.4439
  1358.0000      0.0000    697.0001      8.9704    143.8351
  1358.2500      0.0000    696.9828      8.9603    140.9514
  1358.5000      0.0000    696.9266      8.9970    137.8269
  1358.7500      0.0000    696.7501      9.0556    133.5718
  1359.0000      0.0000    696.4446      9.0866    127.4823
  1359.2500      0.0000    696.1226      9.0536    120.1893
  1359.5000      0.0000    695.9245      8.9541    113.8000
  1359.7500      0.0000    695.8796      8.8046    110.7456
  1360.0000      0.0000    695.8733      8.6141    112.2831
  1360.2500      0.0000    695.7546      8.3786    117.8296
  1360.5000      0.0000    695.4646      8.1047    125.4162
  1360.7500      0.0000    695.0690      7.8366    132.5546
  1361.0000      0.0000    694.7014      7.6489    137.0188
  1361.2500      0.0000    694.4911      7.5995    137.6466
  1361.5000      0.0000    694.5059      7.6840    134.9359
  1361.7500      0.0000    694.7189      7.8404    130.7867
  1362.0000      0.0000    695.0281      8.0008    127.2448
  1362.2500      0.0000    695.3186      8.1384    125.0846
  1362.5000      0.0000    695.5176      8.2686    123.6490
  1362.7500      0.0000    695.6169      8.4111    122.2905
  1363.0000      0.0000    695.6484      8.5542    121.6292
