~Version Information
VERS.                      2.0: CWLS Log ASCII Standard - VERSION 2.0
WRAP.                       NO: One line per depth step
~Well Information Block
STRT.FT               315.0000: 
STOP.FT              1292.5000: 
STEP.FT                 0.1000: 
NULL.                -999.2500: 
COMP.          Pioneer Natural Resources: COMPANY
WELL.          Hot Tomatoes 22-20: WELL
FLD.           Purgatoire River: FIELD
LOC.           2120' FNL & 2585' FWL: LOCATION
CNTY.               Las Animas: COUNTY
SRVC.                Patterson: SERVICE COMPANY
DATE.          Mon Feb 27 07:06:41 2006: LOG DATE
UWI.           05 071 08701 00: UNIQUE WELL ID
STAT.                 Colorado: STATE
~Curve Information Block
DEPT.FT            0 000 00 00: Depth
DCAL.in                       : CDL Caliper
RHOB.g/cc                     : CDL Bulk Density
RHOC.g/cc                     : CDL Density Correction
DPOR.pu                       : CDL Density Porosity
GR.GAPI                       : Gamma Ray
NPOR.pu                       : Neutron Porosity
~Parameter Information Block
~A  Depth       DCAL        RHOB        RHOC        DPOR         GR         NPOR    
# ...
   891.0000      7.9649      2.4505      0.0573     12.0933    144.0010     31.3452
   891.1000      7.9649      2.4388      0.0445     12.8014    138.1853     30.5829
   891.2000      7.9649      2.4209      0.0239     13.8876    127.7069     30.3075
   891.3000      7.9890      2.4142     -0.0347     14.2924    124.3129     30.2041
   891.4000      7.9890      2.4225      0.0825     13.7909    131.1749     29.7505
   891.5000      7.9718      2.4223      0.0629     13.7971    142.8448     29.6030
   891.6000      7.9718      2.4131      0.0012     14.3570    149.3967     30.0263
   891.7000      7.9718      2.4160      0.0418     14.1827    145.6403     30.1423
   891.8000      7.9674      2.4328      0.0697     13.1655    136.4473     29.6545
   891.9000      7.9674      2.4525      0.0568     11.9685    128.0980     29.2605
   892.0000      7.9762      2.4685      0.0909     10.9977    125.5035     29.0304
   892.1000      7.9762      2.4788      0.0680     10.3782    130.0170     28.8932
   892.2000      7.9762      2.4857      0.0872      9.9602    135.2938     29.4973
   892.3000      7.9788      2.4832      0.1253     10.1091    138.5031     30.5939
   892.4000      7.9788      2.4677      0.0702     11.0515    141.1233     31.2100
   892.5000      7.9788      2.4545      0.0684     11.8491    141.3199     31.4725
   892.6000      7.9788      2.4551      0.0724     11.8141    138.7691     31.9134
   892.7000      7.9788      2.4600      0.1045     11.5147    132.6235     32.0173
   892.8000      7.9801      2.4549      0.0951     11.8261    127.2125     31.3043
   892.9000      7.9801      2.4396      0.0798     12.7528    128.8396     30.5429
   893.0000      7.9767      2.4201      0.0996     13.9322    131.6224     30.4779
   893.1000      7.9767      2.4001      0.0599     15.1476    130.2861     30.8810
   893.2000      7.9767      2.3808      0.0693     16.3123    130.1305     31.0741
   893.3000      7.9801      2.3613      0.0652     17.4956    132.9357     30.5897
   893.4000      7.9801      2.3476      0.0633     18.3292    131.9791     29.7428
   893.5000      7.9758      2.3463      0.0601     18.4073    126.6043     29.4847
   893.6000      7.9758      2.3488      0.0796     18.2552    124.8742     29.9139
   893.7000      7.9758      2.3445      0.0596     18.5125    129.6626     30.0457
   893.8000      7.9811      2.3421      0.0580     18.6616    137.0952     29.3953
   893.9000      7.9811      2.3512      0.0740     18.1100    143.4264     28.6741
   894.0000      7.9834      2.3659      0.0858     17.2186    146.5627     28.8498
   894.1000      7.9834      2.3876      0.0683     15.9049    143.0710     29.6767
   894.2000      7.9834      2.4216      0.1043     13.8405    136.4417     30.1290
   894.3000      7.9718      2.4562      0.0911     11.7428    135.9307     29.9544
   894.4000      7.9718      2.4805      0.1317     10.2723    139.2683     29.7924
   894.5000      7.9508      2.4951      0.1363      9.3891    138.8701     29.9001
   894.6000      7.9508      2.5040      0.1131      8.8509    137.0095     29.6836
   894.7000      7.9508      2.5062      0.1666      8.7148    140.0686     29.2391
   894.8000      7.9383      2.4975      0.1693      9.2415    145.9605     29.3373
   894.9000      7.9383      2.4767      0.1564     10.5059    148.6644     29.7122
   895.0000      7.9228      2.4527      0.0861     11.9572    150.4116     29.8112
   895.1000      7.9228      2.4378      0.0802     12.8630    157.3555     29.8725
   895.2000      7.9228      2.4349      0.1111     13.0348    166.6918     30.0199
   895.3000      7.9173      2.4469      0.0435     12.3073    169.8161     30.0829
   895.4000      7.9173      2.4708      0.0712     10.8581    167.6787     30.1397
   895.5000      7.9279      2.4819      0.1308     10.1858    168.9277     30.0205
   895.6000      7.9279      2.4690      0.0579     10.9667    172.0516     29.5190
   895.7000      7.9279      2.4563      0.0390     11.7386    170.1061     28.6284
   895.8000      7.9463      2.4567      0.0623     11.7134    163.0802     27.3652
   895.9000      7.9463      2.4591      0.0421     11.5727    153.5287     26.4935
   896.0000      7.9609      2.4620      0.0439     11.3950    146.6814     26.6280
   896.1000      7.9609      2.4752      0.0504     10.5954    147.1894     26.9567
   896.2000      7.9609      2.4961      0.0897      9.3248    151.2782     26.6574
   896.3000      7.9747      2.5074      0.0984      8.6402    148.2931     25.6201
   896.4000      7.9747      2.4944      0.0261      9.4303    136.3368     24.3399
   896.5000      7.9585      2.4635      0.0027     11.3056    125.2762     23.6076
   896.6000      7.9585      2.4287     -0.0043     13.4131    122.0346     24.0795
   896.7000      7.9585      2.3940     -0.0226     15.5133    127.1172     25.4184
   896.8000      7.9495      2.3568      0.0081     17.7725    133.6898     26.2225
   896.9000      7.9495      2.3207     -0.0211     19.9589    132.0458     26.3592
   897.0000      7.9267      2.3030     -0.0264     21.0296    122.6683     26.5351
   897.1000      7.9267      2.3055      0.0399     20.8814    113.1097     26.4257
   897.2000      7.9267      2.2993      0.0659     21.2516    106.2915     25.8687
   897.3000      7.8864      2.2582      0.0740     23.7462    100.4386     25.7622
   897.4000      7.8864      2.1849      0.0517     28.1863     98.4303     26.5763
   897.5000      7.8764      2.1034      0.0456     33.1248    103.3983     27.9272
   897.6000      7.8764      2.0245      0.0836     37.9114    108.3596     29.2685
   897.7000      7.8764      1.9304      0.0797     43.6131    109.4139     29.9772
   897.8000      7.8890      1.8124     -0.0072     50.7652    110.5806     29.7592
   897.9000      7.8890      1.6972     -0.1157     57.7446    112.1006     29.5808
   898.0000      7.9237      1.6167     -0.1233     62.6248    111.3846     30.4130
   898.1000      7.9237      1.5854     -0.1184     64.5228    108.2141     31.4420
   898.2000      7.9237      1.6103     -0.0272     63.0104    105.3219     31.5097
   898.3000      7.9327      1.6899      0.0294     58.1887    104.8009     31.1883
   898.4000      7.9327      1.8055      0.1161     51.1814    105.9460     31.3540
   898.5000      7.9375      1.9294      0.1956     43.6710    106.0733     31.6924
   898.6000      7.9375      2.0494      0.2027     36.4014    106.1388     32.0077
   898.7000      7.9375      2.1637      0.2174     29.4715    108.9945     32.5127
   898.8000      7.9546      2.2541      0.2379     23.9946    113.0014     32.7094
   898.9000      7.9546      2.3163      0.1677     20.2244    119.5440     32.1086
   899.0000      7.9549      2.3777      0.1606     16.5032    131.1651     31.3502
   899.1000      7.9549      2.4429      0.1467     12.5532    142.3892     31.0438
   899.2000      7.9549      2.4828      0.1668     10.1344    145.9307     31.0071
   899.3000      7.9620      2.4835      0.0721     10.0930    147.0685     31.0086
   899.4000      7.9620      2.4650      0.0403     11.2127    154.7933     31.1103
   899.5000      7.9702      2.4543      0.0068     11.8622    162.9492     31.3189
   899.6000      7.9702      2.4637     -0.0017     11.2902    162.5871     31.2846
   899.7000      7.9702      2.4840      0.0443     10.0589    156.8959     30.8321
   899.8000      7.9807      2.5002      0.0319      9.0816    151.2952     30.1588
   899.9000      7.9807      2.5102      0.0269      8.4736    149.2407     29.5883
   900.0000      7.9656      2.5156      0.0689      8.1465    153.7374     29.5084
   900.1000      7.9656      2.5082      0.0937      8.5944    160.1461     29.5668
   900.2000      7.9656      2.4870      0.0698      9.8784    159.4712     29.2691
   900.3000      7.9623      2.4739      0.0463     10.6739    150.8483     29.0494
   900.4000      7.9623      2.4860      0.0515      9.9405    144.2758     29.0111
   900.5000      7.9827      2.5074      0.0940      8.6419    145.1462     28.8198
