~Version Information
VERS.                      2.0: CWLS Log ASCII Standard - VERSION 2.0
WRAP.                       NO: One line per depth step
~Well Information Block
STRT.FT                 0.0000: 
STOP.FT              1877.2500: 
STEP.FT                 0.2500: 
NULL.                -999.2500: 
COMP.          Pioneer Natural Resources: COMPANY
WELL.            Corazon 13-10: WELL
FLD.           Purgatoire River: FIELD
LOC.           2510' FSL & 439' FWL--------: LOCATION
PROV.                 Colorado: PROVINCE
CNTY.               Las Animas: COUNTRY
SRVC.                         : SERVICE COMPANY
DATE.          Mon Dec 19 14:34:49 2005: LOG DATE
UWI.                          : UNIQUE WELL ID
~Curve Information Block
DEPT.FT            0 000 00 00: Depth
CCL.                          : Casing Collar Locator
TT3.usec                      : CBL 3' Travel Time
AMP3.mV                       : CBL 3' Amplitude
AMP5.mV                       : CBL 5' Amplitude
GR.GAPI                       : Gamma Ray
~Parameter Information Block
~A  Depth       CCL         TT3         AMP3        AMP5         GR     
# ...
   364.0000      0.0000    734.3005     19.7778      5.1290     62.6895
   364.2500      0.0000    734.2076     19.6571      5.1540     64.8494
   364.5000      0.0000    734.1455     19.5318      5.0559     66.0694
   364.7500      0.0000    734.1023     19.4287      4.7880     65.2849
   365.0000      0.0000    734.0567     19.3606      4.4197     62.5945
   365.2500      0.0000    734.0090     19.3141      4.0968     59.6749
   365.5000      0.0000    733.9876     19.2696      3.9540     58.4746
   365.7500      0.0000    734.0248     19.2266      4.0507     59.3482
   366.0000      0.0000    734.1274     19.2004      4.3534     60.8104
   366.2500      0.0000    734.2701     19.1966      4.7508     61.1305
   366.5000      0.0000    734.4098     19.2012      5.0979     59.7113
   366.7500      0.0000    734.5096     19.1996      5.2759     57.0111
   367.0000      0.0000    734.5562     19.1955      5.2360     53.9521
   367.2500      0.0000    734.5588     19.2038      5.0123     51.5882
   367.5000      0.0000    734.5302     19.2300      4.7084     50.6845
   367.7500      0.0000    734.4722     19.2623      4.4581     51.3200
   368.0000      0.0000    734.3819     19.2818      4.3627     52.9944
   368.2500      0.0000    734.2658     19.2759      4.4431     54.9128
   368.5000      0.0000    734.1467     19.2453      4.6348     56.1407
   368.7500      0.0000    734.0518     19.2030      4.8253     56.0708
   369.0000      0.0000    733.9962     19.1672      4.9140     55.0888
   369.2500      0.0000    733.9810     19.1531      4.8665     54.4666
   369.5000      0.0000    733.9990     19.1675      4.7340     55.3113
   369.7500      0.0000    734.0334     19.2073      4.6185     57.6166
   370.0000      0.0000    734.0566     19.2600      4.6035     60.3309
   370.2500      0.0000    734.0554     19.3075      4.6952     62.3383
   370.5000      0.0000    734.0639     19.3386      4.8217     63.3873
   370.7500      0.0000    734.1526     19.3618      4.8975     64.0191
   371.0000      0.0000    734.3857     19.4008      4.9012     64.6777
   371.2500      0.0000    734.8194     19.4733      4.8831     65.1210
   371.5000      0.0000    735.5997     19.5784      4.9002     64.7630
   371.7500      0.0000    736.9839     19.7056      4.9686     63.4069
   372.0000      0.0000    739.0403     19.8483      5.0856     61.4812
   372.2500      0.0000    741.2834     20.0026      5.2586     59.6411
   372.5000      0.0000    743.0261     20.1609      5.4838     58.2655
   372.7500      0.0000    744.3981     20.3122      5.7207     57.2812
   373.0000      0.0000    746.5441     20.4456      5.9115     56.3701
   373.2500      0.0000    750.1905     20.5530      6.0236     55.3332
   373.5000      0.0000    754.2363     20.6312      6.0662     54.2365
   373.7500      0.0000    756.4517     20.6833      6.0653     53.2334
   374.0000      0.0000    755.6567     20.7182      6.0248     52.4155
   374.2500      0.0000    752.7115     20.7479      5.9171     51.9879
   374.5000      0.0000    749.2742     20.7821      5.7221     52.3881
   374.7500      0.0000    746.2376     20.8210      5.4679     53.8626
   375.0000      0.0000    743.8483     20.8505      5.2138     55.9185
   375.2500      0.0000    742.7048     20.8499      5.0015     57.5095
   375.5000      0.0000    743.7399     20.8069      4.8442     57.8585
   375.7500      0.0000    747.2687     20.7247      4.7535     56.9726
   376.0000      0.0000    752.6216     20.6169      4.7420     55.5090
   376.2500      0.0000    758.6985     20.5055      4.7878     54.3527
   376.5000      0.0000    764.4686     20.4236      4.8134     54.0577
   376.7500      0.0000    768.9927     20.4033      4.7160     54.4184
   377.0000      0.0000    771.1944     20.4480      4.4173     54.7304
   377.2500      0.0000    769.1624     20.5251      3.8989     54.5383
   377.5000      0.0000    758.8768     20.5806      3.2159     53.9768
   377.7500      0.0000    734.4330     20.5290      2.4884     53.4717
   378.0000      0.0000    693.3418     20.1976      1.8604     53.3171
   378.2500      0.0000    645.3016     19.3132      1.4349     53.5234
   378.5000      0.0000    613.1782     17.6446      1.2331     53.9117
   378.7500      0.0000    617.6178     15.2510      1.2052     54.2409
   379.0000      0.0000    658.1386     12.5878      1.2752     54.2829
   379.2500      0.0000    713.9228     10.2835      1.3795     53.8611
   379.5000      0.0000    763.9194      8.7508      1.4763     52.8544
   379.7500      0.0000    801.2396      7.9929      1.5306     51.1851
   380.0000      0.0000    828.8464      7.7388      1.5067     48.8922
   380.2500      2.0000    849.2592      7.7130      1.3890     46.2857
   380.5000      0.0000    861.6841      7.8131      1.2066     43.9352
   380.7500      0.0000    864.1445      8.1489      1.0222     42.3342
   381.0000      0.0000    854.5458      8.9670      0.8874     41.5566
   381.2500      0.0000    831.2501     10.4776      0.8150     41.3354
   381.5000      0.0000    795.6163     12.6578      0.7990     41.3693
   381.7500      0.0000    755.1495     15.1918      0.8564     41.5009
   382.0000      0.0000    723.5252     17.6125      1.0416     41.8298
   382.2500      0.0000    714.1101     19.5270      1.4159     42.7117
   382.5000      0.0000    729.8492     20.7689      1.9955     44.3573
   382.7500      0.0000    760.1873     21.4119      2.7153     46.4518
   383.0000      0.0000    789.8237     21.6646      3.4379     48.4517
   383.2500      0.0000    809.1414     21.7296      4.0143     50.1182
   383.5000      0.0000    816.1473     21.7256      4.3644     51.4834
   383.7500      0.0000    812.9536     21.6958      4.5113     52.5488
   384.0000      0.0000    803.5223     21.6532      4.5398     53.3884
   384.2500      0.0000    792.6550     21.6124      4.5312     54.3174
   384.5000      0.0000    784.0853     21.5909      4.5328     55.5926
   384.7500      0.0000    778.9717     21.5983      4.5642     57.1060
   385.0000      0.0000    776.4913     21.6291      4.6264     58.5361
   385.2500      0.0000    775.3633     21.6715      4.7054     59.5338
   385.5000      0.0000    774.7865     21.7178      4.7771     59.6598
   385.7500      0.0000    774.4514     21.7647      4.8211     58.5034
   386.0000      0.0000    774.2725     21.8037      4.8390     56.0862
   386.2500      0.0000    774.1968     21.8181      4.8595     53.0652
   386.5000      0.0000    774.1583     21.7980      4.9192     50.4661
   386.7500      0.0000    774.1021     21.7515      5.0420     49.2172
   387.0000      0.0000    774.0106     21.6959      5.2359     49.7975
   387.2500      0.0000    773.9050     21.6403      5.4922     52.0995
   387.5000      0.0000    773.8223     21.5849      5.7752     55.4679
   387.7500      0.0000    773.7883     21.5336      6.0248     58.9333
   388.0000      0.0000    773.8068     21.5005      6.1859     61.7150
   388.2500      0.0000    773.8635     21.4989      6.2363     63.9314
   388.5000      0.0000    773.9343     21.5244      6.1814     66.9026
   388.7500      0.0000    773.9980     21.5513      6.0298     72.2079
   389.0000      0.0000    774.0485     21.5483      5.7879     79.9542
   389.2500      0.0000    774.0930     21.5006      5.4798     88.2137
   389.5000      0.0000    774.1336     21.4192      5.1613     94.6164
   389.7500      0.0000    774.1528     21.3309      4.8995     98.2796
   390.0000      0.0000    774.1198     21.2529      4.7329     99.7805
   390.2500      0.0000    774.0205     21.1775      4.6532     99.7092
   390.5000      0.0000    773.8847     21.0837      4.6253     98.1189
   390.7500      0.0000    773.7862     20.9675      4.6188     95.3539
   391.0000      0.0000    773.8111     20.8530      4.6206     92.5046
   391.2500      0.0000    774.0107     20.7723      4.6292     90.5235
   391.5000      0.0000    774.3665     20.7402      4.6484     89.2034
   391.7500      0.0000    774.7906     20.7481      4.6883     87.5349
