~Version Information
VERS.                      2.0: CWLS Log ASCII Standard - VERSION 2.0
WRAP.                       NO: One line per depth step
~Well Information Block
STRT.FT               660.0000: 
STOP.FT              2491.0000: 
STEP.FT                 0.2500: 
NULL.                -999.2500: 
COMP.          Petrogulf Corporation: COMPANY
WELL.          Montoya 18-11V-B: WELL
FLD.           Purgatorie River: FIELD
LOC.           848' FNL & 619' FWL: LOCATION
PROV.                 Colorado: PROVINCE
CNTY.               Las Animas: COUNTRY
SRVC.                Patterson: SERVICE COMPANY
DATE.          Wed Oct 05 04:34:17 2005: LOG DATE
UWI.                          : UNIQUE WELL ID
~Curve Information Block
DEPT.FT            0 000 00 00: Depth
SP.mV                         : DIL Spontaneous Potential
RILD.Ohm-m                    : DIL Deep Resistivity
RILM.Ohm-m                    : DIL Medium Resistivity
RLL3.Ohm-m                    : DIL Shallow Resistivity
GR.GAPI                       : Gamma Ray
~Parameter Information Block
~A  Depth        SP         RILD        RILM        RLL3         GR     
# ...
  1976.0000    178.9250     22.1539     24.0337     36.1493     49.3681
  1976.2500    178.6748     22.0206     23.4221     34.8291     48.7346
  1976.5000    178.4961     21.9467     22.8360     32.6869     47.7081
  1976.7500    178.4036     21.9032     22.3113     29.8832     47.2147
  1977.0000    178.4133     21.8509     21.8733     26.9884     47.8364
  1977.2500    178.5425     21.7514     21.5326     24.9078     49.7642
  1977.5000    178.8113     21.5750     21.2846     24.2370     55.0071
  1977.7500    179.2400     21.3030     21.1106     24.6949     59.3939
  1978.0000    179.8385     20.9276     20.9796     25.3672     65.5510
  1978.2500    180.5993     20.4530     20.8518     25.6266     68.6535
  1978.5000    181.5005     19.9021     20.6835     25.7604     71.8663
  1978.7500    182.5154     19.3178     20.4347     26.6203     73.6824
  1979.0000    183.6175     18.7562     20.0788     28.6617     76.8208
  1979.2500    184.7768     18.2703     19.6125     31.2728     79.0627
  1979.5000    185.9516     17.8936     19.0593     32.9448     81.7124
  1979.7500    187.0847     17.6314     18.4652     32.2258     82.8190
  1980.0000    188.1082     17.4617     17.8863     28.8238     84.4459
  1980.2500    188.9597     17.3409     17.3735     23.9168     86.2452
  1980.5000    189.6041     17.2138     16.9603     19.3490     90.2716
  1980.7500    190.0486     17.0242     16.6560     16.5148     93.3222
  1981.0000    190.3398     16.7279     16.4436     15.8979     97.1541
  1981.2500    190.5433     16.3059     16.2822     17.2923     98.5554
  1981.5000    190.7209     15.7728     16.1157     20.0951     98.2607
  1981.7500    190.9136     15.1741     15.8865     23.3765     96.5139
  1982.0000    191.1372     14.5714     15.5534     25.9694     92.5449
  1982.2500    191.3838     14.0232     15.1062     26.8457     89.8161
  1982.5000    191.6275     13.5705     14.5688     25.6262     86.6169
  1982.7500    191.8326     13.2313     13.9890     22.7870     85.3609
  1983.0000    191.9632     13.0019     13.4214     19.3356     85.3474
  1983.2500    191.9902     12.8620     12.9127     16.2211     87.1127
  1983.5000    191.8942     12.7808     12.4949     13.9398     92.8378
  1983.7500    191.6682     12.7232     12.1837     12.5412     98.1998
  1984.0000    191.3229     12.6561     11.9811     11.8742    107.0629
  1984.2500    190.8875     12.5551     11.8785     11.8081    113.0694
  1984.5000    190.4016     12.4092     11.8586     12.2961    122.0988
  1984.7500    189.9007     12.2226     11.8980     13.3168    127.6206
  1985.0000    189.4055     12.0127     11.9689     14.7669    133.1170
  1985.2500    188.9217     11.8045     12.0427     16.3785    133.7663
  1985.5000    188.4460     11.6254     12.0944     17.7397    129.6375
  1985.7500    187.9750     11.4996     12.1076     18.4511    124.2157
  1986.0000    187.5134     11.4453     12.0781     18.3237    114.9868
  1986.2500    187.0784     11.4715     12.0141     17.4579    110.1710
  1986.5000    186.6959     11.5771     11.9338     16.1523    107.2152
  1986.7500    186.3898     11.7493     11.8601     14.7489    108.0188
  1987.0000    186.1692     11.9661     11.8153     13.5330    111.6267
  1987.2500    186.0213     12.1989     11.8168     12.7118    114.5923
  1987.5000    185.9109     12.4186     11.8754     12.4190    118.9656
  1987.7500    185.7857     12.6005     11.9937     12.7047    121.6278
  1988.0000    185.5883     12.7300     12.1671     13.5222    124.9991
  1988.2500    185.2731     12.8056     12.3845     14.7409    126.6513
  1988.5000    184.8204     12.8390     12.6303     16.1951    127.7301
  1988.7500    184.2406     12.8519     12.8868     17.7233    127.1352
  1989.0000    183.5621     12.8699     13.1369     19.1595    124.0536
  1989.2500    182.8170     12.9174     13.3673     20.3056    120.9403
  1989.5000    182.0318     13.0134     13.5710     20.9601    116.0172
  1989.7500    181.2279     13.1700     13.7482     21.0086    113.3225
  1990.0000    180.4286     13.3913     13.9065     20.4898    110.8582
  1990.2500    179.6619     13.6730     14.0589     19.5715    110.2224
  1990.5000    178.9595     14.0008     14.2210     18.4791    110.2416
  1990.7500    178.3517     14.3500     14.4076     17.4482    110.6780
  1991.0000    177.8617     14.6875     14.6291     16.7118    112.0433
  1991.2500    177.4973     14.9757     14.8883     16.4816    113.5664
  1991.5000    177.2468     15.1791     15.1776     16.9020    116.5533
  1991.7500    177.0795     15.2712     15.4775     17.9907    118.3716
  1992.0000    176.9544     15.2409     15.7568     19.5988    118.9804
  1992.2500    176.8294     15.0965     15.9763     21.4182    117.0583
  1992.5000    176.6677     14.8663     16.0953     23.0537    110.8815
  1992.7500    176.4425     14.5912     16.0817     24.1348    105.8422
  1993.0000    176.1399     14.3146     15.9210     24.4183     99.5273
  1993.2500    175.7605     14.0725     15.6220     23.8398     97.0232
  1993.5000    175.3189     13.8891     15.2155     22.5195     96.0898
  1993.7500    174.8400     13.7759     14.7474     20.7300     97.2821
  1994.0000    174.3552     13.7343     14.2691     18.8127    101.6624
  1994.2500    173.8983     13.7585     13.8296     17.0608    105.9669
  1994.5000    173.5006     13.8384     13.4703     15.6391    113.1826
  1994.7500    173.1879     13.9612     13.2235     14.5904    117.6501
  1995.0000    172.9858     14.1137     13.1131     13.9319    123.2067
  1995.2500    172.9299     14.2822     13.1556     13.8469    126.3022
  1995.5000    173.0738     14.4550     13.3612     15.0119    130.3728
  1995.7500    173.4870     14.6248     13.7331     19.0133    132.7348
  1996.0000    174.2404     14.7927     14.2655     28.4837    135.9380
  1996.2500    175.3855     14.9704     14.9416     46.1945    138.0200
  1996.5000    176.9307     15.1794     15.7310     72.5757    140.5232
  1996.7500    178.8262     15.4468     16.5918    102.8338    140.7466
  1997.0000    180.9684     15.8011     17.4761    126.9114    136.9186
  1997.2500    183.2208     16.2668     18.3424    134.5285    131.1022
  1997.5000    185.4387     16.8611     19.1667    122.3524    118.3973
  1997.7500    187.4846     17.5893     19.9482     96.6617    108.6082
  1998.0000    189.2421     18.4382     20.7061     68.7147     94.8881
  1998.2500    190.6370     19.3687     21.4664     47.4411     88.0829
  1998.5000    191.6565     20.3100     22.2474     35.7798     83.1133
  1998.7500    192.3478     21.1675     23.0477     31.9786     82.9979
  1999.0000    192.7931     21.8466     23.8413     32.7281     85.1890
  1999.2500    193.0782     22.2858     24.5814     35.2384     86.7199
  1999.5000    193.2731     22.4787     25.2124     37.7759     87.9328
  1999.7500    193.4282     22.4710     25.6864     39.4838     88.0281
  2000.0000    193.5797     22.3391     25.9779     40.1118     87.3109
  2000.2500    193.7547     22.1635     26.0893     39.7778     86.3512
  2000.5000    193.9738     22.0101     26.0470     38.7503     84.7323
  2000.7500    194.2473     21.9194     25.8908     37.3293     84.1041
  2001.0000    194.5690     21.9050     25.6643     35.8258     84.5973
  2001.2500    194.9144     21.9587     25.4082     34.5026     85.8462
  2001.5000    195.2501     22.0574     25.1579     33.4356     88.3471
  2001.7500    195.5508     22.1667     24.9412     32.4676     89.9200
  2002.0000    195.8103     22.2406     24.7762     31.4302     91.4521
  2002.2500    196.0393     22.2254     24.6667     30.5727     91.7594
  2002.5000    196.2538     22.0762     24.5974     30.8643     91.5835
  2002.7500    196.4671     21.7787     24.5325     33.6816     91.5890
  2003.0000    196.6935     21.3604     24.4194     39.6387     92.1231
  2003.2500    196.9539     20.8780     24.2008     47.2596     92.2287
  2003.5000    197.2751     20.3897     23.8329     53.0578     90.4142
  2003.7500    197.6816     19.9341     23.3018     53.7064     87.6012
