~Version Information
VERS.                      2.0: CWLS Log ASCII Standard - VERSION 2.0
WRAP.                       NO: One line per depth step
~Well Information Block
STRT.FT               459.3000: 
STOP.FT              1604.7000: 
STEP.FT                 0.1000: 
NULL.                -999.2500: 
COMP.          Pioneer Natural Resources: COMPANY
WELL.          Grand Prix 13-12 Tr: WELL
FLD.           Purgatoire River: FIELD
LOC.           2595' FSL & 1277' FWL--: LOCATION
CNTY.               Las Animas: COUNTY
SRVC.                Patterson: SERVICE COMPANY
DATE.          Tue Apr 04 07:18:28 2006: LOG DATE
UWI.           05 071 08711 00: UNIQUE WELL ID
STAT.                 Colorado: STATE
~Curve Information Block
DEPT.FT            0 000 00 00: Depth
DCAL.in                       : CDL Caliper
RHOB.g/cc                     : CDL Bulk Density
RHOC.g/cc                     : CDL Density Correction
DPOR.pu                       : CDL Density Porosity
GR.GAPI                       : Gamma Ray
~Parameter Information Block
~A  Depth       DCAL        RHOB        RHOC        DPOR         GR     
# ...
   548.9000      7.8338      2.6072      0.0492      2.5954     97.2657
   549.0000      7.8340      2.5833     -0.0243      4.0415    100.1667
   549.1000      7.8340      2.5867      0.0022      3.8369    101.3863
   549.2000      7.8340      2.5991      0.0730      3.0828     97.1162
   549.3000      7.8402      2.5913      0.0278      3.5556     91.1637
   549.4000      7.8402      2.5687     -0.0067      4.9254     86.0634
   549.5000      7.8544      2.5576     -0.0337      5.6025     84.1263
   549.6000      7.8544      2.5695     -0.0175      4.8787     86.3794
   549.7000      7.8544      2.5865      0.0358      3.8470     89.3869
   549.8000      7.8664      2.5873      0.0490      3.7974     90.4153
   549.9000      7.8664      2.5773      0.0361      4.4037     90.1797
   550.0000      7.8653      2.5697      0.0551      4.8659     89.6938
   550.1000      7.8653      2.5593      0.0698      5.4946     89.3649
   550.2000      7.8653      2.5362      0.0662      6.8980     91.1725
   550.3000      7.8556      2.5106     -0.0086      8.4479     94.7107
   550.4000      7.8556      2.5051      0.0555      8.7832     95.2492
   550.5000      7.8394      2.5296      0.0188      7.2957     89.5381
   550.6000      7.8394      2.5746      0.0930      4.5684     82.3775
   550.7000      7.8394      2.6111      0.1423      2.3605     80.1420
   550.8000      7.8234      2.6188      0.1450      1.8896     80.4468
   550.9000      7.8234      2.6027      0.1005      2.8654     79.3222
   551.0000      7.8202      2.5845      0.0677      3.9696     78.9578
   551.1000      7.8202      2.5832      0.0836      4.0457     81.1828
   551.2000      7.8202      2.5955      0.0937      3.3051     84.6958
   551.3000      7.8293      2.6108      0.0770      2.3773     86.8314
   551.4000      7.8293      2.6244      0.0792      1.5509     87.0236
   551.5000      7.8429      2.6291      0.0735      1.2657     89.4257
   551.6000      7.8429      2.6204      0.0979      1.7951     94.0212
   551.7000      7.8429      2.6039      0.0791      2.7919     95.1061
   551.8000      7.8548      2.5876      0.0692      3.7848     92.9424
   551.9000      7.8548      2.5725      0.0826      4.6950     93.9369
   552.0000      7.8600      2.5565      0.0645      5.6648     99.4234
   552.1000      7.8600      2.5425      0.0265      6.5144    103.7842
   552.2000      7.8600      2.5403      0.0047      6.6498    104.9988
   552.3000      7.8616      2.5546      0.0246      5.7828    105.9519
   552.4000      7.8616      2.5777      0.0352      4.3831    107.8099
   552.5000      7.8663      2.6019      0.0677      2.9125    111.8558
   552.6000      7.8663      2.6265      0.1033      1.4228    120.2921
   552.7000      7.8663      2.6436      0.0817      0.3876    129.9720
   552.8000      7.8757      2.6485      0.0735      0.0900    132.7985
   552.9000      7.8757      2.6422      0.0902      0.4739    125.3808
   553.0000      7.8833      2.6145      0.0645      2.1515    113.8871
   553.1000      7.8833      2.5634     -0.0231      5.2494    104.7012
   553.2000      7.8833      2.5107     -0.0545      8.4431    101.5481
   553.3000      7.8795      2.4856     -0.1028      9.9636    103.7496
   553.4000      7.8795      2.5002      0.0241      9.0760    107.6489
   553.5000      7.8691      2.5361      0.0856      6.9004    112.1037
   553.6000      7.8691      2.5626      0.1650      5.2991    115.2131
   553.7000      7.8691      2.5625      0.1244      5.3041    116.6443
   553.8000      7.8670      2.5451      0.0982      6.3602    119.2113
   553.9000      7.8670      2.5300      0.0932      7.2748    122.1867
   554.0000      7.8728      2.5235      0.1024      7.6651    123.2876
   554.1000      7.8728      2.5208      0.0575      7.8297    123.9774
   554.2000      7.8728      2.5205      0.0410      7.8510    127.7972
   554.3000      7.8760      2.5244      0.0448      7.6097    133.2930
   554.4000      7.8760      2.5339      0.0544      7.0371    136.1588
   554.5000      7.8743      2.5437      0.0935      6.4406    138.3747
   554.6000      7.8743      2.5461      0.0681      6.2984    139.4706
   554.7000      7.8743      2.5442      0.0219      6.4110    132.0532
   554.8000      7.8717      2.5335      0.0865      7.0627    118.7013
   554.9000      7.8717      2.5029      0.0369      8.9149    111.1807
   555.0000      7.8662      2.4661      0.0047     11.1451    110.3457
   555.1000      7.8662      2.4459      0.0036     12.3705    109.1072
   555.2000      7.8662      2.4515     -0.0092     12.0281    106.1854
   555.3000      7.8625      2.4788      0.0411     10.3766    104.3979
   555.4000      7.8625      2.5155     -0.0061      8.1486    106.6557
   555.5000      7.8690      2.5512      0.0293      5.9883    109.8656
   555.6000      7.8690      2.5745      0.0646      4.5745    107.7893
   555.7000      7.8690      2.5719      0.0960      4.7325    102.1779
   555.8000      7.8706      2.5453      0.0344      6.3433     96.8029
   555.9000      7.8706      2.5236     -0.0091      7.6582     92.8932
   556.0000      7.8596      2.5280      0.0306      7.3932     90.4153
   556.1000      7.8596      2.5443      0.0709      6.4046     87.6804
   556.2000      7.8596      2.5514      0.0756      5.9770     85.9998
   556.3000      7.8477      2.5497      0.0166      6.0760     88.1446
   556.4000      7.8477      2.5470      0.0327      6.2409     89.0536
   556.5000      7.8422      2.5394      0.0435      6.7022     84.2339
   556.6000      7.8422      2.5353      0.0013      6.9534     81.3842
   556.7000      7.8422      2.5607      0.0349      5.4106     85.7070
   556.8000      7.8430      2.6158      0.0694      2.0709     91.1414
   556.9000      7.8430      2.6512      0.1858     -0.0718     92.4842
   557.0000      7.8496      2.6295      0.0532      1.2402     90.0916
   557.1000      7.8496      2.5843      0.0437      3.9842     86.4648
   557.2000      7.8496      2.5607      0.0046      5.4138     84.9622
   557.3000      7.8551      2.5655      0.0407      5.1214     85.4446
   557.4000      7.8551      2.5789      0.0943      4.3081     84.8372
   557.5000      7.8486      2.5761      0.0913      4.4772     83.0143
   557.6000      7.8486      2.5531      0.0298      5.8708     81.1907
   557.7000      7.8486      2.5338      0.0189      7.0424     80.8242
   557.8000      7.8308      2.5354      0.0645      6.9477     79.8798
   557.9000      7.8308      2.5450      0.0845      6.3615     75.6557
   558.0000      7.8159      2.5490      0.0558      6.1218     71.5707
   558.1000      7.8159      2.5566      0.0439      5.6581     70.9642
   558.2000      7.8159      2.5731      0.0721      4.6585     71.1921
   558.3000      7.8176      2.5781      0.0953      4.3558     69.6065
   558.4000      7.8176      2.5641      0.0442      5.2060     68.5875
   558.5000      7.8346      2.5582      0.0287      5.5625     69.8472
   558.6000      7.8346      2.5764      0.0476      4.4626     70.8704
   558.7000      7.8346      2.6024      0.0782      2.8872     70.8719
   558.8000      7.8561      2.6212      0.0588      1.7439     69.8917
   558.9000      7.8561      2.6275      0.0795      1.3626     66.7135
   559.0000      7.8781      2.6200      0.0392      1.8182     62.4596
   559.1000      7.8781      2.6084      0.0451      2.5190     58.9881
   559.2000      7.8781      2.5953      0.0550      3.3155     58.4370
   559.3000      7.9035      2.5714      0.0412      4.7647     61.3994
   559.4000      7.9035      2.5420     -0.0037      6.5425     63.8842
   559.5000      7.9237      2.5261     -0.0370      7.5103     63.6609
   559.6000      7.9237      2.5333     -0.0265      7.0735     63.1336
   559.7000      7.9237      2.5559      0.0057      5.7008     64.6938
   559.8000      7.9305      2.5767      0.0175      4.4451     67.1929
   559.9000      7.9305      2.5850      0.0311      3.9391     67.5636
   560.0000      7.9273      2.5805      0.0417      4.2114     66.2037
