~Version Information
VERS.                      2.0: CWLS Log ASCII Standard - VERSION 2.0
WRAP.                       NO: One line per depth step
~Well Information Block
STRT.FT                 0.0000: 
STOP.FT              1538.0000: 
STEP.FT                 0.2500: 
NULL.                -999.2500: 
COMP.          Pioneer Natural Resources: COMPANY
WELL.           Butch 33-10 TR: WELL
FLD.           Purgatorie River: FIELD
LOC.           2309' FSL & 1337' FEL: LOCATION
PROV.                 Colorado: PROVINCE
CNTY.               Las Animas: COUNTRY
SRVC.                Patterson: SERVICE COMPANY
DATE.          Thu Jan 19 12:40:27 2006: LOG DATE
UWI.                          : UNIQUE WELL ID
~Curve Information Block
DEPT.FT            0 000 00 00: Depth
CCL.                          : Casing Collar Locator
TT3.usec                      : CBL 3' Travel Time
AMP3.mV                       : CBL 3' Amplitude
GR.GAPI                       : Gamma Ray
~Parameter Information Block
~A  Depth       CCL         TT3         AMP3         GR     
# ...
  1306.5000      0.0000    633.2206      3.8790     71.0343
  1306.7500      0.0000    630.3625      3.8801     68.4699
  1307.0000      0.0000    630.7391      3.8615     66.1310
  1307.2500      0.0000    624.0833      3.8587     64.7733
  1307.5000      0.0000    604.3937      3.8999     64.9782
  1307.7500      0.0000    573.6851      3.9539     66.4300
  1308.0000      0.0000    537.2751      3.9380     68.2347
  1308.2500      0.0000    509.0436      3.8126     69.7153
  1308.5000      0.0000    508.1455      3.6291     71.0704
  1308.7500      0.0000    533.8765      3.4706     73.3864
  1309.0000      0.0000    561.7317      3.4162     77.6253
  1309.2500      0.0000    571.5614      3.5402     83.4890
  1309.5000      0.0000    565.7510      3.8830     89.6065
  1309.7500      0.0000    564.8254      4.4490     94.7400
  1310.0000      0.0000    587.0098      5.2452     98.3549
  1310.2500      0.0000    625.3870      6.2850    100.3354
  1310.5000      0.0000    650.1902      7.6008    101.0428
  1310.7500      0.0000    631.7765      9.3094    101.6887
  1311.0000      0.0000    562.7588     11.5895    103.7586
  1311.2500      0.0000    467.5151     14.5409    107.6544
  1311.5000      0.0000    384.4324     18.1174    112.2805
  1311.7500      0.0000    333.8216     22.0302    115.9965
  1312.0000      0.0000    310.9466     25.5406    117.4460
  1312.2500      0.0000    302.9826     27.7097    115.5998
  1312.5000      0.0000    300.9939     28.1074    110.0940
  1312.7500      0.0000    300.9150     27.0669    102.0427
  1313.0000      0.0000    301.3390     25.2983     93.8037
  1313.2500      0.0000    301.8948     23.4229     87.3902
  1313.5000      0.0000    302.5506     21.7594     83.4417
  1313.7500      0.0000    303.3289     20.3901     81.9128
  1314.0000      0.0000    304.1379     19.3105     83.1285
  1314.2500      0.0000    304.7657     18.4921     87.4684
  1314.5000      0.0000    305.0677     17.8947     94.0157
  1314.7500      0.0000    305.1031     17.4784    100.1360
  1315.0000      0.0000    305.0562     17.2132    103.1490
  1315.2500      0.0000    305.0693     17.0760    102.5809
  1315.5000      0.0000    305.1350     17.0332    100.3070
  1315.7500      0.0000    305.1397     17.0326     98.2728
  1316.0000      0.0000    305.0304     17.0365     96.4146
  1316.2500      0.0000    304.8617     17.0588     93.1081
  1316.5000      0.0000    304.6919     17.1389     87.4201
  1316.7500      0.0000    304.5403     17.2790     80.4532
  1317.0000      0.0000    304.3996     17.4336     74.4914
  1317.2500      0.0000    304.2513     17.5585     71.3456
  1317.5000      0.0000    304.1086     17.6492     71.5989
  1317.7500      0.0000    304.0043     17.7423     74.9176
  1318.0000      0.0000    303.9377     17.8788     80.8164
  1318.2500      0.0000    303.8819     18.0608     89.2986
  1318.5000      0.0000    303.8133     18.2600    100.6334
  1318.7500      0.0000    303.7318     18.4455    114.1470
  1319.0000      0.0000    303.6694     18.5802    127.4281
  1319.2500      0.0000    303.6674     18.6344    137.3647
  1319.5000      0.0000    303.7362     18.6147    142.3102
  1319.7500      0.0000    303.8016     18.5526    143.2051
  1320.0000      0.0000    303.7348     18.4720    142.4906
  1320.2500      0.0000    303.5396     18.3799    141.9775
  1320.5000      0.0000    303.4205     18.2660    141.7715
  1320.7500      0.0000    303.5795     18.1007    140.9839
  1321.0000      0.0000    304.0418     17.8610    139.0131
  1321.2500      0.0000    304.6908     17.5722    136.0002
  1321.5000      0.0000    305.5457     17.2975    132.4148
  1321.7500      0.0000    307.4796     17.0715    128.7144
  1322.0000      0.0000    312.6981     16.8690    125.4950
  1322.2500      0.0000    322.4669     16.6525    123.6651
  1322.5000      0.0000    332.4187     16.4296    124.0179
  1322.7500      0.0000    334.1689     16.2501    126.4132
  1323.0000      0.0000    325.8086     16.1546    129.5588
  1323.2500      0.0000    314.8733     16.1298    131.8608
  1323.5000      0.0000    308.1451     16.1109    132.6100
  1323.7500      0.0000    305.8250     16.0511    132.4003
  1324.0000      0.0000    305.4512     15.9752    132.5168
  1324.2500      0.0000    305.4936     15.9293    133.9920
  1324.5000      0.0000    305.4813     15.9141    136.9779
  1324.7500      0.0000    305.3728     15.8945    140.5491
  1325.0000      0.0000    305.2565     15.8418    143.1529
  1325.2500      0.0000    305.2364     15.7633    143.7739
  1325.5000      0.0000    305.3849     15.7020    142.7851
  1325.7500      0.0000    305.6531     15.7081    141.3206
  1326.0000      0.0000    305.8043     15.8211    139.8532
  1326.2500      0.0000    305.6444     16.0578    137.8156
  1326.5000      0.0000    305.2622     16.3963    134.5223
  1326.7500      0.0000    304.8474     16.7812    129.9573
  1327.0000      0.0000    304.4599     17.1586    124.8484
  1327.2500      0.0000    304.0762     17.5077    120.4743
  1327.5000      0.0000    303.6992     17.8324    118.0490
  1327.7500      0.0000    303.3566     18.1481    117.6465
  1328.0000      0.0000    303.0477     18.4936    117.8999
  1328.2500      0.0000    302.7576     18.8957    117.1524
  1328.5000      0.0000    302.5008     19.3144    114.8684
  1328.7500      0.0000    302.3058     19.6930    112.0163
  1329.0000      0.0000    302.1918     20.0246    110.3543
  1329.2500      0.0000    302.1608     20.3251    111.0322
  1329.5000      0.0000    302.1760     20.6000    113.3133
  1329.7500      0.0000    302.1920     20.8273    114.6872
  1330.0000      0.0000    302.2116     20.9611    112.6895
  1330.2500      0.0000    302.2545     20.9962    106.9382
  1330.5000      0.0000    302.3050     20.9849     99.5284
  1330.7500      0.0000    302.3418     20.9596     93.4562
  1331.0000      0.0000    302.3708     20.9065     90.6315
  1331.2500      0.0000    302.4016     20.8163     91.2776
  1331.5000      0.0000    302.4316     20.7076     94.6662
  1331.7500      0.0000    302.4514     20.6250     99.7057
  1332.0000      0.0000    302.4458     20.6106    104.9300
  1332.2500      0.0000    302.4026     20.6549    108.7982
  1332.5000      0.0000    302.3317     20.7016    110.4473
  1332.7500      0.0000    302.2709     20.6945    110.0495
  1333.0000      0.0000    302.2567     20.6101    108.4090
  1333.2500      0.0000    302.3001     20.4626    106.3281
  1333.5000      0.0000    302.3916     20.2929    104.2725
  1333.7500      0.0000    302.5143     20.1513    102.4855
  1334.0000      0.0000    302.6521     20.0461    101.1566
  1334.2500      0.0000    302.7961     19.9167    100.2449
  1334.5000      0.0000    302.9452     19.6983     99.3584
  1334.7500      0.0000    303.0993     19.3985     98.2685
  1335.0000      0.0000    303.2490     19.0965     97.6494
  1335.2500      0.0000    303.3790     18.8747     98.9708
  1335.5000      0.0000    303.4743     18.7615    103.2207
  1335.7500      0.0000    303.5108     18.7410    109.6475
  1336.0000      0.0000    303.5164     18.7755    116.1269
  1336.2500      0.0000    303.8200     18.8113    121.0065
  1336.5000      0.0000    306.1939     18.7863    124.3103
  1336.7500      0.0000    316.6642     18.5719    126.9178
  1337.0000      0.0000    344.9052     17.8874    128.9373
  1337.2500      0.0000    389.2358     16.5001    129.3735
  1337.5000      0.0000    424.5048     14.7880    127.2880
  1337.7500      0.0000    434.5724     13.6344    122.9938
  1338.0000      0.0000    449.8827     13.1861    117.8756
  1338.2500      0.0000    507.6787     12.7750    112.9038
  1338.5000      0.0000    590.2921     12.2957    107.5428
  1338.7500      0.0000    647.0143     12.1331    100.5340
  1339.0000     -2.0000    657.3233     12.2793     91.8750
  1339.2500      2.0000    638.4609     12.4892     83.8893
  1339.5000      0.0000    612.4532     12.6471     80.1827
  1339.7500      0.0000    584.5405     12.7120     83.2184
