~Version Information
VERS.                      2.0: CWLS Log ASCII Standard - VERSION 2.0
WRAP.                       NO: One line per depth step
~Well Information Block
STRT.FT                -5.0000: 
STOP.FT              1761.2500: 
STEP.FT                 0.2500: 
NULL.                -999.2500: 
COMP.          Pioneer Natural Resources: COMPANY
WELL.          Manville 42-14 Tr: WELL
FLD.           Purgatoire River: FIELD
LOC.           2018'FNL & 562' FEL: LOCATION
STAT.                 Colorado: State
CNTY.               Las Animas: COUNTY
CTRY. USA : Country
SECT. 14 : Section
TOWN. 32S : Township
RANG. 66W : Range
SRVC.                Patterson: SERVICE COMPANY
DATE.          Fri Sep 23 10:37:02 2005: LOG DATE
API. 05-071-08522             : UNIQUE WELL ID
~Curve Information Block
DEPT.FT            0 000 00 00: Depth
CCL.                          : Casing Collar Locator
TT3.usec                      : CBL 3' Travel Time
AMP3.mV                       : CBL 3' Amplitude
AMP5.mV                       : CBL 5' Amplitude
GR.GAPI                       : Gamma Ray
~Parameter Information Block
~A  Depth       CCL         TT3         AMP3        AMP5         GR     
# ...
   107.0000      0.0000    262.9132     38.2290     27.1974     60.5614
   107.2500      0.0000    262.8618     38.5360     27.3715     60.0189
   107.5000      0.0000    262.8333     38.7570     27.2845     59.7480
   107.7500      0.0000    262.8336     38.8400     27.8938     59.8914
   108.0000      0.0000    262.8657     38.7342     27.0233     60.2561
   108.2500      0.0000    262.9282     38.4243     26.3270     60.5603
   108.5000      0.0000    263.0179     37.9389     27.0233     60.4964
   108.7500      0.0000    263.1310     37.3315     26.5011     59.7547
   109.0000      0.0000    263.2611     36.6654     26.5011     58.3064
   109.2500      0.0000    263.3985     36.0086     26.2399     56.5665
   109.5000      0.0000    263.5310     35.4218     26.3270     55.0354
   109.7500      0.0000    263.6499     34.9394     25.3695     53.9272
   110.0000      0.0000    263.7516     34.5664     25.3695     53.2841
   110.2500      0.0000    263.8362     34.2893     25.3695     53.2063
   110.5000      0.0000    263.9057     34.0823     25.6306     53.8847
   110.7500      0.0000    263.9639     33.9071     24.5860     55.6536
   111.0000      0.0000    264.0197     33.7167     23.9767     58.8060
   111.2500      0.0000    264.0877     33.4662     23.7156     62.9477
   111.5000      0.0000    264.1838     33.1284     23.4544     66.8422
   111.7500      0.0000    264.3143     32.7140     22.3228     69.4214
   112.0000      0.0000    264.4686     32.2779     22.1487     70.7067
   112.2500      0.0000    264.6261     31.8908     22.2358     71.4115
   112.5000      0.0000    264.7713     31.5949     21.8005     72.0105
   112.7500      0.0000    264.9018     31.3847     21.1042     72.3978
   113.0000      0.0000    265.0229     31.2245     20.6689     71.9719
   113.2500      0.0000    265.1388     31.0772     20.6689     69.9053
   113.5000      0.0000    265.2487     30.9224     20.6689     65.8338
   113.7500      0.0000    265.3493     30.7573     19.9726     60.5433
   114.0000      0.0000    265.4398     30.5887     20.5819     55.6915
   114.2500      0.0000    265.5214     30.4264     20.5819     52.7377
   114.5000      0.0000    265.5924     30.2832     20.1467     52.2163
   114.7500      0.0000    265.6474     30.1742     20.1467     53.7369
   115.0000      0.0000    265.6803     30.1142     20.4078     56.3267
   115.2500      0.0000    265.6852     30.1215     20.7560     58.9874
   115.5000      0.0000    265.6519     30.2238     21.6265     61.2251
   115.7500      0.0000    265.5685     30.4491     21.6265     62.9675
   116.0000      0.0000    265.4295     30.8011     21.1912     64.0415
   116.2500      0.0000    265.2445     31.2460     22.4969     64.1013
   116.5000      0.0000    265.0334     31.7278     23.0192     63.1033
   116.7500      0.0000    264.8156     32.1994     22.5840     61.5163
   117.0000      0.0000    264.6024     32.6411     22.9322     59.9883
   117.2500      0.0000    264.3980     33.0543     23.5415     59.0727
   117.5000      0.0000    264.2059     33.4414     23.5415     59.2376
   117.7500      0.0000    264.0312     33.7955     23.2803     60.5938
   118.0000      0.0000    263.8777     34.1130     23.7156     62.3161
   118.2500      0.0000    263.7445     34.4111     23.2803     62.8601
   118.5000      0.0000    263.6284     34.7223     23.6285     61.2765
   118.7500      0.0000    263.5300     35.0617     23.8026     58.0779
   119.0000      0.0000    263.4566     35.3989     23.8897     54.6441
   119.2500      0.0000    263.4200     35.6625     23.3674     52.2650
   119.5000      0.0000    263.4295     35.7744     23.8026     51.8305
   119.7500      0.0000    263.4871     35.6882     23.9767     53.6161
   120.0000      0.0000    263.5843     35.4103     25.0213     56.8584
   120.2500      0.0000    263.7051     34.9962     25.0213     59.9129
   120.5000      0.0000    263.8344     34.5231     24.6731     61.3255
   120.7500      0.0000    263.9650     34.0534     24.9342     60.8509
   121.0000      0.0000    264.0957     33.6196     25.1954     59.3486
   121.2500      0.0000    264.2224     33.2378     24.6731     57.7603
   121.5000      0.0000    264.3347     32.9224     23.9767     56.4738
   121.7500      0.0000    264.4243     32.6792     24.0638     55.6621
   122.0000      0.0000    264.4936     32.4923     23.1062     55.5645
   122.2500      0.0000    264.5545     32.3291     22.4969     55.9779
   122.5000      0.0000    264.6214     32.1593     22.3228     56.1109
   122.7500      0.0000    264.7048     31.9662     21.6265     55.5338
   123.0000      0.0000    264.8102     31.7449     21.6265     54.7973
   123.2500      0.0000    264.9362     31.5000     21.1042     54.6623
   123.5000      0.0000    265.0749     31.2447     20.9301     55.1004
   123.7500      0.0000    265.2165     30.9945     20.9301     55.4183
   124.0000      0.0000    265.3548     30.7589     20.8430     55.1223
   124.2500      0.0000    265.4895     30.5367     20.3208     54.3022
   124.5000      0.0000    265.6240     30.3184     21.1042     53.1933
   124.7500      0.0000    265.7631     30.0919     21.1912     51.7167
   125.0000      0.0000    265.9089     29.8489     20.2337     49.7064
   125.2500      0.0000    266.0595     29.5904     20.0596     47.4064
   125.5000      0.0000    266.2092     29.3263     20.4948     45.4278
   125.7500      0.0000    266.3488     29.0741     20.4078     44.2161
   126.0000      0.0000    266.4651     28.8581     19.7985     43.8419
   126.2500      0.0000    266.5471     28.7040     19.8855     44.3183
   126.5000      0.0000    266.6009     28.6229     19.8855     45.6973
   126.7500      0.0000    266.6864     28.5977     18.8410     47.6682
   127.0000      0.0000    266.9928     28.5898     19.0150     49.4759
   127.2500      0.0000    267.9508     28.5615     18.5798     50.4869
   127.5000      0.0000    270.2588     28.4901     17.8834     50.5868
   127.7500      0.0000    274.5705     28.3659     17.7964     49.9956
   128.0000      0.0000    280.8426     28.1892     18.4057     49.1496
   128.2500      0.0000    287.9528     27.9733     17.2741     48.8127
   128.5000      0.0000    294.2351     27.7450     18.0575     49.7370
   128.7500      0.0000    298.5638     27.5391     17.5353     51.8621
   129.0000      0.0000    300.8944     27.3907     17.3612     53.9867
   129.2500      0.0000    301.8834     27.3233     17.8834     54.5075
   129.5000      0.0000    302.2263     27.3371     17.6223     52.7594
   129.7500      0.0000    302.3369     27.4045     17.8834     49.7192
   130.0000      0.0000    302.3805     27.4835     17.6223     47.1800
   130.2500      0.0000    302.4035     27.5381     17.9705     46.2301
   130.5000      0.0000    302.4152     27.5518     17.9705     46.6532
   130.7500      0.0000    302.4176     27.5231     17.4482     47.5508
   131.0000      0.0000    302.4117     27.4519     17.5353     48.1971
   131.2500      0.0000    302.4014     27.3360     17.5353     48.5094
   131.5000      0.0000    302.3949     27.1788     17.7093     49.0565
   131.7500      0.0000    302.4011     26.9958     17.0130     50.4863
   132.0000      0.0000    302.4243     26.8073     17.3612     52.7197
   132.2500      0.0000    302.4624     26.6265     17.5353     54.7648
   132.5000      0.0000    302.5086     26.4608     16.5777     55.4759
   132.7500      0.0000    302.5542     26.3183     16.9259     54.5033
   133.0000      0.0000    302.5916     26.2025     16.2296     52.4864
   133.2500      0.0000    302.6174     26.1005     16.3166     50.4774
   133.5000      0.0000    302.6323     25.9887     16.8389     49.3771
   133.7500      0.0000    302.6587     25.8559     16.9259     49.7801
   134.0000      0.0000    302.7704     25.7095     16.0555     51.8760
   134.2500      0.0000    303.3267     25.5418     16.4907     55.2287
   134.5000      0.0000    305.4409     25.2743     14.5757     58.7336
   134.7500      0.0000    311.4337     24.7172      5.6969     61.0361
