~Version Information
VERS.                      2.0: CWLS Log ASCII Standard - VERSION 2.0
WRAP.                       NO: One line per depth step
~Well Information Block
STRT.FT                -7.5000: 
STOP.FT              1572.0000: 
STEP.FT                 0.2500: 
NULL.                -999.2500: 
COMP.          Pioneer Natural Resources: COMPANY
WELL.          Galloway 32-13 Tr: WELL
FLD.           Purgatoire River: FIELD
LOC.           --1910' FNL & 2002' FEL----: LOCATION
PROV.                       CO: PROVINCE
CNTY.               Las Animas: COUNTRY
SRVC.          Patterson Wireline: SERVICE COMPANY
DATE.          Thu Nov 17 12:46:45 2005: LOG DATE
UWI.           05 071 08608 00: UNIQUE WELL ID
~Curve Information Block
DEPT.FT            0 000 00 00: Depth
CCL.                          : Casing Collar Locator
TT3.usec                      : CBL 3' Travel Time
AMP3.mV                       : CBL 3' Amplitude
GR.GAPI                       : Gamma Ray
~Parameter Information Block
~A  Depth       CCL         TT3         AMP3         GR     
# ...
   294.0000      0.0000    286.4893     40.0355     88.3755
   294.2500      0.0000    286.3971     40.1296     90.5334
   294.5000      0.0000    286.3866     40.1301     89.2374
   294.7500      0.0000    286.4355     40.0591     84.9091
   295.0000      0.0000    286.5222     39.9477     78.7701
   295.2500      0.0000    286.6313     39.8173     72.6062
   295.5000      0.0000    286.7523     39.6786     68.0358
   295.7500      0.0000    286.8698     39.5466     65.6364
   296.0000      0.0000    286.9571     39.4499     64.9622
   296.2500      0.0000    286.9855     39.4207     65.4364
   296.5000      0.0000    286.9395     39.4764     66.8229
   296.7500      0.0000    286.8248     39.6096     68.6997
   297.0000      0.0000    286.6637     39.7927     69.9901
   297.2500      0.0000    286.4849     39.9899     69.7175
   297.5000      0.0000    286.3173     40.1667     68.3704
   297.7500      0.0000    286.1866     40.2958     67.9941
   298.0000      0.0000    286.1091     40.3643     70.3441
   298.2500      0.0000    286.0773     40.3893     74.9740
   298.5000      0.0000    286.0496     40.4287     79.4853
   298.7500      0.0000    285.9684     40.5558     81.5799
   299.0000      0.0000    285.8022     40.8066     80.5471
   299.2500      0.0000    285.5701     41.1535     76.9551
   299.5000      0.0000    285.3259     41.5253     71.6748
   299.7500      0.0000    285.1219     41.8475     65.7082
   300.0000      0.0000    284.9839     42.0692     60.5361
   300.2500      0.0000    284.9104     42.1752     57.7501
   300.5000      0.0000    284.8831     42.1861     57.9893
   300.7500      0.0000    284.8799     42.1441     60.4789
   301.0000      0.0000    284.8835     42.0907     63.8506
   301.2500      0.0000    284.8834     42.0610     67.3957
   301.5000      0.0000    284.8717     42.0873     71.4549
   301.7500      0.0000    284.8407     42.1884     76.6922
   302.0000      0.0000    284.7871     42.3488     83.0592
   302.2500      0.0000    284.7184     42.5240     89.3911
   302.5000      0.0000    284.6499     42.6742     94.0341
   302.7500      0.0000    284.5968     42.7862     96.0531
   303.0000      0.0000    284.5669     42.8647     95.9415
   303.2500      0.0000    284.5593     42.9129     95.0726
   303.5000      0.0000    284.5659     42.9257     94.5109
   303.7500      0.0000    284.5760     42.9003     94.4897
   304.0000      0.0000    284.5826     42.8418     94.6942
   304.2500      0.0000    284.5870     42.7520     94.5847
   304.5000      0.0000    284.5974     42.6195     93.6072
   304.7500      0.0000    284.6221     42.4275     91.5163
   305.0000      0.0000    284.6667     42.1719     88.6685
   305.2500      0.0000    284.7331     41.8671     85.9457
   305.5000      0.0000    284.8167     41.5436     84.2921
   305.7500      0.0000    284.9027     41.2417     84.3395
   306.0000      0.0000    284.9699     40.9986     86.4016
   306.2500      0.0000    285.0075     40.8246     90.4411
   306.5000      0.0000    285.0266     40.6939     95.7784
   306.7500      0.0000    285.0553     40.5632    100.9921
   307.0000      0.0000    285.1207     40.4009    104.4774
   307.2500      0.0000    285.2384     40.1941    105.3038
   307.5000      0.0000    285.4126     39.9450    103.7784
   307.7500      0.0000    285.6387     39.6716    101.4019
   308.0000      0.0000    285.9015     39.4097    100.1671
   308.2500      0.0000    286.1738     39.1960    101.4639
   308.5000      0.0000    286.4275     39.0454    105.2183
   308.7500      0.0000    286.6781     38.9443    109.9289
   309.0000      0.0000    287.0507     38.8647    113.6241
   309.2500      0.0000    287.8552     38.7787    114.9459
   309.5000      0.0000    289.5686     38.6602    113.5140
   309.7500      0.0000    292.6039     38.4809    109.5871
   310.0000      0.0000    296.9737     38.2225    103.7401
   310.2500      0.0000    302.2278     37.8953     96.9228
   310.5000      0.0000    307.7304     37.5443     90.5439
   310.7500      0.0000    312.8416     37.2308     86.0904
   311.0000      0.0000    316.8753     37.0016     84.2211
   311.2500      0.0000    319.1913     36.8697     84.0175
   311.5000      0.0000    319.5188     36.8268     83.5459
   311.7500      0.0000    318.2595     36.8580     81.6846
   312.0000      0.0000    316.5401     36.9212     79.4334
   312.2500      0.0000    315.7354     36.9289     79.0665
   312.5000      0.0000    316.5395     36.7961     81.7470
   312.7500      0.0000    318.4812     36.5171     86.1621
   313.0000      0.0000    320.4978     36.1730     89.7723
   313.2500      0.0000    321.8692     35.8622     91.1595
   313.5000      0.0000    322.4804     35.6504     90.7408
   313.7500      0.0000    322.4205     35.5778     89.5275
   314.0000      0.0000    321.5181     35.6724     88.0037
   314.2500      0.0000    319.2161     35.9442     86.3664
   314.5000      0.0000    314.9535     36.3810     85.1209
   314.7500      0.0000    308.9499     36.9371     84.7992
   315.0000      0.0000    302.7473     37.5017     85.2656
   315.2500      0.0000    298.7185     37.9042     85.7915
   315.5000      0.0000    298.6676     37.9965     85.8207
   315.7500      0.0000    302.6164     37.7491     85.4093
   316.0000      0.0000    308.7881     37.2628     84.9812
   316.2500      0.0000    314.8030     36.6932     84.7800
   316.5000      0.0000    319.0932     36.1699     84.4964
   316.7500      0.0000    321.4241     35.7736     83.5423
   317.0000      0.0000    322.3946     35.5443     81.8940
   317.2500      0.0000    322.6953     35.4833     80.5780
   317.5000      0.0000    322.7514     35.5591     81.0866
   317.7500      0.0000    322.7114     35.7220     84.2205
   318.0000      0.0000    322.5399     35.9123     89.4588
   318.2500      0.0000    322.1348     36.0607     95.2792
   318.5000      0.0000    321.9010     36.0860     99.8928
   318.7500      0.0000    324.2564     35.8570    101.8895
   319.0000      0.0000    335.7176     35.1181    100.6986
   319.2500      0.0000    366.6582     33.5309     96.5980
   319.5000      0.0000    424.6925     30.9645     90.3504
   319.7500      0.0000    502.8052     27.8141     83.1636
   320.0000      0.0000    573.8314     24.9051     76.8872
   320.2500      0.0000    603.7323     22.9492     73.2852
   320.5000      0.0000    577.1648     22.0876     72.4172
   320.7500      0.0000    510.2511     21.9571     72.1127
   321.0000      0.0000    436.4472     22.0969     69.7792
   321.2500     -2.0000    381.3194     22.2389     64.8978
   321.5000      2.0000    350.9061     22.3197     59.4419
   321.7500      0.0000    338.1334     22.3896     55.7506
   322.0000      0.0000    333.7939     22.6184     54.2381
   322.2500      0.0000    331.6898     23.3577     53.3610
   322.5000      0.0000    328.6722     25.0116     51.6289
   322.7500      0.0000    323.9414     27.6421     49.2085
   323.0000      0.0000    318.8600     30.6976     47.4110
   323.2500      0.0000    315.7542     33.3099     47.0427
   323.5000      0.0000    315.7620     34.9304     47.6898
   323.7500      0.0000    317.9101     35.6166     48.3224
   324.0000      0.0000    320.3607     35.7579     48.1903
   324.2500      0.0000    322.0037     35.6865     47.2201
   324.5000      0.0000    322.7698     35.5585     45.9678
   324.7500      0.0000    323.0326     35.4393     45.3585
   325.0000      0.0000    323.1021     35.3694     46.1278
   325.2500      0.0000    323.1143     35.3576     47.9991
   325.5000      0.0000    323.0985     35.3829     49.4557
   325.7500      0.0000    323.0533     35.4386     48.9581
   326.0000      0.0000    322.9785     35.5573     46.6104
   326.2500      0.0000    322.8830     35.7666     44.2182
   326.5000      0.0000    322.7854     36.0288     43.5853
   326.7500      0.0000    322.7058     36.2456     45.0624
   327.0000      0.0000    322.6557     36.3241     47.7332
   327.2500      0.0000    322.6331     36.2381     50.4822
