~Version Information
VERS.                      2.0: CWLS Log ASCII Standard - VERSION 2.0
WRAP.                       NO: One line per depth step
~Well Information Block
STRT.FT                -8.5000: 
STOP.FT              1945.2500: 
STEP.FT                 0.2500: 
NULL.                -999.2500: 
COMP.          Pioneer Natural Resources: COMPANY
WELL.          Flying Horse 12-11 Tr: WELL
FLD.           Purgatorie River: FIELD
LOC.           2459' FNL & 410' FWL: LOCATION
STAT.                       CO: PROVINCE
CNTY.               Las Animas: COUNTY
CTRY.        USA : Country
SECT. 11 : Section
TOWN. 32S : Township
RANG. 66W : Range
SRVC.          Patterson Wireline: SERVICE COMPANY
DATE.          Thu Sep 08 15:44:22 2005: LOG DATE
API.           05 071 08485 00: UNIQUE WELL ID
~Curve Information Block
DEPT.FT            0 000 00 00: Depth
CCL.                          : Casing Collar Locator
TT3.usec                      : CBL 3' Travel Time
AMP3.mV                       : CBL 3' Amplitude
GR.GAPI                       : Gamma Ray
~Parameter Information Block
~A  Depth       CCL         TT3         AMP3         GR     
# ...
  1767.0000      0.0000    701.8822     13.1125    124.4202
  1767.2500      0.0000    708.3832     12.9860    122.5725
  1767.5000      0.0000    721.0217     12.8860    119.2165
  1767.7500      0.0000    737.6394     12.7851    116.3791
  1768.0000      0.0000    752.4002     12.6618    115.9483
  1768.2500      0.0000    759.3563     12.5208    117.7665
  1768.5000      0.0000    756.4437     12.3845    119.5690
  1768.7500      0.0000    746.6221     12.2668    118.9404
  1769.0000      0.0000    735.7072     12.1601    115.2859
  1769.2500      0.0000    729.1994     12.0471    110.0562
  1769.5000      0.0000    729.8120     11.9236    105.2536
  1769.7500      0.0000    736.2605     11.8074    101.7063
  1770.0000      0.0000    744.1946     11.7282     98.7184
  1770.2500      0.0000    749.1145     11.7083     95.3318
  1770.5000      0.0000    748.7488     11.7499     91.6766
  1770.7500      0.0000    743.4168     11.8331     88.9096
  1771.0000      0.0000    735.4724     11.9252     87.8970
  1771.2500      0.0000    728.4968     11.9938     88.0631
  1771.5000      0.0000    725.6787     12.0191     87.7822
  1771.7500      0.0000    727.8481     12.0011     86.3030
  1772.0000      0.0000    732.7278     11.9581     85.1104
  1772.2500      0.0000    736.4025     11.9139     86.7403
  1772.5000      0.0000    736.2664     11.8854     92.1921
  1772.7500      0.0000    732.8557     11.8801    100.0355
  1773.0000      0.0000    728.7641     11.9026    108.2200
  1773.2500      0.0000    726.4115     11.9538    116.1603
  1773.5000      0.0000    727.2711     12.0228    124.4206
  1773.7500      0.0000    731.8944     12.0830    132.7646
  1774.0000      0.0000    739.0319     12.1031    139.7110
  1774.2500      0.0000    745.3853     12.0612    144.2487
  1774.5000      0.0000    748.1884     11.9478    147.0940
  1774.7500      0.0000    748.3126     11.7637    149.6807
  1775.0000      0.0000    749.3529     11.5246    152.2235
  1775.2500      0.0000    753.3302     11.2639    153.1950
  1775.5000      0.0000    758.6132     11.0127    150.5907
  1775.7500      0.0000    762.3425     10.7706    143.3441
  1776.0000      0.0000    763.3743     10.5050    131.8158
  1776.2500      0.0000    762.4001     10.1883    117.7720
  1776.5000      0.0000    760.9316      9.8395    104.0384
  1776.7500      0.0000    761.0434      9.5313     93.2313
  1777.0000      0.0000    764.5049      9.3503     86.1197
  1777.2500      0.0000    771.0358      9.3414     81.4169
  1777.5000      0.0000    778.2126      9.4877     77.3644
  1777.7500      0.0000    783.3333      9.7431     73.4749
  1778.0000      0.0000    784.5367     10.0745     71.0740
  1778.2500      0.0000    779.9097     10.4649     72.4023
  1778.5000      0.0000    766.7418     10.8934     78.8512
  1778.7500      0.0000    743.1988     11.3390     89.6540
  1779.0000      0.0000    710.4342     11.8134    102.3281
  1779.2500      0.0000    670.6737     12.3715    114.2949
  1779.5000      0.0000    622.8406     13.0592    123.8503
  1779.7500      0.0000    564.2440     13.8370    130.0697
  1780.0000      0.0000    498.7472     14.5648    132.6774
  1780.2500      0.0000    439.0029     15.0819    132.1674
  1780.5000      0.0000    397.8153     15.3098    129.7192
  1780.7500      0.0000    380.4814     15.2835    126.8921
  1781.0000      0.0000    387.0593     15.1001    125.1441
  1781.2500      0.0000    417.4306     14.8520    125.0948
  1781.5000      0.0000    469.4567     14.5958    126.2998
  1781.7500      0.0000    532.7496     14.3598    128.1009
  1782.0000      0.0000    588.6791     14.1596    130.4340
  1782.2500      0.0000    620.8406     14.0049    133.4870
  1782.5000      0.0000    627.2951     13.8939    137.0367
  1782.7500      0.0000    621.6351     13.8109    140.5032
  1783.0000      0.0000    620.6943     13.7342    143.3537
  1783.2500      0.0000    631.2834     13.6490    145.1991
  1783.5000      0.0000    648.7512     13.5514    145.7393
  1783.7500      0.0000    665.4830     13.4429    144.8893
  1784.0000      0.0000    677.5607     13.3267    142.9200
  1784.2500      0.0000    684.7050     13.2087    140.3645
  1784.5000      0.0000    688.2066     13.0989    137.8525
  1784.7500      0.0000    690.2941     13.0060    136.1148
  1785.0000      0.0000    693.4589     12.9326    135.8609
  1785.2500      0.0000    698.9827     12.8771    137.2376
  1785.5000      0.0000    706.7048     12.8439    139.4459
  1785.7500      0.0000    716.4083     12.8498    141.1317
  1786.0000      0.0000    728.3354     12.9185    141.1489
  1786.2500      0.0000    741.5430     13.0611    139.1548
  1786.5000      0.0000    752.1328     13.2559    136.0199
  1786.7500      0.0000    754.2813     13.4376    133.5019
  1787.0000      0.0000    743.6741     13.5045    132.6038
  1787.2500      0.0000    720.6356     13.3542    131.9959
  1787.5000      0.0000    691.6125     12.9387    128.6690
  1787.7500      0.0000    668.4551     12.3174    120.5185
  1788.0000      0.0000    663.1328     11.6541    108.2254
  1788.2500      0.0000    678.8071     11.1093     94.7830
  1788.5000      0.0000    706.2940     10.6860     83.5515
  1788.7500      0.0000    731.8275     10.2268     76.6157
  1789.0000      0.0000    747.7570      9.6344     74.2923
  1789.2500      0.0000    754.7998      9.0421     75.6976
  1789.5000      0.0000    756.6585      8.6790     79.7903
  1789.7500     -2.0000    755.5263      8.6146     86.0190
  1790.0000     -2.0000    752.4863      8.7124     94.2207
  1790.2500      0.0000    749.6334      8.7981    104.2546
  1790.5000      0.0000    749.5656      8.8287    115.7343
  1790.7500      0.0000    752.6201      8.9239    127.6501
  1791.0000      0.0000    755.9517      9.2434    138.0802
  1791.2500      0.0000    755.6173      9.8074    144.8639
  1791.5000      0.0000    749.1348     10.4653    147.0952
  1791.7500      0.0000    737.5112     11.0760    145.9124
  1792.0000      0.0000    726.5455     11.6436    143.6851
  1792.2500      0.0000    724.3012     12.2138    142.4128
  1792.5000      0.0000    734.0618     12.7193    142.6763
  1792.7500      0.0000    750.1738     13.0155    143.7811
  1793.0000      0.0000    762.8958     13.0285    144.8542
  1793.2500      0.0000    766.6823     12.8071    145.7595
  1793.5000      0.0000    762.7544     12.4586    146.7884
  1793.7500      0.0000    755.3724     12.0767    147.5734
  1794.0000      0.0000    747.5361     11.7166    146.9776
  1794.2500      0.0000    739.8827     11.4008    144.4743
  1794.5000      0.0000    732.1638     11.1295    141.1821
  1794.7500      0.0000    724.7677     10.8937    138.9999
  1795.0000      0.0000    718.8445     10.6884    138.8724
  1795.2500      0.0000    715.4214     10.5209    140.2361
  1795.5000      0.0000    714.9281     10.4080    141.8761
  1795.7500      0.0000    717.2920     10.3674    142.6783
  1796.0000      0.0000    721.7264     10.4061    141.6545
  1796.2500      0.0000    726.2388     10.5126    138.2157
  1796.5000      0.0000    728.3141     10.6593    133.0539
  1796.7500      0.0000    727.0631     10.8164    128.2790
  1797.0000      0.0000    724.4047     10.9654    125.9307
  1797.2500      0.0000    723.3259     11.0997    126.4419
  1797.5000      0.0000    725.0233     11.2148    128.9284
  1797.7500      0.0000    728.1339     11.3002    132.3629
  1798.0000      0.0000    730.5524     11.3464    135.7928
  1798.2500      0.0000    731.4441     11.3607    138.0635
  1798.5000      0.0000    731.3419     11.3680    138.4683
  1798.7500      0.0000    730.7567     11.3866    137.6864
  1799.0000      0.0000    729.2531     11.4041    137.2828
  1799.2500      0.0000    726.0031     11.3871    137.9242
  1799.5000      0.0000    720.9157     11.3116    138.3687
  1799.7500      0.0000    714.8481     11.1843    136.6539
  1800.0000      0.0000    708.9084     11.0386    132.3199
  1800.2500      0.0000    703.9367     10.9162    126.9822
