~Version Information
 VERS.                                  2.0 : CWLS LAS VERSION
 WRAP.                                   NO : WRAPING MODE
 SWARE .                  MController 2.5.1 : SOFTWARE VERSION
~Well Information
 WELL.                     Lucky Lady 42-29 : WELL
 COMP.  Pioneer Natural Resources USA, Inc. : COMPANY
 FLD.                      Purgatoire River : FIELD
 LOC.             SE/NE Sec. 29, T34S, R65W : LOCATION
 DATE.                03/09/2006-03/09/2006 : DATE(S) LOGGED
 SRVC.                  Entrada GeoSciences : SERVICE COMPANY
 STAT.                             Colorado : STATE
 CNTY.                           Las Animas : COUNTY
 CTRY.                        United States : COUNTRY
 API.                                   N/A : API NUMBER
 STRT.FT                             250.00 : START DEPTH
 STOP.FT                            1215.00 : STOP DEPTH
 STEP.FT                               1.00 : DEPTH INCREMENT
 NULL.                                -9999 : NULL VALUE
~Curve information
 DEPTH.FT                                   :
 ROP.MIN/FT                                 :
 GAS.UNITS                                  :
~ASCII Log data
# ...
      450.00         0.23         65.8 
      451.00         0.27         65.4 
      452.00         0.23         65.2 
      453.00         0.23         65.6 
      454.00         0.20         65.2 
      455.00         0.23         64.7 
      456.00         0.23         64.8 
      457.00         0.23         65.2 
      458.00         0.23         65.4 
      459.00         0.20         65.0 
      460.00         0.27         64.3 
      461.00         0.17         64.3 
      462.00         0.22         64.8 
      463.00         0.23         65.1 
      464.00         0.20         64.6 
      465.00         0.20        175.2 
      466.00         0.17        175.2 
      467.00         0.20        242.2 
      468.00         0.20        395.6 
      469.00         0.27        355.0 
      470.00         0.20        223.7 
      471.00         0.23        169.0 
      472.00         0.20        123.0 
      473.00         0.20        103.5 
      474.00         0.20         89.4 
      475.00         0.23         80.0 
      476.00         0.27         71.3 
      477.00         0.37         64.7 
      478.00         0.30         64.1 
      479.00         0.20         62.6 
      480.00         0.23         62.3 
      481.00         0.17         61.4 
      482.00         0.27         61.0 
      483.00         0.20         60.5 
      484.00         0.17         60.7 
      485.00         0.10         60.6 
      486.00         0.23         60.8 
      487.00         0.25         60.8 
      488.00         0.23         62.4 
      489.00         0.20         63.0 
      490.00         0.23         63.4 
      491.00         0.23         63.5 
      492.00         0.20         63.2 
      493.00         0.23         63.6 
      494.00         0.23         63.7 
      495.00         0.23        814.6 
      496.00         0.20        532.2 
      497.00         0.20        503.5 
      498.00         0.30        400.0 
      499.00         0.17        102.4 
      500.00         0.23         86.3 
      501.00         0.20         86.3 
      502.00         0.25         77.6 
      503.00         0.23         76.7 
      504.00         0.20         68.9 
      505.00         0.27         67.7 
      506.00         0.25         65.5 
      507.00         0.23         64.6 
      508.00         0.30         65.2 
      509.00         0.27         66.2 
      510.00         0.27         69.0 
      511.00         0.27         70.5 
      512.00         0.23         70.5 
      513.00         0.17         70.0 
      514.00         0.20         69.5 
      515.00         0.23         69.1 
      516.00         0.27         68.8 
      517.00         0.23         68.3 
      518.00         0.37         68.3 
      519.00         0.25         67.5 
      520.00         0.23         67.3 
      521.00         0.20         67.3 
      522.00         0.23         67.7 
      523.00         0.23         68.0 
      524.00         0.20         67.9 
      525.00         0.23         67.2 
      526.00         0.20        201.6 
      527.00         0.23        201.6 
      528.00         0.30        409.6 
      529.00         0.23        455.7 
      530.00         0.20        351.4 
      531.00         0.20        304.8 
      532.00         0.20        173.9 
      533.00         0.13        161.3 
      534.00         0.35        137.6 
      535.00         0.27         88.5 
      536.00         0.27         74.6 
      537.00         0.27         66.1 
      538.00         0.37         62.0 
      539.00         0.30         60.8 
      540.00         0.23         61.0 
      541.00         0.20         61.1 
      542.00         0.20         61.4 
      543.00         0.20         61.7 
      544.00         0.17         62.2 
      545.00         0.18         64.2 
      546.00         0.17         64.2 
      547.00         0.17         66.8 
      548.00         0.17         69.1 
      549.00         0.17         71.3 
      550.00         0.20         72.2 
      551.00         0.27         72.1 
      552.00         0.27         71.9 
      553.00         0.23         71.7 
      554.00         0.17         71.3 
      555.00         0.20         70.5 
      556.00         0.20       1057.8 
      557.00         0.23        423.5 
      558.00         0.27        400.0 
      559.00         0.20         87.9 
      560.00         0.17         87.9 
      561.00         0.18         88.7 
      562.00         0.33         86.5 
      563.00         0.23         78.8 
      564.00         0.30         69.8 
      565.00         0.20         64.5 
      566.00         0.40         62.0 
      567.00         0.20         57.6 
      568.00         0.23         58.0 
      569.00         0.20         57.0 
      570.00         0.27         56.7 
      571.00         0.40         56.9 
      572.00         0.23         56.7 
      573.00         0.18         56.0 
      574.00         0.17         56.4 
      575.00         0.30         57.3 
      576.00         0.17         57.6 
      577.00         0.23         58.7 
      578.00         0.23         65.0 
      579.00         0.23         65.7 
      580.00         0.20         65.5 
      581.00         0.23         64.1 
      582.00         0.20         63.5 
      583.00         0.17         63.1 
      584.00         0.20         63.8 
      585.00         0.17         63.8 
      586.00         0.23        265.0 
      587.00         0.23        317.5 
      588.00         0.20        336.8 
      589.00         0.22       1095.8 
      590.00         0.20        973.1 
      591.00         0.20        524.3 
      592.00         0.20        502.6 
      593.00         0.20        444.3 
      594.00         0.33        421.4 
      595.00         0.27        400.0 
      596.00         0.40         75.7 
      597.00         0.53         64.4 
      598.00         0.33         57.4 
      599.00         0.37         57.3 
      600.00         0.20         56.8 
      601.00         0.20         57.2 
      602.00         0.30         57.0 
      603.00         0.13         57.0 
      604.00         0.23         57.0 
      605.00         0.37         57.5 
      606.00         0.27         56.9 
      607.00         0.23         55.6 
      608.00         0.28         56.3 
      609.00         0.20         57.3 
      610.00         0.23         55.9 
      611.00         0.20         54.8 
      612.00         0.20         53.6 
      613.00         0.23         53.2 
      614.00         0.20         53.2 
      615.00         0.20         57.2 
      616.00         0.20        979.8 
      617.00         0.27        821.3 
      618.00         0.20        773.0 
      619.00         0.20        512.5 
      620.00         0.17        425.2 
      621.00         0.17        449.0 
      622.00         0.17        400.0 
      623.00         0.45         89.2 
      624.00         0.23         74.7 
      625.00         0.27         66.3 
      626.00         0.27         59.6 
      627.00         0.20         59.5 
      628.00         0.17         58.3 
      629.00         0.13         57.5 
      630.00         0.25         56.5 
      631.00         0.23         55.8 
      632.00         0.17         55.5 
      633.00         0.20         55.5 
      634.00         0.23         55.9 
      635.00         0.20         56.0 
      636.00         0.20         55.8 
      637.00         0.23         55.6 
      638.00         0.20         55.2 
      639.00         0.23         53.6 
      640.00         0.23         53.4 
      641.00         0.20         54.8 
      642.00         0.23         55.1 
      643.00         0.20         55.4 
      644.00         0.20       1197.8 
      645.00         0.20       1197.8 
      646.00         0.25        757.8 
      647.00         0.17        757.8 
      648.00         0.17        509.0 
      649.00         0.20        486.5 
