~Version Information
VERS.                      2.0: CWLS Log ASCII Standard - VERSION 2.0
WRAP.                       NO: One line per depth step
~Well Information Block
STRT.FT                -7.7500: 
STOP.FT              1519.0000: 
STEP.FT                 0.2500: 
NULL.                -999.2500: 
COMP.          Pioneer Natural Resources: COMPANY
WELL.          Mow 8-14-33-67 Tr: WELL
FLD.           Purgatorie River: FIELD
LOC.           2258' FNL & 929' FEL--: LOCATION
CNTY.               Las Animas: COUNTY
SRVC.          Patterson Wireline: SERVICE COMPANY
DATE.          Thu Feb 02 10:06:28 2006: LOG DATE
UWI.           05 071 08684 00: UNIQUE WELL ID
STAT.                       CO: STATE
~Curve Information Block
DEPT.FT            0 000 00 00: Depth
MINMK.                        : Magnetic Mark Ticks
CCL.                          : Casing Collar Locator
TT3.usec                      : CBL 3' Travel Time
AMP3.mV                       : CBL 3' Amplitude
GR.GAPI                       : Gamma Ray
~Parameter Information Block
~A  Depth      MINMK        CCL         TT3         AMP3         GR     
# ...
   188.2500      0.0000      0.0000    262.3109     86.2810    106.4654
   188.5000      0.0000      0.0000    262.3163     86.2678    110.3088
   188.7500      0.0000      0.0000    262.3252     86.2381    113.8480
   189.0000      0.0000      0.0000    262.3347     86.1986    115.6225
   189.2500      0.0000      0.0000    262.3403     86.1627    115.6031
   189.5000      0.0000      0.0000    262.3403     86.1497    114.9481
   189.7500      0.0000      0.0000    262.3372     86.1699    114.5023
   190.0000      0.0000      0.0000    262.3343     86.2151    113.8455
   190.2500      0.0000      0.0000    262.3324     86.2628    112.0620
   190.5000      0.0000      0.0000    262.3301     86.2860    109.0179
   190.7500      0.0000      0.0000    262.3250     86.2701    105.4771
   191.0000      0.0000      0.0000    262.3161     86.2323    102.4003
   191.2500      0.0000      0.0000    262.3060     86.2175    100.4591
   191.5000      0.0000      0.0000    262.2982     86.2602     99.6561
   191.7500      0.0000      0.0000    262.2953     86.3494     99.0694
   192.0000      0.0000      0.0000    262.2975     86.4336     97.5241
   192.2500      0.0000      0.0000    262.3058     86.4612     94.8726
   192.5000      0.0000      0.0000    262.3215     86.4188     92.2636
   192.7500      0.0000      0.0000    262.3429     86.3373     90.9925
   193.0000      0.0000      0.0000    262.3633     86.2668     91.1826
   193.2500      0.0000      0.0000    262.3751     86.2432     91.5803
   193.5000      0.0000      0.0000    262.3756     86.2677     90.8092
   193.7500      0.0000      0.0000    262.3688     86.3143     88.8973
   194.0000      0.0000      0.0000    262.3605     86.3613     87.0356
   194.2500      0.0000      0.0000    262.3536     86.4173     85.6728
   194.5000      0.0000      0.0000    262.3475     86.5106     83.8570
   194.7500      0.0000      0.0000    262.3413     86.6536     81.0371
   195.0000      1.0000      0.0000    262.3360     86.8187     78.5117
   195.2500      0.0000      0.0000    262.3335     86.9497     78.1690
   195.5000      0.0000      0.0000    262.3347     86.9986     80.2641
   195.7500      0.0000      0.0000    262.3384     86.9549     83.1509
   196.0000      0.0000      0.0000    262.3428     86.8468     85.0205
   196.2500      0.0000      0.0000    262.3466     86.7162     85.4883
   196.5000      0.0000      0.0000    262.3480     86.5987     85.7051
   196.7500      0.0000      0.0000    262.3459     86.5194     87.3560
   197.0000      0.0000      0.0000    262.3424     86.4894     91.5060
   197.2500      0.0000      0.0000    262.3422     86.4985     97.9177
   197.5000      0.0000      0.0000    262.3472     86.5154    105.1301
   197.7500      0.0000      0.0000    262.3539     86.5009    111.2251
   198.0000      0.0000      0.0000    262.3563     86.4312    114.7627
   198.2500      0.0000      0.0000    262.3532     86.3207    115.2414
   198.5000      0.0000      0.0000    262.3487     86.2213    113.1354
   198.7500      0.0000      0.0000    262.3472     86.1844    109.7880
   199.0000      0.0000      0.0000    262.3494     86.2215    106.7211
   199.2500      0.0000      0.0000    262.3525     86.3017    104.3374
   199.5000      0.0000      0.0000    262.3538     86.3813    101.5478
   199.7500      0.0000      0.0000    262.3535     86.4317     97.1935
   200.0000      0.0000      0.0000    262.3528     86.4575     91.5112
   200.2500      0.0000      0.0000    262.3518     86.4940     85.8446
   200.5000      0.0000      0.0000    262.3497     86.5801     81.4033
   200.7500      0.0000      0.0000    262.3482     86.7202     78.6473
   201.0000      0.0000      0.0000    262.3513     86.8743     77.3006
   201.2500      0.0000      0.0000    262.3612     86.9923     76.5210
   201.5000      0.0000      0.0000    262.3741     87.0611     75.5234
   201.7500      0.0000      0.0000    262.3830     87.1169     74.5067
   202.0000      0.0000      0.0000    262.3829     87.2105     74.7401
   202.2500      0.0000      0.0000    262.3759     87.3573     77.2383
   202.5000      0.0000      0.0000    262.3697     87.5156     81.3463
   202.7500      0.0000      0.0000    262.3708     87.6116     85.1593
   203.0000      0.0000      0.0000    262.3780     87.5898     87.5617
   203.2500      0.0000      0.0000    262.3842     87.4467     89.3124
   203.5000      0.0000      0.0000    262.3845     87.2276     91.8495
   203.7500      0.0000      0.0000    262.3803     87.0023     95.4972
   204.0000      0.0000      0.0000    262.3744     86.8383     99.1893
   204.2500      0.0000      0.0000    262.3675     86.7742    101.7945
   204.5000      0.0000      0.0000    262.3602     86.7973    103.4495
   204.7500      0.0000      0.0000    262.3557     86.8494    105.4108
   205.0000      0.0000      0.0000    262.3574     86.8684    108.6940
   205.2500      0.0000      0.0000    262.3648     86.8373    113.0247
   205.5000      0.0000      0.0000    262.3736     86.7942    117.0011
   205.7500      0.0000      0.0000    262.3786     86.7941    119.0993
   206.0000      0.0000      0.0000    262.3771     86.8644    118.7897
   206.2500      0.0000      0.0000    262.3699     86.9879    117.1207
   206.5000      0.0000      0.0000    262.3598     87.1145    116.1209
   206.7500      0.0000      0.0000    262.3501     87.1887    117.1421
   207.0000      0.0000      0.0000    262.3439     87.1807    119.5694
   207.2500      0.0000      0.0000    262.3439     87.1060    121.2399
   207.5000      0.0000      0.0000    262.3500     87.0165    120.2138
   207.7500      0.0000      0.0000    262.3579     86.9649    116.2542
   208.0000      0.0000      0.0000    262.3627     86.9709    110.7538
   208.2500      0.0000      0.0000    262.3628     87.0123    105.3409
   208.5000      0.0000      0.0000    262.3611     87.0420    100.7519
   208.7500      0.0000      0.0000    262.3625     87.0208     97.1777
   209.0000      0.0000      0.0000    262.3703     86.9469     95.2147
   209.2500      0.0000      0.0000    262.3844     86.8518     95.6226
   209.5000      0.0000      0.0000    262.4009     86.7679     98.0472
   209.7500      0.0000      0.0000    262.4141     86.7037    100.7531
   210.0000      0.0000      0.0000    262.4196     86.6475    102.1345
   210.2500      0.0000      0.0000    262.4173     86.5849    102.0489
   210.5000      0.0000      0.0000    262.4106     86.5181    101.3569
   210.7500      0.0000      0.0000    262.4025     86.4762    100.7704
   211.0000      0.0000      0.0000    262.3936     86.4955    100.6967
   211.2500      0.0000      0.0000    262.3834     86.5773    101.7282
   211.5000      0.0000      0.0000    262.3747     86.6731    104.2740
   211.7500      0.0000      0.0000    262.3720     86.7227    107.3893
   212.0000      0.0000      0.0000    262.3774     86.7013    108.7050
   212.2500      0.0000      0.0000    262.3874     86.6260    106.3973
   212.5000      0.0000      0.0000    262.3954     86.5283    101.1707
   212.7500      0.0000      0.0000    262.3971     86.4260     95.6563
   213.0000      0.0000      0.0000    262.3938     86.2945     91.8887
   213.2500      0.0000      0.0000    262.3941     86.0300     89.9609
   213.5000      0.0000      0.0000    262.4243     85.4309     88.9297
   213.7500      0.0000      0.0000    262.5526     84.2625     88.0930
   214.0000      0.0000      0.0000    262.9028     82.3784     87.2313
   214.2500      0.0000      0.0000    263.6054     79.7750     86.3855
   214.5000      0.0000      0.0000    264.6811     76.5362     85.8763
   214.7500      0.0000      0.0000    265.9617     72.8489     86.2790
   215.0000      0.0000      0.0000    267.1620     69.1368     87.9403
   215.2500      0.0000      0.0000    268.0572     66.0124     90.2879
   215.5000      0.0000      0.0000    268.5938     63.9217     91.9179
   215.7500      0.0000      0.0000    268.8511     62.8631     91.9351
   216.0000      0.0000     -2.0000    268.9394     62.4904     91.1746
