~Version Information
VERS.                      2.0: CWLS Log ASCII Standard - VERSION 2.0
WRAP.                       NO: One line per depth step
~Well Information Block
STRT.FT               615.0000: 
STOP.FT              1609.0000: 
STEP.FT                 0.2500: 
NULL.                -999.2500: 
COMP.          Pioneer Natural Resources: COMPANY
WELL.          Galloway 32-13 Tr: WELL
FLD.           Purgatoire River: FIELD
LOC.           1910' FNL & 2002' FEL: LOCATION
PROV.                 Colorado: PROVINCE
CNTY.               Las Animas: COUNTRY
SRVC.                Patterson: SERVICE COMPANY
DATE.          Sat Nov 12 20:19:28 2005: LOG DATE
UWI.           05 071 08608 00: UNIQUE WELL ID
~Curve Information Block
DEPT.FT            0 000 00 00: Depth
SN.Ohm-m                      : IEL Short Normal
SP.mV                         : IEL Spontaneous Potential
DIR.Ohm-m                     : IEL Induction Resistivity
GR.GAPI                       : Gamma Ray
~Parameter Information Block
~A  Depth        SN          SP         DIR          GR     
# ...
  1586.5000     21.0274     60.2575     18.4492    108.9076
  1586.7500     21.7033     60.4005     18.7999    108.5244
  1587.0000     22.3156     60.5436     19.1271    108.4797
  1587.2500     22.7932     60.6683     19.4401    108.9930
  1587.5000     23.1546     60.7727     19.7397    110.4267
  1587.7500     23.4743     60.8697     20.0170    111.5292
  1588.0000     23.7938     60.9734     20.2552    113.0924
  1588.2500     24.0655     61.0873     20.4367    114.0293
  1588.5000     24.2148     61.2032     20.5471    114.5724
  1588.7500     24.2177     61.3092     20.5780    113.1279
  1589.0000     24.1498     61.3962     20.5282    105.0757
  1589.2500     24.1001     61.4609     20.4051     94.2852
  1589.5000     23.9683     61.5043     20.2244     70.3899
  1589.7500     23.5580     61.5301     20.0057     51.9227
  1590.0000     22.8850     61.5461     19.7660     26.9749
  1590.2500     22.1534     61.5649     19.5141     15.0282
  1590.5000     21.5227     61.6020     19.2492      4.8978
  1590.7500     21.0864     61.6696     18.9659      1.9535
  1591.0000     20.8650     61.7715     18.6627      0.3747
  1591.2500     20.7108     61.9011     18.3451      0.1025
  1591.5000     20.4688     62.0441     18.0210      0.0094
  1591.7500     20.1747     62.1829     17.6928      0.0000
  1592.0000     19.8922     62.3036     17.3552   -999.2500
  1592.2500     19.5532     62.4022     16.9994   -999.2500
  1592.5000     19.0716     62.4851     16.6156   -999.2500
  1592.7500     18.4551     62.5636     16.1941   -999.2500
  1593.0000     17.7942     62.6444     15.7288   -999.2500
  1593.2500     17.1989     62.7244     15.2243   -999.2500
  1593.5000     16.7172     62.7930     14.6984   -999.2500
  1593.7500     16.3071     62.8404     14.1765   -999.2500
  1594.0000     15.9202     62.8649     13.6814   -999.2500
  1594.2500     15.5796     62.8748     13.2271   -999.2500
  1594.5000     15.3029     62.8825     12.8203   -999.2500
  1594.7500     15.0141     62.8959     12.4633   -999.2500
  1595.0000     14.6182     62.9141     12.1584   -999.2500
  1595.2500     14.1221     62.9295     11.9071   -999.2500
  1595.5000     13.6192     62.9332     11.7085   -999.2500
  1595.7500     13.1928     62.9186     11.5564   -999.2500
  1596.0000     12.8913     62.8812     11.4328   -999.2500
  1596.2500     12.7484     62.8166     11.3439   -999.2500
  1596.5000     12.7296     62.7225     11.2757   -999.2500
  1596.7500     12.7172     62.6028     11.2265   -999.2500
  1597.0000     12.6583     62.4705     11.1953   -999.2500
  1597.2500     12.6195     62.3434     11.1797   -999.2500
  1597.5000     12.6270     62.2347     11.1770   -999.2500
  1597.7500     12.6130     62.1460     11.1878   -999.2500
  1598.0000     12.5371     62.0672     11.2191   -999.2500
  1598.2500     12.4430     61.9838     11.2898   -999.2500
  1598.5000     12.4273     61.8847     11.4418   -999.2500
  1598.7500     12.5561     61.7683     11.7592   -999.2500
  1599.0000     12.7546     61.6438     12.3950   -999.2500
  1599.2500     12.8727     61.5261     13.6074   -999.2500
  1599.5000     12.9031     61.4260     15.8493   -999.2500
  1599.7500     12.9858     61.3428     19.8665   -999.2500
  1600.0000     13.1741     61.2644     27.1466   -999.2500
  1600.2500     13.3981     61.1746     40.6012   -999.2500
  1600.5000     13.6137     61.0621     65.8574   -999.2500
  1600.7500     13.8122     60.9254    112.2023   -999.2500
  1601.0000     13.9951     60.7714    188.0699   -999.2500
  1601.2500     14.2252     60.6102    285.0603   -999.2500
  1601.5000     14.6129     60.4497    375.9315   -999.2500
  1601.7500     15.2308     60.2926    452.7881   -999.2500
  1602.0000     16.0728     60.1363    546.0475   -999.2500
  1602.2500     17.0845     59.9741    733.1849   -999.2500
  1602.5000     18.2017     59.7989 100000.0000   -999.2500
  1602.7500     19.3612     59.6062 100000.0000   -999.2500
  1603.0000     20.5575     59.3970 100000.0000   -999.2500
  1603.2500     21.8944     59.1765 100000.0000   -999.2500
  1603.5000     23.4904     58.9508 100000.0000   -999.2500
  1603.7500     25.3471     58.7220 100000.0000   -999.2500
  1604.0000     27.3445     58.4795 100000.0000   -999.2500
  1604.2500     29.3375     58.1502 100000.0000   -999.2500
  1604.5000     31.2533     57.4669 100000.0000   -999.2500
  1604.7500     33.0871     55.7620 100000.0000   -999.2500
  1605.0000     34.7677     51.9128 100000.0000   -999.2500
  1605.2500     35.9336     44.8549 100000.0000   -999.2500
  1605.5000     35.5587     34.6515 100000.0000   -999.2500
  1605.7500     31.7629     23.1172 100000.0000   -999.2500
  1606.0000     23.3614     12.9478 100000.0000   -999.2500
  1606.2500     12.5567      5.9610 100000.0000   -999.2500
  1606.5000      3.8309      2.2218 100000.0000   -999.2500
  1606.7500     -0.6614      0.6631 100000.0000   -999.2500
  1607.0000     -2.1415      0.1570 100000.0000   -999.2500
  1607.2500     -2.4540      0.0291 100000.0000   -999.2500
  1607.5000     -2.4963      0.0039 100000.0000   -999.2500
  1607.7500   -999.2500   -999.2500 100000.0000   -999.2500
  1608.0000   -999.2500   -999.2500 100000.0000   -999.2500
  1608.2500   -999.2500   -999.2500 100000.0000   -999.2500
  1608.5000   -999.2500   -999.2500 100000.0000   -999.2500
  1608.7500   -999.2500   -999.2500 100000.0000   -999.2500
  1609.0000   -999.2500   -999.2500 100000.0000   -999.2500
