~Version Information
 VERS.                                  2.0 : CWLS LAS VERSION
 WRAP.                                   NO : WRAPING MODE
 SWARE .                 MController 2.5.0J : SOFTWARE VERSION
~Well Information
 WELL.                       Montoya 12-44R : WELL
 COMP.                Petrogulf Corporation : COMPANY
 FLD.                      Purgatoire River : FIELD
 LOC.               SE/SE Sec 12 T33S R68W  : LOCATION
 DATE.                             10/01/05 : DATE(S) LOGGED
 SRVC.       BLANCO Geological Services LLC : SERVICE COMPANY
 STAT.                                  CO  : STATE
 CNTY.                           Las Animas : COUNTY
 CTRY.                                  USA : COUNTRY
 API.                       05 071 08538 00 : API NUMBER
 STRT.FT                              22.00 : START DEPTH
 STOP.FT                            2100.00 : STOP DEPTH
 STEP.FT                               1.00 : DEPTH INCREMENT
 NULL.                                -9999 : NULL VALUE
~Curve information
 DEPTH.FT                                   :
 ROP.MIN/FT                                 :
 GAS.UNITS                                  :
~ASCII Log data
# ...
      1422.0         0.23         52.7 
      1423.0         0.17         51.4 
      1424.0         0.20         50.9 
      1425.0         0.23         50.0 
      1426.0         0.17         49.3 
      1427.0         0.17         49.0 
      1428.0         0.22         48.4 
      1429.0         0.40         48.6 
      1430.0         0.27         48.3 
      1431.0         0.23         48.3 
      1432.0         0.17         48.3 
      1433.0         0.20         48.1 
      1434.0         0.20         47.9 
      1435.0         0.17         48.5 
      1436.0         0.13         48.4 
      1437.0         0.17         48.8 
      1438.0         0.20         47.8 
      1439.0         0.20         40.4 
      1440.0         2.15        220.4 
      1441.0         0.27        198.7 
      1442.0         0.30        173.3 
      1443.0         0.33        141.0 
      1444.0         0.27        112.6 
      1445.0         0.27         94.8 
      1446.0         0.23         82.5 
      1447.0         0.30         74.7 
      1448.0         0.32         67.7 
      1449.0         0.30         64.5 
      1450.0         0.37         62.2 
      1451.0         0.40         59.0 
      1452.0         0.33         55.7 
      1453.0         0.33         53.2 
      1454.0         0.20         50.7 
      1455.0         0.27         49.8 
      1456.0         0.33         49.2 
      1457.0         0.20         49.0 
      1458.0         0.17         48.6 
      1459.0         0.13         48.5 
      1460.0         0.18         48.3 
      1461.0         0.20         48.6 
      1462.0         0.27         48.6 
      1463.0         0.30         48.6 
      1464.0         0.33         48.4 
      1465.0         0.20         48.2 
      1466.0         0.20         48.6 
      1467.0         0.23         48.7 
      1468.0         0.33         48.2 
      1469.0         0.27         46.3 
      1470.0         1.82        196.0 
      1471.0         0.73        208.3 
      1472.0         0.43        156.4 
      1473.0         0.50        112.5 
      1474.0         0.58         83.6 
      1475.0         0.37         67.7 
      1476.0         0.27         63.6 
      1477.0         0.23         61.4 
      1478.0         0.53         59.2 
      1479.0         0.30         56.4 
      1480.0         0.30         54.7 
      1481.0         0.23         52.4 
      1482.0         0.17         51.3 
      1483.0         0.20         50.7 
      1484.0         0.18         50.3 
      1485.0         0.17         50.2 
      1486.0         0.20         50.3 
      1487.0         0.17         50.3 
      1488.0         0.20         50.6 
      1489.0         0.20         50.6 
      1490.0         0.27         49.7 
      1491.0         0.20         48.5 
      1492.0         0.23         48.2 
      1493.0         0.33         47.7 
      1494.0         0.23         46.9 
      1495.0         0.23         47.0 
      1496.0         0.20         47.2 
      1497.0         0.23         47.2 
      1498.0         0.22         47.1 
      1499.0         0.27         43.3 
      1500.0         2.65        250.3 
      1501.0         0.40        198.5 
      1502.0         0.37        137.3 
      1503.0         0.33        103.0 
      1504.0         0.33         84.6 
      1505.0         0.23         73.3 
      1506.0         0.33         67.5 
      1507.0         0.43         63.4 
      1508.0         0.23         60.1 
      1509.0         0.20         58.6 
      1510.0         0.35         57.3 
      1511.0         0.33         55.0 
      1512.0         0.27         52.4 
      1513.0         0.20         50.7 
      1514.0         0.23         49.7 
      1515.0         0.10         48.5 
      1516.0         0.30         48.6 
      1517.0         0.37         48.5 
      1518.0         0.30         47.3 
      1519.0         0.27         46.8 
      1520.0         0.27         46.1 
      1521.0         0.18         42.7 
      1522.0         0.10         39.1 
      1523.0         0.47         45.4 
      1524.0         0.30         49.1 
      1525.0         0.33         51.7 
      1526.0         0.37         52.1 
      1527.0         0.37         48.6 
      1528.0         0.53         48.5 
      1529.0         0.45         53.2 
      1530.0         3.95        218.2 
      1531.0         0.53        119.4 
      1532.0         0.40         91.5 
      1533.0         0.30         77.1 
      1534.0         0.42         70.4 
      1535.0         0.37         66.4 
      1536.0         0.40         63.0 
      1537.0         0.37         59.7 
      1538.0         0.33         55.8 
      1539.0         0.33         53.3 
      1540.0         0.42         51.4 
      1541.0         0.30         48.3 
      1542.0         0.30         48.4 
      1543.0         0.30         47.9 
      1544.0         0.27         47.0 
      1545.0         0.33         48.1 
      1546.0         9.85        106.9 
      1547.0         0.40         28.4 
      1548.0         0.43         36.9 
      1549.0         0.55         46.4 
      1550.0         0.90         47.4 
      1551.0         1.07         40.6 
      1552.0         0.63         35.7 
      1553.0         1.02         35.9 
      1554.0         0.63         39.5 
      1555.0         0.50         41.6 
      1556.0         0.87         44.7 
      1557.0         0.78         45.7 
      1558.0         0.90         40.9 
      1559.0         0.90         36.8 
      1560.0       205.45       9656.8 
      1561.0         0.65        680.9 
      1562.0         0.67        687.9 
      1563.0         0.43        688.6 
      1564.0         0.50        681.6 
      1565.0         0.83        665.1 
      1566.0         0.98        659.0 
      1567.0         0.73        665.1 
      1568.0         0.50        666.0 
      1569.0         0.57        666.0 
      1570.0         3.52        874.2 
      1571.0         0.68        616.8 
      1572.0         0.70         11.5 
      1573.0         0.63          4.6 
      1574.0         0.67         18.8 
      1575.0         0.82         24.8 
      1576.0         1.23         28.9 
      1577.0         1.43         25.2 
      1578.0         0.65         28.9 
      1579.0         0.70         30.9 
      1580.0         1.07         28.3 
      1581.0         0.78         21.4 
      1582.0         0.93         20.9 
      1583.0         1.32         25.9 
      1584.0         0.77         24.5 
      1585.0         1.23         21.0 
      1586.0         0.95         17.6 
      1587.0         0.47         14.8 
      1588.0         0.43         15.4 
      1589.0         0.57         17.1 
      1590.0         0.50         20.7 
      1591.0         0.50         20.5 
      1592.0         0.50         15.1 
      1593.0         0.48         11.2 
      1594.0         0.50         10.9 
      1595.0         0.60         16.6 
      1596.0         0.50         17.3 
      1597.0         0.45         14.4 
      1598.0         0.60          7.9 
      1599.0         0.57          6.4 
      1600.0         4.08        190.0 
      1601.0         1.02         27.4 
      1602.0         1.00         26.8 
      1603.0         0.60         15.5 
      1604.0         0.98         14.5 
      1605.0         0.57         16.7 
      1606.0         0.50         17.6 
      1607.0         0.63         17.5 
      1608.0         0.65         15.8 
      1609.0         1.53         15.7 
      1610.0         1.28         14.8 
      1611.0         0.70         15.1 
      1612.0         0.60         15.6 
      1613.0         0.93         14.7 
      1614.0         0.72         12.9 
      1615.0         0.83         13.9 
      1616.0         1.47         14.3 
      1617.0         0.68         13.8 
      1618.0         0.67         14.9 
      1619.0         1.43         15.3 
      1620.0         1.42         14.3 
      1621.0         0.97         15.5 
