~Version Information
VERS.                      2.0: CWLS Log ASCII Standard - VERSION 2.0
WRAP.                       NO: One line per depth step
~Well Information Block
STRT.FT               529.2000: 
STOP.FT              1325.2000: 
STEP.FT                 0.1000: 
NULL.                -999.2500: 
COMP.          Pioneer Natural Resources: COMPANY
WELL.            Erin 21-15 Tr: WELL
FLD.           Purgatoire River: FIELD
LOC.           1217' FNL & 2284' FWL--: LOCATION
CNTY.               Las Animas: COUNTY
SRVC.                Patterson: SERVICE COMPANY
DATE.          Mon Mar 06 14:26:48 2006: LOG DATE
UWI.           05 071 08712 00: UNIQUE WELL ID
STAT.                 Colorado: STATE
~Curve Information Block
DEPT.FT            0 000 00 00: Depth
DCAL.in                       : CDL Caliper
RHOB.g/cc                     : CDL Bulk Density
RHOC.g/cc                     : CDL Density Correction
DPOR.pu                       : CDL Density Porosity
GR.GAPI                       : Gamma Ray
~Parameter Information Block
~A  Depth       DCAL        RHOB        RHOC        DPOR         GR     
# ...
   943.6000      7.9062      2.6048      0.0690      2.7369     71.4166
   943.7000      7.9062      2.6079      0.0804      2.5507     73.8972
   943.8000      7.9380      2.6085      0.0352      2.5169     72.8376
   943.9000      7.9380      2.6134      0.0770      2.2183     70.6480
   944.0000      7.9671      2.6324      0.1087      1.0639     70.7464
   944.1000      7.9671      2.6646      0.1138     -0.8871     73.2133
   944.2000      7.9671      2.6886      0.1625     -2.3418     73.3865
   944.3000      7.9796      2.6863      0.0834     -2.2021     71.8243
   944.4000      7.9796      2.6711      0.0527     -1.2789     70.9250
   944.5000      7.9804      2.6600      0.0493     -0.6076     68.4632
   944.6000      7.9804      2.6479      0.0663      0.1303     64.9854
   944.7000      7.9804      2.6298      0.0397      1.2231     63.8252
   944.8000      7.9787      2.6150      0.0410      2.1236     63.8625
   944.9000      7.9787      2.6068      0.0133      2.6166     63.0883
   945.0000      7.9781      2.6024      0.0104      2.8872     63.6477
   945.1000      7.9781      2.6045      0.0300      2.7566     67.5041
   945.2000      7.9781      2.6148      0.0734      2.1343     75.2713
   945.3000      7.9816      2.6223      0.0855      1.6817     86.4659
   945.4000      7.9816      2.6178      0.0515      1.9545     96.4493
   945.5000      7.9921      2.6088      0.0536      2.4957    100.1214
   945.6000      7.9921      2.6027      0.0594      2.8689     98.9245
   945.7000      7.9921      2.5955      0.0649      3.3059     99.3830
   945.8000      8.0032      2.5841      0.0438      3.9953    103.6720
   945.9000      8.0032      2.5760      0.0312      4.4851    107.2838
   946.0000      8.0124      2.5796      0.0487      4.2641    107.3803
   946.1000      8.0124      2.5925      0.0398      3.4841    105.2571
   946.2000      8.0124      2.6082      0.0485      2.5339    104.8831
   946.3000      8.0203      2.6206      0.0551      1.7833    104.7111
   946.4000      8.0203      2.6227      0.0528      1.6550    101.1611
   946.5000      8.0234      2.6106      0.0594      2.3896     99.2031
   946.6000      8.0234      2.5893      0.0277      3.6815    102.6434
   946.7000      8.0234      2.5740      0.0055      4.6034    107.9092
   946.8000      8.0243      2.5786      0.0166      4.3278    113.8044
   946.9000      8.0243      2.5962      0.0523      3.2600    119.1726
   947.0000      8.0261      2.6133      0.0562      2.2256    120.1309
   947.1000      8.0261      2.6319      0.0511      1.0962    114.9976
   947.2000      8.0261      2.6485      0.0904      0.0899    106.5529
   947.3000      8.0303      2.6441      0.0934      0.3569     99.7556
   947.4000      8.0303      2.6157      0.0257      2.0802     96.9160
   947.5000      8.0388      2.5831      0.0302      4.0518     98.6240
   947.6000      8.0388      2.5556      0.0375      5.7217    102.3246
   947.7000      8.0388      2.5239      0.0113      7.6435    102.0940
   947.8000      8.0533      2.4743     -0.0037     10.6514    100.0508
   947.9000      8.0533      2.3951     -0.0642     15.4460    101.9703
   948.0000      8.0684      2.2886     -0.0643     21.9042    105.8019
   948.1000      8.0684      2.1636     -0.1137     29.4784    106.8241
   948.2000      8.0684      2.0242     -0.1259     37.9298    103.5413
   948.3000      8.0778      1.8772     -0.2008     46.8338     96.6827
   948.4000      8.0778      1.7422     -0.2325     55.0194     90.4707
   948.5000      8.0854      1.6259     -0.2265     62.0659     88.1590
   948.6000      8.0854      1.5193     -0.2369     68.5288     84.4997
   948.7000      8.0854      1.4256     -0.2137     74.2065     74.7853
   948.8000      8.1071      1.3619     -0.1967     78.0667     61.9299
   948.9000      8.1071      1.3360     -0.0747     79.6342     52.3663
   949.0000      8.1489      1.3323      0.0047     79.8601     49.2930
   949.1000      8.1489      1.3303      0.0029     79.9821     48.4723
   949.2000      8.1489      1.3253      0.0152     80.2869     46.7933
   949.3000      8.1873      1.3220      0.0228     80.4826     45.7790
   949.4000      8.1873      1.3274      0.0017     80.1588     44.7086
   949.5000      8.2051      1.3426      0.0411     79.2364     42.3586
   949.6000      8.2051      1.3566      0.0603     78.3902     40.2395
   949.7000      8.2051      1.3609      0.0454     78.1252     38.1796
   949.8000      8.2083      1.3588      0.0453     78.2575     34.5217
   949.9000      8.2083      1.3541      0.0347     78.5415     31.7252
   950.0000      8.2013      1.3485      0.0183     78.8767     31.2282
   950.1000      8.2013      1.3427      0.0110     79.2304     31.0058
   950.2000      8.2013      1.3373      0.0084     79.5551     31.6849
   950.3000      8.1882      1.3338      0.0083     79.7692     34.9484
   950.4000      8.1882      1.3313      0.0048     79.9219     37.5019
   950.5000      8.1961      1.3281      0.0121     80.1131     35.0864
   950.6000      8.1961      1.3255      0.0204     80.2757     30.1601
   950.7000      8.1961      1.3242      0.0289     80.3534     26.4829
   950.8000      8.2299      1.3217      0.0330     80.5029     23.5070
   950.9000      8.2299      1.3159      0.0154     80.8561     21.6232
   951.0000      8.2729      1.3050      0.0394     81.5152     22.1086
   951.1000      8.2729      1.2902      0.0009     82.4093     23.1945
   951.2000      8.2729      1.2824     -0.0130     82.8870     22.4340
   951.3000      8.3313      1.2914      0.0017     82.3409     20.6921
   951.4000      8.3313      1.3150      0.0355     80.9098     20.8914
   951.5000      8.4006      1.3452      0.0497     79.0804     24.3986
   951.6000      8.4006      1.3780      0.0427     77.0917     29.8122
   951.7000      8.4006      1.4112      0.0644     75.0807     34.3835
   951.8000      8.4532      1.4440      0.0646     73.0896     38.2568
   951.9000      8.4532      1.4866      0.0454     70.5082     43.3794
   952.0000      8.5000      1.5470      0.1007     66.8463     48.8565
   952.1000      8.5000      1.6153      0.1304     62.7078     52.2214
   952.2000      8.5000      1.6799      0.1448     58.7964     54.9100
   952.3000      8.5288      1.7370      0.1442     55.3344     61.6261
   952.4000      8.5288      1.7788      0.1479     52.8015     71.3142
   952.5000      8.4473      1.7918      0.1283     52.0144     77.6812
   952.6000      8.4473      1.7679      0.1034     53.4629     79.9722
   952.7000      8.4473      1.7157      0.0419     56.6239     82.9042
   952.8000      8.2632      1.6540      0.0363     60.3645     87.1074
   952.9000      8.2632      1.5892      0.0267     64.2917     88.4175
   953.0000      8.1396      1.5196     -0.0525     68.5075     83.9730
   953.1000      8.1396      1.4579     -0.0846     72.2492     74.8894
   953.2000      8.1396      1.4233     -0.0560     74.3435     68.0568
   953.3000      8.1169      1.4222     -0.0488     74.4106     68.2880
   953.4000      8.1169      1.4560     -0.0314     72.3652     69.7342
   953.5000      8.1693      1.5351      0.0019     67.5690     66.4567
   953.6000      8.1693      1.6650      0.0970     59.6971     62.2908
   953.7000      8.1693      1.8231      0.2141     50.1155     63.2859
   953.8000      8.3172      1.9703      0.2699     41.1923     70.0396
   953.9000      8.3172      2.0787      0.3256     34.6215     76.6151
   954.0000      8.4986      2.1477      0.2589     30.4417     77.4518
   954.1000      8.4986      2.2000      0.2500     27.2709     75.0729
   954.2000      8.4986      2.2475      0.2151     24.3951     75.4014
   954.3000      8.5249      2.2802      0.1711     22.4114     80.4283
   954.4000      8.5249      2.2812      0.1553     22.3526     85.7013
   954.5000      8.3333      2.2418      0.0575     24.7424     86.7876
   954.6000      8.3333      2.1793     -0.0145     28.5245     86.1825
   954.7000      8.3333      2.1185     -0.0403     32.2147     86.6761
