~Version Information
VERS.                      2.0: CWLS Log ASCII Standard - VERSION 2.0
WRAP.                       NO: One line per depth step
~Well Information Block
STRT.FT               350.0000: 
STOP.FT              2808.2500: 
STEP.FT                 0.2500: 
NULL.                -999.2500: 
COMP.          Pioneer Natural Resources: COMPANY
WELL.          Grey Goose 33-30: WELL
FLD.           Purgatoire River: FIELD
LOC.           2136' FSL & 2065' FEL--: LOCATION
STAT.                 Colorado: State
CNTY.               Las Animas: COUNTY
CTRY. USA : Country
SECT. 30 : Section
TOWN. 32S : Township
RANG. 67W : Range
SRVC.                Patterson: SERVICE COMPANY
DATE.          Fri Nov 04 09:00:45 2005: LOG DATE
API.           05 071 08546 00: UNIQUE WELL ID
~Curve Information Block
DEPT.FT            0 000 00 00: Depth
DIR.Ohm-m                     : IEL Induction Resistivity
SN.Ohm-m                      : IEL Short Normal
SP.mV                         : IEL Spontaneous Potential
GR.GAPI                       : Gamma Ray
~Parameter Information Block
~A  Depth       DIR          SN          SP          GR     
# ...
   517.5000     39.3999   2000.0000   2000.0000     73.9149
   517.7500     40.3424   2000.0000   2000.0000     75.0890
   518.0000     41.2549   2000.0000   2000.0000     77.4971
   518.2500     42.1296   2000.0000   2000.0000     79.2031
   518.5000     42.9347   2000.0000   2000.0000     81.2245
   518.7500     43.6068   2000.0000   2000.0000     81.7419
   519.0000     44.0822   2000.0000   2000.0000     80.7522
   519.2500     44.3468   2000.0000   2000.0000     78.9461
   519.5000     44.4622   2000.0000   2000.0000     74.9879
   519.7500     44.5377   2000.0000   2000.0000     71.8912
   520.0000     44.6738   2000.0000   2000.0000     67.2395
   520.2500     44.9143   2000.0000   2000.0000     64.4671
   520.5000     45.2333   2000.0000   2000.0000     61.0969
   520.7500     45.5587   2000.0000   2000.0000     59.4188
   521.0000     45.8158   2000.0000   2000.0000     57.8159
   521.2500     45.9649   2000.0000   2000.0000     57.4087
   521.5000     46.0089   2000.0000   2000.0000     57.7809
   521.7500     45.9688   2000.0000   2000.0000     58.5573
   522.0000     45.8581   2000.0000   2000.0000     60.0199
   522.2500     45.6816   2000.0000   2000.0000     60.7760
   522.5000     45.4596   2000.0000   2000.0000     60.9393
   522.7500     45.2496   2000.0000   2000.0000     60.3051
   523.0000     45.1357   2000.0000   2000.0000     58.7416
   523.2500     45.1904   2000.0000   2000.0000     57.7768
   523.5000     45.4379   2000.0000   2000.0000     56.9647
   523.7500     45.8395   2000.0000   2000.0000     56.8104
   524.0000     46.2987   2000.0000   2000.0000     56.7563
   524.2500     46.6784   2000.0000   2000.0000     56.5922
   524.5000     46.8405   2000.0000   2000.0000     55.9248
   524.7500     46.7056   2000.0000   2000.0000     55.2768
   525.0000     46.3014   2000.0000   2000.0000     54.5004
   525.2500     45.7469   2000.0000   2000.0000     54.4213
   525.5000     45.1817   2000.0000   2000.0000     55.0720
   525.7500     44.6980   2000.0000   2000.0000     55.8286
   526.0000     44.3240   2000.0000   2000.0000     57.0210
   526.2500     44.0522   2000.0000   2000.0000     57.6946
   526.5000     43.8731   2000.0000   2000.0000     58.4622
   526.7500     43.7860   2000.0000   2000.0000     58.8967
   527.0000     43.7896   2000.0000   2000.0000     59.7920
   527.2500     43.8756   2000.0000   2000.0000     60.8353
   527.5000     44.0361   2000.0000   2000.0000     63.3169
   527.7500     44.2719   2000.0000   2000.0000     65.3116
   528.0000     44.5896   2000.0000   2000.0000     67.5909
   528.2500     44.9879   2000.0000   2000.0000     67.8556
   528.5000     45.4396   2000.0000   2000.0000     65.8577
   528.7500     45.8773   2000.0000   2000.0000     63.3353
   529.0000     46.1963   2000.0000   2000.0000     59.2481
   529.2500     46.2934   2000.0000   2000.0000     57.1266
   529.5000     46.1293   2000.0000   2000.0000     55.3938
   529.7500     45.7598   2000.0000   2000.0000     55.0503
   530.0000     45.2941   2000.0000   2000.0000     55.1603
   530.2500     44.8156   2000.0000   2000.0000     55.2932
   530.5000     44.3384   2000.0000   2000.0000     55.0589
   530.7500     43.8273   2000.0000   2000.0000     54.4522
   531.0000     43.2494   2000.0000   2000.0000     53.0299
   531.2500     42.6087   2000.0000   2000.0000     52.0444
   531.5000     41.9444   2000.0000   2000.0000     51.0393
   531.7500     41.3077   2000.0000   2000.0000     50.8268
   532.0000     40.7377   2000.0000   2000.0000     51.0805
   532.2500     40.2462   2000.0000   2000.0000     51.4022
   532.5000     39.8080   2000.0000   2000.0000     51.6205
   532.7500     39.3590   2000.0000   2000.0000     51.4220
   533.0000     38.8071   2000.0000   2000.0000     50.8505
   533.2500     38.0581   2000.0000   2000.0000     50.7112
   533.5000     37.0468   2000.0000   2000.0000     51.6378
   533.7500     35.7598   2000.0000   2000.0000     53.2719
   534.0000     34.2422   2000.0000   2000.0000     57.4393
   534.2500     32.5901   2000.0000   2000.0000     61.5668
   534.5000     30.9254   2000.0000   2000.0000     70.4244
   534.7500     29.3554   2000.0000   2000.0000     78.2526
   535.0000     27.9377   2000.0000   2000.0000     91.7164
   535.2500     26.6707   2000.0000   2000.0000    100.3641
   535.5000     25.5163   2000.0000   2000.0000    110.3916
   535.7500     24.4359   2000.0000   2000.0000    114.5385
   536.0000     23.4166   2000.0000   2000.0000    117.6753
   536.2500     22.4729   2000.0000   2000.0000    118.6128
   536.5000     21.6325   2000.0000   2000.0000    119.4389
   536.7500     20.9202   2000.0000   2000.0000    119.7887
   537.0000     20.3499   2000.0000   2000.0000    120.0744
   537.2500     19.9230   2000.0000   2000.0000    120.3605
   537.5000     19.6311   2000.0000   2000.0000    121.4596
   537.7500     19.4605   2000.0000   2000.0000    122.5998
   538.0000     19.3992   2000.0000   2000.0000    124.2887
   538.2500     19.4408   2000.0000   2000.0000    125.0588
   538.5000     19.5826   2000.0000   2000.0000    125.4806
   538.7500     19.8173   2000.0000   2000.0000    125.2715
   539.0000     20.1234   2000.0000   2000.0000    124.1056
   539.2500     20.4631   2000.0000   2000.0000    122.5968
   539.5000     20.7911   2000.0000   2000.0000    119.0664
   539.7500     21.0724   2000.0000   2000.0000    115.9759
   540.0000     21.2958   2000.0000   2000.0000    110.7360
   540.2500     21.4769   2000.0000   2000.0000    107.2442
   540.5000     21.6468   2000.0000   2000.0000    102.9623
   540.7500     21.8343   2000.0000   2000.0000    101.4714
   541.0000     22.0522   2000.0000   2000.0000    102.3500
   541.2500     22.2940   2000.0000   2000.0000    105.0458
   541.5000     22.5420   2000.0000   2000.0000    110.7290
   541.7500     22.7802   2000.0000   2000.0000    114.1069
   542.0000     23.0034   2000.0000   2000.0000    116.5104
   542.2500     23.2180   2000.0000   2000.0000    116.1906
   542.5000     23.4394   2000.0000   2000.0000    114.1843
   542.7500     23.6920   2000.0000   2000.0000    112.7712
   543.0000     24.0062   2000.0000   2000.0000    111.3401
   543.2500     24.4095   2000.0000   2000.0000    110.9394
   543.5000     24.9089   2000.0000   2000.0000    111.2305
   543.7500     25.4771   2000.0000   2000.0000    112.0082
   544.0000     26.0512   2000.0000   2000.0000    113.7944
   544.2500     26.5507   2000.0000   2000.0000    115.2377
   544.5000     26.9041   2000.0000   2000.0000    117.6279
   544.7500     27.0692   2000.0000   2000.0000    119.1606
   545.0000     27.0373   2000.0000   2000.0000    120.6780
   545.2500     26.8268   2000.0000   2000.0000    120.9683
   545.5000     26.4733   2000.0000   2000.0000    121.0053
   545.7500     26.0210   2000.0000   2000.0000    121.4830
   546.0000     25.5142   2000.0000   2000.0000    123.4339
   546.2500     24.9868   2000.0000   2000.0000    125.2704
   546.5000     24.4559   2000.0000   2000.0000    128.1850
   546.7500     23.9252   2000.0000   2000.0000    130.2578
   547.0000     23.3953   2000.0000   2000.0000    133.9231
   547.2500     22.8752   2000.0000   2000.0000    136.6100
   547.5000     22.3811   2000.0000   2000.0000    140.1159
   547.7500     21.9281   2000.0000   2000.0000    141.6496
   548.0000     21.5228   2000.0000   2000.0000    142.6949
   548.2500     21.1637   2000.0000   2000.0000    142.8417
   548.5000     20.8464   2000.0000   2000.0000    142.7648
   548.7500     20.5702   2000.0000   2000.0000    142.6947
   549.0000     20.3408   2000.0000   2000.0000    142.5495
   549.2500     20.1704   2000.0000   2000.0000    142.1846
   549.5000     20.0750   2000.0000   2000.0000    140.5455
   549.7500     20.0689   2000.0000   2000.0000    138.4797
   550.0000     20.1594   2000.0000   2000.0000    134.3785
   550.2500     20.3419   2000.0000   2000.0000    131.7122
   550.5000     20.5988   2000.0000   2000.0000    129.0684
   550.7500     20.8998   2000.0000   2000.0000    128.4489
