~Version Information
VERS.                      2.0: CWLS Log ASCII Standard - VERSION 2.0
WRAP.                       NO: One line per depth step
~Well Information Block
STRT.FT               335.0000: 
STOP.FT              1013.5000: 
STEP.FT                 0.1000: 
NULL.                -999.2500: 
COMP.          Pioneer Natural Resources: COMPANY
WELL.             Giggle 21-22: WELL
FLD.           Purgatoire River: FIELD
LOC.           950' FNL & 2094' FWL: LOCATION
CNTY.               Las Animas: COUNTY
SRVC.                Patterson: SERVICE COMPANY
DATE.          Thu Apr 13 09:31:38 2006: LOG DATE
UWI.           05 071 08726 00: UNIQUE WELL ID
STAT.                 Colorado: STATE
~Curve Information Block
DEPT.FT            0 000 00 00: Depth
DCAL.in                       : CDL Caliper
RHOB.g/cc                     : CDL Bulk Density
RHOC.g/cc                     : CDL Density Correction
DPOR.pu                       : CDL Density Porosity
GR.GAPI                       : Gamma Ray
NPOR.pu                       : Neutron Porosity
~Parameter Information Block
~A  Depth       DCAL        RHOB        RHOC        DPOR         GR         NPOR    
# ...
   642.2000      8.0248      2.4043      0.0613     14.8929     35.2690     15.2143
   642.3000      8.0262      2.3945      0.0846     15.4870     33.8877     15.1585
   642.4000      8.0262      2.3940      0.0536     15.5167     33.3642     14.9697
   642.5000      8.0258      2.4147      0.0883     14.2622     33.7929     14.5316
   642.6000      8.0258      2.4479      0.1013     12.2497     34.1122     14.2392
   642.7000      8.0258      2.4682      0.1560     11.0200     35.6886     14.4676
   642.8000      8.0234      2.4621      0.1206     11.3905     38.6914     14.8471
   642.9000      8.0234      2.4475      0.0434     12.2706     41.1734     14.8818
   643.0000      8.0234      2.4445      0.0746     12.4558     41.9437     14.6363
   643.1000      8.0234      2.4492      0.0430     12.1711     40.5208     14.8400
   643.2000      8.0234      2.4561      0.1016     11.7520     38.4430     15.8007
   643.3000      8.0262      2.4713      0.0870     10.8299     38.3928     16.9447
   643.4000      8.0262      2.4942      0.0864      9.4407     40.3369     17.7180
   643.5000      8.0287      2.5047      0.1045      8.8083     41.9306     18.1930
   643.6000      8.0287      2.4991      0.0035      9.1439     41.3956     18.5779
   643.7000      8.0287      2.5018      0.0548      8.9807     39.9885     18.8515
   643.8000      8.0218      2.5101      0.1128      8.4791     39.0569     19.1680
   643.9000      8.0218      2.5052      0.0690      8.7752     37.7228     19.9034
   644.0000      8.0199      2.5038      0.0635      8.8627     36.4219     20.9646
   644.1000      8.0199      2.5373      0.0556      6.8298     36.3785     21.7964
   644.2000      8.0199      2.6172      0.0948      1.9888     37.7526     22.1493
   644.3000      8.0192      2.7265      0.1499     -4.6349     38.7758     22.2846
   644.4000      8.0192      2.8302      0.1838    -10.9215     38.0231     22.6443
   644.5000      8.0192      2.9018      0.1963    -15.2613     37.0734     23.4718
   644.6000      8.0192      2.9410      0.1608    -17.6354     36.8450     24.2319
   644.7000      8.0192      2.9578      0.2038    -18.6567     36.5420     24.3048
   644.8000      8.0125      2.9482      0.1854    -18.0728     35.8529     23.8720
   644.9000      8.0125      2.9086      0.1707    -15.6737     35.8735     23.3407
   645.0000      7.9915      2.8473      0.1156    -11.9582     38.5142     22.8345
   645.1000      7.9915      2.7773      0.0644     -7.7153     42.5630     22.3324
   645.2000      7.9915      2.7195     -0.0191     -4.2125     43.4966     21.5612
   645.3000      7.9924      2.6882      0.0197     -2.3178     40.0349     20.3641
   645.4000      7.9924      2.6737      0.0522     -1.4346     34.7768     19.0848
   645.5000      8.0256      2.6701      0.0364     -1.2176     30.3988     17.8417
   645.6000      8.0256      2.6656      0.1350     -0.9425     29.0079     16.4522
   645.7000      8.0256      2.6229      0.0761      1.6432     29.7851     15.1247
   645.8000      8.0282      2.5485      0.0209      6.1531     30.6260     14.0544
   645.9000      8.0282      2.4948     -0.0484      9.4039     31.3461     13.1425
   646.0000      8.0193      2.4789      0.0262     10.3677     32.1317     12.4221
   646.1000      8.0193      2.4684      0.0100     11.0071     32.4266     11.9560
   646.2000      8.0193      2.4442     -0.0275     12.4713     31.7430     11.7492
   646.3000      8.0395      2.4251     -0.0143     13.6320     30.7346     11.7619
   646.4000      8.0395      2.4257      0.0658     13.5961     29.9613     11.8578
   646.5000      8.0574      2.4357      0.0453     12.9849     28.6708     12.1141
   646.6000      8.0574      2.4456      0.0848     12.3884     26.4982     12.4362
   646.7000      8.0574      2.4484      0.0403     12.2169     25.9207     12.2410
   646.8000      8.0605      2.4363      0.0391     12.9536     28.4785     11.4629
   646.9000      8.0605      2.4122      0.0261     14.4127     30.7723     10.9146
   647.0000      8.0594      2.3866      0.0378     15.9642     30.0162     11.2495
   647.1000      8.0594      2.3722      0.0100     16.8369     28.8410     12.2054
   647.2000      8.0594      2.3728      0.0225     16.7983     29.9475     12.8829
   647.3000      8.0545      2.3788      0.0439     16.4388     31.4096     12.9846
   647.4000      8.0545      2.3967      0.0327     15.3534     30.6502     12.9328
   647.5000      8.0545      2.4371      0.0986     12.9053     28.6627     12.9139
   647.6000      8.0545      2.4706      0.1013     10.8707     27.5184     12.8671
   647.7000      8.0545      2.4619      0.0707     11.4023     27.2870     12.9380
   647.8000      8.0553      2.4208      0.0244     13.8913     27.3670     13.2354
   647.9000      8.0553      2.3791      0.0364     16.4187     27.9677     13.4284
   648.0000      8.0545      2.3550     -0.0216     17.8790     29.0716     13.3102
   648.1000      8.0545      2.3476      0.0419     18.3287     29.9385     13.1377
   648.2000      8.0545      2.3425      0.0296     18.6365     29.7208     13.0514
   648.3000      8.0534      2.3387     -0.0457     18.8680     28.3688     13.0816
   648.4000      8.0534      2.3478     -0.0287     18.3179     27.3456     13.4043
   648.5000      8.0526      2.3721     -0.0027     16.8410     28.7810     13.8102
   648.6000      8.0526      2.3946      0.0369     15.4810     31.3432     13.8793
   648.7000      8.0526      2.4019      0.0035     15.0372     33.0479     13.8216
   648.8000      8.0519      2.4109      0.0258     14.4886     34.6335     13.9770
   648.9000      8.0519      2.4269      0.0584     13.5183     34.9966     14.2472
   649.0000      8.0513      2.4243      0.0269     13.6783     33.1118     14.4941
   649.1000      8.0513      2.3998      0.0296     15.1615     31.8508     14.7128
   649.2000      8.0513      2.3855      0.0123     16.0320     32.8858     14.7992
   649.3000      8.0488      2.3984      0.0297     15.2502     34.2564     14.5804
   649.4000      8.0488      2.4188      0.0747     14.0126     34.6192     14.0599
   649.5000      8.0444      2.4205      0.1248     13.9067     34.8139     13.6560
   649.6000      8.0444      2.4004      0.0677     15.1279     34.6277     13.6464
   649.7000      8.0444      2.3789      0.0371     16.4312     32.9397     13.7754
   649.8000      8.0373      2.3756      0.0290     16.6333     30.0600     13.7216
   649.9000      8.0373      2.3909      0.0438     15.7052     27.6565     13.4878
   650.0000      8.0389      2.4090      0.1043     14.6071     27.7234     13.3706
   650.1000      8.0389      2.4126      0.0702     14.3887     31.3682     13.5427
   650.2000      8.0389      2.4046      0.0656     14.8728     36.3240     13.7288
   650.3000      8.0438      2.4024      0.0672     15.0042     39.4383     13.5615
   650.4000      8.0438      2.4067      0.1057     14.7481     41.5842     13.1877
   650.5000      8.0509      2.4008      0.0388     15.1003     44.8666     12.9526
   650.6000      8.0509      2.3803      0.0840     16.3429     47.5649     12.9245
   650.7000      8.0509      2.3518      0.0138     18.0746     50.0707     13.1739
   650.8000      8.0688      2.3256      0.0431     19.6585     56.4789     13.6384
   650.9000      8.0688      2.3152     -0.0345     20.2886     65.6581     14.0112
   651.0000      8.0606      2.3299     -0.0237     19.3990     73.3532     14.1108
   651.1000      8.0606      2.3616     -0.0002     17.4772     79.5215     14.1292
   651.2000      8.0606      2.3847      0.0862     16.0775     84.5229     14.3384
   651.3000      8.0636      2.3858      0.0633     16.0124     86.3853     14.9621
   651.4000      8.0636      2.3806      0.0704     16.3277     86.4662     16.1881
   651.5000      8.0656      2.3862      0.0460     15.9862     90.9755     17.6780
   651.6000      8.0656      2.4006      0.1317     15.1130    101.4336     18.7892
   651.7000      8.0656      2.4201      0.0825     13.9317    109.1789     19.3666
