~Version Information
VERS.                      2.0: CWLS Log ASCII Standard - VERSION 2.0
WRAP.                       NO: One line per depth step
~Well Information Block
STRT.FT                -2.7500: 
STOP.FT               973.2500: 
STEP.FT                 0.2500: 
NULL.                -999.2500: 
COMP.          Pioneer Natural Resources: COMPANY
WELL.          Red Raider 22-15: WELL
FLD.           Purgatoire River: FIELD
LOC.           1809' FNL & 2107' FWL: LOCATION
CNTY.               Las Animas: COUNTY
SRVC.                Patterson: SERVICE COMPANY
DATE.          Mon Apr 17 16:50:50 2006: LOG DATE
UWI.           05 071 08718 00: UNIQUE WELL ID
STAT.                 Colorado: STATE
~Curve Information Block
DEPT.FT            0 000 00 00: Depth
GR.GAPI                       : Gamma Ray
CCL.                          : Casing Collar Locator
TT3.usec                      : CBL 3' Travel Time
AMP3.mV                       : CBL 3' Amplitude
~Parameter Information Block
~A  Depth        GR         CCL         TT3         AMP3    
# ...
    64.2500    110.1033      0.0000    254.3206     74.7310
    64.5000    112.3091      0.0000    254.3159     74.7454
    64.7500    112.2367      0.0000    254.3118     74.8009
    65.0000    110.2012      0.0000    254.3087     74.8911
    65.2500    108.5160      0.0000    254.3091     74.9913
    65.5000    109.8581      0.0000    254.3141     75.0730
    65.7500    114.9258      0.0000    254.3215     75.1228
    66.0000    121.6873      0.0000    254.3272     75.1557
    66.2500    127.1213      0.0000    254.3264     75.2125
    66.5000    129.6312      0.0000    254.3145     75.3364
    66.7500    129.6272      0.0000    254.2913     75.5395
    67.0000    128.1046      0.0000    254.2645     75.7903
    67.2500    125.2755      0.0000    254.2458     76.0435
    67.5000    120.7754      0.0000    254.2395     76.2888
    67.7500    114.6800      0.0000    254.2390     76.5587
    68.0000    107.6983      0.0000    254.2348     76.8813
    68.2500    100.3812      0.0000    254.2243     77.2372
    68.5000     92.6626      0.0000    254.2123     77.5668
    68.7500     84.4960      0.0000    254.2045     77.8124
    69.0000     76.7042      0.0000    254.2028     77.9504
    69.2500     70.7519      0.0000    254.2058     78.0004
    69.5000     67.7064      0.0000    254.2111     78.0086
    69.7500     67.7926      0.0000    254.2157     78.0134
    70.0000     70.8518      0.0000    254.2152     78.0267
    70.2500     76.5214      0.0000    254.2025     78.0529
    70.5000     83.7813      0.0000    254.1722     78.1134
    70.7500     90.9795      0.0000    254.1276     78.2305
    71.0000     96.7137      0.0000    254.0815     78.3875
    71.2500    100.3717      0.0000    254.0481     78.5264
    71.5000    101.8333      0.0000    254.0334     78.5950
    71.7500    101.2930      0.0000    254.0325     78.5882
    72.0000     99.6163      0.0000    254.0369     78.5414
    72.2500     98.3365      0.0000    254.0404     78.4976
    72.5000     98.6936      0.0000    254.0427     78.4769
    72.7500    100.4656      0.0000    254.0468     78.4645
    73.0000    101.9229      0.0000    254.0548     78.4315
    73.2500    101.2841      0.0000    254.0632     78.3750
    73.5000     98.2776      0.0000    254.0649     78.3296
    73.7500     94.1391      0.0000    254.0558     78.3323
    74.0000     90.3270      0.0000    254.0390     78.3832
    74.2500     87.5509      0.0000    254.0217     78.4487
    74.5000     85.8299      0.0000    254.0113     78.4920
    74.7500     84.9591      0.0000    254.0120     78.4951
    75.0000     84.6977      0.0000    254.0234     78.4627
    75.2500     84.6565      0.0000    254.0392     78.4155
    75.5000     84.2772      0.0000    254.0531     78.3693
    75.7500     83.1309      0.0000    254.0664     78.3128
    76.0000     81.3079      0.0000    254.0853     78.2211
    76.2500     79.4250      0.0000    254.1110     78.1024
    76.5000     78.1016      0.0000    254.1348     78.0087
    76.7500     77.3941      0.0000    254.1458     77.9873
    77.0000     76.8354      0.0000    254.1414     78.0349
    77.2500     76.0879      0.0000    254.1278     78.1068
    77.5000     75.4038      0.0000    254.1131     78.1567
    77.7500     75.2934      0.0000    254.1024     78.1562
    78.0000     75.8963      0.0000    254.0965     78.0864
    78.2500     76.8485      0.0000    254.0950     77.9281
    78.5000     77.5719      0.0000    254.0983     77.6660
    78.7500     77.5285      0.0000    254.1081     77.3044
    79.0000     76.3939      0.0000    254.1266     76.8772
    79.2500     74.2328      0.0000    254.1537     76.4446
    79.5000     71.5688      0.0000    254.1846     76.0811
    79.7500     69.3293      0.0000    254.2115     75.8504
    80.0000     68.6994      0.0000    254.2292     75.7725
    80.2500     70.7721      0.0000    254.2378     75.8102
    80.5000     75.9574      0.0000    254.2412     75.8908
    80.7500     83.4779      0.0000    254.2432     75.9440
    81.0000     91.4675      0.0000    254.2471     75.9283
    81.2500     97.8083      0.0000    254.2544     75.8414
    81.5000    101.2713      0.0000    254.2640     75.7139
    81.7500    102.1947      0.0000    254.2720     75.5878
    82.0000    102.1339      0.0000    254.2760     75.4867
    82.2500    102.8128      0.0000    254.2785     75.4027
    82.5000    105.4056      0.0000    254.2853     75.3121
    82.7500    110.3493      0.0000    254.2991     75.2059
    83.0000    116.9714      0.0000    254.3167     75.0992
    83.2500    123.2392      0.0000    254.3326     75.0071
    83.5000    126.7697      0.0000    254.3452     74.9213
    83.7500    126.6160      0.0000    254.3561     74.8259
    84.0000    123.8603      0.0000    254.3658     74.7323
    84.2500    120.4452      0.0000    254.3716     74.6789
    84.5000    117.7939      0.0000    254.3713     74.6900
    84.7500    116.5253      0.0000    254.3664     74.7454
    85.0000    116.8393      0.0000    254.3618     74.7937
    85.2500    118.6581      0.0000    254.3624     74.7884
    85.5000    121.5703      0.0000    254.3703     74.7151
    85.7500    124.9921      0.0000    254.3845     74.5951
    86.0000    128.4067      0.0000    254.4012     74.4709
    86.2500    131.3754      0.0000    254.4153     74.3897
    86.5000    133.5067      0.0000    254.4213     74.3941
    86.7500    134.4431      0.0000    254.4142     74.5092
    87.0000    133.7393      0.0000    254.3929     74.7283
    87.2500    131.0261      0.0000    254.3620     75.0116
    87.5000    126.7020      0.0000    254.3301     75.3089
    87.7500    122.2707      0.0000    254.3042     75.5847
    88.0000    119.4157      0.0000    254.2856     75.8264
    88.2500    118.5369      0.0000    254.2709     76.0377
    88.5000    118.4295      0.0000    254.2559     76.2275
    88.7500    117.5579      0.0000    254.2418     76.3935
    89.0000    115.4600      0.0000    254.2368     76.5140
    89.2500    112.6448      0.0000    254.2491     76.5636
    89.5000    109.3558      0.0000    254.2753     76.5468
    89.7500    105.0838      0.0000    254.2970     76.5138
    90.0000     99.3976      0.0000    254.2948     76.5204
    90.2500     92.6157      0.0000    254.2662     76.5637
    90.5000     85.5083      0.0000    254.2278     76.5772
    90.7500     78.9217      0.0000    254.1981     76.5074
    91.0000     73.9387      0.0000    254.1831     76.3773
    91.2500     71.8837      0.0000    254.1775     76.2549
    91.5000     73.7063      0.0000    254.1751     76.1762
    91.7500     79.2501      0.0000    254.1728     76.1179
    92.0000     87.1067      0.0000    254.1698     76.0385
    92.2500     95.2777      0.0000    254.1664     75.9264
    92.5000    102.1309      0.0000    254.1638     75.8092
    92.7500    106.7308      0.0000    254.1647     75.7270
    93.0000    108.5264      0.0000    254.1717     75.7064
    93.2500    107.5720      0.0000    254.1832     75.7620
    93.5000    105.3502      0.0000    254.1929     75.9054
    93.7500    104.3816      0.0000    254.2007     76.1325
    94.0000    106.2000      0.0000    254.2271     76.3990
    94.2500    110.0192      0.0000    254.3667     76.5954
    94.5000    113.6750      0.0000    254.8945     76.5210
    94.7500    115.3492      0.0000    256.3807     75.8536
    95.0000    114.1941      0.0000    259.5161     74.2363
    95.2500    110.1357      0.0000    264.3625     71.5728
    95.5000    103.9281      0.0000    269.5489     68.2902
    95.7500     97.2552      0.0000    272.7370     65.1482
    96.0000     92.0721      0.0000    272.5251     62.6960
    96.2500     89.2855      0.0000    269.7208     61.0181
    96.5000     87.8270      0.0000    266.3953     59.9628
    96.7500     85.1579      0.0000    264.0404     59.3902
    97.0000     79.2877      0.0000    262.9300     59.1791
    97.2500     70.7315      0.0000    262.7473     59.1965
    97.5000     62.3301      0.0000    263.2904     59.3452
