~Version Information
VERS.                      2.0: CWLS Log ASCII Standard - VERSION 2.0
WRAP.                       NO: One line per depth step
~Well Information Block
STRT.FT                10.0000: 
STOP.FT               715.0000: 
STEP.FT                 0.1000: 
NULL.                -999.2500: 
COMP.          Pioneer Natural Resources: COMPANY
WELL.           Belvedere 14-7: WELL
FLD.           Purgatorie River: FIELD
LOC.           786' FSL & 1283' FWL: LOCATION
PROV.                 Colorado: PROVINCE
CNTY.               Las Animas: COUNTRY
SRVC.                Patterson: SERVICE COMPANY
DATE.          Mon Nov 28 07:30:54 2005: LOG DATE
UWI.           05-071-08557               : UNIQUE WELL ID
~Curve Information Block
DEPT.FT            0 000 00 00: Depth
DCAL.in                       : CDL Caliper
RHOB.g/cc                     : CDL Bulk Density
RHOC.g/cc                     : CDL Density Correction
DPOR.pu                       : CDL Density Porosity
GR.GAPI                       : Gamma Ray
NPOR.pu                       : Neutron Porosity
~Parameter Information Block
~A  Depth       DCAL        RHOB        RHOC        DPOR         GR         NPOR    
# ...
   336.4000      8.0200      2.4753      0.0469     10.5894     66.3647     16.2612
   336.5000      8.0185      2.4669      0.0161     11.0970     66.4340     15.7615
   336.6000      8.0185      2.4703      0.0748     10.8926     66.6653     15.5130
   336.7000      8.0185      2.4772      0.0926     10.4732     66.1816     15.8505
   336.8000      8.0195      2.4858      0.0654      9.9543     65.4586     16.4563
   336.9000      8.0195      2.5020      0.0669      8.9725     66.1258     16.9133
   337.0000      8.0212      2.5217      0.0593      7.7753     67.7601     17.2295
   337.1000      8.0212      2.5304      0.1131      7.2461     68.2450     17.3497
   337.2000      8.0212      2.5234      0.0530      7.6743     67.3444     17.2290
   337.3000      8.0174      2.5150      0.0312      8.1816     65.8150     17.2462
   337.4000      8.0174      2.5118      0.0525      8.3736     64.4734     17.5893
   337.5000      8.0188      2.5071      0.0048      8.6622     63.8522     17.8007
   337.6000      8.0188      2.5003      0.0488      9.0727     62.2982     17.4998
   337.7000      8.0188      2.4934      0.0352      9.4916     60.4819     16.9897
   337.8000      8.0241      2.4869      0.0116      9.8874     61.8485     16.7533
   337.9000      8.0241      2.4788      0.0144     10.3731     65.2300     16.6195
   338.0000      8.0179      2.4661      0.0424     11.1425     66.3361     16.2680
   338.1000      8.0179      2.4501      0.0040     12.1180     64.3684     15.9246
   338.2000      8.0179      2.4399     -0.0226     12.7325     61.6048     15.7986
   338.3000      8.0190      2.4404      0.0308     12.7005     60.6078     15.8289
   338.4000      8.0190      2.4407      0.0294     12.6863     61.4263     15.8661
   338.5000      8.0280      2.4349     -0.0012     13.0351     61.6406     15.7647
   338.6000      8.0280      2.4314      0.0088     13.2506     60.8935     15.4615
   338.7000      8.0280      2.4300      0.0364     13.3315     60.8396     15.0251
   338.8000      8.0328      2.4242      0.0058     13.6831     61.3073     14.6153
   338.9000      8.0328      2.4182      0.0038     14.0474     61.1021     14.4642
   339.0000      8.0296      2.4190      0.0459     14.0005     61.4847     14.7581
   339.1000      8.0296      2.4291      0.0151     13.3861     63.8274     15.3090
   339.2000      8.0296      2.4493      0.0540     12.1650     66.7499     15.7865
   339.3000      8.0230      2.4665      0.0936     11.1183     68.7497     16.0336
   339.4000      8.0230      2.4655      0.0555     11.1793     69.8727     16.0525
   339.5000      8.0164      2.4487      0.0867     12.2016     69.9271     16.0702
   339.6000      8.0164      2.4279      0.0519     13.4591     68.7366     16.2322
   339.7000      8.0164      2.4152      0.0219     14.2292     67.3935     16.4554
   339.8000      8.0241      2.4147      0.0319     14.2618     66.5621     16.6336
   339.9000      8.0241      2.4173      0.0618     14.1010     66.6813     16.7619
   340.0000      8.0215      2.4140      0.0371     14.3004     68.4225     16.9328
   340.1000      8.0215      2.4075      0.0253     14.6977     70.6182     17.0792
   340.2000      8.0215      2.4022      0.0307     15.0165     72.2673     17.1359
   340.3000      8.0214      2.4030      0.0582     14.9692     73.3202     17.1728
   340.4000      8.0214      2.4165      0.0638     14.1530     73.9062     17.1950
   340.5000      8.0113      2.4388      0.0826     12.8018     74.2646     17.1745
   340.6000      8.0113      2.4533      0.0984     11.9212     74.5966     17.0782
   340.7000      8.0113      2.4547      0.0838     11.8374     74.8077     17.0935
   340.8000      8.0257      2.4610      0.0674     11.4574     74.3101     17.4810
   340.9000      8.0257      2.4839      0.0902     10.0640     73.9325     18.1049
   341.0000      8.0304      2.5116      0.1306      8.3876     73.5781     18.7528
   341.1000      8.0304      2.5280      0.0996      7.3946     71.6983     19.3141
   341.2000      8.0304      2.5290      0.0826      7.3305     69.1589     19.7293
   341.3000      8.0190      2.5166      0.0956      8.0848     67.9743     19.9339
   341.4000      8.0190      2.4999      0.0370      9.0969     67.5660     19.7086
   341.5000      8.0124      2.4991      0.0091      9.1450     66.4799     19.1774
   341.6000      8.0124      2.5195      0.0436      7.9119     65.3030     19.0224
   341.7000      8.0124      2.5380      0.0796      6.7850     65.3616     19.6338
   341.8000      8.0043      2.5415      0.0328      6.5752     65.6951     20.6143
   341.9000      8.0043      2.5483      0.0415      6.1610     65.1708     21.4859
   342.0000      8.0003      2.5672      0.0965      5.0182     65.7070     22.2209
   342.1000      8.0003      2.5799      0.0828      4.2460     68.5745     23.1051
   342.2000      8.0003      2.5818      0.0324      4.1330     72.1046     24.1484
   342.3000      7.9929      2.5845      0.0727      3.9712     74.9207     25.0222
   342.4000      7.9929      2.5943      0.0276      3.3784     77.1917     25.5470
   342.5000      7.9927      2.6105      0.0482      2.3937     79.5677     25.7093
   342.6000      7.9927      2.6144      0.0614      2.1593     83.8574     25.6204
   342.7000      7.9927      2.5915      0.0170      3.5473     90.6103     25.4105
   342.8000      8.0054      2.5655     -0.0326      5.1187     97.5502     25.2074
   342.9000      8.0054      2.5598      0.0134      5.4643    104.0150     25.1308
   343.0000      8.1007      2.5566      0.0406      5.6630    112.3948     25.1518
   343.1000      8.1007      2.5393      0.0135      6.7101    122.8846     25.0922
   343.2000      8.1007      2.5237      0.0861      7.6526    131.2694     24.7708
   343.3000      8.0197      2.5193      0.0988      7.9238    135.3622     24.1877
   343.4000      8.0197      2.5131      0.0818      8.2961    137.7947     23.5550
   343.5000      8.0099      2.4994      0.0507      9.1278    140.4173     23.2530
   343.6000      8.0099      2.4946      0.0125      9.4175    143.3875     23.4920
   343.7000      8.0099      2.5130      0.0298      8.3009    145.3735     23.9717
   343.8000      8.0118      2.5441      0.0584      6.4172    144.2794     24.2729
   343.9000      8.0118      2.5670      0.0871      5.0315    140.4218     24.5230
   344.0000      8.0179      2.5782      0.0823      4.3507    137.1322     24.9041
   344.1000      8.0179      2.5870      0.1110      3.8207    138.9133     25.1507
   344.2000      8.0179      2.5840      0.1670      4.0023    144.7040     25.2568
   344.3000      8.0356      2.5566      0.1297      5.6592    148.8146     25.5270
   344.4000      8.0356      2.5180      0.0469      8.0027    149.1431     25.8529
   344.5000      8.0066      2.4842      0.0668     10.0481    147.3732     25.9967
   344.6000      8.0066      2.4561      0.0568     11.7510    145.6611     25.9542
   344.7000      8.0066      2.4416      0.0118     12.6284    146.0636     25.6767
   344.8000      8.0114      2.4496      0.0064     12.1470    150.2943     25.0924
   344.9000      8.0114      2.4677      0.0756     11.0483    157.6057     24.5202
   345.0000      8.0287      2.4828      0.0321     10.1334    162.7490     24.3863
   345.1000      8.0287      2.4918      0.1175      9.5868    161.0913     24.5036
   345.2000      8.0287      2.4860      0.1353      9.9383    154.5063     24.3532
   345.3000      8.0961      2.4659      0.1039     11.1556    149.3291     23.9493
   345.4000      8.0961      2.4430      0.1301     12.5445    148.0654     23.6162
   345.5000      8.0988      2.4167      0.1452     14.1368    147.3060     23.4097
   345.6000      8.0988      2.3814      0.1012     16.2786    148.6325     23.0880
   345.7000      8.0988      2.3401      0.0669     18.7807    156.3347     22.3800
   345.8000      8.0398      2.2947      0.0488     21.5334    165.3329     21.4013
   345.9000      8.0398      2.2391      0.0763     24.9004    167.1285     20.1902
