~Version Information
VERS.                      2.0: CWLS Log ASCII Standard - VERSION 2.0
WRAP.                       NO: One line per depth step
~Well Information Block
STRT.FT                -7.0000: 
STOP.FT              2328.5000: 
STEP.FT                 0.2500: 
NULL.                -999.2500: 
COMP.          Pioneer Natural Resources: COMPANY
WELL.              Rolls 14-14: WELL
FLD.           Purgatorie River: FIELD
LOC.           572' FSL & 856' FWL--: LOCATION
PROV.                       CO: PROVINCE
CNTY.               Las Animas: COUNTRY
SRVC.          Patterson Wireline: SERVICE COMPANY
DATE.          Mon Aug 08 10:10:54 2005: LOG DATE
UWI.           05 071 08455 00: UNIQUE WELL ID
~Curve Information Block
DEPT.FT            0 000 00 00: Depth
CCL.                          : Casing Collar Locator
TT3.usec                      : CBL 3' Travel Time
AMP3.mV                       : CBL 3' Amplitude
GR.GAPI                       : Gamma Ray
~Parameter Information Block
~A  Depth       CCL         TT3         AMP3         GR     
# ...
  1366.5000      0.0000    552.4607      4.7237    137.4500
  1366.7500      0.0000    560.7266      4.7157    135.3520
  1367.0000      0.0000    573.1125      4.7215    133.8254
  1367.2500      0.0000    586.9863      4.7179    133.0142
  1367.5000      0.0000    604.1818      4.6877    132.4789
  1367.7500      0.0000    624.5504      4.6405    131.2783
  1368.0000      0.0000    641.1278      4.6101    128.5288
  1368.2500      0.0000    645.8054      4.6220    123.9987
  1368.5000      0.0000    638.3950      4.6680    118.4094
  1368.7500      0.0000    626.4449      4.7163    113.3328
  1369.0000      0.0000    617.3708      4.7360    110.6006
  1369.2500      0.0000    613.8051      4.7110    111.6401
  1369.5000      0.0000    614.5391      4.6466    117.3004
  1369.7500      0.0000    616.2080      4.5723    127.6132
  1370.0000      0.0000    614.8567      4.5278    140.7662
  1370.2500      0.0000    608.2033      4.5315    152.7111
  1370.5000      0.0000    596.7880      4.5634    159.2974
  1370.7500      0.0000    583.4080      4.5826    159.4874
  1371.0000      0.0000    572.3576      4.5652    155.8939
  1371.2500      0.0000    568.2463      4.5235    151.9054
  1371.5000      0.0000    573.8412      4.4892    148.9085
  1371.7500      0.0000    588.3052      4.4808    146.3422
  1372.0000      0.0000    607.1794      4.4892    143.5433
  1372.2500      0.0000    623.6994      4.4913    141.0179
  1372.5000      0.0000    630.9000      4.4776    139.9691
  1372.7500      0.0000    624.9323      4.4655    140.6503
  1373.0000      0.0000    608.1581      4.4831    141.4742
  1373.2500      0.0000    588.0187      4.5358    140.1153
  1373.5000      0.0000    571.5780      4.5933    135.4312
  1373.7500      0.0000    561.3088      4.6125    128.2541
  1374.0000      0.0000    555.7455      4.5734    120.7560
  1374.2500      0.0000    552.6573      4.4903    115.2705
  1374.5000      0.0000    551.2034      4.3932    113.2995
  1374.7500      0.0000    552.3889      4.3033    115.1914
  1375.0000      0.0000    558.4895      4.2253    120.3284
  1375.2500      0.0000    571.3798      4.1551    127.2289
  1375.5000      0.0000    590.0806      4.0924    133.9043
  1375.7500      0.0000    609.8026      4.0471    138.9537
  1376.0000      0.0000    624.4314      4.0338    142.2279
  1376.2500      0.0000    630.7269      4.0610    144.0622
  1376.5000      0.0000    630.4774      4.1205    144.2299
  1376.7500      0.0000    629.1624      4.1873    141.9687
  1377.0000      0.0000    632.2203      4.2321    136.8175
  1377.2500      0.0000    641.2404      4.2421    129.2494
  1377.5000      0.0000    653.2060      4.2290    120.5502
  1377.7500      0.0000    663.6085      4.2142    112.1038
  1378.0000      0.0000    669.9684      4.2086    104.7702
  1378.2500      0.0000    672.4297      4.2098     98.8045
  1378.5000      0.0000    672.2415      4.2128     94.1641
  1378.7500      0.0000    670.6946      4.2156     90.8496
  1379.0000      0.0000    669.0970      4.2149     88.8805
  1379.2500      0.0000    668.6912      4.2062     87.9317
  1379.5000      0.0000    669.9742      4.1861     87.3536
  1379.7500      0.0000    672.3298      4.1569     86.6703
  1380.0000      0.0000    674.6825      4.1283     85.6255
  1380.2500      0.0000    676.5570      4.1135     83.7555
  1380.5000      0.0000    678.5312      4.1166     80.6171
  1380.7500      0.0000    682.1125      4.1284     76.6602
  1381.0000      0.0000    689.4229      4.1373     73.2277
  1381.2500      0.0000    702.3816      4.1377     71.1269
  1381.5000      0.0000    721.1927      4.1253     69.5280
  1381.7500      0.0000    743.3954      4.0917     66.8950
  1382.0000      0.0000    764.8428      4.0305     62.9880
  1382.2500      0.0000    781.5989      3.9457     59.2859
  1382.5000      0.0000    790.4741      3.8520     57.2261
  1382.7500      0.0000    788.3990      3.7698     56.5964
  1383.0000      0.0000    773.1600      3.7170     56.0835
  1383.2500      0.0000    746.0919      3.7019     55.0137
  1383.5000      0.0000    713.5399      3.7175     53.9854
  1383.7500      0.0000    684.0480      3.7462     53.9527
  1384.0000      0.0000    663.2584      3.7716     55.3800
  1384.2500      0.0000    651.5931      3.7846     58.3614
  1384.5000      0.0000    646.2424      3.7814     62.8829
  1384.7500      0.0000    644.3670      3.7630     68.5763
  1385.0000      0.0000    644.6563      3.7404     74.6484
  1385.2500      0.0000    647.1501      3.7315     80.5869
  1385.5000      0.0000    652.2949      3.7448     86.8392
  1385.7500      0.0000    659.8627      3.7718     94.3502
  1386.0000      0.0000    668.3742      3.7991    103.3904
  1386.2500      0.0000    675.5741      3.8253    113.1700
  1386.5000      0.0000    679.6221      3.8594    122.5450
  1386.7500      0.0000    680.0411      3.9026    130.5125
  1387.0000      0.0000    677.8438      3.9402    135.9971
  1387.2500      0.0000    674.8646      3.9561    137.9718
  1387.5000      0.0000    672.6115      3.9548    136.1644
  1387.7500      0.0000    671.3370      3.9587    131.2601
  1388.0000      0.0000    670.2122      3.9797    124.5065
  1388.2500      0.0000    668.6704      4.0037    117.4716
  1388.5000      0.0000    667.5117      4.0078    111.7466
  1388.7500      0.0000    668.1909      3.9860    108.0878
  1389.0000      0.0000    670.9962      3.9531    105.7295
  1389.2500      0.0000    674.5431      3.9276    102.9346
  1389.5000      0.0000    677.1746      3.9164     98.4826
  1389.7500      0.0000    678.3105      3.9146     92.6712
  1390.0000      0.0000    678.3860      3.9127     86.8830
  1390.2500      0.0000    678.0695      3.9044     82.4291
  1390.5000      0.0000    677.8076      3.8898     80.1698
  1390.7500      0.0000    677.7969      3.8768     80.9746
  1391.0000      0.0000    678.1790      3.8783     85.5733
  1391.2500      0.0000    679.6119      3.9016     93.5525
  1391.5000      0.0000    684.0457      3.9392    103.0303
  1391.7500      0.0000    694.4823      3.9711    111.7247
  1392.0000      0.0000    712.4708      3.9794    118.2835
  1392.2500      0.0000    735.0486      3.9595    122.7635
  1392.5000      0.0000    755.1463      3.9226    126.5116
  1392.7500      0.0000    766.2270      3.8909    131.6097
  1393.0000      0.0000    766.0941      3.8841    139.3894
  1393.2500      0.0000    755.4856      3.9042    148.6681
  1393.5000      0.0000    734.3375      3.9320    155.8649
  1393.7500      0.0000    701.9980      3.9440    157.7933
  1394.0000      0.0000    662.5933      3.9303    154.5332
  1394.2500      0.0000    628.5415      3.8963    149.1690
  1394.5000      0.0000    614.7950      3.8564    144.7808
  1394.7500      0.0000    627.0041      3.8311    142.1667
  1395.0000      0.0000    656.1697      3.8394    140.4020
  1395.2500      0.0000    685.7736      3.8840    138.8492
  1395.5000      0.0000    702.8997      3.9432    138.0083
  1395.7500      0.0000    703.3564      3.9856    138.7147
  1396.0000      0.0000    691.3835      3.9972    141.2380
  1396.2500      0.0000    677.1101      3.9913    145.2190
  1396.5000      0.0000    670.1591      3.9906    149.8612
  1396.7500      0.0000    672.1266      4.0040    153.9897
  1397.0000      0.0000    676.7637      4.0248    156.3905
  1397.2500      0.0000    677.9152      4.0440    156.3974
  1397.5000      0.0000    674.6027      4.0566    154.2011
  1397.7500      0.0000    668.8775      4.0594    150.6383
  1398.0000      0.0000    662.7142      4.0512    146.6523
  1398.2500      0.0000    657.7794      4.0327    142.8678
  1398.5000      0.0000    655.7992      4.0025    139.5723
  1398.7500      0.0000    657.8813      3.9546    136.9418
  1399.0000      0.0000    663.9513      3.8862    135.3594
  1399.2500      0.0000    672.9388      3.8094    135.6151
  1399.5000      0.0000    683.3985      3.7471    138.2930
  1399.7500      0.0000    693.9684      3.7104    142.3624
