~Version Information
VERS.                      2.0: CWLS Log ASCII Standard - VERSION 2.0
WRAP.                       NO: One line per depth step
~Well Information Block
STRT.FT                14.0000: 
STOP.FT              1631.0000: 
STEP.FT                 0.1000: 
NULL.                -999.2500: 
COMP.          Pioneer Natural Resources: COMPANY
WELL.            Bluesky 44-17: WELL
FLD.           Purgatorie River: FIELD
LOC.           39' FSL & 288' FEL: LOCATION
STAT.                 Colorado: State
CNTY.               Las Animas: COUNTY
CTRY. USA : Country
SECT. 17 : Section
TOWN. 33S : Township
RANG. 66W : Range
SRVC.                Patterson: SERVICE COMPANY
DATE.          Thu Sep 08 07:30:20 2005: LOG DATE
API. 05-071-08511                         : UNIQUE WELL ID
~Curve Information Block
DEPT.FT            0 000 00 00: Depth
DCAL.in                       : CDL Caliper
RHOB.g/cc                     : CDL Bulk Density
RHOC.g/cc                     : CDL Density Correction
DPOR.pu                       : CDL Density Porosity
GR.GAPI                       : Gamma Ray
NPOR.pu                       : Neutron Porosity
~Parameter Information Block
~A  Depth       DCAL        RHOB        RHOC        DPOR         GR         NPOR    
# ...
  1070.0000      7.7907      2.5737      0.0321      4.6272    119.0343     25.1405
  1070.1000      7.7907      2.5687     -0.0162      4.9244    119.0513     24.7668
  1070.2000      7.7907      2.5732     -0.0085      4.6558    117.8119     24.3888
  1070.3000      7.8126      2.5852      0.0278      3.9267    116.3397     24.4229
  1070.4000      7.8126      2.5915      0.0595      3.5472    114.6294     24.7215
  1070.5000      7.8362      2.5852      0.0442      3.9288    113.0575     24.8064
  1070.6000      7.8362      2.5722      0.0676      4.7142    113.6613     24.5800
  1070.7000      7.8362      2.5640      0.0274      5.2149    115.5714     24.2525
  1070.8000      7.8369      2.5711      0.0522      4.7838    116.1629     24.0887
  1070.9000      7.8369      2.5879      0.0762      3.7659    114.4681     24.1934
  1071.0000      7.8269      2.6009      0.0647      2.9741    110.0156     24.3201
  1071.1000      7.8269      2.6079      0.1186      2.5525    105.5692     24.3200
  1071.2000      7.8269      2.6085      0.1006      2.5173    105.9699     24.2243
  1071.3000      7.8140      2.6023      0.0475      2.8887    110.3772     24.0053
  1071.4000      7.8140      2.5986      0.0742      3.1166    114.0485     23.8243
  1071.5000      7.8127      2.6010      0.0876      2.9711    116.4612     23.8561
  1071.6000      7.8127      2.6024      0.0776      2.8844    119.1420     24.0094
  1071.7000      7.8127      2.5986      0.0790      3.1159    120.7621     24.0024
  1071.8000      7.8366      2.5893      0.0805      3.6807    121.2528     23.7860
  1071.9000      7.8366      2.5786      0.0516      4.3291    123.3615     23.6581
  1072.0000      7.8344      2.5768      0.0213      4.4340    125.7133     23.8010
  1072.1000      7.8344      2.5826      0.0761      4.0857    125.2333     24.1655
  1072.2000      7.8344      2.5791      0.0671      4.2987    125.0734     24.6086
  1072.3000      7.8238      2.5648      0.0478      5.1607    126.9277     24.9700
  1072.4000      7.8238      2.5596      0.0434      5.4804    126.9996     25.1666
  1072.5000      7.8233      2.5749      0.0387      4.5521    126.4965     25.2541
  1072.6000      7.8233      2.6038      0.0702      2.7990    128.6784     25.4500
  1072.7000      7.8233      2.6310      0.1197      1.1489    130.0569     25.8368
  1072.8000      7.8170      2.6395      0.1025      0.6361    126.7043     26.1483
  1072.9000      7.8170      2.6281      0.0995      1.3283    120.7284     26.0639
  1073.0000      7.8273      2.6160      0.0587      2.0585    116.9041     25.5944
  1073.1000      7.8273      2.6112      0.0934      2.3532    118.2876     25.1129
  1073.2000      7.8273      2.6010      0.0551      2.9698    125.0706     24.9026
  1073.3000      7.8227      2.5871      0.0190      3.8107    133.4668     24.9003
  1073.4000      7.8227      2.5808      0.0495      4.1962    139.5930     24.8988
  1073.5000      7.8307      2.5752      0.0731      4.5329    142.6895     24.7597
  1073.6000      7.8307      2.5620      0.0242      5.3357    144.6796     24.4574
  1073.7000      7.8307      2.5417      0.0531      6.5660    147.3208     24.1767
  1073.8000      7.8496      2.5204     -0.0166      7.8569    150.2892     24.0297
  1073.9000      7.8496      2.5084      0.0548      8.5841    152.0752     23.9499
  1074.0000      7.8905      2.5012      0.0536      9.0168    152.5214     24.0039
  1074.1000      7.8905      2.4870      0.0457      9.8771    153.1690     24.2473
  1074.2000      7.8905      2.4661      0.0355     11.1465    151.7449     24.5082
  1074.3000      7.8871      2.4495      0.0344     12.1540    147.9100     24.4084
  1074.4000      7.8871      2.4469      0.0411     12.3071    147.7100     23.7892
  1074.5000      7.8827      2.4517      0.0517     12.0162    151.7214     22.9893
  1074.6000      7.8827      2.4419      0.0843     12.6141    154.7946     22.2075
  1074.7000      7.8827      2.3999      0.0740     15.1579    154.9955     21.3369
  1074.8000      7.8898      2.3287      0.0720     19.4727    154.3653     20.3957
  1074.9000      7.8898      2.2522      0.0790     24.1085    154.5726     19.4885
  1075.0000      7.9138      2.1963      0.0852     27.4950    154.8012     18.6971
  1075.1000      7.9138      2.1591      0.1301     29.7517    153.4277     18.1516
  1075.2000      7.9138      2.1169      0.0695     32.3099    149.8429     17.9605
  1075.3000      8.0091      2.0617      0.1151     35.6546    145.0500     18.0845
  1075.4000      8.0091      2.0135      0.0873     38.5762    140.7814     18.3578
  1075.5000      8.0126      1.9970      0.1205     39.5745    137.1661     18.6722
  1075.6000      8.0126      2.0095      0.1754     38.8197    133.8939     19.0127
  1075.7000      8.0126      2.0246      0.1307     37.9031    131.6862     19.2843
  1075.8000      8.0036      2.0234      0.0455     37.9772    131.4875     19.3149
  1075.9000      8.0036      2.0043      0.0370     39.1337    131.8690     18.9716
  1076.0000      7.9498      1.9754      0.0664     40.8857    130.2344     18.4138
  1076.1000      7.9498      1.9412      0.0996     42.9565    126.9647     17.9807
  1076.2000      7.9498      1.8973      0.0941     45.6161    123.2376     17.7298
  1076.3000      7.9150      1.8401      0.0813     49.0847    120.0511     17.6513
  1076.4000      7.9150      1.7790      0.0432     52.7857    118.3673     17.7553
  1076.5000      7.9202      1.7362      0.0419     55.3837    117.2441     17.9707
  1076.6000      7.9202      1.7210      0.1854     56.3055    115.5901     18.2106
  1076.7000      7.9202      1.7235      0.1879     56.1505    114.1952     18.4113
  1076.8000      7.9380      1.7480      0.1619     54.6649    113.6139     18.7225
  1076.9000      7.9380      1.8160      0.0449     50.5478    113.0353     19.4302
  1077.0000      7.9054      1.9290      0.1173     43.6948    111.1077     20.5231
  1077.1000      7.9054      2.0580      0.1966     35.8806    108.8384     21.8111
  1077.2000      7.9054      2.1806      0.1734     28.4509    109.9265     23.2008
  1077.3000      7.8982      2.2921      0.2351     21.6933    115.0123     24.5872
  1077.4000      7.8982      2.3764      0.3310     16.5840    118.4519     25.8312
  1077.5000      7.8930      2.4230      0.2355     13.7552    116.5258     26.8069
  1077.6000      7.8930      2.4567      0.1516     11.7135    113.6287     27.4318
  1077.7000      7.8930      2.5000      0.0702      9.0935    114.6963     27.7012
  1077.8000      7.8195      2.5416      0.0774      6.5678    118.4378     27.7440
  1077.9000      7.8195      2.5621      0.0363      5.3264    121.6082     27.7740
  1078.0000      7.8047      2.5635      0.0420      5.2440    122.6184     27.7948
  1078.1000      7.8047      2.5615      0.0328      5.3618    121.2603     27.6662
  1078.2000      7.8047      2.5658     -0.0088      5.1040    118.8734     27.4810
  1078.3000      7.8052      2.5755      0.0406      4.5161    117.3755     27.4455
  1078.4000      7.8052      2.5861      0.0084      3.8709    117.9067     27.4763
  1078.5000      7.7997      2.5942      0.0379      3.3833    120.2725     27.2982
  1078.6000      7.7997      2.5948      0.0600      3.3444    123.1630     26.8413
  1078.7000      7.7997      2.5903      0.0218      3.6212    124.8032     26.3115
  1078.8000      7.8018      2.5922      0.0139      3.5055    124.5766     25.9110
  1078.9000      7.8018      2.5981      0.0581      3.1455    123.1823     25.7196
  1079.0000      7.8019      2.5959      0.0334      3.2789    120.0236     25.7299
  1079.1000      7.8019      2.5899     -0.0004      3.6419    115.6422     25.8261
  1079.2000      7.8019      2.5891     -0.0189      3.6933    113.4704     25.7374
  1079.3000      7.8059      2.5927     -0.0038      3.4741    114.3938     25.4612
  1079.4000      7.8059      2.5987      0.0313      3.1095    114.0199     25.3484
  1079.5000      7.7993      2.6039      0.0744      2.7920    111.9193     25.5566
