~Version Information
VERS.                      2.0: CWLS Log ASCII Standard - VERSION 2.0
WRAP.                       NO: One line per depth step
~Well Information Block
STRT.FT               660.0000: 
STOP.FT              2491.0000: 
STEP.FT                 0.2500: 
NULL.                -999.2500: 
COMP.          Petrogulf Corporation: COMPANY
WELL.          Montoya 18-11V-B: WELL
FLD.           Purgatorie River: FIELD
LOC.           848' FNL & 619' FWL: LOCATION
PROV.                 Colorado: PROVINCE
CNTY.               Las Animas: COUNTRY
SRVC.                Patterson: SERVICE COMPANY
DATE.          Wed Oct 05 04:34:17 2005: LOG DATE
UWI.                          : UNIQUE WELL ID
~Curve Information Block
DEPT.FT            0 000 00 00: Depth
SP.mV                         : DIL Spontaneous Potential
RILD.Ohm-m                    : DIL Deep Resistivity
RILM.Ohm-m                    : DIL Medium Resistivity
RLL3.Ohm-m                    : DIL Shallow Resistivity
GR.GAPI                       : Gamma Ray
~Parameter Information Block
~A  Depth        SP         RILD        RILM        RLL3         GR     
# ...
   912.0000   2000.0000     34.5397     39.0730   2000.0000     58.0587
   912.2500   2000.0000     32.2689     35.2030   2000.0000     60.4905
   912.5000   2000.0000     30.2098     31.6805   2000.0000     68.0741
   912.7500   2000.0000     28.3473     28.5913   2000.0000     75.1018
   913.0000   2000.0000     26.6658     25.9548   2000.0000     86.7557
   913.2500   2000.0000     25.1474     23.7492   2000.0000     94.4799
   913.5000   2000.0000     23.7691     21.9306   2000.0000    105.5384
   913.7500   2000.0000     22.5063     20.4463   2000.0000    112.4682
   914.0000   2000.0000     21.3433     19.2426   2000.0000    121.6446
   914.2500   2000.0000     20.2829     18.2690   2000.0000    126.3624
   914.5000   2000.0000     19.3455     17.4811   2000.0000    130.4979
   914.7500   2000.0000     18.5538     16.8421   2000.0000    131.3772
   915.0000   2000.0000     17.9146     16.3244   2000.0000    131.3347
   915.2500   2000.0000     17.4124     15.9087   2000.0000    131.5445
   915.5000   2000.0000     17.0172     15.5824   2000.0000    133.4028
   915.7500   2000.0000     16.7003     15.3367   2000.0000    135.6680
   916.0000   2000.0000     16.4426     15.1627   2000.0000    139.8169
   916.2500   2000.0000     16.2313     15.0489   2000.0000    142.2839
   916.5000   2000.0000     16.0515     14.9794   2000.0000    143.8103
   916.7500   2000.0000     15.8829     14.9347   2000.0000    142.6603
   917.0000   2000.0000     15.7084     14.8943   2000.0000    137.8345
   917.2500   2000.0000     15.5260     14.8406   2000.0000    133.4056
   917.5000   2000.0000     15.3520     14.7626   2000.0000    127.0860
   917.7500   2000.0000     15.2117     14.6584   2000.0000    124.3825
   918.0000   2000.0000     15.1245     14.5347   2000.0000    123.9521
   918.2500   2000.0000     15.0959     14.4053   2000.0000    125.9092
   918.5000   2000.0000     15.1195     14.2875   2000.0000    130.5268
   918.7500   2000.0000     15.1845     14.1995   2000.0000    133.6620
   919.0000   2000.0000     15.2815     14.1576   2000.0000    137.2831
   919.2500   2000.0000     15.4029     14.1750   2000.0000    138.5035
   919.5000   2000.0000     15.5411     14.2609   2000.0000    137.9966
   919.7500   2000.0000     15.6901     14.4206   2000.0000    136.3899
   920.0000   2000.0000     15.8492     14.6553   2000.0000    133.7751
   920.2500   2000.0000     16.0290     14.9639   2000.0000    132.8379
   920.5000   2000.0000     16.2519     15.3440   2000.0000    132.9073
   920.7500   2000.0000     16.5461     15.7940   2000.0000    133.4980
   921.0000   2000.0000     16.9363     16.3153   2000.0000    134.4729
   921.2500   2000.0000     17.4356     16.9134   2000.0000    134.9872
   921.5000   2000.0000     18.0448     17.5986   2000.0000    135.5964
   921.7500   2000.0000     18.7559     18.3851   2000.0000    136.1532
   922.0000   2000.0000     19.5570     19.2883   2000.0000    137.7681
   922.2500   2000.0000     20.4305     20.3197   2000.0000    139.2264
   922.5000   2000.0000     21.3444     21.4800   2000.0000    140.4645
   922.7500   2000.0000     22.2469     22.7512   2000.0000    139.5844
   923.0000   2000.0000     23.0757     24.0884   2000.0000    135.0633
   923.2500   2000.0000     23.7823     25.4170   2000.0000    130.2674
   923.5000   2000.0000     24.3560     26.6400   2000.0000    121.1831
   923.7500   2000.0000     24.8255     27.6575   2000.0000    114.1717
   924.0000   2000.0000     25.2403     28.3952   2000.0000    102.9978
   924.2500   2000.0000     25.6462     28.8284   2000.0000     95.9492
   924.5000   2000.0000     26.0731     28.9896   2000.0000     87.6994
   924.7500   2000.0000     26.5350     28.9552   2000.0000     84.4420
   925.0000   2000.0000     27.0343     28.8219   2000.0000     83.2062
   925.2500   2000.0000     27.5619     28.6840   2000.0000     84.8073
   925.5000   2000.0000     28.0908     28.6183   2000.0000     90.9908
   925.7500   2000.0000     28.5704     28.6770   2000.0000     97.3043
   926.0000   2000.0000     28.9282     28.8847   2000.0000    107.7066
   926.2500   2000.0000     29.0812     29.2339   2000.0000    113.3333
   926.5000   2000.0000     28.9581     29.6812   2000.0000    117.9127
   926.7500   2000.0000     28.5237     30.1413   2000.0000    118.6525
   927.0000   2000.0000     27.7965     30.4875   2000.0000    117.7261
   927.2500   2000.0000     26.8442     30.5678   2000.0000    116.2237
   927.5000   2000.0000     25.7600     30.2406   2000.0000    112.6353
   927.7500   2000.0000     24.6356     29.4246   2000.0000    109.3441
   928.0000   2000.0000     23.5446     28.1372   2000.0000    103.5939
   928.2500   2000.0000     22.5373     26.4935   2000.0000     99.7973
   928.5000   2000.0000     21.6403     24.6646   2000.0000     95.5077
   928.7500   2000.0000     20.8565     22.8219   2000.0000     94.5355
   929.0000   2000.0000     20.1655     21.0966   2000.0000     97.4536
   929.2500   2000.0000     19.5277     19.5659   2000.0000    102.7758
   929.5000   2000.0000     18.8956     18.2593   2000.0000    115.2025
   929.7500   2000.0000     18.2305     17.1716   2000.0000    125.2287
   930.0000   2000.0000     17.5183     16.2767   2000.0000    140.1384
   930.2500   2000.0000     16.7745     15.5384   2000.0000    148.6407
   930.5000   2000.0000     16.0354     14.9192   2000.0000    157.6819
   930.7500   2000.0000     15.3422     14.3862   2000.0000    160.5428
   931.0000   2000.0000     14.7293     13.9163   2000.0000    159.2893
   931.2500   2000.0000     14.2201     13.4979   2000.0000    154.9844
   931.5000   2000.0000     13.8279     13.1300   2000.0000    145.4629
   931.7500   2000.0000     13.5565     12.8183   2000.0000    138.9816
   932.0000   2000.0000     13.3998     12.5712   2000.0000    131.9289
   932.2500   2000.0000     13.3412     12.3951   2000.0000    129.7301
   932.5000   2000.0000     13.3551     12.2920   2000.0000    129.5101
   932.7500   2000.0000     13.4102     12.2584   2000.0000    130.4481
   933.0000   2000.0000     13.4752     12.2856   2000.0000    132.2770
   933.2500   2000.0000     13.5251     12.3607   2000.0000    133.6219
   933.5000   2000.0000     13.5463     12.4681   2000.0000    135.7746
   933.7500   2000.0000     13.5357     12.5912   2000.0000    137.0192
   934.0000   2000.0000     13.4976     12.7132   2000.0000    137.7635
   934.2500   2000.0000     13.4403     12.8193   2000.0000    137.0355
   934.5000   2000.0000     13.3744     12.8977   2000.0000    133.8916
   934.7500   2000.0000     13.3123     12.9414   2000.0000    130.9234
   935.0000   2000.0000     13.2666     12.9488   2000.0000    126.6203
   935.2500   2000.0000     13.2473     12.9244   2000.0000    124.3720
   935.5000   2000.0000     13.2584     12.8779   2000.0000    121.9689
   935.7500   2000.0000     13.2966     12.8219   2000.0000    121.0204
   936.0000   2000.0000     13.3514     12.7701   2000.0000    120.9536
   936.2500   2000.0000     13.4087     12.7343   2000.0000    121.9234
   936.5000   2000.0000     13.4551     12.7229   2000.0000    124.6154
   936.7500   2000.0000     13.4810     12.7403   2000.0000    127.0092
   937.0000   2000.0000     13.4830     12.7860   2000.0000    131.2088
   937.2500   2000.0000     13.4619     12.8558   2000.0000    134.0667
   937.5000   2000.0000     13.4220     12.9418   2000.0000    137.3805
   937.7500   2000.0000     13.3688     13.0333   2000.0000    138.3965
   938.0000   2000.0000     13.3083     13.1184   2000.0000    137.9551
   938.2500   2000.0000     13.2473     13.1845   2000.0000    136.5370
   938.5000   2000.0000     13.1925     13.2209   2000.0000    133.0412
   938.7500   2000.0000     13.1512     13.2200   2000.0000    130.1028
   939.0000   2000.0000     13.1303     13.1801   2000.0000    125.7672
   939.2500   2000.0000     13.1351     13.1056   2000.0000    123.5206
   939.5000   2000.0000     13.1680     13.0071   2000.0000    121.7551
   939.7500   2000.0000     13.2292     12.8995   2000.0000    121.9935
