~Version Information
VERS.                      2.0: CWLS Log ASCII Standard - VERSION 2.0
WRAP.                       NO: One line per depth step
~Well Information Block
STRT.FT               880.0000: 
STOP.FT              1996.5000: 
STEP.FT                 0.1000: 
NULL.                -999.2500: 
COMP.          Petrogulf Corporation: COMPANY
WELL.          Collister 17-31R: WELL
FLD.           Purgatorie River: FIELD
LOC.           962' FNL & 1520' FEL: LOCATION
PROV.                 Colorado: PROVINCE
CNTY.               Las Animas: COUNTRY
SRVC.                Patterson: SERVICE COMPANY
DATE.          Mon Sep 26 09:28:52 2005: LOG DATE
UWI.                          : UNIQUE WELL ID
~Curve Information Block
DEPT.FT            0 000 00 00: Depth
DCAL.in                       : CDL Caliper
RHOB.g/cc                     : CDL Bulk Density
RHOC.g/cc                     : CDL Density Correction
DPOR.pu                       : CDL Density Porosity
GR.GAPI                       : Gamma Ray
NPOR.pu                       : Neutron Porosity
~Parameter Information Block
~A  Depth       DCAL        RHOB        RHOC        DPOR         GR         NPOR    
# ...
  1244.8000      8.0235      1.3906      0.0213     76.3272     60.8460     34.3575
  1244.9000      8.0235      1.4296      0.0217     73.9616     66.3060     34.4753
  1245.0000      8.1350      1.4866      0.0390     70.5092     68.6420     34.5985
  1245.1000      8.1350      1.5614      0.0769     65.9741     72.0695     34.4760
  1245.2000      8.1350      1.6433      0.1169     61.0139     75.6917     34.0704
  1245.3000      8.1029      1.7272      0.1144     55.9293     74.6293     33.7424
  1245.4000      8.1029      1.8167      0.1473     50.5059     70.4180     33.6631
  1245.5000      7.9771      1.9021      0.2094     45.3292     69.8389     33.6392
  1245.6000      7.9771      1.9728      0.1082     41.0427     75.3811     33.4283
  1245.7000      7.9771      2.0438      0.1540     36.7391     82.4564     32.9665
  1245.8000      7.8954      2.1289      0.1664     31.5846     86.5349     32.3829
  1245.9000      7.8954      2.2162      0.1839     26.2915     88.7322     31.7227
  1246.0000      7.8216      2.2848      0.1890     22.1330     92.4284     31.0183
  1246.1000      7.8216      2.3350      0.1095     19.0897     98.3418     30.3590
  1246.2000      7.8216      2.3868      0.1409     15.9503    103.6746     29.9310
  1246.3000      7.8318      2.4468      0.1288     12.3138    105.5841     29.7344
  1246.4000      7.8318      2.4961      0.1725      9.3259    103.7167     29.4742
  1246.5000      7.8113      2.5125      0.1564      8.3334    101.2216     28.9549
  1246.6000      7.8113      2.5035      0.0873      8.8795    100.3876     28.3746
  1246.7000      7.8113      2.4919      0.0606      9.5836    100.3185     28.0096
  1246.8000      7.8676      2.4810      0.0171     10.2449    103.9350     27.7788
  1246.9000      7.8676      2.4726      0.0049     10.7512    114.0484     27.4305
  1247.0000      7.9220      2.4778      0.0250     10.4355    124.4622     27.1070
  1247.1000      7.9220      2.4989      0.0158      9.1546    128.9530     27.1200
  1247.2000      7.9220      2.5236      0.0608      7.6577    130.2888     27.4136
  1247.3000      7.9122      2.5359      0.0664      6.9155    133.3919     27.7203
  1247.4000      7.9122      2.5370      0.0403      6.8478    137.5680     28.0035
  1247.5000      7.9258      2.5377      0.0224      6.8072    138.5534     28.2170
  1247.6000      7.9258      2.5363      0.0398      6.8906    135.0528     28.1821
  1247.7000      7.9258      2.5320     -0.0210      7.1514    130.2411     28.0597
  1247.8000      7.9349      2.5327     -0.0083      7.1064    127.7909     28.0965
  1247.9000      7.9349      2.5375      0.0284      6.8171    129.9573     28.1852
  1248.0000      7.9561      2.5440      0.0022      6.4241    135.3289     28.0858
  1248.1000      7.9561      2.5547      0.0156      5.7738    139.1513     27.6288
  1248.2000      7.9561      2.5613      0.0675      5.3739    139.2670     27.0147
  1248.3000      7.9478      2.5518      0.0062      5.9491    138.4524     26.6593
  1248.4000      7.9478      2.5277      0.0096      7.4149    138.0967     26.7276
  1248.5000      7.9265      2.5016     -0.0001      8.9959    136.5859     26.9788
  1248.6000      7.9265      2.4893     -0.0085      9.7374    131.5413     27.2539
  1248.7000      7.9265      2.4883      0.0374      9.8005    123.8364     27.5163
  1248.8000      7.9359      2.4831      0.0104     10.1176    120.0429     27.3176
  1248.9000      7.9359      2.4821      0.0211     10.1732    124.1620     26.7818
  1249.0000      7.9395      2.4972      0.0703      9.2617    130.6126     26.7778
  1249.1000      7.9395      2.5170      0.0801      8.0605    132.4163     27.3826
  1249.2000      7.9395      2.5386      0.0662      6.7527    129.3980     27.8305
  1249.3000      7.8825      2.5717      0.1117      4.7465    124.6603     27.6760
  1249.4000      7.8825      2.6138      0.1825      2.1961    121.4134     27.2220
  1249.5000      7.7285      2.6511      0.2404     -0.0665    121.7513     27.0726
  1249.6000      7.7285      2.6743      0.2431     -1.4700    123.6962     27.4580
  1249.7000      7.7285      2.6883      0.2380     -2.3186    124.9838     28.0523
  1249.8000      7.6908      2.7117      0.1775     -3.7410    126.4322     28.4216
  1249.9000      7.6908      2.7518      0.2158     -6.1692    128.0620     28.5108
  1250.0000      7.7261      2.7850      0.2231     -8.1817    129.3886     28.5935
  1250.1000      7.7261      2.7852      0.1996     -8.1955    131.8622     28.7477
  1250.2000      7.7261      2.7563      0.1377     -6.4423    135.3988     28.7022
  1250.3000      7.8102      2.7179      0.1334     -4.1175    138.3018     28.5668
  1250.4000      7.8102      2.6769      0.1150     -1.6304    141.2057     28.5825
  1250.5000      7.8551      2.6365      0.0343      0.8160    146.2019     28.5651
  1250.6000      7.8551      2.6071      0.0369      2.5984    154.1794     28.2494
  1250.7000      7.8551      2.5880      0.0162      3.7584    160.8063     27.8066
  1250.8000      7.9078      2.5669      0.0048      5.0342    160.5134     27.7437
  1250.9000      7.9078      2.5420     -0.0375      6.5484    156.3535     27.9029
  1251.0000      7.9172      2.5259     -0.0348      7.5201    153.6802     27.6149
  1251.1000      7.9172      2.5275     -0.0060      7.4227    153.2542     26.9778
  1251.2000      7.9172      2.5369     -0.0020      6.8575    154.5726     26.7027
  1251.3000      7.9249      2.5313      0.0461      7.1961    157.3229     27.2575
  1251.4000      7.9249      2.5092     -0.0228      8.5336    161.0632     28.2783
  1251.5000      7.9427      2.4935     -0.0146      9.4834    165.2633     29.0034
  1251.6000      7.9427      2.4883      0.0388      9.8001    168.8803     29.3238
  1251.7000      7.9427      2.4815      0.0208     10.2118    171.1690     29.6572
  1251.8000      7.9483      2.4684      0.0330     11.0086    172.1365     30.1227
  1251.9000      7.9483      2.4508      0.0070     12.0727    172.0688     30.3007
  1252.0000      7.9432      2.4378      0.0093     12.8591    169.9922     30.0301
  1252.1000      7.9432      2.4320     -0.0109     13.2107    165.3925     29.7159
  1252.2000      7.9432      2.4212      0.0310     13.8666    160.8961     29.7193
  1252.3000      7.9470      2.3928      0.0053     15.5873    156.2550     30.0449
  1252.4000      7.9470      2.3490      0.0354     18.2418    150.8275     30.4461
  1252.5000      7.9523      2.3059     -0.0421     20.8537    149.0885     30.5127
  1252.6000      7.9523      2.2710      0.0068     22.9690    151.0146     30.1750
  1252.7000      7.9523      2.2200      0.0008     26.0595    151.0760     29.8500
  1252.8000      7.9566      2.1342      0.0036     31.2588    146.9245     29.9032
  1252.9000      7.9566      2.0392     -0.0643     37.0177    139.9247     30.5830
  1253.0000      7.9552      1.9580     -0.0074     41.9372    133.3582     31.6050
  1253.1000      7.9552      1.8662      0.0167     47.5001    128.2057     32.2751
  1253.2000      7.9552      1.7468     -0.0451     54.7379    122.1874     32.4327
  1253.3000      7.9640      1.6300     -0.0661     61.8183    115.5170     32.4172
  1253.4000      7.9640      1.5404     -0.1068     67.2496    108.8373     32.4778
  1253.5000      7.9701      1.4652     -0.0397     71.8066     99.1348     32.6371
  1253.6000      7.9701      1.3944     -0.0549     76.0989     87.5732     32.7687
  1253.7000      7.9701      1.3452     -0.0486     79.0766     78.8055     32.9477
  1253.8000      7.9551      1.3250     -0.0117     80.3020     74.6603     33.2951
  1253.9000      7.9551      1.3205     -0.0240     80.5738     74.8473     33.6318
  1254.0000      7.9588      1.3270     -0.0012     80.1810     74.2339     33.8549
  1254.1000      7.9588      1.3495      0.0063     78.8202     70.3479     34.0483
  1254.2000      7.9588      1.3896     -0.0086     76.3882     66.2614     34.2922
  1254.3000      7.9799      1.4385      0.0568     73.4230     63.1771     34.6603
