~Version Information
VERS.                      2.0: CWLS Log ASCII Standard - VERSION 2.0
WRAP.                       NO: One line per depth step
~Well Information Block
STRT.FT               240.0000: 
STOP.FT              1342.0000: 
STEP.FT                 0.1000: 
NULL.                -999.2500: 
COMP.          Pioneer Natural Resources: COMPANY
WELL.          Lorencito 9-4-34-66: WELL
FLD.           Purgatoire River: FIELD
LOC.           2540' FSL & 438' FEL: LOCATION
STAT.                 Colorado: State
CNTY.               Las Animas: COUNTY
CTRY. USA : Country
SECT. 4 : Section
TOWN. 34S : Township
RANG. 68W : range
SRVC.                Patterson: SERVICE COMPANY
DATE.          Thu Sep 15 13:16:59 2005: LOG DATE
API.           05 071 08498 00: UNIQUE WELL ID
~Curve Information Block
DEPT.FT            0 000 00 00: Depth
DCAL.in                       : CDL Caliper
RHOB.g/cc                     : CDL Bulk Density
RHOC.g/cc                     : CDL Density Correction
DPOR.pu                       : CDL Density Porosity
GR.GAPI                       : Gamma Ray
NPOR.pu                       : Neutron Porosity
~Parameter Information Block
~A  Depth       DCAL        RHOB        RHOC        DPOR         GR         NPOR    
# ...
   528.0000      8.1922      2.5684      0.1096      4.9479    176.3566     27.2258
   528.1000      8.1922      2.5970      0.2222      3.2132    166.5861     26.5775
   528.2000      8.1922      2.6052      0.1172      2.7178    159.8180     26.2398
   528.3000      8.1908      2.6077      0.1540      2.5615    159.8851     26.0198
   528.4000      8.1908      2.6099      0.1448      2.4310    157.1710     25.5123
   528.5000      8.1636      2.6107      0.1221      2.3833    141.7847     25.2071
   528.6000      8.1636      2.6199      0.1378      1.8219    124.1954     25.2641
   528.7000      8.1636      2.6228      0.1412      1.6458    118.4159     25.2216
   528.8000      8.1616      2.6025      0.0459      2.8769    118.9340     24.8516
   528.9000      8.1616      2.5810     -0.0059      4.1791    115.4992     23.8491
   529.0000      8.1662      2.5710      0.0641      4.7857    107.2488     22.4162
   529.1000      8.1662      2.5522      0.0828      5.9257     98.8605     21.2495
   529.2000      8.1662      2.5125      0.0754      8.3305     92.4374     20.5673
   529.3000      8.1466      2.4718     -0.0297     10.8007     86.8290     20.2158
   529.4000      8.1466      2.4657      0.0000     11.1674     84.1071     19.9786
   529.5000      8.1335      2.5006      0.0454      9.0532     87.2010     19.8109
   529.6000      8.1335      2.5443      0.0889      6.4070     94.8854     19.8045
   529.7000      8.1335      2.5651      0.1123      5.1441    101.6057     19.8001
   529.8000      8.1277      2.5691      0.0285      4.9001    103.7586     19.8516
   529.9000      8.1277      2.5785      0.1303      4.3305    102.0367     20.2500
   530.0000      8.1232      2.5889      0.1026      3.7006     98.0989     20.7968
   530.1000      8.1232      2.5903      0.1117      3.6172     96.7951     21.0276
   530.2000      8.1232      2.5848      0.0994      3.9486    101.8749     20.9419
   530.3000      8.1059      2.5783      0.1136      4.3454    108.8805     21.0367
   530.4000      8.1059      2.5808      0.0692      4.1941    112.7819     21.3800
   530.5000      8.0929      2.5972      0.0776      3.1988    114.3204     21.3018
   530.6000      8.0929      2.6136      0.1341      2.2089    115.3435     20.6006
   530.7000      8.0929      2.6117      0.1295      2.3223    115.0569     19.9104
   530.8000      8.0989      2.5851      0.1258      3.9363    113.7814     19.5697
   530.9000      8.0989      2.5459      0.0948      6.3100    113.4465     19.9726
   531.0000      8.1289      2.5208      0.0660      7.8286    112.2918     21.2959
   531.1000      8.1289      2.5214      0.0273      7.7916    106.7347     22.6789
   531.2000      8.1289      2.5314      0.0814      7.1856     99.0429     22.9207
   531.3000      8.0656      2.5303      0.0955      7.2535     95.3614     22.2865
   531.4000      8.0656      2.5289      0.0294      7.3369     97.3522     22.1143
   531.5000      8.0576      2.5522      0.0702      5.9271    101.0971     22.4735
   531.6000      8.0576      2.5963      0.1199      3.2533    102.6534     22.6086
   531.7000      8.0576      2.6368      0.1431      0.8005    102.2740     22.4138
   531.8000      8.0798      2.6514      0.1460     -0.0836    102.0758     22.3438
   531.9000      8.0798      2.6374      0.1203      0.7623    102.6807     22.5151
   532.0000      8.1283      2.6120      0.1441      2.3039    103.0759     22.8523
   532.1000      8.1283      2.5904      0.1090      3.6143    102.5857     23.1140
   532.2000      8.1283      2.5813      0.1042      4.1666    103.2472     22.5872
   532.3000      8.1199      2.5793      0.0896      4.2819    106.6876     21.4950
   532.4000      8.1199      2.5661      0.1260      5.0863    109.8915     21.2185
   532.5000      8.0637      2.5361      0.0576      6.9020    108.8335     21.9220
   532.6000      8.0637      2.5083      0.0008      8.5871    106.2140     22.4111
   532.7000      8.0637      2.5006      0.0092      9.0522    106.5858     22.0462
   532.8000      8.0801      2.5120      0.0324      8.3664    107.4699     21.4602
   532.9000      8.0801      2.5314      0.0698      7.1879    107.9787     21.5344
   533.0000      8.1063      2.5475      0.0820      6.2117    110.6734     22.1363
   533.1000      8.1063      2.5525      0.0912      5.9109    114.9103     22.4191
   533.2000      8.1063      2.5489      0.1048      6.1250    117.4192     21.8592
   533.3000      8.1252      2.5492      0.0634      6.1105    117.5544     21.0259
   533.4000      8.1252      2.5582      0.1162      5.5618    116.8607     20.4595
   533.5000      8.0734      2.5663      0.1276      5.0702    117.6329     20.0650
   533.6000      8.0734      2.5663      0.1041      5.0704    123.3188     20.2185
   533.7000      8.0734      2.5603      0.0978      5.4369    127.9616     20.9558
   533.8000      8.0617      2.5590      0.0778      5.5179    124.7921     21.6400
   533.9000      8.0617      2.5775      0.0913      4.3955    119.2337     21.8283
   534.0000      8.0558      2.6099      0.1325      2.4292    116.9110     21.4305
   534.1000      8.0558      2.6243      0.1471      1.5594    116.7569     20.9898
   534.2000      8.0558      2.6038      0.1540      2.8001    117.0836     21.0391
   534.3000      8.0532      2.5703      0.1127      4.8290    118.6042     21.4609
   534.4000      8.0532      2.5540      0.1134      5.8155    120.6224     21.9631
   534.5000      8.0711      2.5608      0.1201      5.4032    120.2946     22.5031
   534.6000      8.0711      2.5783      0.0921      4.3468    119.6894     22.8176
   534.7000      8.0711      2.5928      0.0825      3.4693    120.6186     22.5974
   534.8000      8.0655      2.5960      0.0964      3.2720    119.8997     22.1545
   534.9000      8.0655      2.5936      0.0950      3.4163    116.9664     21.5946
   535.0000      8.1028      2.6033      0.0740      2.8332    114.0423     20.9803
   535.1000      8.1028      2.6291      0.1118      1.2684    110.0272     20.6463
   535.2000      8.1028      2.6467      0.1696      0.1988    104.5873     20.5567
   535.3000      8.1510      2.6390      0.1288      0.6656    102.2871     20.3247
   535.4000      8.1510      2.6187      0.1091      1.8987    104.5856     20.1349
   535.5000      8.1125      2.6007      0.0513      2.9881    106.0368     20.6091
   535.6000      8.1125      2.5774      0.1188      4.4012    106.2807     21.5185
   535.7000      8.1125      2.5318      0.0452      7.1665    106.9720     22.2179
   535.8000      8.0764      2.4841     -0.0248     10.0559    105.0310     22.6915
   535.9000      8.0764      2.4694      0.0029     10.9426    101.2818     23.1729
   536.0000      8.1080      2.4842      0.0411     10.0478    105.2069     23.8008
   536.1000      8.1080      2.5026      0.0712      8.9336    120.5964     24.3242
   536.2000      8.1080      2.5161      0.0561      8.1171    136.1111     24.2357
   536.3000      8.1088      2.5356      0.0612      6.9358    139.6623     24.0417
   536.4000      8.1088      2.5594      0.0945      5.4909    134.3515     24.2881
   536.5000      8.1120      2.5707      0.0969      4.8043    133.8102     24.6409
   536.6000      8.1120      2.5730      0.0581      4.6676    145.7004     24.9542
   536.7000      8.1120      2.5824      0.0769      4.0949    164.1262     25.7453
   536.8000      8.1160      2.5924      0.1105      3.4919    176.7417     27.0798
   536.9000      8.1160      2.5931      0.0946      3.4456    176.7024     28.1418
   537.0000      8.1433      2.5892      0.0796      3.6850    170.1438     28.4590
   537.1000      8.1433      2.5790      0.0889      4.3035    164.6697     28.4204
   537.2000      8.1433      2.5658      0.0687      5.1020    160.5596     28.4080
   537.3000      8.1519      2.5622      0.0603      5.3201    155.8127     28.3176
   537.4000      8.1519      2.5773      0.0346      4.4047    147.8584     27.6434
   537.5000      8.1393      2.6144      0.0471      2.1590    139.2452     26.1381
