~Version Information
VERS.                      2.0: CWLS Log ASCII Standard - VERSION 2.0
WRAP.                       NO: One line per depth step
~Well Information Block
STRT.FT               485.0000: 
STOP.FT              1030.5000: 
STEP.FT                 0.1000: 
NULL.                -999.2500: 
COMP.          Pioneer Natural Resources: COMPANY
WELL.          Red Raider 22-15: WELL
FLD.           Purgatoire River: FIELD
LOC.           1809' FNL & 2107' FWL: LOCATION
CNTY.               Las Animas: COUNTY
SRVC.                Patterson: SERVICE COMPANY
DATE.          Tue Apr 11 10:06:17 2006: LOG DATE
UWI.           05 071 08718 00: UNIQUE WELL ID
STAT.                 Colorado: STATE
~Curve Information Block
DEPT.FT            0 000 00 00: Depth
DCAL.in                       : CDL Caliper
RHOB.g/cc                     : CDL Bulk Density
RHOC.g/cc                     : CDL Density Correction
DPOR.pu                       : CDL Density Porosity
GR.GAPI                       : Gamma Ray
NPOR.pu                       : Neutron Porosity
~Parameter Information Block
~A  Depth       DCAL        RHOB        RHOC        DPOR         GR         NPOR    
# ...
   590.6000      8.0359      2.5069      0.0703      8.6723     87.3509     23.7133
   590.7000      8.0359      2.5051      0.0350      8.7810     96.3600     23.5855
   590.8000      8.0367      2.5006      0.0371      9.0550    103.4548     23.1889
   590.9000      8.0367      2.4987     -0.0026      9.1684    105.3423     22.8837
   591.0000      8.0392      2.5054      0.0020      8.7609    108.0461     22.6356
   591.1000      8.0392      2.5145      0.0280      8.2102    115.8689     22.3036
   591.2000      8.0392      2.5092      0.0318      8.5347    119.7739     22.1470
   591.3000      8.0395      2.4907      0.0076      9.6549    112.0576     22.5161
   591.4000      8.0395      2.4857     -0.0257      9.9600    102.7300     23.2511
   591.5000      8.0356      2.5044      0.0358      8.8217    100.0195     23.4834
   591.6000      8.0356      2.5253      0.0437      7.5558     99.5418     22.8219
   591.7000      8.0356      2.5288      0.0143      7.3427    100.2987     22.1755
   591.8000      8.0320      2.5169      0.0182      8.0649    102.2390     22.0588
   591.9000      8.0320      2.5062     -0.0202      8.7159    100.9335     22.0353
   592.0000      8.0304      2.5083      0.0167      8.5850     96.7226     21.9439
   592.1000      8.0304      2.5170      0.0244      8.0592     93.9029     22.1286
   592.2000      8.0304      2.5276      0.0201      7.4170     95.5835     22.5703
   592.3000      8.0291      2.5443      0.0526      6.4069    101.1001     22.9067
   592.4000      8.0291      2.5579      0.0334      5.5847    104.8713     23.1803
   592.5000      8.0282      2.5458      0.0441      6.3124    103.6890     23.5240
   592.6000      8.0282      2.5062     -0.0283      8.7137    101.1479     23.6025
   592.7000      8.0282      2.4675      0.0136     11.0582    100.4868     23.1514
   592.8000      8.0306      2.4513     -0.0036     12.0403    101.5243     22.5118
   592.9000      8.0306      2.4569     -0.0112     11.7052    103.2888     21.9853
   593.0000      8.0314      2.4723     -0.0005     10.7669    102.4635     21.6241
   593.1000      8.0314      2.4859      0.0374      9.9428     96.5910     21.4982
   593.2000      8.0314      2.4911      0.0175      9.6301     89.7708     21.5336
   593.3000      8.0271      2.4878     -0.0066      9.8280     86.5540     21.4930
   593.4000      8.0271      2.4860     -0.0051      9.9377     85.2835     21.3355
   593.5000      8.0240      2.4920      0.0254      9.5750     82.9178     21.1567
   593.6000      8.0240      2.4980      0.0529      9.2094     81.5646     21.0535
   593.7000      8.0240      2.4971      0.0300      9.2663     84.0626     21.0107
   593.8000      8.0253      2.4898      0.0472      9.7081     87.2640     21.1530
   593.9000      8.0253      2.4774      0.0517     10.4587     86.9605     21.6249
   594.0000      8.0286      2.4686      0.0184     10.9934     83.8139     22.0171
   594.1000      8.0286      2.4764      0.0474     10.5215     79.2301     21.8978
   594.2000      8.0286      2.4965      0.0383      9.3007     76.4354     21.5837
   594.3000      8.0308      2.5073      0.0722      8.6508     78.8233     21.5512
   594.4000      8.0308      2.4975      0.0665      9.2435     82.7512     21.7630
   594.5000      8.0313      2.4840      0.0227     10.0608     84.8677     21.8399
   594.6000      8.0313      2.4856      0.0229      9.9662     85.2750     21.6367
   594.7000      8.0313      2.4978      0.0586      9.2255     83.1033     21.5074
   594.8000      8.0304      2.5074      0.0684      8.6428     79.5911     21.5763
   594.9000      8.0304      2.5095      0.0362      8.5176     81.7384     21.4131
   595.0000      8.0300      2.5101      0.0391      8.4803     93.2993     21.1903
   595.1000      8.0300      2.5194      0.0651      7.9126    106.3982     21.5761
   595.2000      8.0300      2.5366      0.0861      6.8750    111.4626     22.3072
   595.3000      8.0304      2.5510      0.1010      6.0026    110.3462     22.4699
   595.4000      8.0304      2.5562      0.0837      5.6852    108.7092     21.8616
   595.5000      8.0312      2.5481      0.0979      6.1765    108.0070     21.1297
   595.6000      8.0312      2.5268      0.0793      7.4661    109.2925     20.8719
   595.7000      8.0312      2.5028      0.0644      8.9197    111.2813     20.8919
   595.8000      8.0340      2.4809      0.0622     10.2478    110.7440     20.8815
   595.9000      8.0340      2.4609      0.0335     11.4636    107.4601     21.0454
   596.0000      8.0393      2.4546      0.0180     11.8435    102.3671     21.3662
   596.1000      8.0393      2.4636      0.0645     11.2970     96.1563     21.4114
   596.2000      8.0393      2.4646      0.0517     11.2363     89.7457     21.2710
   596.3000      8.0447      2.4516      0.0200     12.0241     81.3379     21.3073
   596.4000      8.0447      2.4426      0.0077     12.5717     71.0521     21.1645
   596.5000      8.0474      2.4412      0.0316     12.6526     63.6879     20.6233
   596.6000      8.0474      2.4339      0.0378     13.0993     59.3981     19.9803
   596.7000      8.0474      2.4161     -0.0075     14.1739     56.8021     19.4431
   596.8000      8.0473      2.3992      0.0126     15.1994     56.6653     19.2834
   596.9000      8.0473      2.3875     -0.0098     15.9097     57.4607     19.3612
   597.0000      8.0469      2.3702      0.0176     16.9597     57.9864     19.2971
   597.1000      8.0469      2.3415     -0.0001     18.6984     59.6818     19.2800
   597.2000      8.0469      2.3194     -0.0449     20.0388     61.5949     19.1366
   597.3000      8.0468      2.3277     -0.0259     19.5350     61.0612     18.5289
   597.4000      8.0468      2.3597      0.0220     17.5921     58.6794     18.0202
   597.5000      8.0457      2.3872      0.0242     15.9281     56.8817     18.1239
   597.6000      8.0457      2.3967      0.0398     15.3524     56.3162     18.5910
   597.7000      8.0457      2.3900      0.0461     15.7580     56.4014     18.8667
   597.8000      8.0453      2.3763     -0.0032     16.5864     54.6945     18.6540
   597.9000      8.0453      2.3781      0.0040     16.4816     50.5334     17.9679
   598.0000      8.0465      2.4039      0.0423     14.9140     47.4059     17.2953
   598.1000      8.0465      2.4332      0.0143     13.1415     47.6249     17.3405
   598.2000      8.0465      2.4441      0.0624     12.4793     50.8156     18.0329
   598.3000      8.0474      2.4374      0.0496     12.8858     54.8724     18.6350
   598.4000      8.0474      2.4337      0.0294     13.1116     55.6668     18.6981
   598.5000      8.0476      2.4433      0.0511     12.5267     52.7499     18.2950
   598.6000      8.0476      2.4440      0.0748     12.4854     50.5245     17.8492
   598.7000      8.0476      2.4226      0.0230     13.7813     50.3581     17.8820
   598.8000      8.0497      2.4027      0.0142     14.9891     50.7857     18.4614
   598.9000      8.0497      2.4014      0.0132     15.0657     51.8770     19.2473
   599.0000      8.0517      2.4094      0.0123     14.5800     53.2296     19.7676
   599.1000      8.0517      2.4123      0.0219     14.4043     51.8932     19.9937
   599.2000      8.0517      2.4089      0.0148     14.6134     48.9718     20.2952
   599.3000      8.0517      2.4162     -0.0138     14.1717     50.1684     20.3458
   599.4000      8.0517      2.4405      0.0471     12.6959     54.9042     19.4880
   599.5000      8.0513      2.4613      0.0644     11.4361     55.3624     18.2184
   599.6000      8.0513      2.4666      0.0472     11.1173     50.5197     17.6454
   599.7000      8.0513      2.4671      0.0579     11.0822     48.4100     18.1391
   599.8000      8.0507      2.4707      0.0326     10.8665     51.7513     19.2251
   599.9000      8.0507      2.4718      0.0295     10.7985     56.1701     20.2558
   600.0000      8.0515      2.4666     -0.0002     11.1149     57.3424     20.8152
   600.1000      8.0515      2.4549      0.0603     11.8213     55.4188     20.8000
