~Version Information
VERS.                      2.0: CWLS Log ASCII Standard - VERSION 2.0
WRAP.                       NO: One line per depth step
~Well Information Block
STRT.FT                -7.0000: 
STOP.FT              2517.5000: 
STEP.FT                 0.2500: 
NULL.                -999.2500: 
COMP.          Pioneer Natural Resources: COMPANY
WELL.          Horsefeathers 24-34: WELL
FLD.           Purgatoire River: FIELD
LOC.           183' FSL & 1570' FWL: LOCATION
CNTY.               Las Animas: COUNTY
SRVC.                         : SERVICE COMPANY
DATE.          Fri Mar 17 10:06:37 2006: LOG DATE
UWI.           05 071 08675 00: UNIQUE WELL ID
STAT.                       CO: STATE
~Curve Information Block
DEPT.FT            0 000 00 00: Depth
GR.GAPI                       : Gamma Ray
CCL.                          : Casing Collar Locator
TT3.usec                      : CBL 3' Travel Time
AMP3.mV                       : CBL 3' Amplitude
~Parameter Information Block
~A  Depth        GR         CCL         TT3         AMP3    
# ...
   328.0000     87.1996      0.0000    697.8052      7.7476
   328.2500     85.8905      0.0000    704.3096      7.7306
   328.5000     83.6342      0.0000    712.5494      7.6841
   328.7500     82.0886      0.0000    719.7757      7.6283
   329.0000     82.9493      0.0000    723.6084      7.5927
   329.2500     86.6399      0.0000    724.2154      7.6051
   329.5000     91.6970      0.0000    723.9579      7.6854
   329.7500     95.5413      0.0000    724.9030      7.8376
   330.0000     95.9977      0.0000    727.2006      8.0322
   330.2500     92.2432      0.0000    729.7407      8.2036
   330.5000     84.8010      0.0000    731.5985      8.2861
   330.7500     75.1652      0.0000    732.5493      8.2658
   331.0000     65.3075      0.0000    732.6464      8.1927
   331.2500     56.9487      0.0000    731.7067      8.1322
   331.5000     51.0251      0.0000    729.2026      8.1070
   331.7500     47.7971      0.0000    724.7228      8.0891
   332.0000     47.1474      0.0000    718.6731      8.0410
   332.2500     48.6921      0.0000    712.3393      7.9578
   332.5000     51.8704      0.0000    706.8690      7.8736
   332.7500     55.8769      0.0000    702.3448      7.8346
   333.0000     59.4214      0.0000    698.2491      7.8632
   333.2500     61.0017      0.0000    694.5493      7.9412
   333.5000     59.9785      0.0000    691.7942      8.0283
   333.7500     57.3225      0.0000    690.3681      8.1062
   334.0000     54.8749      0.0000    690.1713      8.1984
   334.2500     53.7694      0.0000    691.0074      8.3376
   334.5000     53.7658      0.0000    692.9191      8.5225
   334.7500     53.9964      0.0000    695.9430      8.7176
   335.0000     53.9353      0.0000    699.6778      8.8860
   335.2500     53.6658      0.0000    703.4601      9.0094
   335.5000     53.5938      0.0000    707.0170      9.0863
   335.7500     53.9706      0.0000    710.5334      9.1271
   336.0000     54.6129      0.0000    714.0410      9.1495
   336.2500     55.1685      0.0000    717.3473      9.1656
   336.5000     55.5371      0.0000    720.5703      9.1685
   336.7500     55.7087      0.0000    724.0266      9.1354
   337.0000     55.3053      0.0000    727.5300      9.0516
   337.2500     53.7831      0.0000    730.3635      8.9322
   337.5000     51.2131      0.0000    731.9893      8.8156
   337.7500     48.4736      0.0000    732.4747      8.7361
   338.0000     46.5413      0.0000    732.2849      8.7006
   338.2500     45.8070      0.0000    731.8997      8.6901
   338.5000     46.0532      0.0000    731.6113      8.6813
   338.7500     46.7869      0.0000    731.5208      8.6654
   339.0000     47.5185      0.0000    731.6176      8.6470
   339.2500     47.9757      0.0000    731.8575      8.6282
   339.5000     48.2231      0.0000    732.1984      8.5964
   339.7500     48.5390      0.0000    732.5944      8.5319
   340.0000     49.0912      0.0000    732.9244      8.4311
   340.2500     49.6034      0.0000    732.8841      8.3196
   340.5000     49.2582      0.0000    731.9525      8.2356
   340.7500     47.1965      0.0000    729.5853      8.2019
   341.0000     43.5377      0.0000    725.7687      8.2126
   341.2500     39.8622      0.0000    721.6045      8.2426
   341.5000     38.1399      0.0000    718.9426      8.2674
   341.7500     38.8802      0.0000    718.8421      8.2822
   342.0000     40.5847      0.0000    720.6702      8.3075
   342.2500     41.1898      0.0000    723.3135      8.3720
   342.5000     39.8913      0.0000    726.5231      8.4860
   342.7500     37.6370      0.0000    729.9332      8.6311
   343.0000     36.1936      0.0000    731.6357      8.7731
   343.2500     36.7618      0.0000    729.5511      8.8809
   343.5000     39.1652      0.0000    724.1450      8.9368
   343.7500     42.2360      0.0000    718.6062      8.9402
   344.0000     44.9453      0.0000    716.4720      8.9033
   344.2500     47.0249      0.0000    719.6479      8.8458
   344.5000     48.6220      0.0000    727.6662      8.7932
   344.7500     49.7788      0.0000    737.5682      8.7774
   345.0000     50.4047      0.0000    745.1651      8.8216
   345.2500     50.5650      0.0000    747.7359      8.9123
   345.5000     50.7299      0.0000    745.7164      8.9946
   345.7500     51.7725      0.0000    741.6151      9.0140
   346.0000     54.5109      0.0000    737.6354      8.9618
   346.2500     59.0084      0.0000    734.4350      8.8680
   346.5000     64.4339      0.0000    731.5947      8.7590
   346.7500     69.8160      0.0000    728.7813      8.6396
   347.0000     74.8084      0.0000    726.4796      8.5092
   347.2500     79.4650      0.0000    725.6620      8.3788
   347.5000     83.5882      0.0000    726.6743      8.2684
   347.7500     86.8322      0.0000    728.5878      8.1933
   348.0000     89.3681      0.0000    729.7336      8.1536
   348.2500     91.8882      0.0000    728.6916      8.1383
   348.5000     94.7161      0.0000    724.9440      8.1359
   348.7500     97.2508      0.0000    719.3519      8.1361
   349.0000     98.6410      0.0000    714.3021      8.1192
   349.2500     98.8144      0.0000    712.7363      8.0529
   349.5000     98.4665      0.0000    716.3588      7.9010
   349.7500     98.2493      0.0000    724.9571      7.6330
   350.0000     98.3462      0.0000    737.7633      7.2489
   350.2500     98.6020      0.0000    754.9355      6.8225
   350.5000     98.7540      0.0000    776.6702      6.4983
   350.7500     98.7253      0.0000    800.3862      6.3894
   351.0000     98.8075      0.0000    819.5257      6.4760
   351.2500     99.3725      0.0000    826.7528      6.6412
   351.5000    100.5674      0.0000    819.5755      6.7931
   351.7500    102.5043      0.0000    802.5425      6.9074
   352.0000    105.4091      0.0000    783.2438      6.9763
   352.2500    109.0657     -2.0000    766.7805      6.9797
   352.5000    112.3022     -1.3956    754.4407      6.9160
   352.7500    113.4744      0.0000    745.8699      6.8312
   353.0000    111.7238      0.0000    740.6333      6.8031
   353.2500    107.8903      0.0000    738.0869      6.8883
   353.5000    103.9906      0.0000    737.0720      7.0740
   353.7500    101.5782      0.0000    736.2343      7.2917
   354.0000    100.6933      0.0000    734.4874      7.4921
   354.2500    100.3023      0.0000    731.2276      7.6858
   354.5000     99.3868      0.0000    726.4863      7.8976
   354.7500     97.5664      0.0000    721.1819      8.1135
   355.0000     95.1725      0.0000    716.8631      8.2910
   355.2500     93.1639      0.0000    714.4181      8.4009
   355.5000     92.6589      0.0000    712.9531      8.4483
   355.7500     94.0294      0.0000    710.6269      8.4687
   356.0000     96.5007      0.0000    706.8048      8.5105
   356.2500     98.7406      0.0000    702.9592      8.6092
   356.5000     99.6620      0.0000    701.5823      8.7664
   356.7500     98.7982      0.0000    704.7537      8.9530
   357.0000     96.5993      0.0000    713.3586      9.1297
   357.2500     94.5986      0.0000    726.5024      9.2673
   357.5000     94.6458      0.0000    741.3036      9.3528
   357.7500     97.3580      0.0000    754.0517      9.3817
   358.0000    101.3486      0.0000    762.2411      9.3524
   358.2500    104.1417      0.0000    765.5976      9.2651
   358.5000    103.9601      0.0000    765.4870      9.1289
   358.7500    100.9310      0.0000    763.7473      8.9693
   359.0000     96.8596      0.0000    761.7354      8.8226
   359.2500     93.7845      0.0000    759.7430      8.7131
   359.5000     92.6083      0.0000    757.1467      8.6369
   359.7500     93.0811      0.0000    753.2964      8.5712
   360.0000     94.7726      0.0000    748.2726      8.4939
   360.2500     97.5005      0.0000    742.9048      8.3931
   360.5000    100.6675      0.0000    738.2866      8.2687
   360.7500    102.8409      0.0000    735.1727      8.1333
   361.0000    102.7337      0.0000    733.6425      8.0067
   361.2500    100.5257      0.0000    733.2969      7.9031
