~Version Information
VERS.                      2.0: CWLS Log ASCII Standard - VERSION 2.0
WRAP.                       NO: One line per depth step
~Well Information Block
STRT.FT               260.0000: 
STOP.FT               713.2000: 
STEP.FT                 0.1000: 
NULL.                -999.2500: 
COMP.          Pioneer Natural Resources: COMPANY
WELL.           Quintessa 23-7: WELL
FLD.           Purgatoire River: FIELD
LOC.           1964' FSL & 2589' FWL--: LOCATION
PROV.                 Colorado: PROVINCE
CNTY.               Las Animas: COUNTRY
SRVC.                Patterson: SERVICE COMPANY
DATE.          Sat Nov 19 09:15:07 2005: LOG DATE
UWI.           05 071 08558 00: UNIQUE WELL ID
~Curve Information Block
DEPT.FT            0 000 00 00: Depth
DCAL.in                       : CDL Caliper
RHOB.g/cc                     : CDL Bulk Density
RHOC.g/cc                     : CDL Density Correction
DPOR.pu                       : CDL Density Porosity
NPOR.pu                       : Neutron Porosity
GR.GAPI                       : Gamma Ray
~Parameter Information Block
~A  Depth       DCAL        RHOB        RHOC        DPOR        NPOR         GR     
# ...
   480.8000      8.0182      2.4565      0.0502     11.7250     28.9671    121.5907
   480.9000      8.0182      2.4562      0.0316     11.7447     29.3663    120.3703
   481.0000      8.0219      2.4603      0.0125     11.4995     29.9072    123.1834
   481.1000      8.0219      2.4640      0.0730     11.2721     29.9781    136.3423
   481.2000      8.0219      2.4576      0.0303     11.6602     29.1739    148.7488
   481.3000      8.0233      2.4513      0.0200     12.0451     28.0019    146.2401
   481.4000      8.0233      2.4580      0.0420     11.6338     26.9915    133.4226
   481.5000      8.0104      2.4730      0.0503     10.7298     26.2365    126.2084
   481.6000      8.0104      2.4839      0.0657     10.0685     26.2711    130.1376
   481.7000      8.0104      2.4855      0.0561      9.9696     27.0863    133.9751
   481.8000      7.9880      2.4860      0.0157      9.9376     27.6207    133.9839
   481.9000      7.9880      2.4924      0.0562      9.5540     27.2937    136.2611
   482.0000      7.9689      2.5002      0.0577      9.0809     26.5344    136.4091
   482.1000      7.9689      2.5096      0.0494      8.5092     25.9274    130.7378
   482.2000      7.9689      2.5214      0.0418      7.7946     25.7248    122.7458
   482.3000      7.9612      2.5304      0.0546      7.2483     25.9209    113.6080
   482.4000      7.9612      2.5323      0.0407      7.1343     26.1189    105.8966
   482.5000      7.9600      2.5262      0.0315      7.5050     25.8355    105.0041
   482.6000      7.9600      2.5231     -0.0258      7.6917     25.2383    107.0142
   482.7000      7.9600      2.5407      0.0312      6.6250     25.1230    104.4107
   482.8000      7.9589      2.5736      0.0240      4.6332     25.8662     99.5760
   482.9000      7.9589      2.5877      0.0739      3.7748     26.6116     96.4788
   483.0000      7.9607      2.5604      0.0435      5.4276     26.5385     93.7496
   483.1000      7.9607      2.5188     -0.0244      7.9526     25.7978     90.8757
   483.2000      7.9607      2.5018      0.0024      8.9844     25.1414     89.7743
   483.3000      7.9651      2.5115     -0.0150      8.3910     25.0733     89.3824
   483.4000      7.9651      2.5248      0.0485      7.5885     25.5010     87.8325
   483.5000      7.9730      2.5241     -0.0105      7.6305     26.4230     85.0576
   483.6000      7.9730      2.5148      0.0105      8.1937     27.6715     83.0601
   483.7000      7.9730      2.5027      0.0006      8.9300     28.5754     83.4082
   483.8000      7.9865      2.4857     -0.0043      9.9547     28.9102     87.2322
   483.9000      7.9865      2.4733     -0.0210     10.7113     29.2726     93.7277
   484.0000      7.9949      2.4780     -0.0117     10.4234     29.7104     97.8167
   484.1000      7.9949      2.4940     -0.0002      9.4573     29.6487    100.1475
   484.2000      7.9949      2.5015      0.0191      8.9978     29.0699    105.6208
   484.3000      7.9884      2.4941      0.0159      9.4482     28.5162    113.7706
   484.4000      7.9884      2.4842      0.0137     10.0491     28.3875    123.3967
   484.5000      7.9771      2.4794      0.0288     10.3374     28.7089    130.3741
   484.6000      7.9771      2.4777      0.0384     10.4436     29.3529    126.7616
   484.7000      7.9771      2.4845      0.0076     10.0296     29.8613    114.7490
   484.8000      7.9721      2.5033      0.0380      8.8906     29.4421    106.2033
   484.9000      7.9721      2.5169      0.0726      8.0650     28.5326    108.7805
   485.0000      7.9699      2.5083      0.0563      8.5901     28.4138    117.4704
   485.1000      7.9699      2.4874      0.0432      9.8565     29.1987    121.6002
   485.2000      7.9699      2.4775      0.0031     10.4557     30.1083    120.3188
   485.3000      7.9724      2.4814      0.0444     10.2177     30.6001    120.1845
   485.4000      7.9724      2.4878      0.0231      9.8328     30.4644    122.1387
   485.5000      7.9845      2.4994      0.0240      9.1281     29.7690    118.2143
   485.6000      7.9845      2.5140      0.0799      8.2402     28.6808    107.1910
   485.7000      7.9845      2.5183      0.0212      7.9823     27.7781     98.8833
   485.8000      8.0025      2.5157      0.0600      8.1380     27.9942     95.8083
   485.9000      8.0025      2.5150      0.0209      8.1813     29.1303     95.9400
   486.0000      8.0144      2.5130      0.0568      8.3021     29.8473    102.0199
   486.1000      8.0144      2.5050      0.0534      8.7866     29.5374    112.0650
   486.2000      8.0144      2.4965      0.0371      9.3023     28.9891    119.0468
   486.3000      8.0168      2.4925      0.0532      9.5484     29.0646    120.9729
   486.4000      8.0168      2.4907      0.0170      9.6517     29.3584    118.7887
   486.5000      8.0169      2.4928      0.0148      9.5286     29.1326    116.0361
   486.6000      8.0169      2.5018      0.0443      8.9789     28.1928    117.0698
   486.7000      8.0169      2.5175      0.0425      8.0297     26.9619    117.7090
   486.8000      8.0150      2.5345      0.0698      7.0024     26.4818    116.3932
   486.9000      8.0150      2.5450      0.0573      6.3654     26.9443    119.2396
   487.0000      8.0062      2.5449      0.0597      6.3703     27.4788    124.6008
   487.1000      8.0062      2.5341      0.0510      7.0221     27.6489    124.7737
   487.2000      8.0062      2.5185      0.0321      7.9714     27.6949    120.1188
   487.3000      7.9898      2.5026      0.0317      8.9334     27.7359    116.7742
   487.4000      7.9898      2.4893      0.0175      9.7405     27.2987    116.6005
   487.5000      7.9759      2.4870      0.0139      9.8816     26.1134    118.1483
   487.6000      7.9759      2.4992      0.0044      9.1418     24.8456    117.2931
   487.7000      7.9759      2.5152      0.0344      8.1718     24.3340    110.1402
   487.8000      7.9672      2.5221      0.0339      7.7486     24.7575     98.9433
   487.9000      7.9672      2.5242      0.0264      7.6238     25.5501     90.8767
   488.0000      7.9626      2.5342      0.0324      7.0157     25.8199     90.2620
   488.1000      7.9626      2.5472      0.0619      6.2291     25.2839     91.9206
   488.2000      7.9626      2.5493      0.0514      6.1022     24.3057     92.6722
   488.3000      7.9623      2.5521     -0.0253      5.9307     23.5012     96.4081
   488.4000      7.9623      2.5703      0.0275      4.8331     23.3216    100.9914
   488.5000      7.9624      2.5855      0.0652      3.9115     23.5393    100.2553
   488.6000      7.9624      2.5795      0.0473      4.2730     23.8095     94.2426
   488.7000      7.9624      2.5616      0.0222      5.3580     24.0444     88.8665
   488.8000      7.9557      2.5511      0.0000      5.9923     24.2090     88.2832
   488.9000      7.9557      2.5517      0.0253      5.9590     24.3130     90.6608
   489.0000      7.9443      2.5496      0.0541      6.0856     24.3506     92.4307
   489.1000      7.9443      2.5433      0.0092      6.4665     24.5811     92.2918
   489.2000      7.9443      2.5477      0.0303      6.1972     25.3763     91.7700
   489.3000      7.9419      2.5609      0.0841      5.3990     26.1447     93.1587
   489.4000      7.9419      2.5639      0.0681      5.2173     25.9623     94.3680
   489.5000      7.9449      2.5572      0.0410      5.6272     25.1674     92.6180
   489.6000      7.9449      2.5565      0.0372      5.6647     24.2440     88.9171
   489.7000      7.9449      2.5613      0.1043      5.3763     23.3909     86.3879
   489.8000      7.9414      2.5578      0.0653      5.5883     23.0709     86.5447
   489.9000      7.9414      2.5463      0.0520      6.2851     23.2929     85.0983
   490.0000      7.9374      2.5403     -0.0108      6.6503     23.5965     82.0951
   490.1000      7.9374      2.5479      0.0431      6.1884     23.7617     85.8994
   490.2000      7.9374      2.5586      0.0448      5.5379     23.7857     93.7566
   490.3000      7.9382      2.5580      0.0662      5.5761     23.7499     95.1846
