~Version Information
VERS.                      2.0: CWLS Log ASCII Standard - VERSION 2.0
WRAP.                       NO: One line per depth step
~Well Information Block
STRT.FT                -8.2500: 
STOP.FT              1729.7500: 
STEP.FT                 0.2500: 
NULL.                -999.2500: 
COMP.          Pioneer Natural Resources: COMPANY
WELL.            Dude 43-34 Tr: WELL
FLD.           Purgatorie River: FIELD
LOC.           2083' FSL & 1042' FEL--: LOCATION
PROV.                       CO: PROVINCE
CNTY.               Las Animas: COUNTRY
SRVC.          Patterson Wireline: SERVICE COMPANY
DATE.          Tue Jan 31 09:23:54 2006: LOG DATE
UWI.           05 071 08676 00: UNIQUE WELL ID
~Curve Information Block
DEPT.FT            0 000 00 00: Depth
CCL.                          : Casing Collar Locator
TT3.usec                      : CBL 3' Travel Time
AMP3.mV                       : CBL 3' Amplitude
GR.GAPI                       : Gamma Ray
~Parameter Information Block
~A  Depth       CCL         TT3         AMP3         GR     
# ...
    92.2500      0.0000    702.8788      7.1241     63.7289
    92.5000      0.0000    700.2590      7.0474     59.7350
    92.7500      0.0000    698.3952      6.9375     56.6060
    93.0000      0.0000    698.3672      6.8130     54.3367
    93.2500      0.0000    700.1317      6.7034     52.7622
    93.5000      0.0000    702.4550      6.6301     52.2431
    93.7500      0.0000    703.7953      6.5951     53.0797
    94.0000      0.0000    703.7765      6.5832     54.5559
    94.2500      0.0000    703.7938      6.5740     55.3367
    94.5000      0.0000    705.6181      6.5550     54.8884
    94.7500      0.0000    709.2205      6.5262     53.7475
    95.0000      0.0000    712.3891      6.4932     52.2593
    95.2500      0.0000    712.8976      6.4560     49.9934
    95.5000      0.0000    710.8297      6.4081     46.9331
    95.7500      0.0000    708.1755      6.3439     44.5069
    96.0000      0.0000    706.2994      6.2643     44.5488
    96.2500      0.0000    704.7001      6.1771     47.2588
    96.5000      0.0000    702.4694      6.0976     50.6988
    96.7500      0.0000    700.0817      6.0469     52.4317
    97.0000      0.0000    699.3086      6.0411     51.4815
    97.2500      0.0000    701.8164      6.0808     48.7387
    97.5000      0.0000    707.9366      6.1522     45.8463
    97.7500      0.0000    716.0870      6.2369     43.9924
    98.0000      0.0000    723.1346      6.3190     43.6765
    98.2500      0.0000    726.0065      6.3868     45.0324
    98.5000      0.0000    723.7924      6.4339     47.7272
    98.7500      0.0000    718.8497      6.4593     50.5130
    99.0000      0.0000    715.8217      6.4690     51.6103
    99.2500      0.0000    718.6355      6.4749     50.0762
    99.5000      0.0000    727.4542      6.4900     46.6722
    99.7500      0.0000    738.5697      6.5186     43.2114
   100.0000      0.0000    747.5952      6.5519     41.1788
   100.2500      0.0000    752.4384      6.5745     40.8733
   100.5000      0.0000    753.1310      6.5744     41.5008
   100.7500      0.0000    750.1802      6.5492     42.0590
   101.0000      0.0000    744.3416      6.5055     42.2856
   101.2500      0.0000    737.1824      6.4544     42.6849
   101.5000      0.0000    730.5490      6.4042     43.6238
   101.7500      0.0000    725.1096      6.3539     44.7720
   102.0000      0.0000    719.9598      6.2971     45.5751
   102.2500      0.0000    714.2834      6.2304     45.8712
   102.5000      0.0000    709.1869      6.1556     45.8773
   102.7500      0.0000    707.0372      6.0780     45.9550
   103.0000      0.0000    708.7927      6.0066     46.5064
   103.2500      0.0000    712.3994      5.9533     47.6145
   103.5000      0.0000    714.1801      5.9261     48.6852
   103.7500      0.0000    711.9438      5.9241     49.0543
   104.0000      0.0000    706.5730      5.9423     49.2176
   104.2500      0.0000    700.8018      5.9762     50.9434
   104.5000      0.0000    697.4689      6.0187     55.6141
   104.7500      0.0000    699.1837      6.0554     62.4056
   105.0000      0.0000    707.9293      6.0702     68.4365
   105.2500      0.0000    723.0329      6.0550     71.1094
   105.5000      0.0000    739.8835      6.0149     70.2613
   105.7500      0.0000    752.4293      5.9662     67.7126
   106.0000      0.0000    757.3756      5.9230     64.9421
   106.2500      0.0000    754.9644      5.8790     61.9016
   106.5000      0.0000    746.0862      5.8063     58.0915
   106.7500      0.0000    730.9245      5.6776     54.0063
   107.0000      0.0000    711.2781      5.4855     51.0570
   107.2500      0.0000    692.2074      5.2369     50.3720
   107.5000      0.0000    679.5106      4.9345     51.9445
   107.7500      0.0000    675.7128      4.5809     54.8069
   108.0000      0.0000    678.9273      4.2088     57.8704
   108.2500      0.0000    685.7532      3.8929     60.4792
   108.5000      0.0000    695.4015      3.7013     62.2116
   108.7500      0.0000    710.1549      3.6299     62.5826
   109.0000      0.0000    730.9802      3.6138     61.2738
   109.2500      0.0000    754.4340      3.5985     58.4699
   109.5000      0.0000    776.0674      3.5741     54.7871
   109.7500      0.0000    795.7516      3.5529     51.0921
   110.0000      2.0000    817.4012      3.5509     48.5127
   110.2500     -2.0000    843.1038      3.5958     48.2483
   110.5000      0.0000    866.5238      3.7417     50.9752
   110.7500      0.0000    872.3843      4.0621     56.2050
   111.0000      0.0000    847.4868      4.5962     62.2006
   111.2500      0.0000    795.9606      5.2708     66.9369
   111.5000      0.0000    739.8735      5.9073     69.5790
   111.7500      0.0000    701.1443      6.3625     70.9937
   112.0000      0.0000    685.5069      6.6386     72.6890
   112.2500      0.0000    684.9934      6.8235     75.3169
   112.5000      0.0000    690.2208      6.9697     78.0727
   112.7500      0.0000    696.8331      7.0720     79.2321
   113.0000      0.0000    703.7159      7.1176     77.4383
   113.2500      0.0000    709.4679      7.1151     72.9080
   113.5000      0.0000    711.8818      7.0927     67.3677
   113.7500      0.0000    710.3305      7.0838     62.5227
   114.0000      0.0000    707.5555      7.1054     58.7451
   114.2500      0.0000    708.3575      7.1422     55.5278
   114.5000      0.0000    716.2894      7.1601     52.8458
   114.7500      0.0000    731.2642      7.1362     51.3486
   115.0000      0.0000    749.5195      7.0706     51.3100
   115.2500      0.0000    765.9907      6.9732     52.0944
   115.5000      0.0000    777.3842      6.8530     52.8398
   115.7500      0.0000    783.4413      6.7226     53.2227
   116.0000      0.0000    785.7518      6.6038     53.4143
   116.2500      0.0000    785.8532      6.5193     53.6634
   116.5000      0.0000    784.2595      6.4795     54.1084
   116.7500      0.0000    780.7352      6.4762     54.9042
   117.0000      0.0000    775.4313      6.4899     56.4058
   117.2500      0.0000    769.7719      6.5027     58.9735
   117.5000      0.0000    765.5560      6.5062     62.4257
   117.7500      0.0000    762.7139      6.4984     65.8143
   118.0000      0.0000    759.1143      6.4743     67.9431
   118.2500      0.0000    753.8760      6.4246     68.1528
   118.5000      0.0000    749.9545      6.3464     66.6955
   118.7500      0.0000    751.6345      6.2563     64.4047
   119.0000      0.0000    759.6747      6.1844     61.9858
   119.2500      0.0000    770.3763      6.1510     59.7544
   119.5000      0.0000    779.2743      6.1513     58.1252
   119.7500      0.0000    784.4861      6.1643     57.8586
   120.0000      0.0000    786.6691      6.1758     59.2976
   120.2500      0.0000    787.1856      6.1881     61.6550
   120.5000      0.0000    786.8097      6.2095     63.7185
   120.7500      0.0000    785.4528      6.2389     65.2438
   121.0000      0.0000    782.3696      6.2618     67.0026
   121.2500      0.0000    776.6432      6.2624     69.3322
   121.5000      0.0000    767.8835      6.2350     71.1778
   121.7500      0.0000    756.7326      6.1848     70.9149
   122.0000      0.0000    744.8833      6.1215     68.1612
   122.2500      0.0000    734.8145      6.0534     64.7546
   122.5000      0.0000    729.2567      5.9858     63.7226
   122.7500      0.0000    729.8669      5.9209     67.0031
   123.0000      0.0000    735.6568      5.8597     74.0783
   123.2500      0.0000    743.0662      5.8028     82.6076
   123.5000      0.0000    748.2584      5.7490     90.0525
   123.7500      0.0000    749.5964      5.6948     94.8489
   124.0000      0.0000    747.9971      5.6384     96.7034
   124.2500      0.0000    745.2678      5.5895     96.3619
   124.5000      0.0000    742.4264      5.5729     94.9893
   124.7500      0.0000    739.4689      5.6112     93.2720
   125.0000      0.0000    736.2830      5.6981     90.9412
   125.2500      0.0000    733.3939      5.7946     87.4020
   125.5000      0.0000    731.5157      5.8591     82.9447
