~Version Information
VERS.                      2.0: CWLS Log ASCII Standard - VERSION 2.0
WRAP.                       NO: One line per depth step
~Well Information Block
STRT.FT               550.0000: 
STOP.FT              1979.0000: 
STEP.FT                 0.1000: 
NULL.                -999.2500: 
COMP.          Pioneer Natural Resources: COMPANY
WELL.          Flying Horse 12-11 Tr: WELL
FLD.           Purgatoire River: FIELD
LOC.           2459' FNL & 410' FWL: LOCATION
STAT.                 Colorado: PROVINCE
CNTY.               Las Animas: COUNTY
CTRY. USA : Country
SECT. 11 : Section
TOWN. 32S : Township
RANG. 66W : Range
SRVC.                Patterson: SERVICE COMPANY
DATE.          Tue Sep 06 07:09:24 2005: LOG DATE
API.           05 071 08485 00: UNIQUE WELL ID
~Curve Information Block
DEPT.FT            0 000 00 00: Depth
DCAL.in                       : CDL Caliper
RHOB.g/cc                     : CDL Bulk Density
RHOC.g/cc                     : CDL Density Correction
DPOR.pu                       : CDL Density Porosity
GR.GAPI                       : Gamma Ray
NPOR.pu                       : Neutron Porosity
~Parameter Information Block
~A  Depth       DCAL        RHOB        RHOC        DPOR         GR         NPOR    
# ...
   924.4000      8.1728      2.4996      0.0416      9.1129     94.0133     24.0480
   924.5000      8.2832      2.5053      0.0091      8.7681    100.6149     24.7851
   924.6000      8.2832      2.5226      0.0861      7.7222    113.5307     25.0852
   924.7000      8.2832      2.5316      0.1075      7.1754    124.7421     25.2233
   924.8000      8.2978      2.5185      0.0899      7.9674    129.8606     25.6612
   924.9000      8.2978      2.4961     -0.0116      9.3252    133.2097     26.2177
   925.0000      8.3020      2.4784      0.0168     10.3991    136.4588     26.1676
   925.1000      8.3020      2.4577      0.0274     11.6548    137.7138     25.5986
   925.2000      8.3020      2.4293     -0.0318     13.3738    137.3335     25.3175
   925.3000      8.2686      2.4019     -0.0173     15.0336    141.0490     25.4434
   925.4000      8.2686      2.3801      0.0321     16.3552    152.1494     25.5045
   925.5000      8.1884      2.3708     -0.0251     16.9226    158.9312     25.4808
   925.6000      8.1884      2.3792      0.0098     16.4126    152.2910     25.4987
   925.7000      8.1884      2.3967      0.0324     15.3508    141.0909     25.3965
   925.8000      8.1477      2.4184      0.0515     14.0361    135.3907     25.2728
   925.9000      8.1477      2.4503      0.0403     12.1013    139.7638     25.2683
   926.0000      8.0884      2.4809      0.1623     10.2457    152.3236     25.1982
   926.1000      8.0884      2.4774      0.2023     10.4608    161.7145     24.9396
   926.2000      8.0884      2.4373      0.1539     12.8889    161.9059     24.6781
   926.3000      8.0165      2.3973      0.1434     15.3160    156.9875     24.7615
   926.4000      8.0165      2.3794      0.1105     16.3987    150.2103     25.0037
   926.5000      8.0826      2.3736      0.0782     16.7518    146.7388     24.8973
   926.6000      8.0826      2.3638      0.0451     17.3467    151.9906     24.5928
   926.7000      8.0826      2.3500      0.0013     18.1818    160.5628     24.4270
   926.8000      8.1990      2.3421      0.0740     18.6584    160.5854     24.2569
   926.9000      8.1990      2.3465      0.0916     18.3943    150.9632     23.9732
   927.0000      8.2655      2.3714      0.1004     16.8851    144.0627     23.9788
   927.1000      8.2655      2.4167      0.2269     14.1409    145.1821     24.3537
   927.2000      8.2655      2.4556      0.2613     11.7824    147.2070     24.4705
   927.3000      8.2696      2.4670      0.1878     11.0912    144.9164     24.0430
   927.4000      8.2696      2.4624      0.1824     11.3673    141.5598     23.5110
   927.5000      8.2593      2.4633      0.1875     11.3170    140.1752     23.4359
   927.6000      8.2593      2.4811      0.2349     10.2369    140.3787     23.7810
   927.7000      8.2593      2.5100      0.3288      8.4844    142.9435     24.0148
   927.8000      8.2419      2.5341      0.3164      7.0254    147.5359     24.0648
   927.9000      8.2419      2.5344      0.3541      7.0033    148.8484     24.2190
   928.0000      8.2170      2.4915      0.1898      9.6060    144.4306     24.3939
   928.1000      8.2170      2.4190      0.0245     14.0011    139.5598     24.4505
   928.2000      8.2170      2.3609     -0.0136     17.5217    140.3737     24.4241
   928.3000      8.2760      2.3452      0.0005     18.4729    141.7038     24.4125
   928.4000      8.2760      2.3647      0.0580     17.2910    136.5626     24.8233
   928.5000      8.3750      2.3908      0.0684     15.7107    134.1613     25.9264
   928.6000      8.3750      2.4020      0.0860     15.0282    144.1423     26.9260
   928.7000      8.3750      2.3980      0.0617     15.2735    154.5502     26.7918
   928.8000      8.3447      2.3865      0.0797     15.9674    152.4630     25.7805
   928.9000      8.3447      2.3718      0.0148     16.8627    147.4739     24.9083
   929.0000      8.3548      2.3553      0.0480     17.8613    151.9406     24.4405
   929.1000      8.3548      2.3417     -0.0122     18.6819    161.4179     23.8931
   929.2000      8.3548      2.3354      0.0457     19.0681    166.0584     22.8117
   929.3000      8.3344      2.3309      0.0189     19.3384    164.6752     21.2275
   929.4000      8.3344      2.3198      0.0698     20.0128    161.0751     19.7701
   929.5000      8.2251      2.2873      0.1581     21.9795    157.1368     18.6482
   929.6000      8.2251      2.2241      0.1316     25.8106    152.9755     17.4254
   929.7000      8.2251      2.1324      0.1447     31.3725    149.5536     16.2407
   929.8000      8.2245      2.0113      0.0870     38.7084    150.4523     15.5604
   929.9000      8.2245      1.8721      0.0352     47.1458    151.5227     15.2975
   930.0000      8.2957      1.7358     -0.0128     55.4086    143.7958     15.1887
   930.1000      8.2957      1.6047     -0.0405     63.3518    131.7541     14.9759
   930.2000      8.2957      1.4747     -0.0833     71.2289    124.3166     14.5572
   930.3000      8.2929      1.3691     -0.1156     77.6301    120.1631     14.2980
   930.4000      8.2929      1.3156     -0.0990     80.8738    114.9603     14.3852
   930.5000      8.3267      1.3065     -0.0190     81.4232    108.6677     14.6354
   930.6000      8.3267      1.3138      0.0401     80.9817    103.2188     14.7976
   930.7000      8.3267      1.3230      0.0260     80.4228     94.8255     14.8672
   930.8000      8.2932      1.3372      0.0705     79.5628     80.5610     15.3502
   930.9000      8.2932      1.3604      0.0879     78.1568     66.3771     16.4091
   931.0000      8.2442      1.3886      0.1677     76.4482     56.4705     17.5468
   931.1000      8.2442      1.4247      0.1222     74.2622     48.8315     18.4726
   931.2000      8.2442      1.4885      0.1227     70.3933     44.9826     19.1889
   931.3000      8.2391      1.5829      0.1682     64.6730     46.4762     19.6969
   931.4000      8.2391      1.6844      0.1692     58.5210     49.1589     20.2260
   931.5000      8.3705      1.7809      0.1887     52.6701     51.6820     21.0912
   931.6000      8.3705      1.8806      0.1568     46.6330     55.6367     22.2975
   931.7000      8.3705      1.9936      0.1942     39.7807     60.9654     23.6311
   931.8000      8.4244      2.1179      0.2864     32.2458     66.4996     24.8779
   931.9000      8.4244      2.2302      0.2910     25.4415     71.3579     25.9800
   932.0000      8.4694      2.2896      0.2874     21.8421     77.2532     26.9284
   932.1000      8.4694      2.2677      0.1717     23.1694     84.6496     27.1813
   932.2000      8.4694      2.1680      0.1361     29.2117     90.6928     26.2280
   932.3000      8.4809      2.0165      0.0132     38.3964     96.0013     24.3564
   932.4000      8.4809      1.8557     -0.0756     48.1400    105.8039     22.3821
   932.5000      8.4971      1.7037     -0.0456     57.3512    122.7379     20.6438
   932.6000      8.4971      1.5351     -0.0995     67.5704    140.1704     18.8163
   932.7000      8.4971      1.3327     -0.1975     79.8348    146.3348     16.9310
   932.8000      8.6195      1.1035     -0.1823     93.7298    139.6163     15.2346
   932.9000      8.6195      0.8781     -0.2058    107.3890    132.1254     13.6526
   933.0000      8.7293      0.7379     -0.3178    115.8836    128.6342     11.9636
   933.1000      8.7293      0.7668     -0.2544    114.1308    123.8179     10.4873
   933.2000      8.7293      0.9509      0.0176    102.9773    118.7294      9.7517
   933.3000      9.0028      1.1786      0.1572     89.1731    119.8385      9.6889
   933.4000      9.0028      1.3519      0.2391     78.6727    129.3038     10.1845
   933.5000      9.4528      1.4516      0.2915     72.6295    140.8392     11.2214
   933.6000      9.4528      1.5016      0.3251     69.6007    146.8996     12.4275
   933.7000      9.4528      1.5192      0.3058     68.5310    144.5388     13.7203
   933.8000     10.0366      1.5034      0.2980     69.4901    131.2286     15.3918
   933.9000     10.0366      1.4535      0.1668     72.5163    114.0212     17.3772
