~Version Information
VERS.                      2.0: CWLS Log ASCII Standard - VERSION 2.0
WRAP.                       NO: One line per depth step
~Well Information Block
STRT.FT               745.0000: 
STOP.FT              1985.0000: 
STEP.FT                 0.1000: 
NULL.                -999.2500: 
COMP.          Pioneer Natural Resources: COMPANY
WELL.          Lorencito 15-36-33-67: WELL
FLD.           Purgatoire River: FIELD
LOC.           38' FSL & 1446' FEL: LOCATION
STAT.                 Colorado: State
CNTY.               Las Animas: COUNTY
CTRY. USA : Country
SECT. 36 : Section
TOWN. 33S : Township
RANG. 67W : Range
SRVC.                Patterson: SERVICE COMPANY
DATE.          Thu Oct 13 10:16:17 2005: LOG DATE
API.           05 071 08515 00: UNIQUE WELL ID
~Curve Information Block
DEPT.FT            0 000 00 00: Depth
DCAL.in                       : CDL Caliper
RHOB.g/cc                     : CDL Bulk Density
RHOC.g/cc                     : CDL Density Correction
DPOR.pu                       : CDL Density Porosity
GR.GAPI                       : Gamma Ray
NPOR.pu                       : Neutron Porosity
~Parameter Information Block
~A  Depth       DCAL        RHOB        RHOC        DPOR         GR         NPOR    
# ...
   908.2000      8.0399      2.5912      0.0873      3.5611    159.1584     28.7245
   908.3000      8.0409      2.5596      0.0151      5.4779    166.4301     28.9203
   908.4000      8.0409      2.5275      0.0069      7.4271    169.8883     28.4658
   908.5000      8.0379      2.5078      0.0585      8.6172    167.7278     27.6665
   908.6000      8.0379      2.4995      0.0263      9.1214    164.3414     27.1153
   908.7000      8.0379      2.5087      0.0161      8.5646    163.6800     26.8333
   908.8000      8.0403      2.5336      0.0830      7.0517    167.0470     26.8187
   908.9000      8.0403      2.5586      0.0891      5.5367    171.0421     27.4473
   909.0000      8.0398      2.5755      0.1065      4.5133    170.9312     28.4770
   909.1000      8.0398      2.5815      0.1066      4.1521    164.3876     29.1208
   909.2000      8.0398      2.5763      0.0881      4.4643    150.0667     29.2857
   909.3000      8.0389      2.5789      0.0742      4.3082    135.9351     29.2786
   909.4000      8.0389      2.6036      0.1167      2.8136    131.6528     29.0261
   909.5000      8.0360      2.6285      0.1232      1.3034    133.3709     28.5173
   909.6000      8.0360      2.6306      0.0668      1.1770    133.8570     28.0206
   909.7000      8.0360      2.6134      0.0634      2.2187    132.0530     27.7226
   909.8000      8.0403      2.5907      0.0139      3.5960    127.9809     27.5553
   909.9000      8.0403      2.5780     -0.0024      4.3642    123.7367     27.1797
   910.0000      8.0372      2.5760      0.0491      4.4838    119.8809     26.7940
   910.1000      8.0372      2.5726      0.0023      4.6895    115.1267     26.6371
   910.2000      8.0372      2.5653      0.0254      5.1351    111.1813     26.1754
   910.3000      8.0363      2.5535      0.0208      5.8482    109.0440     25.6981
   910.4000      8.0363      2.5346      0.0023      6.9943    107.7165     26.0036
   910.5000      8.0358      2.5125     -0.0067      8.3314    104.3392     26.3042
   910.6000      8.0358      2.5026     -0.0321      8.9325     99.1108     25.4425
   910.7000      8.0358      2.5149      0.0015      8.1890     97.9698     23.9318
   910.8000      8.0342      2.5306      0.0775      7.2367    101.3659     22.9621
   910.9000      8.0342      2.5285      0.0317      7.3666    102.7989     23.1634
   911.0000      8.0337      2.5168      0.0196      8.0722    101.3229     24.2710
   911.1000      8.0337      2.5022      0.0579      8.9597     99.6859     24.9742
   911.2000      8.0337      2.4772      0.0229     10.4706     98.4583     24.7138
   911.3000      8.0308      2.4551     -0.0212     11.8105     96.7100     24.5867
   911.4000      8.0308      2.4592      0.0231     11.5656     95.9732     25.1906
   911.5000      8.0265      2.4921      0.0163      9.5700     98.9864     25.5718
   911.6000      8.0265      2.5416      0.1050      6.5720    103.9633     24.8228
   911.7000      8.0265      2.5926      0.1290      3.4806    107.8934     23.4876
   911.8000      8.0085      2.6421      0.1891      0.4811    107.0308     22.6364
   911.9000      8.0085      2.6894      0.2361     -2.3900    100.8413     22.6548
   912.0000      7.9921      2.7207      0.2461     -4.2851     95.6413     22.7927
   912.1000      7.9921      2.7215      0.2427     -4.3315     92.8268     22.5767
   912.2000      7.9921      2.6970      0.1728     -2.8499     88.8701     22.5096
   912.3000      8.0022      2.6650      0.1082     -0.9067     82.5065     22.8273
   912.4000      8.0022      2.6348      0.0978      0.9196     73.8425     23.1753
   912.5000      8.0470      2.6134      0.0689      2.2193     66.7324     23.1022
   912.6000      8.0470      2.6093      0.0508      2.4658     65.0766     22.6180
   912.7000      8.0470      2.6155      0.0758      2.0933     66.4941     22.3374
   912.8000      8.0717      2.6141      0.0704      2.1753     67.3213     22.5520
   912.9000      8.0717      2.5963      0.0636      3.2518     66.8874     23.1698
   913.0000      8.0696      2.5689      0.0105      4.9161     64.8035     23.8641
   913.1000      8.0696      2.5478      0.0148      6.1936     61.7423     24.1281
   913.2000      8.0696      2.5382      0.0279      6.7748     60.0081     24.0086
   913.3000      8.0741      2.5387      0.0248      6.7482     60.9958     23.7609
   913.4000      8.0741      2.5484      0.0216      6.1562     64.3039     23.5144
   913.5000      8.0876      2.5623      0.0678      5.3174     67.5257     23.5157
   913.6000      8.0876      2.5770      0.0822      4.4270     70.2803     23.6645
   913.7000      8.0876      2.5940      0.0100      3.3932     77.1394     23.9059
   913.8000      8.0890      2.6146      0.0587      2.1444     88.1829     24.2594
   913.9000      8.0890      2.6339      0.0864      0.9770     97.8375     24.5182
   914.0000      8.0712      2.6376      0.1590      0.7493    103.5814     24.6274
   914.1000      8.0712      2.6196      0.0870      1.8446    106.2462     24.6318
   914.2000      8.0712      2.6034      0.0733      2.8270    107.2306     24.6314
   914.3000      8.0676      2.6111      0.0807      2.3573    106.9479     24.5108
   914.4000      8.0676      2.6332      0.0470      1.0158    101.7189     24.3710
   914.5000      8.0609      2.6466      0.0932      0.2082     90.7361     24.4407
   914.6000      8.0609      2.6413      0.0517      0.5277     86.3587     24.2957
   914.7000      8.0609      2.6283      0.0523      1.3141     95.6777     23.8340
   914.8000      8.0928      2.6118      0.0912      2.3124    106.6189     23.7014
   914.9000      8.0928      2.5873      0.0287      3.8014    109.2931     24.0075
   915.0000      8.0928      2.5652      0.0316      5.1371    107.6034     24.0015
   915.1000      8.0928      2.5524      0.0625      5.9135    108.6512     23.5308
   915.2000      8.0928      2.5422      0.0563      6.5311    110.7957     23.0414
   915.3000      8.0978      2.5351      0.0384      6.9652    108.2025     23.0018
   915.4000      8.0978      2.5378      0.0010      6.8012    100.4604     23.7369
   915.5000      8.0987      2.5457      0.0659      6.3188     92.7509     24.7926
   915.6000      8.0987      2.5464      0.0473      6.2759     88.3732     25.5608
   915.7000      8.0987      2.5408      0.0291      6.6157     87.7416     25.7945
   915.8000      8.0979      2.5387      0.0333      6.7434     92.0815     25.6695
   915.9000      8.0979      2.5437      0.0114      6.4443     99.0242     25.6706
   916.0000      8.0976      2.5553      0.0519      5.7403    103.8944     25.6771
   916.1000      8.0976      2.5696      0.0819      4.8711    107.7184     25.2651
   916.2000      8.0976      2.5813      0.0656      4.1632    115.1277     24.8212
   916.3000      8.0982      2.5839      0.0860      4.0066    123.5124     25.0643
   916.4000      8.0982      2.5764      0.0737      4.4606    128.0550     25.9269
   916.5000      8.0971      2.5747      0.0067      4.5606    129.8201     26.6843
   916.6000      8.0971      2.5853      0.0808      3.9241    131.0543     26.9068
   916.7000      8.0971      2.5850      0.0798      3.9391    132.7453     26.4461
   916.8000      8.0987      2.5667      0.0299      5.0484    133.1673     25.4599
   916.9000      8.0987      2.5562     -0.0091      5.6841    128.5643     24.5133
   917.0000      8.0965      2.5615      0.0234      5.3664    120.6300     23.7642
   917.1000      8.0965      2.5555      0.0562      5.7268    112.5398     23.1842
   917.2000      8.0965      2.5285      0.0324      7.3640    102.6346     22.8988
   917.3000      8.0927      2.5062      0.0397      8.7161     93.5190     22.5851
   917.4000      8.0927      2.5046      0.0218      8.8134     90.7131     21.9194
   917.5000      8.0741      2.5144      0.0543      8.2205     93.7851     21.5020
   917.6000      8.0741      2.5266      0.0512      7.4783    100.4918     21.8213
   917.7000      8.0741      2.5422      0.0440      6.5334    108.5376     22.2689
