~Version Information
VERS.                      2.0: CWLS Log ASCII Standard - VERSION 2.0
WRAP.                       NO: One line per depth step
~Well Information Block
STRT.FT                -8.2500: 
STOP.FT              1729.7500: 
STEP.FT                 0.2500: 
NULL.                -999.2500: 
COMP.          Pioneer Natural Resources: COMPANY
WELL.            Dude 43-34 Tr: WELL
FLD.           Purgatorie River: FIELD
LOC.           2083' FSL & 1042' FEL--: LOCATION
PROV.                       CO: PROVINCE
CNTY.               Las Animas: COUNTRY
SRVC.          Patterson Wireline: SERVICE COMPANY
DATE.          Tue Jan 31 09:23:54 2006: LOG DATE
UWI.           05 071 08676 00: UNIQUE WELL ID
~Curve Information Block
DEPT.FT            0 000 00 00: Depth
CCL.                          : Casing Collar Locator
TT3.usec                      : CBL 3' Travel Time
AMP3.mV                       : CBL 3' Amplitude
GR.GAPI                       : Gamma Ray
~Parameter Information Block
~A  Depth       CCL         TT3         AMP3         GR     
# ...
  1231.2500      0.0000    425.8733     18.5640    108.6538
  1231.5000      0.0000    379.4328     19.2903    106.3981
  1231.7500      0.0000    369.1613     19.1702    104.2977
  1232.0000      0.0000    395.1798     18.2972    103.4598
  1232.2500      0.0000    452.7245     16.9078    103.4566
  1232.5000      0.0000    530.5779     15.2860    103.1855
  1232.7500      0.0000    610.9602     13.6734    102.2997
  1233.0000      0.0000    676.3794     12.2192    101.4145
  1233.2500      0.0000    718.4568     10.9727    101.0395
  1233.5000      0.0000    739.6825      9.9159    100.9188
  1233.7500      0.0000    747.4493      9.0160    100.6867
  1234.0000      0.0000    747.0661      8.2573    100.6461
  1234.2500      0.0000    738.3541      7.6325    101.2583
  1234.5000      0.0000    716.1317      7.1262    102.1752
  1234.7500      0.0000    674.4894      6.7201    102.4964
  1235.0000      0.0000    613.6233      6.4068    101.9700
  1235.2500      0.0000    543.6719      6.1885    101.3762
  1235.5000      0.0000    480.2952      6.0571    101.5872
  1235.7500      0.0000    435.8631      5.9749    102.4767
  1236.0000      0.0000    414.9001      5.8762    102.7626
  1236.2500      0.0000    415.2985      5.7083    100.8495
  1236.5000      0.0000    431.2321      5.4826     96.1410
  1236.7500      0.0000    457.2283      5.2695     89.9446
  1237.0000      0.0000    492.5859      5.1246     85.0938
  1237.2500      0.0000    539.6584      5.0405     84.4508
  1237.5000      0.0000    595.2145      4.9873     89.4270
  1237.7500      0.0000    646.9782      4.9671     99.3395
  1238.0000      0.0000    682.2359      4.9986    111.6014
  1238.2500      0.0000    697.9169      5.0755    122.6744
  1238.5000      2.0000    700.5943      5.1695    129.7592
  1238.7500      0.0000    698.9590      5.2618    132.2585
  1239.0000      0.0000    697.3831      5.3653    131.6668
  1239.2500      0.0000    694.5591      5.5179    130.0141
  1239.5000      0.0000    687.4716      5.7365    128.3713
  1239.7500      0.0000    677.5944      5.9632    126.5633
  1240.0000      0.0000    671.6802      6.0920    124.0717
  1240.2500      0.0000    674.7832      6.0824    120.9891
  1240.5000      0.0000    684.6025      6.0113    117.8711
  1240.7500      0.0000    694.4708      5.9810    114.8720
  1241.0000      0.0000    700.0233      6.0142    111.7487
  1241.2500      0.0000    701.5106      6.0663    108.8224
  1241.5000      0.0000    701.0901      6.0992    107.0838
  1241.7500      0.0000    699.4736      6.1147    107.0517
  1242.0000      0.0000    695.0021      6.1344    108.1759
  1242.2500      0.0000    684.4170      6.1698    109.6330
  1242.5000      0.0000    663.2466      6.2099    111.3181
  1242.7500      0.0000    627.2258      6.2326    113.7180
  1243.0000      0.0000    577.3658      6.2288    116.9558
  1243.2500      0.0000    525.1926      6.2123    120.3401
  1243.5000      0.0000    489.9485      6.2021    123.0478
  1243.7500      0.0000    486.8361      6.1996    124.9195
  1244.0000      0.0000    516.0950      6.1890    126.3149
  1244.2500      0.0000    562.7892      6.1583    127.5033
  1244.5000      0.0000    607.5052      6.1167    128.5737
  1244.7500      0.0000    638.6063      6.0892    129.6457
  1245.0000      0.0000    655.9302      6.0953    130.6240
  1245.2500      0.0000    665.2170      6.1341    130.9628
  1245.5000      0.0000    671.3642      6.1934    130.3028
  1245.7500      0.0000    676.5936      6.2792    129.1225
  1246.0000      0.0000    682.1605      6.4300    128.0784
  1246.2500      0.0000    689.3881      6.6872    126.9377
  1246.5000      0.0000    698.7198      7.0469    124.8195
  1246.7500      0.0000    708.5331      7.4496    121.2281
  1247.0000      0.0000    715.6936      7.8219    116.4257
  1247.2500      0.0000    717.7468      8.1218    111.2708
  1247.5000      0.0000    714.6876      8.3457    107.2353
  1247.7500      0.0000    708.9531      8.5054    106.0183
  1248.0000      0.0000    703.6951      8.6099    108.4133
  1248.2500      0.0000    699.9647      8.6637    113.4607
  1248.5000      0.0000    693.9964      8.6777    118.9892
  1248.7500      0.0000    677.2184      8.6730    123.1770
  1249.0000      0.0000    641.1722      8.6680    125.6815
  1249.2500      0.0000    585.5563      8.6531    127.5232
  1249.5000      0.0000    522.5550      8.5867    130.1393
  1249.7500      0.0000    471.9978      8.4291    134.4040
  1250.0000      0.0000    450.8497      8.1771    139.8014
  1250.2500      0.0000    465.5126      7.8640    144.0050
  1250.5000      0.0000    510.1019      7.5360    143.8779
  1250.7500      0.0000    569.1451      7.2412    137.9266
  1251.0000      0.0000    624.2266      7.0252    127.8852
  1251.2500      0.0000    662.5115      6.9126    117.4363
  1251.5000      0.0000    681.4731      6.8865    109.5520
  1251.7500      0.0000    686.9186      6.8947    105.4316
  1252.0000      0.0000    687.3361      6.8851    105.3014
  1252.2500      0.0000    689.0112      6.8363    109.0041
  1252.5000      0.0000    693.9225      6.7547    115.6912
  1252.7500      0.0000    700.3798      6.6487    123.5839
  1253.0000      0.0000    705.3365      6.5153    130.4440
  1253.2500      0.0000    706.8128      6.3529    134.6360
  1253.5000      0.0000    704.9080      6.1819    136.0675
  1253.7500      0.0000    701.1544      6.0410    135.9358
  1254.0000      0.0000    697.2543      5.9607    135.3018
  1254.2500      0.0000    694.3497      5.9394    134.2523
  1254.5000      0.0000    692.9219      5.9463    132.5629
  1254.7500      0.0000    692.9584      5.9437    130.6203
  1255.0000      0.0000    694.1738      5.9084    129.3361
  1255.2500      0.0000    695.8922      5.8403    129.3401
  1255.5000      0.0000    696.7712      5.7586    130.3253
  1255.7500      0.0000    695.5140      5.6924    131.1375
  1256.0000      0.0000    692.4592      5.6701    130.6580
  1256.2500      0.0000    689.9730      5.7086    128.4910
  1256.5000      0.0000    690.6671      5.8049    124.7926
  1256.7500      0.0000    695.1262      5.9373    119.9551
  1257.0000      0.0000    701.2461      6.0792    114.7930
  1257.2500      0.0000    705.5551      6.2137    110.5580
  1257.5000      0.0000    705.3876      6.3352    108.2019
  1257.7500      0.0000    700.4373      6.4421    107.6457
  1258.0000      0.0000    692.7441      6.5304    108.0748
  1258.2500      0.0000    685.1985      6.5917    108.9424
  1258.5000      0.0000    679.7341      6.6174    110.3302
  1258.7500      0.0000    676.4835      6.6065    112.1007
  1259.0000      0.0000    674.1082      6.5701    112.9570
  1259.2500      0.0000    670.3055      6.5268    110.9654
  1259.5000      0.0000    662.0401      6.4933    105.3037
  1259.7500      0.0000    645.9744      6.4794     97.1345
  1260.0000      0.0000    619.4491      6.4875     88.4634
  1260.2500      0.0000    581.7445      6.5121     80.4599
  1260.5000      0.0000    535.5027      6.5394     73.3124
  1260.7500      0.0000    487.7679      6.5543     67.3403
  1261.0000      0.0000    448.6386      6.5504     63.5964
  1261.2500      0.0000    427.5105      6.5287     63.3125
  1261.5000      0.0000    430.2098      6.4913     66.9133
  1261.7500      0.0000    458.0287      6.4437     73.4009
  1262.0000      0.0000    506.1930      6.4032     80.6161
  1262.2500      0.0000    562.9803      6.3921     86.4503
  1262.5000      0.0000    614.0818      6.4142     90.1434
  1262.7500      0.0000    650.4214      6.4464     92.5508
  1263.0000      0.0000    671.5029      6.4621     95.3622
  1263.2500      0.0000    681.7003      6.4587    100.1844
  1263.5000      0.0000    685.3077      6.4529    108.0632
  1263.7500      0.0000    685.0798      6.4549    119.1487
  1264.0000      0.0000    683.0581      6.4542    132.1861
  1264.2500      0.0000    680.8975      6.4337    144.3606
  1264.5000      0.0000    679.5815      6.3954    152.4418
