~Version Information
 VERS.                                  2.0 : CWLS LAS VERSION
 WRAP.                                   NO : WRAPING MODE
 SWARE .                 MController 2.5.0J : SOFTWARE VERSION
~Well Information
 WELL.YWAM 7-32R : WELL
 COMP.                Petrogulf Corporation : COMPANY
 FLD.                      Purgatoire River : FIELD
 LOC.                 SW/NE Sec 7 T33S R67W : LOCATION
 DATE.9/28/05 : DATE(S) LOGGED
 SRVC.       BLANCO Geological Services LLC : SERVICE COMPANY
 STAT.                                   CO : STATE
 CNTY.                           Las Animas : COUNTY
 CTRY.                                  USA : COUNTRY
 API.                       05-071-08518-00 : API NUMBER
 STRT.FT                               1.00 : START DEPTH
 STOP.FT                            2100.00 : STOP DEPTH
 STEP.FT                               1.00 : DEPTH INCREMENT
 NULL.                                -9999 : NULL VALUE
~Curve information
 DEPTH.FT                                   :
 ROP.MIN/FT                                 :
 GAS.UNITS                                  :
~ASCII Log data
# ...
      1001.0         0.17          4.0 
      1002.0         0.17          3.9 
      1003.0         0.20          4.2 
      1004.0         0.23          3.9 
      1005.0         0.37          4.0 
      1006.0         0.20          3.9 
      1007.0         0.20          3.7 
      1008.0         0.20          3.8 
      1009.0         0.23          3.6 
      1010.0         0.20          3.6 
      1011.0         0.18          3.6 
      1012.0         0.20          3.9 
      1013.0         0.17          3.6 
      1014.0         0.20          4.0 
      1015.0         0.17          3.6 
      1016.0         0.23          4.0 
      1017.0         0.27          5.1 
      1018.0         1.90          7.8 
      1019.0         0.28          4.1 
      1020.0         0.30          3.8 
      1021.0         0.33          3.7 
      1022.0         0.30          3.9 
      1023.0         0.23          4.0 
      1024.0         0.27          3.9 
      1025.0         0.30          3.9 
      1026.0         0.30          3.8 
      1027.0         0.27          4.0 
      1028.0         0.30          4.0 
      1029.0         0.27          4.0 
      1030.0         0.28          4.1 
      1031.0         0.20          3.7 
      1032.0         0.27          4.1 
      1033.0         0.20          4.4 
      1034.0         0.20          5.8 
      1035.0         0.20          7.2 
      1036.0         0.20          7.6 
      1037.0         0.10          7.5 
      1038.0         0.13          7.3 
      1039.0         0.13          6.8 
      1040.0         0.13          6.6 
      1041.0         0.27          6.6 
      1042.0         0.20          5.8 
      1043.0         0.20          5.5 
      1044.0         0.20          4.9 
      1045.0         0.23          4.3 
      1046.0         0.22          4.3 
      1047.0         0.17          4.0 
      1048.0         2.95         18.1 
      1049.0         0.33          4.3 
      1050.0         0.33          4.2 
      1051.0         0.30          4.2 
      1052.0         0.20          4.3 
      1053.0         0.20          4.1 
      1054.0         0.17          3.9 
      1055.0         0.27          3.9 
      1056.0         0.23          4.0 
      1057.0         0.27          3.9 
      1058.0         0.20          3.9 
      1059.0         0.23          4.1 
      1060.0         0.23          4.1 
      1061.0         0.20          4.1 
      1062.0         0.28          3.9 
      1063.0         0.30          3.9 
      1064.0         0.20          3.8 
      1065.0         0.17          4.0 
      1066.0         0.23          4.1 
      1067.0         0.20          4.4 
      1068.0         0.30          5.0 
      1069.0         0.17          4.6 
      1070.0         0.17          4.6 
      1071.0         0.13          4.2 
      1072.0         0.17          4.5 
      1073.0         0.33          4.1 
      1074.0         0.30          4.3 
      1075.0         0.23          4.4 
      1076.0         0.22          4.9 
      1077.0         0.23          6.3 
      1078.0         1.80         12.8 
      1079.0         0.33          5.3 
      1080.0         0.33          5.3 
      1081.0         0.23          5.0 
      1082.0         0.35          4.8 
      1083.0         0.30          4.4 
      1084.0         0.27          4.6 
      1085.0         0.23          5.0 
      1086.0         0.23          6.0 
      1087.0         0.23          6.2 
      1088.0         0.20          6.0 
      1089.0         0.17          6.3 
      1090.0         0.17          6.0 
      1091.0         0.20          5.7 
      1092.0         0.20          5.4 
      1093.0         0.20          5.5 
      1094.0         0.20          5.3 
      1095.0         0.23          5.1 
      1096.0         0.20          5.3 
      1097.0         0.25          5.2 
      1098.0         0.23          5.1 
      1099.0         0.17          5.5 
      1100.0         0.20          5.3 
      1101.0         0.23          5.0 
      1102.0         0.23          5.1 
      1103.0         0.23          4.9 
      1104.0         0.23          4.7 
      1105.0         0.20          4.9 
      1106.0         0.23          5.0 
      1107.0         0.20          5.8 
      1108.0         2.12         10.3 
      1109.0         0.20          5.5 
      1110.0         0.20          5.1 
      1111.0         0.20          4.6 
      1112.0         0.23          5.0 
      1113.0         0.30          5.1 
      1114.0         0.30          5.1 
      1115.0         0.27          4.8 
      1116.0         0.20          5.1 
      1117.0         0.20          4.8 
      1118.0         0.20          4.7 
      1119.0         0.28          4.8 
      1120.0         0.33          5.0 
      1121.0         0.27          5.0 
      1122.0         0.27          4.6 
      1123.0         0.27          4.7 
      1124.0         0.27          4.8 
      1125.0         0.27          4.8 
      1126.0         0.30          4.8 
      1127.0         0.30          4.6 
      1128.0         0.30          4.7 
      1129.0         0.33          4.9 
      1130.0         0.28          4.9 
      1131.0         0.30          5.1 
      1132.0         0.30          5.0 
      1133.0         0.27          4.9 
      1134.0         0.27          5.0 
      1135.0         0.23          5.3 
      1136.0         0.27          5.2 
      1137.0         0.27          5.7 
      1138.0         2.08         13.6 
      1139.0         0.30          5.6 
      1140.0         0.40          5.1 
      1141.0         0.43          4.8 
      1142.0         0.37          4.6 
      1143.0         0.27          4.6 
      1144.0         0.33          4.4 
      1145.0         0.27          4.7 
      1146.0         0.28          4.6 
      1147.0         0.20          4.5 
      1148.0         0.23          4.5 
      1149.0         0.30          4.6 
      1150.0         0.27          4.6 
      1151.0         0.27          4.6 
      1152.0         0.27          4.9 
      1153.0         0.30          4.8 
      1154.0         0.30          4.6 
      1155.0         0.33          4.8 
      1156.0         0.30          4.4 
      1157.0         0.42          4.8 
      1158.0         0.27          4.2 
      1159.0         0.33          4.7 
      1160.0         0.47          4.3 
      1161.0         0.27          4.7 
      1162.0         0.20          5.3 
      1163.0         0.23          7.0 
      1164.0         0.20          7.1 
      1165.0         0.20          6.4 
      1166.0         0.13          6.4 
      1167.0         0.17          6.4 
      1168.0         2.25         16.5 
      1169.0         0.13         16.7 
      1170.0         0.13         16.7 
      1171.0         0.10         17.3 
      1172.0         0.10         18.6 
      1173.0         0.10         20.1 
      1174.0         0.10         21.4 
      1175.0         0.13         21.3 
      1176.0         0.13         22.6 
      1177.0         0.33         22.3 
      1178.0         0.27         18.8 
      1179.0         0.25         15.9 
      1180.0         0.27         13.7 
      1181.0         0.33         12.3 
      1182.0         0.23         11.8 
      1183.0         0.27         11.7 
      1184.0         0.23         11.5 
      1185.0         0.20         11.0 
      1186.0         0.13         10.5 
      1187.0         0.10         10.5 
      1188.0         0.20          9.8 
      1189.0         0.20          9.5 
      1190.0         0.23          8.1 
      1191.0         0.17          7.6 
      1192.0         0.17          6.9 
      1193.0         0.17          6.9 
      1194.0         0.15          6.2 
      1195.0         0.17          6.1 
      1196.0         0.13          5.6 
      1197.0         0.17          5.3 
      1198.0         2.75         18.0 
      1199.0         0.17          6.1 
      1200.0         0.23          5.8 
