~Version Information
VERS.                      2.0: CWLS Log ASCII Standard - VERSION 2.0
WRAP.                       NO: One line per depth step
~Well Information Block
STRT.FT               595.7000: 
STOP.FT              1567.2000: 
STEP.FT                 0.1000: 
NULL.                -999.2500: 
COMP.          Pioneer Natural Resources: COMPANY
WELL.           Butch 33-10 Tr: WELL
FLD.           Purgatoire River: FIELD
LOC.           2309' FSL & 1337' FEL--: LOCATION
PROV.                 Colorado: PROVINCE
CNTY.               Las Animas: COUNTRY
SRVC.                Patterson: SERVICE COMPANY
DATE.          Mon Jan 16 07:34:05 2006: LOG DATE
UWI.           05 071 08649 00: UNIQUE WELL ID
~Curve Information Block
DEPT.FT            0 000 00 00: Depth
DCAL.in                       : CDL Caliper
RHOB.g/cc                     : CDL Bulk Density
RHOC.g/cc                     : CDL Density Correction
DPOR.pu                       : CDL Density Porosity
GR.GAPI                       : Gamma Ray
~Parameter Information Block
~A  Depth       DCAL        RHOB        RHOC        DPOR         GR     
# ...
  1469.3000      7.9291      2.6015      0.1097      2.9396    135.3047
  1469.4000      7.9291      2.6282      0.0849      1.3239    137.2327
  1469.5000      7.9323      2.6293      0.1236      1.2562    144.7385
  1469.6000      7.9323      2.6128      0.0784      2.2521    153.2731
  1469.7000      7.9323      2.6029      0.0744      2.8523    156.0406
  1469.8000      7.9321      2.6110      0.0404      2.3626    154.4669
  1469.9000      7.9321      2.6234      0.0800      1.6140    151.8251
  1470.0000      7.9278      2.6251      0.0888      1.5114    152.9512
  1470.1000      7.9278      2.6159      0.0902      2.0686    157.4916
  1470.2000      7.9278      2.6005      0.0445      3.0003    159.0276
  1470.3000      7.9253      2.5787      0.0902      4.3185    157.8484
  1470.4000      7.9253      2.5574      0.0197      5.6130    157.2120
  1470.5000      7.9302      2.5526      0.0083      5.9033    158.8678
  1470.6000      7.9302      2.5573      0.0396      5.6190    163.3252
  1470.7000      7.9302      2.5510      0.0157      6.0030    166.4204
  1470.8000      7.9403      2.5371     -0.0008      6.8394    164.2551
  1470.9000      7.9403      2.5251      0.0369      7.5709    159.7106
  1471.0000      7.9483      2.5135      0.0322      8.2740    157.2031
  1471.1000      7.9483      2.5070      0.0249      8.6686    156.6675
  1471.2000      7.9483      2.5053      0.0371      8.7708    155.8211
  1471.3000      7.9556      2.4915      0.0231      9.6081    153.2528
  1471.4000      7.9556      2.4640     -0.0236     11.2706    152.3941
  1471.5000      7.9702      2.4472     -0.0190     12.2888    155.9995
  1471.6000      7.9702      2.4518      0.0239     12.0097    160.1913
  1471.7000      7.9702      2.4602      0.0697     11.5018    160.7257
  1471.8000      7.9876      2.4559      0.0787     11.7665    159.9112
  1471.9000      7.9876      2.4435      0.0591     12.5136    162.7839
  1472.0000      7.9957      2.4308      0.0432     13.2858    168.0714
  1472.1000      7.9957      2.4141      0.0488     14.2940    172.5972
  1472.2000      7.9957      2.3876      0.0230     15.9004    175.6582
  1472.3000      7.9943      2.3391      0.0880     18.8403    175.1663
  1472.4000      7.9943      2.2573      0.0416     23.7989    169.9345
  1472.5000      7.9857      2.1599     -0.0424     29.7007    160.7316
  1472.6000      7.9857      2.0754     -0.0258     34.8229    151.8666
  1472.7000      7.9857      2.0083     -0.0486     38.8936    145.8882
  1472.8000      7.9759      1.9534     -0.0527     42.2174    141.0678
  1472.9000      7.9759      1.9150     -0.0920     44.5474    138.8526
  1473.0000      7.9776      1.9047     -0.0956     45.1676    137.6115
  1473.1000      7.9776      1.9330     -0.0433     43.4521    131.4996
  1473.2000      7.9776      1.9908      0.0803     39.9519    120.2163
  1473.3000      7.9862      2.0616      0.0999     35.6614    108.2337
  1473.4000      7.9862      2.1482      0.1417     30.4126     99.3099
  1473.5000      7.9847      2.2479      0.2412     24.3672     95.5123
  1473.6000      7.9847      2.3381      0.2384     18.9044     96.3023
  1473.7000      7.9847      2.4066      0.2167     14.7511     98.2649
  1473.8000      7.9698      2.4541      0.1160     11.8711     96.4020
  1473.9000      7.9698      2.4795      0.0770     10.3333     91.0573
  1474.0000      7.9535      2.4878      0.0387      9.8275     89.0295
  1474.1000      7.9535      2.4917      0.0514      9.5938     90.8479
  1474.2000      7.9535      2.4987      0.0827      9.1716     91.8487
  1474.3000      7.9416      2.5116      0.0725      8.3849     92.3492
  1474.4000      7.9416      2.5287      0.0779      7.3532     94.2358
  1474.5000      7.9307      2.5374      0.0786      6.8224     96.8439
  1474.6000      7.9307      2.5309      0.0885      7.2178     98.4587
  1474.7000      7.9307      2.5249      0.0494      7.5802     97.0832
  1474.8000      7.9206      2.5322      0.0679      7.1412     94.2139
  1474.9000      7.9206      2.5411      0.0766      6.6012     92.8697
  1475.0000      7.9163      2.5477      0.0593      6.1972     92.9719
  1475.1000      7.9163      2.5626      0.0806      5.2961     93.5379
  1475.2000      7.9163      2.5841      0.1097      3.9942     92.7832
  1475.3000      7.9168      2.6037      0.0954      2.8034     92.5528
  1475.4000      7.9168      2.6136      0.1320      2.2069     94.6581
  1475.5000      7.9162      2.6106      0.0585      2.3887     98.2499
  1475.6000      7.9162      2.6027      0.0996      2.8637    101.6192
  1475.7000      7.9162      2.5955      0.0565      3.3016    102.9745
  1475.8000      7.9133      2.5924      0.0694      3.4899    103.7098
  1475.9000      7.9133      2.5955      0.0717      3.3032    106.0160
  1476.0000      7.9100      2.6006      0.0635      2.9947    108.8735
  1476.1000      7.9100      2.5967      0.0832      3.2315    110.6104
  1476.2000      7.9100      2.5770      0.0633      4.4272    113.3751
  1476.3000      7.9036      2.5492      0.0617      6.1118    119.0309
  1476.4000      7.9036      2.5295      0.0391      7.3041    124.5535
  1476.5000      7.8978      2.5310      0.0331      7.2095    126.1290
  1476.6000      7.8978      2.5447      0.0953      6.3811    124.5906
  1476.7000      7.8978      2.5507      0.0524      6.0195    121.6408
  1476.8000      7.9015      2.5466      0.0540      6.2676    117.9347
  1476.9000      7.9015      2.5355      0.0353      6.9389    115.7491
  1477.0000      7.9174      2.5182      0.0328      7.9864    113.8354
  1477.1000      7.9174      2.5039      0.0318      8.8542    109.4663
  1477.2000      7.9174      2.5096      0.0007      8.5104    106.6055
  1477.3000      7.9342      2.5374      0.0509      6.8244    110.5452
  1477.4000      7.9342      2.5589      0.1057      5.5203    117.8670
  1477.5000      7.9423      2.5601      0.0414      5.4512    120.4242
  1477.6000      7.9423      2.5574      0.0606      5.6097    118.6921
  1477.7000      7.9423      2.5559      0.0571      5.7021    119.3548
  1477.8000      7.9432      2.5470      0.0679      6.2419    122.0073
  1477.9000      7.9432      2.5322      0.0552      7.1382    121.4947
  1478.0000      7.9334      2.5276      0.0182      7.4207    118.0554
  1478.1000      7.9334      2.5438      0.0430      6.4379    117.8966
  1478.2000      7.9334      2.5684      0.0962      4.9438    123.6291
  1478.3000      7.9155      2.5754      0.1123      4.5194    131.1254
  1478.4000      7.9155      2.5604      0.0422      5.4322    136.4633
  1478.5000      7.8993      2.5513      0.0382      5.9813    139.4656
  1478.6000      7.8993      2.5612      0.0798      5.3809    139.0638
  1478.7000      7.8993      2.5717      0.0825      4.7478    134.9638
  1478.8000      7.8866      2.5726      0.1031      4.6909    130.9239
  1478.9000      7.8866      2.5738      0.0864      4.6195    125.6170
  1479.0000      7.8760      2.5840      0.0780      4.0023    116.2351
  1479.1000      7.8760      2.6017      0.1190      2.9254    106.6841
  1479.2000      7.8760      2.6207      0.1200      1.7781    100.2256
  1479.3000      7.8789      2.6391      0.0935      0.6584     97.1159
  1479.4000      7.8789      2.6555      0.1270     -0.3335     96.2715
  1479.5000      7.8985      2.6542      0.1434     -0.2572     95.9724
  1479.6000      7.8985      2.6273      0.0689      1.3746     97.1755
  1479.7000      7.8985      2.5990      0.0414      3.0911     99.9468
  1479.8000      7.9167      2.5913      0.0803      3.5564    101.4163
  1479.9000      7.9167      2.5936      0.0833      3.4172    101.3264
  1480.0000      7.9247      2.5865      0.0919      3.8494    103.1734
  1480.1000      7.9247      2.5726      0.0623      4.6914    105.6790
  1480.2000      7.9247      2.5702      0.0695      4.8346    101.8722
  1480.3000      7.9283      2.5787      0.0839      4.3241     92.2410
  1480.4000      7.9283      2.5775      0.1011      4.3953     84.4902
