~Version Information
VERS.                      2.0: CWLS Log ASCII Standard - VERSION 2.0
WRAP.                       NO: One line per depth step
~Well Information Block
STRT.FT               360.0000: 
STOP.FT              2475.0000: 
STEP.FT                 0.1000: 
NULL.                -999.2500: 
COMP.          Pioneer Natural Resources: COMPANY
WELL.          Hellzonfire 32-31: WELL
FLD.           Purgatoire River: FIELD
LOC.           1993' FNL & 2265' FEL: LOCATION
STAT.                 Colorado: State
CNTY.               Las Animas: COUNTY
CTRY. USA : Country
SECT. 31 : Section
TOWN. 32S : Township
RANG. 66W : Range
SRVC.                Patterson: SERVICE COMPANY
DATE.          Fri Sep 02 07:26:13 2005: LOG DATE
API.           05 071 08483 00: UNIQUE WELL ID
~Curve Information Block
DEPT.FT            0 000 00 00: Depth
DCAL.in                       : CDL Caliper
RHOB.g/cc                     : CDL Bulk Density
RHOC.g/cc                     : CDL Density Correction
DPOR.pu                       : CDL Density Porosity
GR.GAPI                       : Gamma Ray
NPOR.pu                       : Neutron Porosity
~Parameter Information Block
~A  Depth       DCAL        RHOB        RHOC        DPOR         GR         NPOR    
# ...
  2184.0000      8.0033      2.6415      0.1808      0.5124     69.8572     19.0149
  2184.1000      8.0033      2.6272      0.1077      1.3815     73.5821     19.5592
  2184.2000      8.0033      2.6119      0.0859      2.3103     78.3616     20.4981
  2184.3000      8.0117      2.6098      0.1115      2.4335     81.5582     21.2230
  2184.4000      8.0117      2.6160      0.1168      2.0626     77.6161     20.9934
  2184.5000      8.0224      2.6064      0.1411      2.6408     69.4566     19.8484
  2184.6000      8.0224      2.5630      0.1211      5.2743     65.2923     18.6770
  2184.7000      8.0224      2.4971      0.0892      9.2676     68.1381     18.3500
  2184.8000      8.0280      2.4297      0.0683     13.3539     72.8268     19.0490
  2184.9000      8.0280      2.3630      0.1003     17.3969     73.4447     20.3152
  2185.0000      8.0256      2.2987     -0.0583     21.2907     68.9363     21.0410
  2185.1000      8.0256      2.2548     -0.0385     23.9540     62.5727     20.8455
  2185.2000      8.0256      2.2309     -0.0106     25.3972     58.0985     20.9570
  2185.3000      8.0252      2.1978      0.0161     27.4087     56.9644     22.1649
  2185.4000      8.0252      2.1253      0.0220     31.8009     58.2071     23.8383
  2185.5000      8.0311      2.0135      0.0479     38.5778     58.5195     25.1134
  2185.6000      8.0311      1.8951      0.0494     45.7540     53.7330     25.5473
  2185.7000      8.0311      1.8032     -0.0030     51.3214     44.8167     25.0685
  2185.8000      8.0293      1.7357      0.0190     55.4096     39.1162     23.9444
  2185.9000      8.0293      1.6592     -0.0019     60.0480     40.1269     23.0121
  2186.0000      8.0136      1.5611      0.0111     65.9959     43.0524     23.0130
  2186.1000      8.0136      1.4818     -0.0612     70.8015     43.6599     23.9217
  2186.2000      8.0136      1.4600      0.0638     72.1211     42.5504     25.5418
  2186.3000      8.0120      1.4766      0.1010     71.1173     42.2849     27.1728
  2186.4000      8.0120      1.4954      0.1148     69.9764     44.0606     28.1959
  2186.5000      8.0322      1.5035      0.1224     69.4873     45.7482     28.9952
  2186.6000      8.0322      1.5005      0.1246     69.6653     46.7052     29.6720
  2186.7000      8.0322      1.4877      0.1457     70.4443     48.3169     30.3466
  2186.8000      8.1028      1.4738      0.0640     71.2877     51.1754     31.3170
  2186.9000      8.1028      1.4751      0.0532     71.2036     56.4157     31.7574
  2187.0000      8.3055      1.4892      0.1042     70.3500     63.4439     31.4463
  2187.1000      8.3055      1.5003      0.0790     69.6768     67.8991     31.2601
  2187.2000      8.3055      1.5078      0.0699     69.2218     68.0282     31.5382
  2187.3000      8.5787      1.5114      0.1084     69.0087     66.5505     32.2127
  2187.4000      8.5787      1.5030      0.1154     69.5135     67.3624     32.8211
  2187.5000      8.6129      1.4898      0.1072     70.3161     73.5304     33.1414
  2187.6000      8.6129      1.4981      0.1061     69.8112     82.5342     33.7181
  2187.7000      8.6129      1.5541      0.1184     66.4172     88.1575     34.3708
  2187.8000      8.2828      1.6523      0.1702     60.4670     89.4153     34.9478
  2187.9000      8.2828      1.7555      0.1436     54.2147     89.8296     35.4823
  2188.0000      8.2432      1.8378      0.1787     49.2272     91.4348     35.4345
  2188.1000      8.2432      1.9062      0.1852     45.0799     94.3945     34.9608
  2188.2000      8.2432      1.9876      0.2053     40.1449     98.9155     34.7909
  2188.3000      8.3446      2.0944      0.2464     33.6706    104.0501     34.6865
  2188.4000      8.3446      2.2014      0.1876     27.1887    109.0865     33.8990
  2188.5000      8.3794      2.2731      0.1139     22.8424    113.6347     32.6120
  2188.6000      8.3794      2.3110      0.0705     20.5464    117.5745     31.5229
  2188.7000      8.3794      2.3544      0.0436     17.9167    121.9997     31.3457
  2188.8000      8.4278      2.4209      0.1440     13.8832    129.1323     32.0230
  2188.9000      8.4278      2.4858      0.1437      9.9545    134.6777     32.4614
  2189.0000      8.1383      2.5346      0.0689      6.9962    129.9818     32.2744
  2189.1000      8.1383      2.5646      0.1609      5.1759    119.4281     31.6177
  2189.2000      8.1383      2.5632      0.0865      5.2607    116.9191     30.1586
  2189.3000      8.0664      2.5389      0.0732      6.7305    123.4917     28.2333
  2189.4000      8.0664      2.5125      0.0909      8.3309    129.9543     27.1321
  2189.5000      8.0595      2.4954      0.0518      9.3667    133.6638     27.3522
  2189.6000      8.0595      2.4938      0.0716      9.4682    136.0026     27.5641
  2189.7000      8.0595      2.5033      0.0515      8.8889    135.6880     26.5108
  2189.8000      8.0590      2.5151      0.0768      8.1758    135.7071     25.2979
  2189.9000      8.0590      2.5299      0.0370      7.2776    140.6021     25.0488
  2190.0000      8.0679      2.5534      0.0647      5.8518    146.2168     25.3675
  2190.1000      8.0679      2.5802      0.1040      4.2275    144.9958     25.9058
  2190.2000      8.0679      2.5929      0.1284      3.4581    137.4256     26.5411
  2190.3000      8.0705      2.5828      0.1283      4.0721    132.1032     26.6850
  2190.4000      8.0705      2.5592      0.0766      5.5033    132.1487     26.1111
  2190.5000      8.0707      2.5408      0.0024      6.6211    135.3829     25.4329
  2190.6000      8.0707      2.5415      0.0787      6.5753    139.5541     25.3930
  2190.7000      8.0707      2.5587      0.0613      5.5304    140.4278     25.9000
  2190.8000      8.0747      2.5760      0.0942      4.4839    138.8809     26.2070
  2190.9000      8.0747      2.5751      0.0696      4.5394    137.4150     26.1193
  2191.0000      8.0804      2.5533      0.0829      5.8613    134.9839     25.9540
  2191.1000      8.0804      2.5183      0.1025      7.9821    130.4869     25.6624
  2191.2000      8.0804      2.4882     -0.0235      9.8034    125.0428     25.2471
  2191.3000      8.1025      2.4848      0.0258     10.0128    124.7593     25.1247
  2191.4000      8.1025      2.4970      0.0680      9.2751    132.0846     25.1966
  2191.5000      8.1162      2.4995      0.0468      9.1205    139.2829     24.9619
  2191.6000      8.1162      2.4828      0.0699     10.1324    141.2076     24.4891
  2191.7000      8.1162      2.4526      0.0211     11.9633    139.4814     24.2511
  2191.8000      8.1314      2.4301     -0.0096     13.3292    135.0851     24.3327
  2191.9000      8.1314      2.4309      0.0233     13.2783    128.5663     24.4534
  2192.0000      8.1265      2.4504      0.0307     12.0988    123.1709     24.7682
  2192.1000      8.1265      2.4753      0.0063     10.5879    122.7836     25.2724
  2192.2000      8.1265      2.4949      0.0691      9.3996    127.7144     25.8349
  2192.3000      8.1033      2.5069      0.0860      8.6716    134.7218     26.5161
  2192.4000      8.1033      2.5257      0.0206      7.5338    140.9403     26.4334
  2192.5000      8.0765      2.5579      0.0854      5.5823    145.5727     25.3949
  2192.6000      8.0765      2.5738      0.1359      4.6168    143.3690     24.8365
  2192.7000      8.0765      2.5582      0.0629      5.5619    131.3153     24.8860
  2192.8000      8.0747      2.5392      0.0192      6.7156    120.9717     24.9370
  2192.9000      8.0747      2.5314      0.0242      7.1860    122.3738     25.2182
  2193.0000      8.0264      2.5202      0.0794      7.8650    127.4010     25.6573
  2193.1000      8.0264      2.4987      0.0166      9.1681    126.0720     25.5867
  2193.2000      8.0264      2.4816      0.0469     10.2066    118.5905     25.1929
  2193.3000      8.0224      2.4793      0.0335     10.3459    110.9682     25.2694
  2193.4000      8.0224      2.4940      0.0004      9.4569    107.3373     25.5032
  2193.5000      8.0018      2.5156      0.0792      8.1437    107.4004     24.8850
