~Version Information
VERS.                      2.0: CWLS Log ASCII Standard - VERSION 2.0
WRAP.                       NO: One line per depth step
~Well Information Block
STRT.FT               530.0000: 
STOP.FT              1298.0000: 
STEP.FT                 0.1000: 
NULL.                -999.2500: 
COMP.          Pioneer Natural Resources: COMPANY
WELL.            Keiko 14-6 Tr: WELL
FLD.           Purgatoire River: FIELD
LOC.           462' FSL & 1202' FWL: LOCATION
PROV.                 Colorado: PROVINCE
CNTY.               Las Animas: COUNTRY
SRVC.                Patterson: SERVICE COMPANY
DATE.          Fri Dec 30 07:26:03 2005: LOG DATE
UWI.           05 071 08629 00: UNIQUE WELL ID
~Curve Information Block
DEPT.FT            0 000 00 00: Depth
DCAL.in                       : CDL Caliper
RHOB.g/cc                     : CDL Bulk Density
RHOC.g/cc                     : CDL Density Correction
DPOR.pu                       : CDL Density Porosity
GR.GAPI                       : Gamma Ray
~Parameter Information Block
~A  Depth       DCAL        RHOB        RHOC        DPOR         GR     
# ...
  1291.6000      7.8137      2.5488      0.0489      6.1313   -999.2500
  1291.7000      7.8137      2.5490      0.0591      6.1238   -999.2500
  1291.8000      7.7912      2.5453      0.0933      6.3438   -999.2500
  1291.9000      7.7912      2.5391      0.0371      6.7195   -999.2500
  1292.0000      7.7975      2.5396      0.0396      6.6936   -999.2500
  1292.1000      7.7975      2.5463      0.0526      6.2839   -999.2500
  1292.2000      7.7975      2.5516      0.0982      5.9629   -999.2500
  1292.3000      7.7904      2.5537      0.0846      5.8364   -999.2500
  1292.4000      7.7904      2.5574      0.0636      5.6118   -999.2500
  1292.5000      7.7926      2.5652      0.0508      5.1421   -999.2500
  1292.6000      7.7926      2.5754      0.0600      4.5188   -999.2500
  1292.7000      7.7926      2.5835      0.0878      4.0314   -999.2500
  1292.8000      7.7980      2.5779      0.0982      4.3701   -999.2500
  1292.9000      7.7980      2.5577      0.0682      5.5915   -999.2500
  1293.0000      7.7935      2.5424      0.0206      6.5242   -999.2500
  1293.1000      7.7935      2.5372      0.0508      6.8367   -999.2500
  1293.2000      7.7935      2.5307      0.0134      7.2325   -999.2500
  1293.3000      7.7898      2.5291     -0.0021      7.3296   -999.2500
  1293.4000      7.7898      2.5402      0.0302      6.6519   -999.2500
  1293.5000      7.7914      2.5546      0.0253      5.7822   -999.2500
  1293.6000      7.7914      2.5647      0.0069      5.1688   -999.2500
  1293.7000      7.7914      2.5727      0.0182      4.6878   -999.2500
  1293.8000      7.7953      2.5801      0.0199      4.2377   -999.2500
  1293.9000      7.7953      2.5839      0.0522      4.0059   -999.2500
  1294.0000      7.7962      2.5822      0.0531      4.1096   -999.2500
  1294.1000      7.7962      2.5800      0.0270      4.2401   -999.2500
  1294.2000      7.7962      2.5877      0.0110      3.7756   -999.2500
  1294.3000      7.8014      2.6112      0.0186      2.3546   -999.2500
  1294.4000      7.8014      2.6388      0.0506      0.6763   -999.2500
  1294.5000      7.7653      2.6548      0.0252     -0.2886   -999.2500
  1294.6000      7.7653      2.6548      0.0585     -0.2902   -999.2500
  1294.7000      7.7653      2.6385      0.0431      0.6991   -999.2500
  1294.8000      7.7163      2.6176     -0.0166      1.9634   -999.2500
  1294.9000      7.7163      2.6088      0.0089      2.4961   -999.2500
  1295.0000      7.6952      2.6163      0.0754      2.0415   -999.2500
  1295.1000      7.6952      2.6580      0.0418     -0.4827   -999.2500
  1295.2000      7.6952      2.6415      0.0024      0.5182   -999.2500
  1295.3000      7.5984      2.1906      0.4664     27.8454   -999.2500
  1295.4000      7.5984      1.2411      0.0000     85.3857   -999.2500
  1295.5000      6.5821      0.4209      0.0000    135.0985   -999.2500
  1295.6000      6.5821      0.0800   -999.2500    155.7604   -999.2500
  1295.7000      6.5821      0.0082   -999.2500    160.1064   -999.2500
  1295.8000      3.4818      0.0004   -999.2500    160.5789   -999.2500
  1295.9000      3.4818      0.0000   -999.2500    160.6061   -999.2500
  1296.0000      3.0731      0.0000   -999.2500    160.6061   -999.2500
  1296.1000      3.0731   -999.2500   -999.2500   -999.2500   -999.2500
  1296.2000      3.0731   -999.2500   -999.2500   -999.2500   -999.2500
  1296.3000   -999.2500   -999.2500   -999.2500   -999.2500   -999.2500
  1296.4000   -999.2500   -999.2500   -999.2500   -999.2500   -999.2500
  1296.5000   -999.2500   -999.2500   -999.2500   -999.2500   -999.2500
  1296.6000   -999.2500   -999.2500   -999.2500   -999.2500   -999.2500
  1296.7000   -999.2500   -999.2500   -999.2500   -999.2500   -999.2500
  1296.8000   -999.2500   -999.2500   -999.2500   -999.2500   -999.2500
  1296.9000   -999.2500   -999.2500   -999.2500   -999.2500   -999.2500
  1297.0000   -999.2500   -999.2500   -999.2500   -999.2500   -999.2500
  1297.1000   -999.2500   -999.2500   -999.2500   -999.2500   -999.2500
  1297.2000   -999.2500   -999.2500   -999.2500   -999.2500   -999.2500
  1297.3000   -999.2500   -999.2500   -999.2500   -999.2500   -999.2500
  1297.4000   -999.2500   -999.2500   -999.2500   -999.2500   -999.2500
  1297.5000   -999.2500   -999.2500   -999.2500   -999.2500   -999.2500
  1297.6000   -999.2500   -999.2500   -999.2500   -999.2500   -999.2500
  1297.7000   -999.2500   -999.2500   -999.2500   -999.2500   -999.2500
  1297.8000   -999.2500   -999.2500   -999.2500   -999.2500   -999.2500
  1297.9000   -999.2500   -999.2500   -999.2500   -999.2500   -999.2500
  1298.0000   -999.2500   -999.2500   -999.2500   -999.2500   -999.2500
