~Version Information
VERS.                      2.0: CWLS Log ASCII Standard - VERSION 2.0
WRAP.                       NO: One line per depth step
~Well Information Block
STRT.FT                -7.7500: 
STOP.FT              2248.5000: 
STEP.FT                 0.2500: 
NULL.                -999.2500: 
COMP.          Pioneer Natural Resources: COMPANY
WELL.          Interceptor 43-13 Tr: WELL
FLD.           Purgatoire River: FIELD
LOC.           2006' FSL & 438' FEL--: LOCATION
PROV.                       CO: PROVINCE
CNTY.               Las Animas: COUNTRY
SRVC.          Patterson Wireline: SERVICE COMPANY
DATE.          Thu Nov 17 10:14:59 2005: LOG DATE
UWI.           05 071 08549 00: UNIQUE WELL ID
~Curve Information Block
DEPT.FT            0 000 00 00: Depth
CCL.                          : Casing Collar Locator
TT3.usec                      : CBL 3' Travel Time
AMP3.mV                       : CBL 3' Amplitude
GR.GAPI                       : Gamma Ray
~Parameter Information Block
~A  Depth       CCL         TT3         AMP3         GR     
# ...
   293.7500      0.0000    281.2542     83.9596    102.5801
   294.0000      0.0000    281.2526     83.9632     99.5863
   294.2500      0.0000    281.2443     83.9826     95.8598
   294.5000      0.0000    281.2316     84.0162     92.7279
   294.7500      0.0000    281.2183     84.0515     91.2022
   295.0000      0.0000    281.2085     84.0689     91.6929
   295.2500      0.0000    281.2044     84.0571     94.1813
   295.5000      0.0000    281.2057     84.0225     98.1467
   295.7500      0.0000    281.2108     83.9818    102.5666
   296.0000      0.0000    281.2173     83.9464    106.4748
   296.2500      0.0000    281.2222     83.9185    109.5368
   296.5000      0.0000    281.2225     83.8985    112.0774
   296.7500      0.0000    281.2167     83.8926    114.7182
   297.0000      0.0000    281.2059     83.9079    117.7997
   297.2500      0.0000    281.1943     83.9417    120.8660
   297.5000      0.0000    281.1872     83.9808    122.7658
   297.7500      0.0000    281.1866     84.0109    122.4476
   298.0000      0.0000    281.1902     84.0244    119.6882
   298.2500      0.0000    281.1947     84.0203    115.1778
   298.5000      0.0000    281.1997     84.0025    110.1093
   298.7500      0.0000    281.2069     83.9782    105.7007
   299.0000      0.0000    281.2177     83.9526    102.9250
   299.2500      0.0000    281.2313     83.9274    102.3684
   299.5000      0.0000    281.2449     83.9073    103.9757
   299.7500      0.0000    281.2555     83.9036    106.8914
   300.0000      0.0000    281.2603     83.9255    110.0108
   300.2500      0.0000    281.2583     83.9695    113.0014
   300.5000      0.0000    281.2520     84.0203    116.4655
   300.7500      0.0000    281.2453     84.0615    120.7803
   301.0000      0.0000    281.2413     84.0852    124.9777
   301.2500      0.0000    281.2403     84.0904    127.1726
   301.5000      0.0000    281.2417     84.0776    126.2936
   301.7500      0.0000    281.2449     84.0469    123.1065
   302.0000      0.0000    281.2502     84.0023    119.2828
   302.2500      0.0000    281.2576     83.9539    115.6655
   302.5000      0.0000    281.2676     83.9126    111.6552
   302.7500      0.0000    281.2793     83.8846    106.2677
   303.0000      0.0000    281.2909     83.8712     99.6562
   303.2500      0.0000    281.3000     83.8705     93.4391
   303.5000      0.0000    281.3054     83.8760     89.4465
   303.7500      0.0000    281.3074     83.8796     88.2911
   304.0000      0.0000    281.3069     83.8793     89.2938
   304.2500      0.0000    281.3040     83.8820     91.4215
   304.5000      0.0000    281.2982     83.8947     93.7346
   304.7500      0.0000    281.2907     83.9140     95.1603
   305.0000      0.0000    281.2834     83.9279     94.7067
   305.2500      0.0000    281.2784     83.9293     92.2268
   305.5000      0.0000    281.2763     83.9223     88.6664
   305.7500      0.0000    281.2769     83.9133     85.3271
   306.0000      0.0000    281.2809     83.9028     82.9305
   306.2500      0.0000    281.2892     83.8886     81.4077
   306.5000      0.0000    281.3010     83.8701     80.5436
   306.7500      0.0000    281.3133     83.8454     80.7349
   307.0000      0.0000    281.3230     83.8128     82.8069
   307.2500      0.0000    281.3287     83.7813     86.8390
   307.5000      0.0000    281.3298     83.7715     91.4444
   307.7500      0.0000    281.3259     83.7981     94.6310
   308.0000      0.0000    281.3180     83.8539     95.3941
   308.2500      0.0000    281.3093     83.9157     94.2610
   308.5000      0.0000    281.3039     83.9584     92.2198
   308.7500      0.0000    281.3041     83.9655     89.4521
   309.0000      0.0000    281.3092     83.9373     85.5778
   309.2500      0.0000    281.3162     83.8898     80.8983
   309.5000      0.0000    281.3214     83.8415     76.6691
   309.7500      0.0000    281.3229     83.7985     73.9425
   310.0000      0.0000    281.3207     83.7542     72.5996
   310.2500      0.0000    281.3156     83.6994     71.8224
   310.5000      0.0000    281.3076     83.6191     71.3015
   310.7500      0.0000    281.3016     83.4500     71.6330
   311.0000      0.0000    281.3232     82.9985     73.5163
   311.2500      0.0000    281.4481     81.8669     76.7666
   311.5000      0.0000    281.8127     79.5304     80.1990
   311.7500      0.0000    282.5552     75.7067     82.5392
   312.0000      0.0000    283.6900     70.8613     83.6457
   312.2500      0.0000    285.0342     66.2617     84.7465
   312.5000      0.0000    286.2962     63.2331     87.1617
   312.7500      0.0000    287.2582     62.2282     90.7260
   313.0000      0.0000    287.8715     62.6662     93.6344
   313.2500      0.0000    288.2073     63.5831     93.8544
   313.5000      2.0000    288.3596     64.2777     90.6850
   313.7500      0.0000    288.3868     64.4561     85.1099
   314.0000      0.0000    288.2960     64.0867     78.8996
   314.2500      0.0000    288.0461     63.3793     73.4983
   314.5000      0.0000    287.5641     62.9389     69.6466
   314.7500      0.0000    286.7807     63.7069     67.5978
   315.0000      0.0000    285.6904     66.3719     67.1726
   315.2500      0.0000    284.4108     70.6685     67.6148
   315.5000      0.0000    283.1718     75.4095     67.9229
   315.7500      0.0000    282.2007     79.3271     67.6243
   316.0000      0.0000    281.5946     81.8444     67.0456
   316.2500      0.0000    281.2992     83.1296     66.6055
   316.5000      0.0000    281.1919     83.6632     66.0490
   316.7500      0.0000    281.1691     83.8529     64.8024
   317.0000      0.0000    281.1759     83.9162     63.0346
   317.2500      0.0000    281.1928     83.9333     61.7951
   317.5000      0.0000    281.2145     83.9248     61.8084
   317.7500      0.0000    281.2378     83.8984     62.6235
   318.0000      0.0000    281.2589     83.8667     63.3477
   318.2500      0.0000    281.2739     83.8506     63.6770
   318.5000      0.0000    281.2797     83.8650     63.7323
   318.7500      0.0000    281.2753     83.9083     63.4569
   319.0000      0.0000    281.2617     83.9655     62.7839
   319.2500      0.0000    281.2423     84.0195     62.1513
   319.5000      0.0000    281.2220     84.0603     62.3424
   319.7500      0.0000    281.2053     84.0851     63.9077
   320.0000      0.0000    281.1949     84.0938     66.9849
   320.2500      0.0000    281.1912     84.0881     71.4647
   320.5000      0.0000    281.1923     84.0755     76.9483
   320.7500      0.0000    281.1953     84.0694     82.5955
   321.0000      0.0000    281.1976     84.0786     87.2211
   321.2500      0.0000    281.1985     84.0968     89.6074
   321.5000      0.0000    281.1990     84.1072     88.8696
   321.7500      0.0000    281.2001     84.0992     84.9287
   322.0000      0.0000    281.2020     84.0771     78.8808
   322.2500      0.0000    281.2041     84.0547     72.7823
   322.5000      0.0000    281.2055     84.0432     68.7343
   322.7500      0.0000    281.2063     84.0451     67.8440
   323.0000      0.0000    281.2077     84.0551     69.7005
   323.2500      0.0000    281.2100     84.0666     72.5643
   323.5000      0.0000    281.2124     84.0762     74.2726
   323.7500      0.0000    281.2135     84.0842     73.6012
   324.0000      0.0000    281.2134     84.0909     71.1269
   324.2500      0.0000    281.2142     84.0934     68.7553
   324.5000      0.0000    281.2180     84.0878     68.2897
   324.7500      0.0000    281.2242     84.0747     70.2605
   325.0000      0.0000    281.2295     84.0603     73.7304
   325.2500      0.0000    281.2302     84.0527     76.9537
   325.5000      0.0000    281.2256     84.0574     78.4031
   325.7500      0.0000    281.2180     84.0740     77.5882
   326.0000      0.0000    281.2110     84.0931     75.1937
   326.2500      0.0000    281.2065     84.1012     72.5178
   326.5000      0.0000    281.2043     84.0931     70.6508
   326.7500      0.0000    281.2034     84.0803     69.9353
   327.0000      0.0000    281.2036     84.0779     70.1328
