~Version Information
VERS.                      2.0: CWLS Log ASCII Standard - VERSION 2.0
WRAP.                       NO: One line per depth step
~Well Information Block
STRT.FT               480.0000: 
STOP.FT              1946.0000: 
STEP.FT                 0.2500: 
NULL.                -999.2500: 
COMP.          XTO Energy Inc.: COMPANY
WELL.          Golden Eagle 19-15: WELL
FLD.           Purgatoire River: FIELD
LOC.           1121' FSL & 2332' FEL--: LOCATION
CNTY.               Las Animas: COUNTY
SRVC.                Patterson: SERVICE COMPANY
DATE.          Sun Mar 12 15:00:51 2006: LOG DATE
UWI.           05 071 08717 00: UNIQUE WELL ID
STAT.                 Colorado: STATE
~Curve Information Block
DEPT.FT            0 000 00 00: Depth
SP.mV                         : DIL Spontaneous Potential
RILD.Ohm-m                    : DIL Deep Resistivity
RILM.Ohm-m                    : DIL Medium Resistivity
RLL3.Ohm-m                    : DIL Shallow Resistivity
GR.GAPI                       : Gamma Ray
~Parameter Information Block
~A  Depth        SP         RILD        RILM        RLL3         GR     
# ...
  1152.0000    -16.5037     18.8310     21.8094     41.5055     75.7263
  1152.2500    -16.6737     19.6867     23.2371     43.4391     68.8988
  1152.5000    -16.8108     20.4657     24.6477     45.2762     59.4242
  1152.7500    -16.9097     21.0899     25.9886     47.1397     54.5403
  1153.0000    -16.9863     21.4893     27.1930     49.0176     50.5366
  1153.2500    -17.0590     21.6253     28.1701     50.7522     50.1092
  1153.5000    -17.1400     21.4987     28.7995     52.0848     51.8803
  1153.7500    -17.2358     21.1396     28.9426     52.7241     54.0723
  1154.0000    -17.3456     20.5888     28.4817     52.4104     58.7563
  1154.2500    -17.4583     19.8900     27.3799     50.9661     63.2631
  1154.5000    -17.5589     19.0929     25.7269     48.3344     72.8474
  1154.7500    -17.6411     18.2552     23.7258     44.6058     81.1860
  1155.0000    -17.7070     17.4345     21.6217     40.0255     96.3477
  1155.2500    -17.7510     16.6738     19.6211     34.9700    108.0443
  1155.5000    -17.7520     15.9934     17.8528     29.8873    127.3202
  1155.7500    -17.6900     15.3933     16.3704     25.2104    140.4512
  1156.0000    -17.5677     14.8623     15.1753     21.2676    158.3742
  1156.2500    -17.4085     14.3861     14.2391     18.2254    167.9380
  1156.5000    -17.2369     13.9529     13.5215     16.0871    177.7166
  1156.7500    -17.0693     13.5548     12.9837     14.7424    181.3812
  1157.0000    -16.9284     13.1874     12.5958     14.0400    183.5885
  1157.2500    -16.8572     12.8499     12.3378     13.8438    183.3585
  1157.5000    -16.9014     12.5446     12.1931     14.0487    180.7992
  1157.7500    -17.0700     12.2759     12.1395     14.5571    180.7992
  1158.0000    -16.9014     12.5446     12.1931     14.0487    180.7992
  1158.2500    -16.9014     12.5446     12.1931     14.0487    180.7992
  1158.5000    -16.9014     12.5446     12.1931     14.0487    180.7992
  1158.7500    -16.9014     12.5446     12.1931     14.0487    180.7992
  1158.0000    -16.9014     12.5446     12.1931     14.0487    180.7992
  1158.2500    -16.9014     12.5446     12.1931     14.0487    180.7992
  1158.5000    -16.9014     12.5446     12.1931     14.0487    180.7992
  1158.7500    -16.9014     12.5446     12.1931     14.0487    180.7992
  1159.0000    -16.9014     12.5446     12.1931     14.0487    180.7992
  1159.2500    -16.9014     12.5446     12.1931     14.0487    180.7992
  1159.5000    -16.9014     12.5446     12.1931     14.0487    180.7992
  1159.7500    -16.9014     12.5446     12.1931     14.0487    180.7992
  1160.0000    -16.9014     12.5446     12.1931     14.0487    180.7992
  1160.2500    -16.9014     12.5446     12.1931     14.0487    180.7992
  1160.5000    -16.9014     12.5446     12.1931     14.0487    180.7992
  1160.7500    -16.9014     12.5446     12.1931     14.0487    180.7992
  1161.0000    -16.9014     12.5446     12.1931     14.0487    180.7992
  1161.2500    -16.9014     12.5446     12.1931     14.0487    180.7992
  1161.5000    -16.9014     12.5446     12.1931     14.0487    180.7992
  1161.7500    -16.9014     12.5446     12.1931     14.0487    180.7992
  1162.0000    -16.9014     12.5446     12.1931     14.0487    180.7992
  1162.2500    -16.9014     12.5446     12.1931     14.0487    180.7992
  1162.5000    -16.9014      9.9659      9.5162     11.1971    176.0477
  1162.7500    -16.4291      9.9550      9.4458     11.1843    177.9380
  1163.0000    -16.2146      9.9856      9.4403     11.2901    178.7082
  1163.2500    -16.0739     10.0627      9.5080     11.5424    176.1217
  1163.5000    -15.9822     10.1861      9.6536     11.9769    167.2457
  1163.7500    -15.9142     10.3506      9.8782     12.6264    159.4359
  1164.0000    -15.8610     10.5494     10.1806     13.5112    148.3042
  1164.2500    -15.8223     10.7793     10.5572     14.6285    142.6301
  1164.5000    -15.7973     11.0426     11.0027     15.9416    136.9119
  1164.7500    -15.7805     11.3453     11.5086     17.3729    134.0126
  1165.0000    -15.7601     11.6917     12.0649     18.8105    129.0221
  1165.2500    -15.7222     12.0822     12.6612     20.1328    124.6069
  1165.5000    -15.6623     12.5149     13.2887     21.2439    116.2209
  1165.7500    -15.5905     12.9902     13.9401     22.1021    109.4392
  1166.0000    -15.5220     13.5120     14.6092     22.7292     97.1541
  1166.2500    -15.4640     14.0821     15.2909     23.1981     87.6071
  1166.5000    -15.4138     14.6908     15.9824     23.6093     72.4660
  1166.7500    -15.3685     15.3126     16.6847     24.0655     62.9856
  1167.0000    -15.3303     15.9134     17.4010     24.6503     51.4017
  1167.2500    -15.3021     16.4660     18.1340     25.4092     45.8499
  1167.5000    -15.2822     16.9614     18.8818     26.3367     40.3512
  1167.7500    -15.2650     17.4084     19.6374     27.3734     37.9783
  1168.0000    -15.2452     17.8236     20.3891     28.4218     35.5318
  1168.2500    -15.2226     18.2213     21.1218     29.3781     34.4325
  1168.5000    -15.2045     18.6072     21.8179     30.1709     33.3615
  1168.7500    -15.2052     18.9783     22.4601     30.7887     32.8116
  1169.0000    -15.2397     19.3278     23.0362     31.2808     31.8132
  1169.2500    -15.3160     19.6529     23.5446     31.7295     30.9244
  1169.5000    -15.4320     19.9566     23.9938     32.2054     29.3520
  1169.7500    -15.5773     20.2388     24.3950     32.7269     28.2561
  1170.0000    -15.7353     20.4809     24.7496     33.2477     26.7203
  1170.2500    -15.8875     20.6391     25.0407     33.6792     25.9374
  1170.5000    -16.0219     20.6581     25.2351     33.9380     25.5963
  1170.7500    -16.1392     20.4982     25.2941     33.9917     26.1902
  1171.0000    -16.2472     20.1559     25.1836     33.8742     28.4632
  1171.2500    -16.3477     19.6623     24.8753     33.6564     30.7845
  1171.5000    -16.4323     19.0669     24.3431     33.3788     35.2787
  1171.7500    -16.4886     18.4200     23.5651     32.9869     39.1187
  1172.0000    -16.5078     17.7632     22.5393     32.3124     47.2658
  1172.2500    -16.4892     17.1243     21.3031     31.1311     55.2777
  1172.5000    -16.4445     16.5155     19.9410     29.2800     72.1864
  1172.7500    -16.3961     15.9363     18.5675     26.7705     86.0035
  1173.0000    -16.3623     15.3795     17.2937     23.8275    106.5702
  1173.2500    -16.3410     14.8365     16.1966     20.8251    117.2839
  1173.5000    -16.3131     14.3001     15.3052     18.1522    126.1320
  1173.7500    -16.2624     13.7661     14.6038     16.0801    127.8944
  1174.0000    -16.1874     13.2340     14.0466     14.6947    128.1656
  1174.2500    -16.0961     12.7093     13.5764     13.9102    128.8918
  1174.5000    -15.9960     12.2036     13.1417     13.5360    132.0937
  1174.7500    -15.8918     11.7319     12.7091     13.3581    135.2567
  1175.0000    -15.7881     11.3073     12.2671     13.2022    140.9200
  1175.2500    -15.6938     10.9366     11.8226     12.9667    145.4831
  1175.5000    -15.6216     10.6188     11.3932     12.6256    153.5912
  1175.7500    -15.5803     10.3461     10.9973     12.2085    159.0629
  1176.0000    -15.5637     10.1074     10.6477     11.7708    165.4197
  1176.2500    -15.5518      9.8911     10.3479     11.3651    167.9343
  1176.5000    -15.5260      9.6877     10.0929     11.0235    169.6919
  1176.7500    -15.4818      9.4914      9.8732     10.7541    169.9292
  1177.0000    -15.4253      9.2998      9.6785     10.5467    168.8663
  1177.2500    -15.3625      9.1130      9.5008     10.3831    167.1136
  1177.5000    -15.2949      8.9324      9.3351     10.2464    163.5520
  1177.7500    -15.2202      8.7597      9.1780     10.1249    161.4895
  1178.0000    -15.1318      8.5972      9.0270     10.0119    160.6609
  1178.2500    -15.0172      8.4480      8.8793      9.9013    162.2174
  1178.5000    -14.8602      8.3162      8.7328      9.7855    167.4885
  1178.7500    -14.6473      8.2058      8.5869      9.6543    172.2323
