~Version Information
VERS.                      2.0: CWLS Log ASCII Standard - VERSION 2.0
WRAP.                       NO: One line per depth step
~Well Information Block
STRT.FT                -5.0000: 
STOP.FT              1761.2500: 
STEP.FT                 0.2500: 
NULL.                -999.2500: 
COMP.          Pioneer Natural Resources: COMPANY
WELL.          Manville 42-14 Tr: WELL
FLD.           Purgatoire River: FIELD
LOC.           2018'FNL & 562' FEL: LOCATION
STAT.                 Colorado: State
CNTY.               Las Animas: COUNTY
CTRY. USA : Country
SECT. 14 : Section
TOWN. 32S : Township
RANG. 66W : Range
SRVC.                Patterson: SERVICE COMPANY
DATE.          Fri Sep 23 10:37:02 2005: LOG DATE
API. 05-071-08522             : UNIQUE WELL ID
~Curve Information Block
DEPT.FT            0 000 00 00: Depth
CCL.                          : Casing Collar Locator
TT3.usec                      : CBL 3' Travel Time
AMP3.mV                       : CBL 3' Amplitude
AMP5.mV                       : CBL 5' Amplitude
GR.GAPI                       : Gamma Ray
~Parameter Information Block
~A  Depth       CCL         TT3         AMP3        AMP5         GR     
# ...
   583.0000      0.0000    630.1434     11.0409      4.5653     86.8635
   583.2500      0.0000    644.5142     10.7977      4.8264     83.5950
   583.5000      2.0000    614.8682     11.0422      5.1746     78.2107
   583.7500     -2.0000    554.2762     11.6077      5.4358     72.3473
   584.0000     -2.0000    481.0266     12.3139      5.5228     68.5956
   584.2500      0.0000    412.6227     13.0738      5.4358     68.9168
   584.5000      0.0000    360.7338     13.9242      5.6969     73.3247
   584.7500      0.0000    328.1130     14.9987      6.3062     79.6920
   585.0000      0.0000    310.7669     16.4059      6.3062     84.8921
   585.2500      0.0000    303.0456     18.0779      6.2192     86.7504
   585.5000      0.0000    300.6167     19.7768      7.3508     85.4703
   585.7500      0.0000    300.6398     21.2544      7.6119     83.2308
   586.0000      0.0000    301.3082     22.3525      5.0005     82.1495
   586.2500      0.0000    301.7772     23.0005     11.7902     82.5657
   586.5000      0.0000    301.9127     23.2254      7.5249     83.3287
   586.7500      0.0000    301.8829     23.1705     10.7456     83.4738
   587.0000      0.0000    301.8270     23.0419     12.8347     83.0970
   587.2500      0.0000    301.7913     23.0084     13.2700     82.6344
   587.5000      0.0000    301.7765     23.1357     13.0959     81.9929
   587.7500      0.0000    301.7788     23.3879     12.8347     80.9143
   588.0000      0.0000    301.7974     23.6846     13.0088     79.8555
   588.2500      0.0000    301.8199     23.9754     12.9218     79.7618
   588.5000      0.0000    301.8247     24.2654     13.3570     80.8698
   588.7500      0.0000    301.7959     24.5749     13.7922     82.2604
   589.0000      0.0000    301.7325     24.8909     13.9663     82.7867
   589.2500      0.0000    301.6151     25.1740     13.8793     82.0480
   589.5000      0.0000    301.3319     25.4101     14.9239     80.4022
   589.7500      0.0000    300.5898     25.6441     14.7498     78.5323
   590.0000      0.0000    298.9339     25.9522     15.4461     77.1513
   590.2500      0.0000    295.9868     26.3742     15.7943     76.7084
   590.5000      0.0000    291.7599     26.8728     15.8814     77.1368
   590.7500      0.0000    286.6786     27.3629     15.1850     78.1172
   591.0000      0.0000    281.3129     27.7818     15.3591     79.6282
   591.2500      0.0000    276.2233     28.1241     15.6202     81.7824
   591.5000      0.0000    272.0161     28.4174     15.3591     83.8795
   591.7500      0.0000    269.2798     28.6771     15.3591     84.2661
   592.0000      0.0000    268.4610     28.8777     15.4461     81.7652
   592.2500      0.0000    269.9282     28.9549     15.0979     76.9524
   592.5000      0.0000    273.9366     28.8451     15.2720     71.6296
   592.7500      0.0000    280.1612     28.5440     15.1850     67.3660
   593.0000      0.0000    287.3222     28.1234     14.8368     64.7400
   593.2500      0.0000    293.6730     27.6684     14.5757     63.5789
   593.5000      0.0000    298.0606     27.2015     15.0109     63.6362
   593.7500      0.0000    300.4426     26.6853     14.5757     65.0774
   594.0000      0.0000    301.4863     26.0884     13.6182     68.1621
   594.2500      0.0000    301.8931     25.4246     13.4441     72.3578
   594.5000      0.0000    302.0773     24.7318     13.1829     76.1975
   594.7500      0.0000    302.2044     24.0338     13.0959     78.3792
   595.0000      0.0000    302.3208     23.3325     12.5736     78.7815
   595.2500      0.0000    302.4345     22.6303     12.3124     78.3356
   595.5000      0.0000    302.5450     21.9554     11.8772     78.2148
   595.7500      0.0000    302.6475     21.3594     11.7902     79.1911
   596.0000      0.0000    302.7366     20.8836     11.4420     81.3918
   596.2500      0.0000    302.8093     20.5226     10.9197     84.3150
   596.5000      0.0000    302.8679     20.2257     10.1363     87.0914
   596.7500      0.0000    302.9205     19.9389      9.7881     89.0063
   597.0000      0.0000    302.9800     19.6458     10.0492     89.8407
   597.2500      0.0000    303.0594     19.3687      9.8751     89.5737
   597.5000      0.0000    303.1617     19.1378      9.6140     87.8876
   597.7500      0.0000    303.2710     18.9643      9.4399     84.3361
   598.0000      0.0000    303.3561     18.8392      9.0047     79.1127
   598.2500      0.0000    303.3907     18.7467      9.0047     73.3521
   598.5000      0.0000    303.3749     18.6708      8.7435     68.3550
   598.7500      0.0000    303.3379     18.5937      8.3953     64.5802
   599.0000      0.0000    303.3202     18.4968      8.4824     61.6553
   599.2500      0.0000    303.3521     18.3707      8.1342     59.2813
   599.5000      0.0000    303.4407     18.2180      8.2213     57.7214
   599.7500      0.0000    303.5734     18.0503      8.3953     57.2947
   600.0000      0.0000    303.7291     17.8905      8.4824     57.8368
   600.2500      0.0000    303.8876     17.7769      8.5694     59.1460
   600.5000      0.0000    304.0292     17.7534      9.1788     61.7638
   600.7500      0.0000    304.1330     17.8434      9.0917     66.5593
   601.0000      0.0000    304.1814     18.0303      9.1788     73.1573
   601.2500      0.0000    304.1686     18.2601      9.2658     79.2825
   601.5000      0.0000    304.1046     18.4659      9.3529     82.3631
   601.7500      0.0000    304.0098     18.6019      9.9622     81.7427
   602.0000      0.0000    303.9058     18.6656      9.6140     78.9812
   602.2500      0.0000    303.8090     18.6878      9.7010     76.1204
   602.5000      0.0000    303.7263     18.6993      9.6140     73.9461
   602.7500      0.0000    303.6546     18.7114      9.4399     71.8777
   603.0000      0.0000    303.5863     18.7265      8.9176     69.3669
   603.2500      0.0000    303.5156     18.7559      9.0917     67.1118
   603.5000      0.0000    303.4440     18.8145      9.6140     66.5845
   603.7500      0.0000    303.3823     18.8976      9.3529     68.4084
   604.0000      0.0000    303.3489     18.9686      9.4399     71.7411
   604.2500      0.0000    303.3607     18.9759      9.4399     75.4340
   604.5000      0.0000    303.4226     18.8876      9.3529     79.0787
   604.7500      0.0000    303.5225     18.7216      9.7881     82.5368
   605.0000      0.0000    303.6351     18.5446     10.1363     85.3500
   605.2500      0.0000    303.7323     18.4356     10.2233     87.2925
   605.5000      0.0000    303.7946     18.4396     10.3104     88.7395
   605.7500      0.0000    303.8151     18.5509      9.9622     89.8932
   606.0000      0.0000    303.7930     18.7355      9.9622     90.3890
   606.2500      0.0000    303.7292     18.9553      9.9622     90.2600
   606.5000      0.0000    303.6296     19.1771     10.0492     90.5457
   606.7500      0.0000    303.5065     19.3844     10.2233     92.1369
   607.0000      0.0000    303.3705     19.5932     10.3974     94.3463
   607.2500      0.0000    303.2256     19.8443     10.8327     95.2636
   607.5000      0.0000    303.0724     20.1714     10.9197     93.5959
   607.7500      0.0000    302.9109     20.5798     10.8327     89.9732
   608.0000      0.0000    302.7421     21.0491     10.8327     86.3626
   608.2500      0.0000    302.5726     21.5401     10.9197     84.1249
   608.5000      0.0000    302.4203     22.0013     10.7456     82.7695
   608.7500      0.0000    302.3077     22.3819     11.0067     80.8554
   609.0000      0.0000    302.2492     22.6514     11.2679     77.8512
   609.2500      0.0000    302.2433     22.8078     11.3549     74.5875
   609.5000      0.0000    302.2769     22.8746     12.1384     72.0752
   609.7500      0.0000    302.3307     22.8891     11.9643     70.4623
   610.0000      0.0000    302.3859     22.8797     11.8772     69.1067
   610.2500      0.0000    302.4328     22.8407     11.7031     67.4435
   610.5000      0.0000    302.4746     22.7336     11.6161     65.7973
   610.7500      0.0000    302.5214     22.5212     11.3549     65.2927
