~Version Information
VERS.                      2.0: CWLS Log ASCII Standard - VERSION 2.0
WRAP.                       NO: One line per depth step
~Well Information Block
STRT.FT                -5.5000: 
STOP.FT              2262.7500: 
STEP.FT                 0.2500: 
NULL.                -999.2500: 
COMP.          Pioneer Natural Resources: COMPANY
WELL.             Baa Baa 34-1: WELL
FLD.           Purgatorie River: FIELD
LOC.           617' FSL & 2289' FEL------: LOCATION
STAT.                       CO: State
CNTY.               Las Animas: COUNTY
CTRY. USA : Country
SECT. 1 : Section
TOWN. 33S : Township
RANG. 67W : Range
SRVC.          Patterson Wireline: SERVICE COMPANY
DATE.          Mon Sep 12 14:08:52 2005: LOG DATE
API.           05 071 08502 00: UNIQUE WELL ID
~Curve Information Block
DEPT.FT            0 000 00 00: Depth
LTEN.lb                       : Surface Line Tension
CCL.                          : Casing Collar Locator
TT3.usec                      : CBL 3' Travel Time
AMP3.mV                       : CBL 3' Amplitude
GR.GAPI                       : Gamma Ray
~Parameter Information Block
~A  Depth       LTEN        CCL         TT3         AMP3         GR     
# ...
  1926.5000  -4537.1924      0.0000    653.6242      2.4506     79.9418
  1926.7500  -4537.1924      0.0000    658.1023      2.4343     82.0953
  1927.0000  -4531.8638      0.0000    660.3635      2.4186     86.5236
  1927.2500  -4534.5283      0.0000    661.7966      2.4108     92.0407
  1927.5000  -4535.8604      0.0000    663.4689      2.4100     96.5507
  1927.7500  -4533.1958      0.0000    664.5733      2.4128     98.7370
  1928.0000  -4534.5283      0.0000    662.8818      2.4170     99.2310
  1928.2500  -4533.1958      0.0000    656.8444      2.4218     99.9907
  1928.5000  -4530.5317      0.0000    647.2005      2.4267    102.3295
  1928.7500  -4529.1997      0.0000    636.5071      2.4296    105.3565
  1929.0000  -4530.5317      0.0000    627.3901      2.4239    106.6199
  1929.2500  -4534.5283      0.0000    621.3695      2.4038    104.4843
  1929.5000  -4537.1924      0.0000    618.7536      2.3712     99.5071
  1929.7500  -4533.1958      0.0000    618.9921      2.3330     93.4777
  1930.0000  -4537.1924      0.0000    621.0814      2.2938     87.9930
  1930.2500  -4539.8569      0.0000    623.9150      2.2557     84.1602
  1930.5000  -4533.1958      0.0000    626.5287      2.2251     82.5680
  1930.7500  -4535.8604      0.0000    628.3297      2.2135     82.7546
  1931.0000  -4530.5317      0.0000    629.2332      2.2290     83.2856
  1931.2500  -4533.1958      0.0000    629.5488      2.2708     83.0305
  1931.5000  -4530.5317      0.0000    629.7944      2.3306     82.1771
  1931.7500  -4535.8604      0.0000    630.6497      2.3988     81.7624
  1932.0000  -4531.8638      0.0000    632.7631      2.4664     82.4838
  1932.2500  -4530.5317      0.0000    636.2128      2.5257     84.0750
  1932.5000  -4533.1958      0.0000    640.2097      2.5706     85.4753
  1932.7500  -4531.8638      0.0000    643.6253      2.5966     85.3798
  1933.0000  -4531.8638      0.0000    645.7583      2.6026     82.9196
  1933.2500  -4533.1958      0.0000    646.6013      2.5899     78.1803
  1933.5000  -4535.8604      0.0000    646.7984      2.5611     72.2255
  1933.7500  -4537.1924      0.0000    647.3474      2.5202     66.6980
  1934.0000  -4530.5317      0.0000    648.8616      2.4763     63.1520
  1934.2500  -4534.5283      0.0000    651.2018      2.4386     62.1454
  1934.5000  -4534.5283      0.0000    653.9322      2.4054     62.8710
  1934.7500  -4533.1958      0.0000    656.7261      2.3605     64.1091
  1935.0000  -4533.1958      0.0000    659.2175      2.2893     65.6342
  1935.2500  -4535.8604      0.0000    661.0297      2.2052     68.3734
  1935.5000  -4538.5244      0.0000    662.0502      2.1564     73.1450
  1935.7500  -4534.5283      0.0000    662.4653      2.1917     79.3276
  1936.0000  -4535.8604      0.0000    662.9596      2.3086     84.8378
  1936.2500  -4533.1958      0.0000    664.9566      2.4463     87.6421
  1936.5000  -4535.8604      0.0000    669.5884      2.5473     87.3561
  1936.7500  -4533.1958      0.0000    675.9792      2.6102     85.2496
  1937.0000  -4535.8604      0.0000    681.5394      2.6679     82.9450
  1937.2500  -4538.5244      0.0000    684.4055      2.7316     81.3155
  1937.5000  -4538.5244      0.0000    684.8226      2.7778     80.3038
  1937.7500  -4537.1924      0.0000    684.0425      2.7792     79.3268
  1938.0000  -4531.8638      0.0000    682.9305      2.7381     77.9002
  1938.2500  -4534.5283      0.0000    681.9683      2.6916     76.2899
  1938.5000  -4533.1958      0.0000    681.4163      2.6796     75.6611
  1938.7500  -4533.1958      0.0000    680.5379      2.6946     77.1301
  1939.0000  -4539.8569      0.0000    677.1985      2.6743     80.3358
  1939.2500  -4531.8638      0.0000    669.5086      2.5650     83.2616
  1939.5000  -4533.1958      0.0000    658.1415      2.3849     83.9960
  1939.7500  -4534.5283      0.0000    646.3459      2.2060     82.6958
  1940.0000  -4534.5283      0.0000    637.3725      2.0866     81.4481
  1940.2500  -4533.1958      0.0000    632.3491      2.0419     82.0971
  1940.5000  -4531.8638      0.0000    630.6038      2.0588     84.4687
  1940.7500  -4529.1997      0.0000    631.2587      2.1142     86.8361
  1941.0000  -4534.5283      0.0000    634.1050      2.1834     87.8155
  1941.2500  -4534.5283      0.0000    639.0950      2.2463     87.5058
  1941.5000  -4530.5317      0.0000    645.2238      2.2923     86.9457
  1941.7500  -4533.1958      0.0000    650.3693      2.3181     86.8543
  1942.0000  -4534.5283      0.0000    652.8116      2.3247     87.0784
  1942.2500  -4538.5244      0.0000    652.7178      2.3150     87.0389
  1942.5000  -4531.8638      0.0000    651.3736      2.2930     86.4336
  1942.7500  -4531.8638      0.0000    649.2337      2.2633     85.4969
  1943.0000  -4530.5317      0.0000    645.7415      2.2338     84.7390
  1943.2500  -4538.5244      0.0000    640.8799      2.2160     84.4680
  1943.5000  -4529.1997      0.0000    635.7464      2.2169     84.4898
  1943.7500  -4533.1958      0.0000    631.3809      2.2296     84.1897
  1944.0000  -4529.1997      0.0000    627.7062      2.2344     82.9057
  1944.2500  -4531.8638      0.0000    623.8527      2.2160     80.4524
  1944.5000  -4530.5317      0.0000    619.2443      2.1762     77.4971
  1944.7500  -4531.8638      0.0000    614.2690      2.1303     75.2980
  1945.0000  -4538.5244      0.0000    610.0220      2.0927     74.8643
  1945.2500  -4534.5283      0.0000    607.5685      2.0666     76.3925
  1945.5000  -4535.8604      0.0000    607.4810      2.0461     79.5351
  1945.7500  -4530.5317      0.0000    609.7887      2.0282     83.9793
  1946.0000  -4530.5317      0.0000    613.9490      2.0219     89.3552
  1946.2500  -4534.5283      0.0000    618.8483      2.0436     94.4303
  1946.5000  -4534.5283      0.0000    623.2047      2.0996     97.0302
  1946.7500  -4533.1958      0.0000    626.2244      2.1749     95.5842
  1947.0000  -4535.8604      0.0000    627.8779      2.2437     90.7714
  1947.2500  -4531.8638      0.0000    628.6016      2.2883     85.1180
  1947.5000  -4534.5283      0.0000    628.8649      2.3055     81.0038
  1947.7500  -4530.5317      0.0000    628.9747      2.3002     79.4102
  1948.0000  -4533.1958      0.0000    629.1269      2.2801     80.1747
  1948.2500  -4534.5283      0.0000    629.5950      2.2522     82.6037
  1948.5000  -4539.8569      0.0000    630.9404      2.2184     85.8268
  1948.7500  -4530.5317      0.0000    634.0371      2.1773     89.1817
  1949.0000  -4537.1924      0.0000    639.5779      2.1337     92.4469
  1949.2500  -4534.5283      0.0000    647.2509      2.1047     95.5859
  1949.5000  -4529.1997      0.0000    655.5173      2.1091     98.5248
  1949.7500  -4537.1924      0.0000    662.4477      2.1508    101.3666
  1950.0000  -4533.1958      0.0000    666.7827      2.2228    104.2792
  1950.2500  -4534.5283      0.0000    668.4945      2.3242    106.7354
  1950.5000  -4531.8638      0.0000    669.4916      2.4591    107.3639
  1950.7500  -4530.5317      0.0000    674.0018      2.6145    105.0667
  1951.0000  -4530.5317      0.0000    686.1403      2.7637    100.1013
  1951.2500  -4537.1924      0.0000    704.9460      2.9036     93.9473
  1951.5000  -4533.1958      0.0000    722.6628      3.0677     88.3504
  1951.7500  -4537.1924      0.0000    730.8024      3.2873     84.3283
  1952.0000  -4538.5244      0.0000    728.5142      3.5522     81.6166
  1952.2500  -4535.8604      0.0000    723.0763      3.8151     79.1844
  1952.5000  -4538.5244      0.0000    721.7722      4.0220     76.6015
  1952.7500  -4531.8638      0.0000    724.9311      4.1473     74.5304
  1953.0000  -4529.1997      0.0000    727.0699      4.2233     73.5673
  1953.2500  -4537.1924      0.0000    722.9917      4.3243     73.3398
  1953.5000  -4534.5283      0.0000    711.8562      4.4911     73.3902
  1953.7500  -4530.5317      0.0000    696.7748      4.6798     74.2626
  1954.0000  -4535.8604      0.0000    682.3716      4.8170     76.7666
  1954.2500  -4534.5283      0.0000    672.6915      4.8851     80.3861
