~Version Information
VERS.                      2.0: CWLS Log ASCII Standard - VERSION 2.0
WRAP.                       NO: One line per depth step
~Well Information Block
STRT.FT                 0.0000: 
STOP.FT              1193.0000: 
STEP.FT                 0.1000: 
NULL.                -999.2500: 
COMP.          Pioneer Natural Resources: COMPANY
WELL.          Big Pine 32-15 Tr: WELL
FLD.           Purgatorie River: FIELD
LOC.           2546' FNL & 1451' FEL: LOCATION
STAT.                 Colorado: State
CNTY.               Las Animas: COUNTY
CTRY. USA : Country
SECT. 15 : Section
TOWN. 33S : Township
RANG. 67W : Range
SRVC.                Patterson: SERVICE COMPANY
DATE.          Tue Nov 08 07:11:35 2005: LOG DATE
API. 05-071-08604                         : UNIQUE WELL ID
~Curve Information Block
DEPT.FT            0 000 00 00: Depth
DCAL.in                       : CDL Caliper
RHOB.g/cc                     : CDL Bulk Density
RHOC.g/cc                     : CDL Density Correction
DPOR.pu                       : CDL Density Porosity
GR.GAPI                       : Gamma Ray
NPOR.pu                       : Neutron Porosity
~Parameter Information Block
~A  Depth       DCAL        RHOB        RHOC        DPOR         GR         NPOR    
# ...
  1084.8000      7.9608      2.5898      0.1107      3.6488    165.7286     25.7874
  1084.9000      7.9608      2.5398      0.0659      6.6784    165.8822     25.9850
  1085.0000      7.9738      2.4854      0.0035      9.9761    167.8611     26.2423
  1085.1000      7.9738      2.4535      0.0215     11.9071    170.1765     26.8863
  1085.2000      7.9738      2.4557      0.0312     11.7783    169.3604     27.6798
  1085.3000      7.9049      2.4934      0.0149      9.4893    162.9126     28.1551
  1085.4000      7.9049      2.5540      0.1171      5.8164    155.0388     28.4062
  1085.5000      7.8659      2.6122      0.1369      2.2905    150.4400     28.5363
  1085.6000      7.8659      2.6549      0.1827     -0.2943    147.5419     28.4109
  1085.7000      7.8659      2.6725      0.2290     -1.3606    144.6525     28.0479
  1085.8000      7.8624      2.6549      0.2218     -0.2967    143.3921     27.4177
  1085.9000      7.8624      2.6143      0.0989      2.1647    143.9918     26.6357
  1086.0000      7.8296      2.5771      0.0650      4.4168    144.8858     26.2504
  1086.1000      7.8296      2.5557      0.0361      5.7178    147.1616     26.2178
  1086.2000      7.8296      2.5443      0.0752      6.4086    150.8509     25.8051
  1086.3000      7.8398      2.5336      0.0389      7.0532    152.5678     25.0443
  1086.4000      7.8398      2.5271      0.0033      7.4497    152.1280     24.6159
  1086.5000      7.8886      2.5321      0.0484      7.1476    152.9527     24.5743
  1086.6000      7.8886      2.5448      0.0789      6.3771    155.3488     24.6146
  1086.7000      7.8886      2.5588      0.1002      5.5244    157.3598     24.6958
  1086.8000      7.8723      2.5706      0.1087      4.8123    158.1306     24.8002
  1086.9000      7.8723      2.5808      0.0759      4.1948    157.3289     25.0498
  1087.0000      7.8459      2.5889      0.1210      3.7001    156.5940     25.5097
  1087.1000      7.8459      2.5884      0.0784      3.7345    157.5312     25.8613
  1087.2000      7.8459      2.5816      0.0703      4.1426    160.3290     25.9572
  1087.3000      7.8440      2.5767      0.0486      4.4424    162.9956     26.0091
  1087.4000      7.8440      2.5748      0.0497      4.5574    161.4845     26.0806
  1087.5000      7.8472      2.5765      0.0303      4.4526    154.5582     26.1633
  1087.6000      7.8472      2.5770      0.0842      4.4217    145.8194     26.2423
  1087.7000      7.8472      2.5680      0.0732      4.9691    143.0551     26.1764
  1087.8000      7.8714      2.5546      0.0334      5.7788    148.6994     26.1357
  1087.9000      7.8714      2.5476      0.0341      6.2071    155.3827     26.3869
  1088.0000      7.8889      2.5514      0.0244      5.9746    157.6861     26.6744
  1088.1000      7.8889      2.5636      0.0320      5.2334    157.7208     26.7251
  1088.2000      7.8889      2.5704      0.0519      4.8213    157.4979     26.7182
  1088.3000      7.9210      2.5658      0.0137      5.1014    155.9626     26.8340
  1088.4000      7.9210      2.5620      0.0196      5.3354    153.7042     27.0562
  1088.5000      7.9992      2.5651      0.0367      5.1434    152.8503     27.2967
  1088.6000      7.9992      2.5711      0.0120      4.7791    151.9532     27.3822
  1088.7000      7.9992      2.5689      0.0646      4.9133    148.1909     27.2494
  1088.8000      7.9235      2.5442      0.0464      6.4142    142.3393     27.0372
  1088.9000      7.9235      2.5103     -0.0176      8.4694    138.5338     26.8687
  1089.0000      7.9080      2.4963      0.0144      9.3141    140.2127     26.7300
  1089.1000      7.9080      2.5040      0.0643      8.8493    144.9362     26.4305
  1089.2000      7.9080      2.5197      0.1238      7.8951    147.0170     26.0339
  1089.3000      7.8745      2.5441      0.0943      6.4192    146.9605     25.9264
  1089.4000      7.8745      2.5833      0.1736      4.0412    149.3773     26.1476
  1089.5000      7.8193      2.6275      0.2010      1.3649    153.2575     26.3319
  1089.6000      7.8193      2.6632      0.2283     -0.8009    153.2264     26.2116
  1089.7000      7.8193      2.6882      0.2405     -2.3156    149.4420     25.9068
  1089.8000      7.8181      2.6993      0.2562     -2.9890    147.4002     25.8203
  1089.9000      7.8181      2.6850      0.2332     -2.1207    149.9404     25.9778
  1090.0000      7.8642      2.6425      0.1515      0.4522    151.8769     26.0440
  1090.1000      7.8642      2.5894      0.0613      3.6716    147.9629     26.0171
  1090.2000      7.8642      2.5446      0.0199      6.3849    142.6649     26.2064
  1090.3000      7.9594      2.5168      0.0277      8.0730    141.3946     26.3645
  1090.4000      7.9594      2.5128      0.0086      8.3133    140.6776     26.0179
  1090.5000      7.9398      2.5300      0.0742      7.2711    138.4861     25.4790
  1090.6000      7.9398      2.5489      0.0462      6.1261    137.9244     25.2306
  1090.7000      7.9398      2.5628      0.0319      5.2836    136.7397     25.1435
  1090.8000      7.8815      2.5824      0.0858      4.0949    134.3012     24.9734
  1090.9000      7.8815      2.6079      0.1374      2.5523    133.4725     24.8435
  1091.0000      7.7853      2.6262      0.1696      1.4397    133.1189     24.9157
  1091.1000      7.7853      2.6320      0.1339      1.0895    131.9317     25.0589
  1091.2000      7.7853      2.6327      0.1338      1.0511    131.6469     25.0262
  1091.3000      7.7752      2.6365      0.1199      0.8195    132.8159     24.8109
  1091.4000      7.7752      2.6438      0.1504      0.3731    133.9798     24.5976
  1091.5000      7.8115      2.6467      0.1369      0.2000    134.8306     24.4215
  1091.6000      7.8115      2.6384      0.1091      0.7018    135.4212     24.1521
  1091.7000      7.8115      2.6179      0.1051      1.9482    134.0255     23.8361
  1091.8000      7.9020      2.5887      0.0646      3.7128    130.7479     23.7164
  1091.9000      7.9020      2.5593      0.0777      5.4983    128.5670     23.8671
  1092.0000      7.9220      2.5387      0.0042      6.7447    127.1308     24.0462
  1092.1000      7.9220      2.5329      0.0305      7.0960    125.3733     24.0659
  1092.2000      7.9220      2.5365      0.0176      6.8769    125.2940     24.1139
  1092.3000      7.8116      2.5434      0.0212      6.4614    127.8247     24.4075
  1092.4000      7.8116      2.5532      0.0417      5.8661    130.1056     24.7489
  1092.5000      7.8577      2.5605      0.0635      5.4264    130.4531     25.0033
  1092.6000      7.8577      2.5606      0.0385      5.4161    132.2097     25.3943
  1092.7000      7.8577      2.5627      0.0394      5.2887    136.1392     25.7055
  1092.8000      7.8700      2.5725      0.0683      4.6993    137.1283     25.5969
  1092.9000      7.8700      2.5747      0.1395      4.5643    135.8873     25.2050
  1093.0000      7.8149      2.5591      0.0910      5.5082    136.9947     24.7756
  1093.1000      7.8149      2.5391      0.0870      6.7233    140.4801     24.5169
  1093.2000      7.8149      2.5241      0.0399      7.6326    145.0253     24.5352
  1093.3000      7.8283      2.5142     -0.0104      8.2304    149.6891     24.5876
  1093.4000      7.8283      2.5128      0.0283      8.3180    152.0023     24.3999
  1093.5000      7.8980      2.5278      0.0016      7.4090    149.8754     24.3241
  1093.6000      7.8980      2.5656      0.0787      5.1130    144.0824     24.8434
  1093.7000      7.8980      2.6118      0.1755      2.3176    137.0866     25.6419
  1093.8000      7.8980      2.6475      0.1304      0.1524    132.1568     26.1140
  1093.9000      7.8980      2.6693      0.1964     -1.1702    132.1106     26.1176
  1094.0000      7.8675      2.6707      0.2172     -1.2569    136.2682     25.8397
  1094.1000      7.8675      2.6495      0.1641      0.0313    140.4502     25.4164
  1094.2000      7.8675      2.6164      0.1165      2.0362    141.0908     24.9961
  1094.3000      7.7980      2.5806      0.0725      4.2044    138.9083     24.7949
