~Version Information
VERS.                      2.0: CWLS Log ASCII Standard - VERSION 2.0
WRAP.                       NO: One line per depth step
~Well Information Block
STRT.FT               530.7500: 
STOP.FT              1325.2500: 
STEP.FT                 0.2500: 
NULL.                -999.2500: 
COMP.          Pioneer Natural Resources: COMPANY
WELL.            Erin 21-15 Tr: WELL
FLD.           Purgatoire River: FIELD
LOC.           1217' FNL & 2284' FWL--: LOCATION
CNTY.               Las Animas: COUNTY
SRVC.                Patterson: SERVICE COMPANY
DATE.          Fri Mar 03 23:07:06 2006: LOG DATE
UWI.           05 071 08712 00: UNIQUE WELL ID
STAT.                 Colorado: STATE
~Curve Information Block
DEPT.FT            0 000 00 00: Depth
SN.Ohm-m                      : IEL Short Normal
SP.mV                         : IEL Spontaneous Potential
DIR.Ohm-m                     : IEL Induction Resistivity
GR.GAPI                       : Gamma Ray
~Parameter Information Block
~A  Depth        SN          SP         DIR          GR     
# ...
   865.7500     15.1317     74.3664     15.4622    125.2506
   866.0000     15.1633     74.3753     15.4726    124.9234
   866.2500     15.1774     74.3937     15.4782    125.1505
   866.5000     15.1635     74.4078     15.4625    125.7241
   866.7500     15.1199     74.4037     15.4127    126.0515
   867.0000     15.0519     74.3704     15.3203    126.6062
   867.2500     14.9681     74.3018     15.1803    127.3632
   867.5000     14.8781     74.1965     14.9902    129.3191
   867.7500     14.7876     74.0558     14.7489    130.7951
   868.0000     14.6899     73.8824     14.4559    132.1710
   868.2500     14.5607     73.6783     14.1119    132.1105
   868.5000     14.3649     73.4456     13.7227    130.6903
   868.7500     14.0727     73.1868     13.3011    129.3995
   869.0000     13.6732     72.9069     12.8646    128.3195
   869.2500     13.1777     72.6143     12.4300    128.8145
   869.5000     12.6163     72.3213     12.0096    131.1576
   869.7500     12.0295     72.0426     11.6114    132.8192
   870.0000     11.4618     71.7935     11.2416    133.8913
   870.2500     10.9585     71.5864     10.9064    133.6731
   870.5000     10.5576     71.4292     10.6111    133.2531
   870.7500     10.2716     71.3229     10.3598    133.5527
   871.0000     10.0731     71.2627     10.1546    134.8806
   871.2500      9.9048     71.2394      9.9968    135.8257
   871.5000      9.7152     71.2425      9.8871    136.1587
   871.7500      9.4927     71.2632      9.8252    135.3220
   872.0000      9.2721     71.2965      9.8101    133.2806
   872.2500      9.1080     71.3412      9.8417    132.4046
   872.5000      9.0390     71.3995      9.9213    132.8718
   872.7500      9.0715     71.4743     10.0520    134.0479
   873.0000      9.1919     71.5677     10.2365    135.6183
   873.2500      9.3956     71.6795     10.4757    135.8551
   873.5000      9.7101     71.8070     10.7678    134.7661
   873.7500     10.1973     71.9448     11.1092    133.3317
   874.0000     10.9273     72.0864     11.4955    130.6824
   874.2500     11.9301     72.2248     11.9210    128.8014
   874.5000     13.1487     72.3536     12.3765    125.9077
   874.7500     14.4317     72.4678     12.8469    123.8982
   875.0000     15.5862     72.5647     13.3112    120.7493
   875.2500     16.4610     72.6441     13.7460    118.7175
   875.5000     17.0042     72.7091     14.1317    116.4152
   875.7500     17.2581     72.7652     14.4578    115.7449
   876.0000     17.3142     72.8200     14.7256    115.9838
   876.2500     17.2688     72.8823     14.9477    116.4926
   876.5000     17.1995     72.9603     15.1417    116.8677
   876.7500     17.1582     73.0604     15.3246    116.6508
   877.0000     17.1745     73.1857     15.5095    115.8614
   877.2500     17.2628     73.3352     15.7088    115.3001
   877.5000     17.4275     73.5032     15.9394    114.8943
   877.7500     17.6676     73.6792     16.2212    115.1572
   878.0000     17.9806     73.8495     16.5705    116.3742
   878.2500     18.3668     73.9987     16.9934    117.3849
   878.5000     18.8278     74.1121     17.4856    118.2872
   878.7500     19.3588     74.1791     18.0366    118.0582
   879.0000     19.9372     74.1957     18.6317    116.1062
   879.2500     20.5147     74.1659     19.2488    113.6344
   879.5000     21.0222     74.1021     19.8511    108.2098
   879.7500     21.3926     74.0227     20.3825    103.7682
   880.0000     21.5889     73.9487     20.7734     97.1172
   880.2500     21.6152     73.8995     20.9568     93.6460
   880.5000     21.4976     73.8887     20.8918     91.2165
   880.7500     21.2531     73.9207     20.5779     91.7661
   881.0000     20.8747     73.9900     20.0504     95.5532
   881.2500     20.3435     74.0828     19.3612     99.5240
   881.5000     19.6529     74.1797     18.5573    106.3639
   881.7500     18.8232     74.2605     17.6741    110.6331
   882.0000     17.8984     74.3080     16.7419    115.1595
   882.2500     16.9337     74.3111     15.7963    116.4522
   882.5000     15.9857     74.2663     14.8796    116.1245
   882.7500     15.1050     74.1773     14.0331    115.0606
   883.0000     14.3275     74.0527     13.2866    113.1561
   883.2500     13.6670     73.9042     12.6557    111.9776
   883.5000     13.1181     73.7439     12.1443    111.1034
   883.7500     12.6654     73.5833     11.7491    111.8290
   884.0000     12.2869     73.4325     11.4609    115.6129
   884.2500     11.9539     73.2999     11.2638    119.5572
   884.5000     11.6362     73.1923     11.1361    125.9656
   884.7500     11.3199     73.1144     11.0542    129.7248
   885.0000     11.0246     73.0683     10.9989    134.1751
   885.2500     10.8025     73.0541     10.9609    136.5607
   885.5000     10.7136     73.0695     10.9419    139.6569
   885.7500     10.7866     73.1108     10.9503    141.3950
   886.0000     10.9949     73.1729     10.9956    143.1255
   886.2500     11.2675     73.2494     11.0827    143.3690
   886.5000     11.5264     73.3322     11.2087    141.9636
   886.7500     11.7202     73.4114     11.3620    139.8602
   887.0000     11.8301     73.4764     11.5238    135.5007
   887.2500     11.8594     73.5170     11.6739    132.3313
   887.5000     11.8257     73.5262     11.7978    128.2480
   887.7500     11.7627     73.5020     11.8923    126.4964
   888.0000     11.7214     73.4477     11.9659    125.6818
   888.2500     11.7561     73.3720     12.0331    126.1528
   888.5000     11.8980     73.2863     12.1073    127.5102
   888.7500     12.1314     73.2025     12.1952    128.2493
   889.0000     12.3895     73.1306     12.2939    128.4280
   889.2500     12.5807     73.0778     12.3909    127.8935
   889.5000     12.6352     73.0484     12.4665    126.4352
   889.7500     12.5464     73.0438     12.4995    125.1903
   890.0000     12.3737     73.0642     12.4758    123.1476
   890.2500     12.2073     73.1083     12.3968    122.0001
   890.5000     12.1156     73.1737     12.2810    121.4033
   890.7500     12.1072     73.2572     12.1565    121.8709
   891.0000     12.1277     73.3540     12.0472    123.1400
   891.2500     12.0977     73.4578     11.9631    124.0198
   891.5000     11.9649     73.5611     11.8985    126.0163
   891.7500     11.7336     73.6557     11.8395    128.3948
   892.0000     11.4544     73.7337     11.7747    133.2310
   892.2500     11.1888     73.7878     11.7029    136.2711
   892.5000     10.9796     73.8124     11.6336    138.8859
   892.7500     10.8411     73.8044     11.5813    139.1415
   893.0000     10.7669     73.7627     11.5586    138.2752
   893.2500     10.7447     73.6885     11.5713    137.6311
   893.5000     10.7680     73.5846     11.6165    137.2156
   893.7500     10.8397     73.4548     11.6845    137.2215
   894.0000     10.9647     73.3037     11.7605    137.2242
   894.2500     11.1384     73.1355     11.8287    137.0251
   894.5000     11.3414     72.9540     11.8768    136.2729
   894.7500     11.5457     72.7616     11.9015    135.4714
   895.0000     11.7296     72.5596     11.9103    133.8103
   895.2500     11.8862     72.3473     11.9193    132.3186
   895.5000     12.0203     72.1228     11.9470    129.5395
   895.7500     12.1405     71.8835     12.0084    127.7570
   896.0000     12.2537     71.6272     12.1109    126.5843
   896.2500     12.3644     71.3534     12.2549    127.4582
   896.5000     12.4739     71.0647     12.4358    130.9657
   896.7500     12.5812     70.7672     12.6475    133.8030
   897.0000     12.6860     70.4705     12.8828    137.0489
   897.2500     12.7920     70.1860     13.1321    137.9757
   897.5000     12.9069     69.9252     13.3825    137.1812
   897.7500     13.0360     69.6975     13.6192    135.2564
   898.0000     13.1770     69.5088     13.8266    131.1551
   898.2500     13.3183     69.3604     13.9871    128.5359
   898.5000     13.4438     69.2501     14.0791    126.0237
   898.7500     13.5407     69.1726     14.0804    125.3700
   899.0000     13.6071     69.1212     13.9783    125.2668
