~Version Information
VERS.                      2.0: CWLS Log ASCII Standard - VERSION 2.0
WRAP.                       NO: One line per depth step
~Well Information Block
STRT.FT               505.0000: 
STOP.FT               772.0000: 
STEP.FT                 0.2500: 
NULL.                -999.2500: 
COMP.          Pioneer Natural Resources: COMPANY
WELL.                Zed 11-23: WELL
FLD.           Purgatoire River: FIELD
LOC.           641' FNL & 952' FWL: LOCATION
CNTY.               Las Animas: COUNTY
SRVC.                Patterson: SERVICE COMPANY
DATE.          Sun Feb 26 18:39:19 2006: LOG DATE
UWI.           05 071 08702 00: UNIQUE WELL ID
STAT.                 Colorado: STATE
~Curve Information Block
DEPT.FT            0 000 00 00: Depth
SN.Ohm-m                      : IEL Short Normal
SP.mV                         : IEL Spontaneous Potential
DIR.Ohm-m                     : IEL Induction Resistivity
GR.GAPI                       : Gamma Ray
~Parameter Information Block
~A  Depth        SN          SP         DIR          GR     
# ...
   639.0000     34.1508     48.3278     32.9568     80.0907
   639.2500     33.0782     47.9954     32.6259     81.3947
   639.5000     32.2903     47.7339     32.1895     82.5850
   639.7500     31.7515     47.5502     31.6297     82.3170
   640.0000     31.3386     47.4371     30.9936     80.9428
   640.2500     30.9528     47.3855     30.3550     80.2446
   640.5000     30.5871     47.3947     29.7822     80.2886
   640.7500     30.2846     47.4717     29.3255     80.7518
   641.0000     30.0597     47.6222     29.0146     81.1483
   641.2500     29.8972     47.8409     28.8521     80.9741
   641.5000     29.7773     48.1104     28.8071     80.3446
   641.7500     29.6903     48.4055     28.8227     79.9240
   642.0000     29.6526     48.6991     28.8395     79.3643
   642.2500     29.6647     48.9692     28.8198     78.9120
   642.5000     29.6544     49.2031     28.7503     77.8287
   642.7500     29.5286     49.3986     28.6276     76.6513
   643.0000     29.2884     49.5655     28.4481     74.0206
   643.2500     29.0211     49.7314     28.2181     71.9532
   643.5000     28.8072     49.9394     27.9681     69.6947
   643.7500     28.6950     50.2293     27.7505     69.6999
   644.0000     28.6711     50.6155     27.6186     72.8452
   644.2500     28.6415     51.0796     27.6032     76.6349
   644.5000     28.5270     51.5786     27.7004     82.6535
   644.7500     28.3336     52.0600     27.8715     85.3852
   645.0000     28.1324     52.4797     28.0531     86.2913
   645.2500     28.0103     52.8164     28.1834     85.0581
   645.5000     27.9860     53.0798     28.2337     81.7303
   645.7500     28.0097     53.3058     28.2237     79.1385
   646.0000     28.0726     53.5374     28.1993     75.4572
   646.2500     28.1846     53.8008     28.1943     73.6584
   646.5000     28.3463     54.0926     28.2105     72.7632
   646.7500     28.6365     54.3887     28.2356     73.3225
   647.0000     29.1046     54.6666     28.2748     74.5173
   647.2500     29.6097     54.9221     28.3582     74.4214
   647.5000     29.9456     55.1694     28.5173     71.7946
   647.7500     30.0549     55.4246     28.7517     68.5116
   648.0000     30.0478     55.6919     29.0169     62.5525
   648.2500     30.0252     55.9639     29.2443     58.9226
   648.5000     30.0213     56.2320     29.3783     55.6875
   648.7500     30.1118     56.4887     29.4086     55.5149
   649.0000     30.2809     56.7246     29.3732     57.5893
   649.2500     30.2655     56.9300     29.3300     59.4488
   649.5000     29.8993     57.1051     29.3177     61.3279
   649.7500     29.3845     57.2669     29.3319     61.7984
   650.0000     28.9823     57.4427     29.3318     62.1438
   650.2500     28.7633     57.6520     29.2671     62.6778
   650.5000     28.7032     57.8897     29.1059     64.1772
   650.7500     28.7076     58.1232     28.8479     65.2832
   651.0000     28.5930     58.3058     28.5206     66.0873
   651.2500     28.2905     58.4019     28.1693     65.7460
   651.5000     27.9773     58.4072     27.8441     64.3787
   651.7500     27.8116     58.3505     27.5850     63.4586
   652.0000     27.7145     58.2761     27.4039     62.7981
   652.2500     27.5608     58.2216     27.2778     63.0660
   652.5000     27.3706     58.2050     27.1644     64.5656
   652.7500     27.2404     58.2231     27.0299     65.9551
   653.0000     27.2283     58.2537     26.8690     67.5463
   653.2500     27.2915     58.2621     26.6947     67.8520
   653.5000     27.3160     58.2118     26.5141     67.5969
   653.7500     27.2581     58.0820     26.3119     67.7302
   654.0000     27.1712     57.8811     26.0577     69.4333
   654.2500     27.0288     57.6475     25.7297     71.4824
   654.5000     26.7283     57.4340     25.3434     74.7165
   654.7500     26.3452     57.2842     24.9644     76.1894
   655.0000     26.1080     57.2154     24.6901     76.5587
   655.2500     26.1042     57.2171     24.6015     75.4191
   655.5000     26.2113     57.2657     24.7156     71.8851
   655.7500     26.2988     57.3411     24.9705     68.8617
   656.0000     26.3632     57.4344     25.2582     64.5572
   656.2500     26.4624     57.5476     25.4841     62.2348
   656.5000     26.5874     57.6910     25.6116     59.5065
   656.7500     26.6261     57.8753     25.6576     58.1192
   657.0000     26.4945     58.0999     25.6571     56.9324
   657.2500     26.2626     58.3392     25.6304     56.9079
   657.5000     26.0427     58.5429     25.5749     58.0419
   657.7500     25.8105     58.6550     25.4730     59.4465
   658.0000     25.4907     58.6446     25.3035     62.0818
   658.2500     25.1182     58.5242     25.0474     63.7767
   658.5000     24.7707     58.3400     24.6889     65.4048
   658.7500     24.4752     58.1484     24.2142     65.5294
   659.0000     24.2254     58.0002     23.6178     64.2484
   659.2500     23.9838     57.9310     22.9162     62.8237
   659.5000     23.6697     57.9493     22.1579     61.1915
   659.7500     23.2081     58.0274     21.4165     61.4865
   660.0000     22.6292     58.1146     20.7677     65.7085
   660.2500     22.0523     58.1724     20.2649     71.5387
   660.5000     21.5472     58.2023     19.9257     84.1089
   660.7500     21.0968     58.2376     19.7348     93.7525
   661.0000     20.6529     58.3114     19.6552    107.0513
   661.2500     20.1573     58.4342     19.6445    113.3108
   661.5000     19.6263     58.5963     19.6684    116.4956
   661.7500     19.2051     58.7847     19.7059    114.0400
   662.0000     19.0000     58.9944     19.7472    104.4818
   662.2500     18.9761     59.2211     19.7908     95.6838
   662.5000     19.1180     59.4457     19.8437     82.3977
   662.7500     19.4945     59.6295     19.9239     75.4425
   663.0000     20.1036     59.7320     20.0569     69.3702
   663.2500     20.8301     59.7388     20.2642     67.6964
   663.5000     21.5601     59.6703     20.5514     66.6026
   663.7500     22.2354     59.5601     20.9050     65.8205
   664.0000     22.7991     59.4266     21.2986     64.0172
   664.2500     23.1702     59.2654     21.7003     62.5622
   664.5000     23.3463     59.0637     22.0786     60.6533
   664.7500     23.4330     58.8161     22.4056     59.9747
   665.0000     23.5073     58.5348     22.6617     60.2458
   665.2500     23.5500     58.2531     22.8396     61.3235
   665.5000     23.5030     58.0163     22.9387     64.3363
   665.7500     23.3499     57.8618     22.9555     67.2693
   666.0000     23.1668     57.7992     22.8809     72.4036
   666.2500     23.0250     57.8084     22.7098     75.5054
   666.5000     22.8585     57.8539     22.4532     78.5134
   666.7500     22.6117     57.9036     22.1415     79.4153
   667.0000     22.3682     57.9407     21.8133     80.0323
   667.2500     22.1624     57.9638     21.5008     80.5108
   667.5000     21.9065     57.9812     21.2214     81.7736
   667.7500     21.5435     58.0073     20.9772     82.8772
   668.0000     21.0833     58.0627     20.7593     84.2252
   668.2500     20.5648     58.1665     20.5531     84.5182
   668.5000     20.0753     58.3210     20.3409     84.0802
   668.7500     19.7121     58.5019     20.1060     83.5192
   669.0000     19.5171     58.6714     19.8397     82.5052
   669.2500     19.4877     58.8085     19.5522     81.5783
   669.5000     19.5665     58.9272     19.2791     79.6622
   669.7500     19.6365     59.0639     19.0745     78.1634
   670.0000     19.6667     59.2472     18.9904     76.0018
   670.2500     19.7554     59.4786     19.0523     74.8545
   670.5000     19.9027     59.7410     19.2458     73.9500
   670.7500     19.9505     60.0167     19.5232     74.1105
   671.0000     19.8509     60.2922     19.8238     75.7216
   671.2500     19.7486     60.5494     20.0973     77.5501
   671.5000     19.7532     60.7575     20.3155     80.4537
   671.7500     19.8536     60.8780     20.4695     81.7446
   672.0000     20.0175     60.8809     20.5635     81.8549
   672.2500     20.2010     60.7595     20.6096     80.7430
