~Version Information
VERS.                      2.0: CWLS Log ASCII Standard - VERSION 2.0
WRAP.                       NO: One line per depth step
~Well Information Block
STRT.FT               529.2000: 
STOP.FT              1325.2000: 
STEP.FT                 0.1000: 
NULL.                -999.2500: 
COMP.          Pioneer Natural Resources: COMPANY
WELL.            Erin 21-15 Tr: WELL
FLD.           Purgatoire River: FIELD
LOC.           1217' FNL & 2284' FWL--: LOCATION
CNTY.               Las Animas: COUNTY
SRVC.                Patterson: SERVICE COMPANY
DATE.          Mon Mar 06 14:26:48 2006: LOG DATE
UWI.           05 071 08712 00: UNIQUE WELL ID
STAT.                 Colorado: STATE
~Curve Information Block
DEPT.FT            0 000 00 00: Depth
DCAL.in                       : CDL Caliper
RHOB.g/cc                     : CDL Bulk Density
RHOC.g/cc                     : CDL Density Correction
DPOR.pu                       : CDL Density Porosity
GR.GAPI                       : Gamma Ray
~Parameter Information Block
~A  Depth       DCAL        RHOB        RHOC        DPOR         GR     
# ...
   540.4000      8.1473      2.1836     -0.2969     28.2677     63.1997
   540.5000      8.1515      2.2416     -0.2661     24.7517     65.9900
   540.6000      8.1515      2.2936     -0.2706     21.6028     67.3976
   540.7000      8.1515      2.3351     -0.2568     19.0827     66.9595
   540.8000      8.1528      2.3656     -0.2396     17.2381     66.4781
   540.9000      8.1528      2.3835     -0.2292     16.1516     66.7888
   541.0000      8.1511      2.3856     -0.2162     16.0267     69.4356
   541.1000      8.1511      2.3712     -0.2353     16.8985     74.1320
   541.2000      8.1511      2.3491     -0.2510     18.2335     78.2178
   541.3000      8.1501      2.3342     -0.3083     19.1391     80.1822
   541.4000      8.1501      2.3373     -0.2926     18.9524     82.2269
   541.5000      8.1506      2.3582     -0.2664     17.6878     87.2052
   541.6000      8.1506      2.3782     -0.1907     16.4707     90.7193
   541.7000      8.1506      2.3748     -0.2712     16.6787     87.0410
   541.8000      8.1506      2.3601     -0.2827     17.5695     80.0086
   541.9000      8.1506      2.3609     -0.2313     17.5190     76.2648
   542.0000      8.1495      2.3754     -0.2199     16.6441     77.0769
   542.1000      8.1495      2.3932     -0.2206     15.5622     78.2375
   542.2000      8.1495      2.4147     -0.1917     14.2587     75.9699
   542.3000      8.1486      2.4325     -0.1774     13.1832     74.0908
   542.4000      8.1486      2.4334     -0.1774     13.1271     77.6703
   542.5000      8.1491      2.4250     -0.2397     13.6374     82.7962
   542.6000      8.1491      2.4326     -0.2340     13.1737     83.6935
   542.7000      8.1491      2.4677     -0.1798     11.0456     80.9351
   542.8000      8.1483      2.5131     -0.1490      8.2964     76.4781
   542.9000      8.1483      2.5408     -0.1540      6.6189     71.4488
   543.0000      8.1475      2.5481     -0.2035      6.1728     68.9277
   543.1000      8.1475      2.5541     -0.1540      5.8094     70.4356
   543.2000      8.1475      2.5653     -0.1689      5.1337     73.0853
   543.3000      8.1492      2.5790     -0.1723      4.3012     73.1971
   543.4000      8.1492      2.5937     -0.1632      3.4122     69.5051
   543.5000      8.1508      2.6101     -0.1902      2.4201     62.5788
   543.6000      8.1508      2.6255     -0.1740      1.4849     55.3646
   543.7000      8.1508      2.6352     -0.1613      0.8947     53.5784
   543.8000      8.1508      2.6508     -0.2252     -0.0459     57.6558
   543.9000      8.1508      2.6736     -0.1692     -1.4295     62.1063
   544.0000      8.1499      2.6777     -0.1734     -1.6807     65.3909
   544.1000      8.1499      2.6478     -0.2105      0.1337     68.0717
   544.2000      8.1499      2.5983     -0.2792      3.1355     68.6610
   544.3000      8.1497      2.5559     -0.2816      5.7007     66.7329
   544.4000      8.1497      2.5265     -0.2485      7.4822     65.2796
   544.5000      8.1511      2.4952     -0.2535      9.3790     66.8475
   544.6000      8.1511      2.4584     -0.2442     11.6124     68.9445
   544.7000      8.1511      2.4253     -0.2961     13.6211     68.7263
   544.8000      8.1525      2.4054     -0.2993     14.8267     68.3540
   544.9000      8.1525      2.4038     -0.3202     14.9228     69.3257
   545.0000      8.1537      2.4111     -0.2247     14.4774     69.8435
   545.1000      8.1537      2.4081     -0.2433     14.6602     68.4797
   545.2000      8.1537      2.3933     -0.2003     15.5606     66.0716
   545.3000      8.1533      2.3768     -0.2245     16.5564     65.6199
   545.4000      8.1533      2.3633     -0.2153     17.3746     69.4095
   545.5000      8.1510      2.3585     -0.2530     17.6674     75.6227
   545.6000      8.1510      2.3667     -0.2112     17.1702     80.2449
   545.7000      8.1510      2.3753     -0.1913     16.6495     81.1456
   545.8000      8.1494      2.3723     -0.1958     16.8298     80.8889
   545.9000      8.1494      2.3638     -0.2369     17.3468     82.6480
   546.0000      8.1512      2.3607     -0.2684     17.5314     83.4350
   546.1000      8.1512      2.3656     -0.2039     17.2382     81.5082
   546.2000      8.1512      2.3755     -0.2145     16.6334     78.8189
   546.3000      8.1532      2.3885     -0.1937     15.8506     76.3181
   546.4000      8.1532      2.3972     -0.2114     15.3200     77.0575
   546.5000      8.1525      2.3910     -0.1900     15.6944     82.6472
   546.6000      8.1525      2.3593     -0.1988     17.6157     88.5032
   546.7000      8.1525      2.3098     -0.2744     20.6169     91.1843
   546.8000      8.1498      2.2645     -0.3181     23.3621     91.8099
   546.9000      8.1498      2.2325     -0.3131     25.3005     93.4464
   547.0000      8.1476      2.2218     -0.3462     25.9518     95.4716
   547.1000      8.1476      2.2456     -0.3174     24.5105     92.8139
   547.2000      8.1476      2.2886     -0.2361     21.9041     86.6633
   547.3000      8.1473      2.3211     -0.2576     19.9330     84.5145
   547.4000      8.1473      2.3361     -0.2043     19.0272     86.7700
   547.5000      8.1467      2.3411     -0.2579     18.7225     87.4285
   547.6000      8.1467      2.3412     -0.2143     18.7130     85.4968
   547.7000      8.1467      2.3352     -0.2622     19.0802     86.1843
   547.8000      8.1468      2.3196     -0.2630     20.0241     89.9793
   547.9000      8.1468      2.2919     -0.2231     21.7009     91.6339
   548.0000      8.1495      2.2622     -0.2964     23.5008     89.9918
   548.1000      8.1495      2.2496     -0.2622     24.2666     88.0720
   548.2000      8.1495      2.2532     -0.2518     24.0498     86.5635
   548.3000      8.1518      2.2584     -0.2528     23.7333     84.2042
   548.4000      8.1518      2.2632     -0.3011     23.4420     81.8381
   548.5000      8.1527      2.2805     -0.2661     22.3914     82.5155
   548.6000      8.1527      2.3160     -0.2790     20.2401     86.8688
   548.7000      8.1527      2.3589     -0.2246     17.6424     91.1790
   548.8000      8.1529      2.3948     -0.2048     15.4644     92.4115
   548.9000      8.1529      2.4182     -0.1825     14.0467     91.4200
   549.0000      8.1529      2.4335     -0.2036     13.1200     89.8992
   549.1000      8.1529      2.4486     -0.1796     12.2033     88.4520
   549.2000      8.1529      2.4602     -0.1701     11.5006     88.2356
   549.3000      8.1531      2.4588     -0.1607     11.5875     89.6630
   549.4000      8.1531      2.4480     -0.1676     12.2397     89.7670
   549.5000      8.1530      2.4349     -0.1667     13.0350     86.7141
   549.6000      8.1530      2.4166     -0.1814     14.1437     82.3073
   549.7000      8.1530      2.3984     -0.2340     15.2494     78.8103
   549.8000      8.1525      2.3966     -0.2194     15.3569     77.9640
   549.9000      8.1525      2.4086     -0.1922     14.6280     77.5766
   550.0000      8.1517      2.4136     -0.1706     14.3249     73.8801
   550.1000      8.1517      2.4136     -0.2325     14.3252     70.8182
   550.2000      8.1517      2.4316     -0.2123     13.2372     73.1824
   550.3000      8.1510      2.4590     -0.1091     11.5771     78.0773
   550.4000      8.1510      2.4665     -0.1216     11.1208     82.6466
   550.5000      8.1510      2.4652     -0.2246     11.1984     86.7402
   550.6000      8.1510      2.4771     -0.1682     10.4765     88.1947
   550.7000      8.1510      2.4821     -0.1409     10.1783     85.3322
   550.8000      8.1525      2.4673     -0.2264     11.0750     81.2065
   550.9000      8.1525      2.4551     -0.2109     11.8142     78.9538
   551.0000      8.1536      2.4551     -0.1673     11.8130     77.3908
   551.1000      8.1536      2.4565     -0.1837     11.7278     76.4124
   551.2000      8.1536      2.4546     -0.1629     11.8412     76.5431
   551.3000      8.1532      2.4604     -0.2053     11.4921     77.5243
   551.4000      8.1532      2.4833     -0.1370     10.1015     79.4141
   551.5000      8.1518      2.5110     -0.1774      8.4224     79.6277
