~Version Information
VERS.                      2.0: CWLS Log ASCII Standard - VERSION 2.0
WRAP.                       NO: One line per depth step
~Well Information Block
STRT.FT               490.0000: 
STOP.FT              2303.5000: 
STEP.FT                 0.1000: 
NULL.                -999.2500: 
COMP.          Pioneer Natural Resources: COMPANY
WELL.             Baa Baa 34-1: WELL
FLD.           Purgatoire River: FIELD
LOC.           617' FSL & 2289' FEL: LOCATION
STAT.                 Colorado: State
CNTY.               Las Animas: COUNTY
CTRY. USA : Country
SECT. 1 : Section
TOWN. 33S : Township
RANG. 67W : Range
SRVC.                Patterson: SERVICE COMPANY
DATE.          Thu Sep 08 09:44:32 2005: LOG DATE
API.           05 071 08502 00: UNIQUE WELL ID
~Curve Information Block
DEPT.FT            0 000 00 00: Depth
DCAL.in                       : CDL Caliper
RHOB.g/cc                     : CDL Bulk Density
RHOC.g/cc                     : CDL Density Correction
DPOR.pu                       : CDL Density Porosity
GR.GAPI                       : Gamma Ray
NPOR.pu                       : Neutron Porosity
~Parameter Information Block
~A  Depth       DCAL        RHOB        RHOC        DPOR         GR         NPOR    
# ...
  1210.0000      8.0368      2.5452      0.0406      6.3513    143.6675     27.1568
  1210.1000      8.0368      2.5405      0.0083      6.6393    137.6689     27.0380
  1210.2000      8.0368      2.5434     -0.0283      6.4630    135.8691     26.5433
  1210.3000      7.9362      2.5622      0.0570      5.3231    137.4652     26.2197
  1210.4000      7.9362      2.5641      0.0494      5.2070    139.3177     26.2518
  1210.5000      7.9620      2.5336     -0.0195      7.0573    141.6128     26.3991
  1210.6000      7.9620      2.4959     -0.0321      9.3375    142.5037     26.1743
  1210.7000      7.9620      2.4661     -0.0555     11.1425    141.0507     25.4728
  1210.8000      8.0074      2.4414     -0.0794     12.6428    145.3828     24.7512
  1210.9000      8.0074      2.4268     -0.0588     13.5284    159.2738     24.3353
  1211.0000      8.0176      2.4226     -0.0242     13.7809    168.6235     23.9529
  1211.1000      8.0176      2.4175     -0.0247     14.0880    163.8151     23.2294
  1211.2000      8.0176      2.4055     -0.0120     14.8176    155.4792     22.6284
  1211.3000      8.0466      2.3926     -0.0165     15.6003    156.9590     22.7769
  1211.4000      8.0466      2.3855      0.0381     16.0325    164.8008     23.4893
  1211.5000      8.0273      2.3823      0.0877     16.2264    168.9470     24.1198
  1211.6000      8.0273      2.3873      0.0630     15.9204    167.4250     24.1409
  1211.7000      8.0273      2.4069      0.1137     14.7345    167.9977     23.7742
  1211.8000      7.9833      2.4196      0.1736     13.9611    173.8776     23.6909
  1211.9000      7.9833      2.3951      0.1443     15.4468    173.2780     23.9512
  1212.0000      7.9413      2.3292      0.1169     19.4415    161.1258     24.1695
  1212.1000      7.9413      2.2295      0.1219     25.4823    152.6641     24.0235
  1212.2000      7.9413      2.1085      0.0830     32.8195    158.4920     23.6052
  1212.3000      8.0168      1.9862      0.0319     40.2314    170.2116     23.3173
  1212.4000      8.0168      1.8634      0.0402     47.6742    175.1340     23.1720
  1212.5000      8.1523      1.7240     -0.0569     56.1239    169.4639     22.8198
  1212.6000      8.1523      1.5921     -0.0799     64.1166    161.7001     22.1924
  1212.7000      8.1523      1.5378      0.0363     67.4042    160.9552     21.6965
  1212.8000      8.5123      1.5993      0.2666     63.6793    164.9888     21.5255
  1212.9000      8.5123      1.7504      0.4152     54.5218    168.4229     21.3133
  1213.0000      8.4368      1.9534      0.5184     42.2189    168.3912     20.9231
  1213.1000      8.4368      2.1797      0.5837     28.5004    162.6223     20.8805
  1213.2000      8.4368      2.3957      0.6588     15.4116    152.8500     21.3839
  1213.3000      8.1808      2.5742      0.6771      4.5952    146.1246     22.0375
  1213.4000      8.1808      2.7074      0.6949     -3.4806    149.4083     22.4368
  1213.5000      8.1201      2.7939      0.7043     -8.7229    161.1080     22.7153
  1213.6000      8.1201      2.8302      0.7146    -10.9182    170.7888     23.3087
  1213.7000      8.1201      2.8274      0.5452    -10.7521    173.6918     24.3599
  1213.8000      8.4889      2.8056      0.4281     -9.4331    175.5371     25.6237
  1213.9000      8.4889      2.7609      0.3603     -6.7232    181.1579     26.5549
  1214.0000      8.7948      2.6886      0.1556     -2.3399    188.0155     27.0558
  1214.1000      8.7948      2.6138      0.0796      2.1964    191.5226     27.4229
  1214.2000      8.7948      2.5594      0.0708      5.4938    191.8879     27.7269
  1214.3000      8.2168      2.5268      0.0734      7.4679    191.1268     27.9473
  1214.4000      8.2168      2.5079      0.0168      8.6092    188.7758     27.9647
  1214.5000      7.9977      2.5005      0.0006      9.0631    183.5266     27.7318
  1214.6000      7.9977      2.5088     -0.0037      8.5569    174.7182     27.3765
  1214.7000      7.9977      2.5268      0.0542      7.4670    163.3782     27.0457
  1214.8000      7.9635      2.5402      0.0433      6.6526    152.8129     26.9347
  1214.9000      7.9635      2.5475      0.0536      6.2125    145.7546     26.9748
  1215.0000      7.9605      2.5487      0.0381      6.1383    143.9264     26.8710
  1215.1000      7.9605      2.5415      0.0271      6.5739    149.0249     26.7761
  1215.2000      7.9605      2.5308     -0.0053      7.2263    157.0626     26.6961
  1215.3000      7.9655      2.5215      0.0200      7.7857    163.1508     26.3267
  1215.4000      7.9655      2.5139     -0.0044      8.2511    165.1632     25.9732
  1215.5000      7.9806      2.5087     -0.0050      8.5645    161.4647     25.9853
  1215.6000      7.9806      2.5096     -0.0266      8.5098    156.1273     26.2693
  1215.7000      7.9806      2.5201     -0.0084      7.8740    154.3650     26.7980
  1215.8000      8.0072      2.5405      0.0073      6.6389    156.5061     27.5489
  1215.9000      8.0072      2.5669      0.0707      5.0394    160.2978     28.1817
  1216.0000      7.9917      2.5953      0.0454      3.3152    161.7429     28.2760
  1216.1000      7.9917      2.6215      0.0686      1.7264    160.2491     28.0956
  1216.2000      7.9917      2.6409      0.0638      0.5503    156.6024     28.0508
  1216.3000      7.9797      2.6555      0.0416     -0.3338    151.8890     27.8202
  1216.4000      7.9797      2.6647      0.0463     -0.8933    150.6255     27.0525
  1216.5000      7.9659      2.6562      0.0492     -0.3744    151.7862     26.1491
  1216.6000      7.9659      2.6259     -0.0230      1.4624    150.6272     25.6578
  1216.7000      7.9659      2.5940     -0.0160      3.3959    150.2667     25.3918
  1216.8000      8.0039      2.5768     -0.0133      4.4390    154.4201     25.1287
  1216.9000      8.0039      2.5727     -0.0695      4.6864    159.9937     25.1927
  1217.0000      8.0174      2.5725     -0.0180      4.6955    162.7238     25.4256
  1217.1000      8.0174      2.5645     -0.0125      5.1802    161.4315     25.1014
  1217.2000      8.0174      2.5512     -0.0352      5.9863    159.1826     24.2699
  1217.3000      8.0476      2.5442      0.0239      6.4100    159.6954     23.7711
  1217.4000      8.0476      2.5387      0.0324      6.7433    163.0320     23.7089
  1217.5000      8.0525      2.5185      0.0397      7.9692    164.2316     23.5209
  1217.6000      8.0525      2.4848     -0.0350     10.0095    158.5092     23.1477
  1217.7000      8.0525      2.4578     -0.0288     11.6500    150.7191     22.8452
  1217.8000      8.0281      2.4453      0.0089     12.4070    148.8409     22.6926
  1217.9000      8.0281      2.4495     -0.0599     12.1492    153.0446     22.8830
  1218.0000      7.9919      2.4739     -0.0167     10.6704    157.9678     23.4077
  1218.1000      7.9919      2.4968      0.0787      9.2842    159.5419     23.6355
  1218.2000      7.9919      2.4934      0.0560      9.4925    155.9155     23.3520
  1218.3000      7.9728      2.4739     -0.0158     10.6720    149.0867     22.9909
  1218.4000      7.9728      2.4570      0.0214     11.6952    147.0120     22.8206
  1218.5000      7.9703      2.4430     -0.0092     12.5424    152.6080     23.0860
  1218.6000      7.9703      2.4307      0.0191     13.2914    157.7052     23.9386
  1218.7000      7.9703      2.4183      0.0126     14.0402    156.5279     24.8990
  1218.8000      7.9860      2.4033     -0.0036     14.9493    150.2119     25.4553
  1218.9000      7.9860      2.3916     -0.0275     15.6586    140.6793     25.6607
  1219.0000      8.0001      2.3961     -0.0318     15.3880    130.3208     26.0703
  1219.1000      8.0001      2.4210     -0.0186     13.8818    120.9484     27.0224
  1219.2000      8.0001      2.4505      0.0277     12.0935    114.9933     27.8507
  1219.3000      7.9619      2.4707     -0.0134     10.8657    112.4902     27.8361
  1219.4000      7.9619      2.4942      0.0372      9.4454    110.6411     27.1715
  1219.5000      7.9565      2.5358      0.0496      6.9226    108.7130     26.7222
