~Version Information
 VERS.                                  2.0 : CWLS LAS VERSION
 WRAP.                                   NO : WRAPING MODE
 SWARE .                 MController 2.5.0J : SOFTWARE VERSION
~Well Information
 WELL.                     Montoya 18-11V B : WELL
 COMP.                 Petrogulf Corporation: COMPANY
 FLD.                      Purgatoire River : FIELD
 LOC.                NW/NW Sec 18 T33S R67W : LOCATION
 DATE.                            10/3-4/05 : DATE(S) LOGGED
 SRVC.       BLANCO Geological Services LLC : SERVICE COMPANY
 STAT.                                   CO : STATE
 CNTY.                           Las Animas : COUNTY
 CTRY.                                  USA : COUNTRY
 API.                       05-071-08539-00 : API NUMBER
 STRT.FT                              86.00 : START DEPTH
 STOP.FT                            2495.00 : STOP DEPTH
 STEP.FT                               1.00 : DEPTH INCREMENT
 NULL.                                9999 : NULL VALUE
~Curve information
 DEPTH.FT                                   :
 ROP.MIN/FT                                 :
 GAS.UNITS                                  :
~ASCII Log data 
# ...
       486.0         0.40         17.8 
       487.0         0.33         17.9 
       488.0         0.32         18.0 
       489.0         0.20         17.1 
       490.0         0.23         18.0 
       491.0         0.30         17.9 
       492.0         0.20         17.8 
       493.0         0.20         17.2 
       494.0         0.23         17.9 
       495.0         0.40         17.9 
       496.0         0.30         17.5 
       497.0         0.23         17.6 
       498.0         0.23         17.3 
       499.0         0.23         17.3 
       500.0         0.28         16.8 
       501.0         0.40         17.2 
       502.0         0.37         17.1 
       503.0         0.27         17.5 
       504.0         0.27         17.7 
       505.0         0.27         17.7 
       506.0         1.72         17.9 
       507.0         0.37         17.6 
       508.0         0.27         17.3 
       509.0         0.30         17.5 
       510.0         0.30         17.5 
       511.0         0.33         17.5 
       512.0         0.27         17.3 
       513.0         0.27         17.7 
       514.0         0.33         17.8 
       515.0         0.23         17.5 
       516.0         0.30         17.5 
       517.0         0.27         17.6 
       518.0         0.32         17.6 
       519.0         0.30         17.6 
       520.0         0.30         17.4 
       521.0         0.30         17.9 
       522.0         0.37         18.0 
       523.0         0.37         18.1 
       524.0         0.33         18.2 
       525.0         0.33         17.8 
       526.0         0.33         17.7 
       527.0         0.27         17.6 
       528.0         0.28         17.5 
       529.0         0.27         16.6 
       530.0         0.23         17.2 
       531.0         0.27         17.4 
       532.0         0.27         17.2 
       533.0         0.30         17.2 
       534.0         0.23         17.4 
       535.0         0.33         17.4 
       536.0         1.72         17.2 
       537.0         0.23         16.7 
       538.0         0.23         16.7 
       539.0         0.37         17.1 
       540.0         0.37         16.8 
       541.0         0.27         16.7 
       542.0         0.37         16.8 
       543.0         0.23         16.4 
       544.0         0.30         16.1 
       545.0         0.30         16.3 
       546.0         0.28         16.6 
       547.0         0.20         16.5 
       548.0         0.27         17.2 
       549.0         0.37         17.6 
       550.0         0.43         17.6 
       551.0         0.30         17.2 
       552.0         0.30         17.6 
       553.0         0.27         17.3 
       554.0         0.20         17.3 
       555.0         0.27         17.4 
       556.0         0.33         17.3 
       557.0         0.32         17.6 
       558.0         0.27         17.6 
       559.0         0.30         17.9 
       560.0         0.27         17.6 
       561.0         0.20         17.4 
       562.0         0.23         17.6 
       563.0         0.23         17.5 
       564.0         0.33         17.8 
       565.0         0.23         18.2 
       566.0         1.95         18.2 
       567.0         0.33         17.6 
       568.0         0.23         17.4 
       569.0         0.33         17.2 
       570.0         0.33         17.0 
       571.0         0.40         17.1 
       572.0         0.33         16.9 
       573.0         0.42         17.2 
       574.0         0.27         17.3 
       575.0         0.27         17.3 
       576.0         0.27         17.3 
       577.0         0.30         17.1 
       578.0         0.27         17.6 
       579.0         0.30         17.6 
       580.0         0.30         17.7 
       581.0         0.33         17.6 
       582.0         0.30         17.6 
       583.0         0.35         17.7 
       584.0         0.30         17.6 
       585.0         0.33         17.6 
       586.0         0.33         17.8 
       587.0         0.30         16.8 
       588.0         0.30         17.1 
       589.0         0.30         17.3 
       590.0         0.30         17.1 
       591.0         0.23         16.9 
       592.0         0.23         16.5 
       593.0         0.27         17.0 
       594.0         0.28         17.5 
       595.0         1.83         17.6 
       596.0         0.23         17.9 
       597.0         0.30         17.6 
       598.0         0.30         17.6 
       599.0         0.27         17.7 
       600.0         0.32         18.2 
       601.0         0.20         17.9 
       602.0         0.17         17.3 
       603.0         0.13         16.9 
       604.0         0.23         18.0 
       605.0         0.30         17.7 
       606.0         0.27         17.8 
       607.0         0.23         17.8 
       608.0         0.20         17.7 
       609.0         0.23         17.7 
       610.0         0.30         17.7 
       611.0         0.30         17.9 
       612.0         0.28         17.6 
       613.0         0.37         17.6 
       614.0         0.23         17.7 
       615.0         0.23         17.6 
       616.0         0.23         17.4 
       617.0         0.27         17.6 
       618.0         0.23         17.5 
       619.0         0.37         17.4 
       620.0         0.47         17.4 
       621.0         0.58         16.9 
       622.0         0.37         17.0 
       623.0         0.30         16.9 
       624.0         0.37         17.2 
       625.0         0.27         16.9 
       626.0         1.78         16.7 
       627.0         0.43         16.5 
       628.0         0.30         16.5 
       629.0         0.30         16.5 
       630.0         0.27         16.5 
       631.0         0.37         16.4 
       632.0         0.50         16.6 
       633.0         0.35         16.6 
       634.0         0.30         15.9 
       635.0         0.30         16.8 
       636.0         0.30         16.6 
       637.0         0.33         16.5 
       638.0         0.37         16.7 
       639.0         0.40         16.5 
       640.0         0.30         16.5 
       641.0         0.30         16.3 
       642.0         0.30         16.4 
       643.0         0.35         16.3 
       644.0         0.37         16.4 
       645.0         0.50         16.5 
       646.0         0.47         16.4 
       647.0         0.30         16.2 
       648.0         0.33         16.4 
       649.0         0.33         16.5 
       650.0         0.37         16.8 
       651.0         0.30         16.6 
       652.0         0.20         17.1 
       653.0         0.25         17.1 
       654.0         0.20         17.2 
       655.0         0.30         17.1 
       656.0         2.33         17.4 
       657.0         0.55         17.0 
       658.0         0.43         17.3 
       659.0         0.40         17.6 
       660.0         0.50         17.6 
       661.0         0.43         17.5 
       662.0         0.47         17.9 
       663.0         0.50         17.9 
       664.0         0.72         17.5 
       665.0         0.77         18.0 
       666.0         0.60         18.2 
       667.0         0.43         18.1 
       668.0         0.30         18.0 
       669.0         0.30         17.7 
       670.0         0.30         18.2 
       671.0         0.28         18.0 
       672.0         0.23         17.6 
       673.0         0.27         17.8 
       674.0         0.33         17.6 
       675.0         0.40         17.8 
       676.0         0.33         17.9 
       677.0         0.40         17.5 
       678.0         0.37         18.0 
       679.0         0.40         17.8 
       680.0         0.27         17.7 
       681.0         0.32         18.1 
       682.0         0.43         17.9 
       683.0         0.50         18.1 
       684.0         0.37         18.3 
       685.0         0.50         18.2 
