~Version Information
VERS.                      2.0: CWLS Log ASCII Standard - VERSION 2.0
WRAP.                       NO: One line per depth step
~Well Information Block
STRT.FT               595.7000: 
STOP.FT              1567.2000: 
STEP.FT                 0.1000: 
NULL.                -999.2500: 
COMP.          Pioneer Natural Resources: COMPANY
WELL.           Butch 33-10 Tr: WELL
FLD.           Purgatoire River: FIELD
LOC.           2309' FSL & 1337' FEL--: LOCATION
PROV.                 Colorado: PROVINCE
CNTY.               Las Animas: COUNTRY
SRVC.                Patterson: SERVICE COMPANY
DATE.          Mon Jan 16 07:34:05 2006: LOG DATE
UWI.           05 071 08649 00: UNIQUE WELL ID
~Curve Information Block
DEPT.FT            0 000 00 00: Depth
DCAL.in                       : CDL Caliper
RHOB.g/cc                     : CDL Bulk Density
RHOC.g/cc                     : CDL Density Correction
DPOR.pu                       : CDL Density Porosity
GR.GAPI                       : Gamma Ray
~Parameter Information Block
~A  Depth       DCAL        RHOB        RHOC        DPOR         GR     
# ...
   920.5000      8.1103      2.5686      0.0451      4.9327     61.1937
   920.6000      8.1103      2.5832      0.1011      4.0480     66.6548
   920.7000      8.1103      2.5913      0.0509      3.5565     73.1159
   920.8000      8.1227      2.5970      0.0643      3.2123     79.5522
   920.9000      8.1227      2.5994      0.0937      3.0661     83.4683
   921.0000      8.1315      2.5929      0.0521      3.4630     85.4224
   921.1000      8.1315      2.5792      0.0507      4.2932     88.7076
   921.2000      8.1315      2.5674     -0.0218      5.0033     90.7591
   921.3000      8.1361      2.5704      0.0049      4.8244     87.6908
   921.4000      8.1361      2.5839      0.0117      4.0046     80.9876
   921.5000      8.1356      2.5852      0.0602      3.9253     74.1523
   921.6000      8.1356      2.5629      0.0349      5.2791     72.0296
   921.7000      8.1356      2.5302      0.0247      7.2595     74.5473
   921.8000      8.1340      2.5026      0.0398      8.9305     74.9356
   921.9000      8.1340      2.4879      0.0150      9.8251     72.9321
   922.0000      8.1319      2.4913      0.0188      9.6180     73.5947
   922.1000      8.1319      2.5079      0.0753      8.6131     75.8074
   922.2000      8.1319      2.5232      0.0412      7.6851     77.6349
   922.3000      8.1262      2.5289      0.0679      7.3382     80.3594
   922.4000      8.1262      2.5266      0.0490      7.4800     79.9824
   922.5000      8.1219      2.5261      0.0160      7.5108     71.3624
   922.6000      8.1219      2.5310      0.0601      7.2148     61.1362
   922.7000      8.1219      2.5312      0.0593      7.2003     59.8051
   922.8000      8.1244      2.5273      0.0551      7.4343     65.3819
   922.9000      8.1244      2.5325      0.0332      7.1213     70.8139
   923.0000      8.1313      2.5413      0.0791      6.5876     75.0841
   923.1000      8.1313      2.5371      0.0329      6.8395     77.9255
   923.2000      8.1313      2.5288      0.0269      7.3450     80.1270
   923.3000      8.1378      2.5295      0.0273      7.3009     83.8432
   923.4000      8.1378      2.5322      0.0338      7.1402     87.2318
   923.5000      8.1404      2.5347      0.0044      6.9851     87.7548
   923.6000      8.1404      2.5389      0.0570      6.7325     88.2480
   923.7000      8.1404      2.5407      0.0202      6.6220     89.9778
   923.8000      8.1381      2.5433      0.0381      6.4676     87.6123
   923.9000      8.1381      2.5441      0.0628      6.4170     81.7474
   924.0000      8.1345      2.5350      0.0548      6.9672     79.7644
   924.1000      8.1345      2.5194      0.0383      7.9126     84.4774
   924.2000      8.1345      2.5079      0.0086      8.6144     95.9519
   924.3000      8.1351      2.5069      0.0132      8.6732    110.7399
   924.4000      8.1351      2.5112      0.0397      8.4139    124.4937
   924.5000      8.1379      2.5096      0.0586      8.5106    136.8796
   924.6000      8.1379      2.5019      0.0535      8.9744    144.4262
   924.7000      8.1379      2.4964      0.0467      9.3097    146.8851
   924.8000      8.1380      2.4960      0.0365      9.3333    153.4823
   924.9000      8.1380      2.4996      0.0847      9.1131    165.2854
   925.0000      8.1377      2.4998      0.1032      9.1029    173.1650
   925.1000      8.1377      2.4850      0.0872      9.9984    174.5535
   925.2000      8.1377      2.4546      0.0787     11.8398    173.6827
   925.3000      8.1365      2.4248     -0.0073     13.6481    171.1267
   925.4000      8.1365      2.4147     -0.0204     14.2604    165.0431
   925.5000      8.1391      2.4245      0.0130     13.6683    158.4772
   925.6000      8.1391      2.4383      0.0628     12.8280    155.3408
   925.7000      8.1391      2.4485      0.0170     12.2095    154.9925
   925.8000      8.1491      2.4547      0.0748     11.8344    157.0983
   925.9000      8.1491      2.4533      0.0417     11.9237    163.8835
   926.0000      8.1535      2.4505      0.0469     12.0936    172.6322
   926.1000      8.1535      2.4563      0.0706     11.7381    176.0046
   926.2000      8.1535      2.4661      0.0791     11.1437    170.6762
   926.3000      8.1535      2.4637      0.0804     11.2927    160.4082
   926.4000      8.1535      2.4471      0.0592     12.2969    151.3598
   926.5000      8.1599      2.4346      0.0607     13.0540    148.1300
   926.6000      8.1599      2.4297      0.0829     13.3504    152.2710
   926.7000      8.1599      2.4161      0.0786     14.1775    157.9945
   926.8000      8.1748      2.3765      0.0618     16.5727    157.3983
   926.9000      8.1748      2.2988      0.0405     21.2865    151.3310
   927.0000      8.1951      2.1907     -0.0518     27.8381    145.9917
   927.1000      8.1951      2.0820     -0.0804     34.4212    145.5215
   927.2000      8.1951      1.9859     -0.0428     40.2477    147.6861
   927.3000      8.2178      1.8874     -0.0800     46.2192    143.8999
   927.4000      8.2178      1.7822     -0.1150     52.5909    135.2999
   927.5000      8.2384      1.6816     -0.1347     58.6921    132.9766
   927.6000      8.2384      1.5884     -0.1434     64.3375    137.3447
   927.7000      8.2384      1.5028     -0.1412     69.5245    138.8186
   927.8000      8.2543      1.4316     -0.1377     73.8437    133.6637
   927.9000      8.2543      1.3798     -0.0629     76.9842    125.3467
   928.0000      8.2634      1.3467     -0.0538     78.9892    117.3689
   928.1000      8.2634      1.3291      0.0068     80.0572    109.7152
   928.2000      8.2634      1.3192      0.0203     80.6541     99.4548
   928.3000      8.2660      1.3135      0.0031     81.0024     87.0005
   928.4000      8.2660      1.3134      0.0201     81.0048     75.8680
   928.5000      8.2617      1.3160      0.0279     80.8511     67.2505
   928.6000      8.2617      1.3149      0.0204     80.9176     60.6769
   928.7000      8.2617      1.3069      0.0284     81.3978     56.3619
   928.8000      8.2516      1.2992     -0.0168     81.8644     51.8996
   928.9000      8.2516      1.3038      0.0135     81.5869     45.1885
   929.0000      8.2483      1.3167      0.0463     80.8071     39.4278
   929.1000      8.2483      1.3265      0.0454     80.2144     36.2082
   929.2000      8.2483      1.3321      0.0359     79.8742     33.1959
   929.3000      8.2575      1.3340      0.0397     79.7601     29.2657
   929.4000      8.2575      1.3316      0.0218     79.9019     25.6958
   929.5000      8.2638      1.3288      0.0272     80.0705     24.8621
   929.6000      8.2638      1.3271      0.0200     80.1758     26.9651
   929.7000      8.2638      1.3262     -0.0032     80.2314     28.3959
   929.8000      8.2597      1.3261      0.0200     80.2373     28.0615
   929.9000      8.2597      1.3258     -0.0075     80.2560     28.7393
   930.0000      8.2574      1.3245      0.0205     80.3361     29.7289
   930.1000      8.2574      1.3207      0.0093     80.5610     28.5661
   930.2000      8.2574      1.3193     -0.0127     80.6464     26.3168
   930.3000      8.2622      1.3257      0.0032     80.2601     25.9523
   930.4000      8.2622      1.3334      0.0215     79.7958     27.3122
   930.5000      8.2794      1.3351      0.0039     79.6913     28.2487
   930.6000      8.2794      1.3372     -0.0109     79.5661     28.8531
   930.7000      8.2794      1.3462      0.0244     79.0155     29.0790
   930.8000      8.3076      1.3558      0.0302     78.4373     28.8483
   930.9000      8.3076      1.3571      0.0526     78.3581     29.0549
   931.0000      8.3298      1.3565      0.0386     78.3941     29.0611
   931.1000      8.3298      1.3763      0.0365     77.1911     30.7513
   931.2000      8.3298      1.4308      0.0725     73.8914     35.5144
   931.3000      8.3316      1.5124      0.0784     68.9441     39.5193
   931.4000      8.3316      1.6065      0.1007     63.2454     39.7145
   931.5000      8.3167      1.6939      0.1708     57.9467     37.2886
   931.6000      8.3167      1.7525      0.1812     54.3945     39.2103
