~Version Information
VERS.                      2.0: CWLS Log ASCII Standard - VERSION 2.0
WRAP.                       NO: One line per depth step
~Well Information Block
STRT.FT               530.7500: 
STOP.FT              1325.2500: 
STEP.FT                 0.2500: 
NULL.                -999.2500: 
COMP.          Pioneer Natural Resources: COMPANY
WELL.            Erin 21-15 Tr: WELL
FLD.           Purgatoire River: FIELD
LOC.           1217' FNL & 2284' FWL--: LOCATION
CNTY.               Las Animas: COUNTY
SRVC.                Patterson: SERVICE COMPANY
DATE.          Fri Mar 03 23:07:06 2006: LOG DATE
UWI.           05 071 08712 00: UNIQUE WELL ID
STAT.                 Colorado: STATE
~Curve Information Block
DEPT.FT            0 000 00 00: Depth
SN.Ohm-m                      : IEL Short Normal
SP.mV                         : IEL Spontaneous Potential
DIR.Ohm-m                     : IEL Induction Resistivity
GR.GAPI                       : Gamma Ray
~Parameter Information Block
~A  Depth        SN          SP         DIR          GR     
# ...
  1301.2500     11.2620    194.4355     11.0266   -999.2500
  1301.5000     11.3647    194.1406     11.1255   -999.2500
  1301.7500     11.4702    193.8711     11.2120   -999.2500
  1302.0000     11.5619    193.6270     11.2840   -999.2500
  1302.2500     11.6292    193.4065     11.3403   -999.2500
  1302.5000     11.6655    193.2077     11.3777   -999.2500
  1302.7500     11.6646    193.0291     11.3888   -999.2500
  1303.0000     11.6214    192.8702     11.3618   -999.2500
  1303.2500     11.5370    192.7314     11.2851   -999.2500
  1303.5000     11.4226    192.6130     11.1531   -999.2500
  1303.7500     11.2966    192.5139     10.9699   -999.2500
  1304.0000     11.1790    192.4311     10.7502   -999.2500
  1304.2500     11.0855    192.3587     10.5161   -999.2500
  1304.5000     11.0227    192.2882     10.2906   -999.2500
  1304.7500     10.9846    192.2094     10.0926   -999.2500
  1305.0000     10.9571    192.1118      9.9340   -999.2500
  1305.2500     10.9251    191.9850      9.8203   -999.2500
  1305.5000     10.8770    191.8200      9.7532   -999.2500
  1305.7500     10.8046    191.6082      9.7325   -999.2500
  1306.0000     10.7010    191.3409      9.7573   -999.2500
  1306.2500     10.5626    191.0086      9.8276   -999.2500
  1306.5000     10.3983    190.6006      9.9469   -999.2500
  1306.7500     10.2446    190.1058     10.1238   -999.2500
  1307.0000     10.1830    189.5142     10.3736   -999.2500
  1307.2500     10.3390    188.8185     10.7167   -999.2500
  1307.5000     10.8472    188.0162     11.1755   -999.2500
  1307.7500     11.7895    187.1106     11.7701   -999.2500
  1308.0000     13.1361    186.1116     12.5096   -999.2500
  1308.2500     14.7329    185.0353     13.3832   -999.2500
  1308.5000     16.3565    183.9031     14.3515   -999.2500
  1308.7500     17.8146    182.7401     15.3493   -999.2500
  1309.0000     19.0359    181.5731     16.3033   -999.2500
  1309.2500     20.0870    180.4281     17.1616   -999.2500
  1309.5000     21.0989    179.3276     17.9154   -999.2500
  1309.7500     22.1557    178.2882     18.5983   -999.2500
  1310.0000     23.2303    177.3185     19.2612   -999.2500
  1310.2500     24.2106    176.4186     19.9421   -999.2500
  1310.5000     24.9848    175.5807     20.6452   -999.2500
  1310.7500     25.5087    174.7918     21.3383   -999.2500
  1311.0000     25.8128    174.0369     21.9672   -999.2500
  1311.2500     25.9637    173.3027     22.4820   -999.2500
  1311.5000     26.0255    172.5804     22.8654   -999.2500
  1311.7500     26.0457    171.8670     23.1453   -999.2500
  1312.0000     26.0591    171.1650     23.3837   -999.2500
  1312.2500     26.0902    170.4798     23.8350   -999.2500
  1312.5000     26.1466    169.8176     24.1802   -999.2500
  1312.7500     26.2133    169.1832     24.6075   -999.2500
  1313.0000     26.2516    168.5785     25.0751   -999.2500
  1313.2500     26.2089    168.0023     25.4982   -999.2500
  1313.5000     26.0405    167.4519     25.7734   -999.2500
  1313.7500     25.7355    166.9240     25.8195   -999.2500
  1314.0000     25.3256    166.4163     25.6149   -999.2500
  1314.2500     24.8656    165.9279     25.2165   -999.2500
  1314.5000     24.3988    165.4585     24.7552   -999.2500
  1314.7500     23.9304    165.0067     24.4311   -999.2500
  1315.0000     23.4218    164.5669     24.5296   -999.2500
  1315.2500     22.8098    164.1268     25.4706   -999.2500
  1315.5000     22.0472    163.6648     27.9300   -999.2500
  1315.7500     21.1421    163.1503     32.7408   -999.2500
  1316.0000     20.1647    162.5443     43.2310   -999.2500
  1316.2500     19.2164    161.8028     66.3893   -999.2500
  1316.5000     18.3814    160.8775    130.3275   -999.2500
  1316.7500     17.6922    159.7241    512.5724   -999.2500
  1317.0000     17.1248    158.3007 100000.0000   -999.2500
  1317.2500     16.6216    156.5680 100000.0000   -999.2500
  1317.5000     16.1282    154.4865 100000.0000   -999.2500
  1317.7500     15.6235    152.0082 100000.0000   -999.2500
  1318.0000     15.1280    149.0660 100000.0000   -999.2500
  1318.2500     14.6875    145.5621 100000.0000   -999.2500
  1318.5000     14.3423    141.3603 100000.0000   -999.2500
  1318.7500     14.0993    136.2905 100000.0000   -999.2500
  1319.0000     13.9217    130.1718 100000.0000   -999.2500
  1319.2500     13.7432    122.8550 100000.0000   -999.2500
  1319.5000     13.4905    114.2797 100000.0000   -999.2500
  1319.7500     13.0852    104.5303 100000.0000   -999.2500
  1320.0000     12.4059     93.8691 100000.0000   -999.2500
  1320.2500     11.2593     82.7285 100000.0000   -999.2500
  1320.5000      9.4639     71.6575 100000.0000   -999.2500
  1320.7500      7.0624     61.2304 100000.0000   -999.2500
  1321.0000      4.4507     51.9450 100000.0000   -999.2500
  1321.2500      2.1947     44.1404 100000.0000   -999.2500
  1321.5000      0.6629     37.9559 100000.0000   -999.2500
  1321.7500     -0.1510     33.3399 100000.0000   -999.2500
  1322.0000     -0.4887     30.0966 100000.0000   -999.2500
  1322.2500     -0.5979     27.9524 100000.0000   -999.2500
  1322.5000     -0.6255     26.6191 100000.0000   -999.2500
  1322.7500     -0.6309     25.8394 100000.0000   -999.2500
  1323.0000   -999.2500     25.4107 100000.0000   -999.2500
  1323.2500   -999.2500     25.1893 100000.0000   -999.2500
  1323.5000   -999.2500     25.0817   9726.1436   -999.2500
  1323.7500   -999.2500     25.0326   4653.3501   -999.2500
  1324.0000   -999.2500     25.0116   3710.1357   -999.2500
  1324.2500   -999.2500     25.0032   3422.1997   -999.2500
  1324.5000   -999.2500   -999.2500   3330.7893   -999.2500
  1324.7500   -999.2500   -999.2500   3304.1960   -999.2500
  1325.0000   -999.2500   -999.2500   3297.4392   -999.2500
  1325.2500   -999.2500   -999.2500 100000.0000   -999.2500
