~Version Information
VERS.                      2.0: CWLS Log ASCII Standard - VERSION 2.0
WRAP.                       NO: One line per depth step
~Well Information Block
STRT.FT                10.0000: 
STOP.FT              1458.0000: 
STEP.FT                 0.1000: 
NULL.                -999.2500: 
COMP.          Pioneer Natural Resources: COMPANY
WELL.            Bordeaux 42-2: WELL
FLD.           Purgatorie River: FIELD
LOC.           1963' FNL & 1148' FEL: LOCATION
PROV.                 Colorado: PROVINCE
CNTY.               Las Animas: COUNTRY
SRVC.                Patterson: SERVICE COMPANY
DATE.          Tue Nov 29 07:11:03 2005: LOG DATE
UWI.                          : UNIQUE WELL ID
~Curve Information Block
DEPT.FT            0 000 00 00: Depth
DCAL.in                       : CDL Caliper
RHOB.g/cc                     : CDL Bulk Density
RHOC.g/cc                     : CDL Density Correction
DPOR.pu                       : CDL Density Porosity
GR.GAPI                       : Gamma Ray
NPOR.pu                       : Neutron Porosity
~Parameter Information Block
~A  Depth       DCAL        RHOB        RHOC        DPOR         GR         NPOR    
# ...
   394.0000      8.0322      2.5680      0.0240      4.9691    122.4505     26.9682
   394.1000      8.0322      2.5520      0.0064      5.9373    125.0000     26.8126
   394.2000      8.0322      2.5484     -0.0232      6.1593    123.4773     26.4363
   394.3000      8.0151      2.5534     -0.0181      5.8561    120.3180     26.1356
   394.4000      8.0151      2.5652     -0.0363      5.1373    117.7188     26.1164
   394.5000      8.0205      2.5798     -0.0169      4.2566    115.8477     26.2362
   394.6000      8.0205      2.5904      0.0213      3.6142    115.0219     26.3572
   394.7000      8.0205      2.5956     -0.0098      3.2977    117.0546     26.5058
   394.8000      8.0200      2.5926      0.0380      3.4797    119.6138     26.6375
   394.9000      8.0200      2.5777     -0.0178      4.3800    119.3944     26.6715
   395.0000      8.0311      2.5617     -0.0278      5.3490    118.9888     26.5599
   395.1000      8.0311      2.5578     -0.0087      5.5866    119.3767     26.4653
   395.2000      8.0311      2.5638      0.0120      5.2264    118.8572     26.5446
   395.3000      8.0371      2.5728     -0.0169      4.6798    119.2144     26.5559
   395.4000      8.0371      2.5804      0.0389      4.2186    120.3132     26.3410
   395.5000      8.0640      2.5790      0.0294      4.3020    118.1724     26.1726
   395.6000      8.0640      2.5712      0.0040      4.7762    112.2533     26.2201
   395.7000      8.0640      2.5661      0.0089      5.0842    105.9608     26.1174
   395.8000      8.0799      2.5677     -0.0271      4.9852    103.4018     25.6343
   395.9000      8.0799      2.5720      0.0181      4.7290    104.4918     25.2167
   396.0000      8.0608      2.5684      0.0093      4.9427    105.3392     25.2922
   396.1000      8.0608      2.5600     -0.0052      5.4518    104.9746     25.5731
   396.2000      8.0608      2.5572     -0.0107      5.6214    104.8008     25.5719
   396.3000      8.0103      2.5567      0.0027      5.6551    103.1476     25.3138
   396.4000      8.0103      2.5506     -0.0054      6.0238     98.5219     24.9683
   396.5000      8.0031      2.5449     -0.0339      6.3697     94.3819     24.3763
   396.6000      8.0031      2.5471     -0.0173      6.2357     93.9491     23.5950
   396.7000      8.0031      2.5514      0.0033      5.9782     94.5440     23.1201
   396.8000      7.9891      2.5489      0.0054      6.1243     91.9160     23.0338
   396.9000      7.9891      2.5414     -0.0230      6.5825     89.2560     23.0491
   397.0000      7.9753      2.5421     -0.0522      6.5395     91.0369     23.1473
   397.1000      7.9753      2.5603      0.0011      5.4348     94.5550     23.4165
   397.2000      7.9753      2.5883      0.0364      3.7406     96.6004     23.7264
   397.3000      7.9753      2.6107      0.0935      2.3826     97.8503     23.9431
   397.4000      7.9753      2.6192      0.0522      1.8681    100.0112     24.1448
   397.5000      7.9730      2.6158      0.0270      2.0714    103.1561     24.2761
   397.6000      7.9730      2.5963      0.0753      3.2518    105.4999     24.1959
   397.7000      7.9730      2.5624     -0.0067      5.3104    105.5517     23.9516
   397.8000      7.9763      2.5399     -0.0333      6.6745    103.7173     23.6152
   397.9000      7.9763      2.5478     -0.0228      6.1916    102.0898     23.3568
   398.0000      7.9739      2.5749      0.0095      4.5539    101.8518     23.4052
   398.1000      7.9739      2.5922      0.0555      3.5013    103.1173     23.5535
   398.2000      7.9739      2.5862      0.0160      3.8637    106.0008     23.4645
   398.3000      7.9741      2.5722      0.0192      4.7170    110.4070     23.4870
   398.4000      7.9741      2.5698     -0.0162      4.8576    113.6934     23.9351
   398.5000      7.9717      2.5810      0.0243      4.1819    112.1372     24.3779
   398.6000      7.9717      2.5974      0.0269      3.1870    106.6402     24.5206
   398.7000      7.9717      2.6137      0.0336      2.2020    101.3731     24.5389
   398.8000      7.9750      2.6221      0.0364      1.6937     98.0983     24.7174
   398.9000      7.9750      2.6212      0.0431      1.7455     97.1528     25.0581
   399.0000      7.9723      2.6275      0.0256      1.3660     99.8185     25.2650
   399.1000      7.9723      2.6415      0.0447      0.5135    106.6005     25.0393
   399.2000      7.9723      2.6362      0.0571      0.8386    114.4407     24.3726
   399.3000      7.9713      2.6073     -0.0286      2.5891    118.3453     23.6907
   399.4000      7.9713      2.5820     -0.0189      4.1186    117.6411     23.4192
   399.5000      7.9751      2.5673     -0.0112      5.0124    116.2265     23.7151
   399.6000      7.9751      2.5481     -0.0169      6.1771    117.4183     24.3037
   399.7000      7.9751      2.5254     -0.0266      7.5501    120.9479     24.6777
   399.8000      7.9818      2.5170     -0.0024      8.0616    125.2232     24.6708
   399.9000      7.9818      2.5250      0.0208      7.5786    127.9267     24.5083
   400.0000      7.9822      2.5401      0.0240      6.6603    126.4143     24.4196
   400.1000      7.9822      2.5562      0.0279      5.6869    122.1627     24.3189
   400.2000      7.9822      2.5653      0.0240      5.1341    118.5037     24.2213
   400.3000      7.9722      2.5658      0.0042      5.1025    115.5544     24.4130
   400.4000      7.9722      2.5656      0.0628      5.1167    114.0444     24.7160
   400.5000      7.9789      2.5696      0.0236      4.8725    116.3338     24.7342
   400.6000      7.9789      2.5756      0.0618      4.5090    120.3299     24.4904
   400.7000      7.9789      2.5749      0.0364      4.5490    120.9758     24.1977
   400.8000      7.9745      2.5648      0.0303      5.1649    117.1065     23.9441
   400.9000      7.9745      2.5514      0.0406      5.9753    112.4550     23.7294
   401.0000      7.9944      2.5407     -0.0134      6.6241    110.0500     23.6897
   401.1000      7.9944      2.5358      0.0399      6.9204    109.6735     23.7159
   401.2000      7.9944      2.5373      0.0021      6.8278    108.7343     23.5006
   401.3000      8.0060      2.5457      0.0038      6.3230    103.4524     23.2452
   401.4000      8.0060      2.5603      0.0003      5.4347     96.9050     23.3088
   401.5000      7.9968      2.5825     -0.0100      4.0890     96.8928     23.6015
   401.6000      7.9968      2.6101      0.0376      2.4194    100.9485     23.9060
   401.7000      7.9968      2.6278      0.0227      1.3466    101.8064     24.2297
   401.8000      7.9915      2.6206      0.0385      1.7797     99.4956     24.4928
   401.9000      7.9915      2.5962     -0.0253      3.2590     96.7708     24.4829
   402.0000      7.9791      2.5795     -0.0241      4.2725     94.5670     24.2771
   402.1000      7.9791      2.5826      0.0013      4.0821     92.1792     23.9513
   402.2000      7.9791      2.5947     -0.0030      3.3492     89.6273     23.3692
   402.3000      7.9874      2.5990     -0.0155      3.0925     87.2935     22.7012
   402.4000      7.9874      2.5875      0.0435      3.7860     84.5526     22.3697
   402.5000      7.9949      2.5655     -0.0005      5.1203     81.9695     22.1444
   402.6000      7.9949      2.5451      0.0286      6.3604     80.3983     21.6145
   402.7000      7.9949      2.5294      0.0071      7.3112     79.8675     21.0588
   402.8000      7.9972      2.5170      0.0153      8.0595     81.7177     20.7610
   402.9000      7.9972      2.5103      0.0236      8.4651     85.4030     20.4827
   403.0000      8.0078      2.5097      0.0582      8.5051     86.8870     20.0768
   403.1000      8.0078      2.5144      0.0453      8.2182     84.9564     19.8225
   403.2000      8.0078      2.5252      0.0509      7.5607     81.8578     19.7698
   403.3000      8.0031      2.5392      0.0589      6.7150     80.0894     19.6510
   403.4000      8.0031      2.5506      0.0996      6.0253     80.9394     19.5262
   403.5000      8.0028      2.5576      0.0919      5.6024     82.9958     19.4788
