~Version Information
VERS.                      2.0: CWLS Log ASCII Standard - VERSION 2.0
WRAP.                       NO: One line per depth step
~Well Information Block
STRT.FT                -6.7500: 
STOP.FT              2256.0000: 
STEP.FT                 0.2500: 
NULL.                -999.2500: 
COMP.          Pioneer Natural Resources: COMPANY
WELL.               Relay 12-7: WELL
FLD.           Purgatorie River: FIELD
LOC.           1999' FNL & 848' FWL--: LOCATION
PROV.                       CO: PROVINCE
CNTY.               Las Animas: COUNTRY
SRVC.          Patterson Wireline: SERVICE COMPANY
DATE.          Thu Dec 22 09:06:31 2005: LOG DATE
UWI.           05 071 08453 00: UNIQUE WELL ID
~Curve Information Block
DEPT.FT            0 000 00 00: Depth
CCL.                          : Casing Collar Locator
TT3.usec                      : CBL 3' Travel Time
AMP3.mV                       : CBL 3' Amplitude
GR.GAPI                       : Gamma Ray
~Parameter Information Block
~A  Depth       CCL         TT3         AMP3         GR     
# ...
  2237.7500      0.0000    488.5880      3.6024    109.9849
  2238.0000      0.0000    487.8431      3.5707    108.3643
  2238.2500      0.0000    488.1680      3.5438    108.5915
  2238.5000      0.0000    488.8394      3.5190    110.5713
  2238.7500      0.0000    489.6934      3.4852    113.4463
  2239.0000      0.0000    490.8851      3.4316    115.8700
  2239.2500      0.0000    493.0192      3.3589    116.9819
  2239.5000      0.0000    497.5767      3.2804    116.7752
  2239.7500      0.0000    506.8523      3.2116    115.3335
  2240.0000      0.0000    522.4285      3.1562    112.4249
  2240.2500      0.0000    542.2804      3.1038    108.1652
  2240.5000      0.0000    559.5302      3.0416    103.4895
  2240.7500      0.0000    565.9359      2.9673     99.5427
  2241.0000      0.0000    557.7819      2.8930     96.5924
  2241.2500      0.0000    537.7791      2.8361     93.3039
  2241.5000      0.0000    511.6981      2.8071     86.9439
  2241.7500      0.0000    485.2206      2.8045     74.9781
  2242.0000      0.0000    463.5410      2.8183     57.4386
  2242.2500      0.0000    450.4420      2.8376     37.7823
  2242.5000      0.0000    446.1198      2.8549     20.7980
  2242.7500      0.0000    447.2057      2.8655      9.4035
  2243.0000      0.0000    449.5534      2.8658      3.4450
  2243.2500      0.0000    450.5014      2.8525      1.0124
  2243.5000      0.0000    448.9738      2.8253      0.2366
  2243.7500      0.0000    444.8406      2.7873      0.0432
  2244.0000      0.0000    439.0344      2.7451      0.0055
  2244.2500      0.0000    433.8378      2.7070      0.0000
  2244.5000      0.0000    432.1209      2.6807   -999.2500
  2244.7500      0.0000    435.6320      2.6699   -999.2500
  2245.0000      0.0000    444.0236      2.6700   -999.2500
  2245.2500      0.0000    455.4680      2.6695   -999.2500
  2245.5000      0.0000    467.8018      2.6582   -999.2500
  2245.7500      0.0000    478.9966      2.6349   -999.2500
  2246.0000      0.0000    487.2267      2.6053   -999.2500
  2246.2500      0.0000    490.7760      2.5724   -999.2500
  2246.5000      0.0000    487.1580      2.5254   -999.2500
  2246.7500      0.0000    471.3262      2.4329   -999.2500
  2247.0000      0.0000    435.2540      2.2466   -999.2500
  2247.2500      0.0000    372.1458      1.9253   -999.2500
  2247.5000      0.0000    284.5071      1.4774   -999.2500
  2247.7500      0.0000    188.1343      0.9814   -999.2500
  2248.0000      0.0000    104.6639      0.5487   -999.2500
  2248.2500      0.0000     47.9550      0.2526   -999.2500
  2248.5000      0.0000     17.8150      0.0943   -999.2500
  2248.7500      0.0000      5.3050      0.0282   -999.2500
  2249.0000      0.0000      1.2542      0.0067   -999.2500
  2249.2500      0.0000      0.2317      0.0012   -999.2500
  2249.5000      0.0000      0.0308      0.0002   -999.2500
  2249.7500      0.0000   -999.2500   -999.2500   -999.2500
  2250.0000      0.0000   -999.2500   -999.2500   -999.2500
  2250.2500      0.0000   -999.2500   -999.2500   -999.2500
  2250.5000      0.0000   -999.2500   -999.2500   -999.2500
  2250.7500      0.0000   -999.2500   -999.2500   -999.2500
  2251.0000      0.0000   -999.2500   -999.2500   -999.2500
  2251.2500      0.0000   -999.2500   -999.2500   -999.2500
  2251.5000      0.0000   -999.2500   -999.2500   -999.2500
  2251.7500      0.0000   -999.2500   -999.2500   -999.2500
  2252.0000      0.0000   -999.2500   -999.2500   -999.2500
  2252.2500      0.0000   -999.2500   -999.2500   -999.2500
  2252.5000      0.0000   -999.2500   -999.2500   -999.2500
  2252.7500      0.0000   -999.2500   -999.2500   -999.2500
  2253.0000      0.0000   -999.2500   -999.2500   -999.2500
  2253.2500      0.0000   -999.2500   -999.2500   -999.2500
  2253.5000      0.0000   -999.2500   -999.2500   -999.2500
  2253.7500      0.0000   -999.2500   -999.2500   -999.2500
  2254.0000      0.0000   -999.2500   -999.2500   -999.2500
  2254.2500      0.0000   -999.2500   -999.2500   -999.2500
  2254.5000      0.0000   -999.2500   -999.2500   -999.2500
  2254.7500      0.0000   -999.2500   -999.2500   -999.2500
  2255.0000      0.0000   -999.2500   -999.2500   -999.2500
  2255.2500      0.0000   -999.2500   -999.2500   -999.2500
  2255.5000   -999.2500   -999.2500   -999.2500   -999.2500
  2255.7500   -999.2500   -999.2500   -999.2500   -999.2500
  2256.0000   -999.2500   -999.2500   -999.2500   -999.2500
