~Version Information
VERS.                      2.0: CWLS Log ASCII Standard - VERSION 2.0
WRAP.                       NO: One line per depth step
~Well Information Block
STRT.FT               240.0000: 
STOP.FT              1342.0000: 
STEP.FT                 0.1000: 
NULL.                -999.2500: 
COMP.          Pioneer Natural Resources: COMPANY
WELL.          Lorencito 9-4-34-66: WELL
FLD.           Purgatoire River: FIELD
LOC.           2540' FSL & 438' FEL: LOCATION
STAT.                 Colorado: State
CNTY.               Las Animas: COUNTY
CTRY. USA : Country
SECT. 4 : Section
TOWN. 34S : Township
RANG. 68W : range
SRVC.                Patterson: SERVICE COMPANY
DATE.          Thu Sep 15 13:16:59 2005: LOG DATE
API.           05 071 08498 00: UNIQUE WELL ID
~Curve Information Block
DEPT.FT            0 000 00 00: Depth
DCAL.in                       : CDL Caliper
RHOB.g/cc                     : CDL Bulk Density
RHOC.g/cc                     : CDL Density Correction
DPOR.pu                       : CDL Density Porosity
GR.GAPI                       : Gamma Ray
NPOR.pu                       : Neutron Porosity
~Parameter Information Block
~A  Depth       DCAL        RHOB        RHOC        DPOR         GR         NPOR    
# ...
   384.0000      8.2167      2.5329      0.0697      7.0971    126.0915     26.4006
   384.1000      8.2167      2.5242      0.1068      7.6245    126.1606     26.0518
   384.2000      8.2167      2.5214      0.0577      7.7937    129.3922     25.4436
   384.3000      8.2177      2.5217      0.0577      7.7748    133.9075     24.5862
   384.4000      8.2177      2.5213      0.1052      7.7993    135.4919     24.3465
   384.5000      8.2182      2.5189      0.0512      7.9463    133.3702     25.0585
   384.6000      8.2182      2.5240      0.0696      7.6344    130.7170     26.1483
   384.7000      8.2182      2.5445      0.0624      6.3963    127.9711     27.1708
   384.8000      8.2050      2.5688      0.1250      4.9210    126.3326     27.4598
   384.9000      8.2050      2.5782      0.1023      4.3534    129.9118     27.1503
   385.0000      8.2091      2.5727      0.1032      4.6852    137.1672     26.7749
   385.1000      8.2091      2.5674      0.0795      5.0062    139.7068     26.0594
   385.2000      8.2091      2.5689      0.0735      4.9143    135.1948     24.8381
   385.3000      8.2217      2.5678      0.1284      4.9833    130.3366     23.5060
   385.4000      8.2217      2.5526      0.0975      5.9057    128.7654     22.8206
   385.5000      8.2154      2.5273      0.0363      7.4372    130.1086     23.1576
   385.6000      8.2154      2.5065      0.0332      8.6985    134.8564     23.8062
   385.7000      8.2154      2.4997      0.0376      9.1109    140.4639     24.1879
   385.8000      8.2156      2.5017      0.0801      8.9870    142.7114     24.5103
   385.9000      8.2156      2.5013      0.0370      9.0100    139.9923     24.5759
   386.0000      8.2096      2.4998      0.0386      9.1017    135.2469     24.3354
   386.1000      8.2096      2.4983      0.0494      9.1965    134.4753     24.4363
   386.2000      8.2096      2.4949      0.0290      9.4017    137.6800     24.8643
   386.3000      8.2458      2.4963      0.0341      9.3155    138.1475     24.6763
   386.4000      8.2458      2.5021      0.0668      8.9618    134.3440     23.6188
   386.5000      8.2630      2.5064      0.0459      8.7061    131.4562     22.6248
   386.6000      8.2630      2.5130      0.0345      8.3013    131.8545     21.9307
   386.7000      8.2630      2.5206      0.0783      7.8404    133.7243     20.6406
   386.8000      8.2640      2.5176      0.1019      8.0256    135.7040     18.7012
   386.9000      8.2640      2.4987      0.0618      9.1674    136.3916     17.1094
   387.0000      8.2545      2.4728      0.0207     10.7374    137.1544     16.0837
   387.1000      8.2545      2.4436      0.0413     12.5093    140.4074     15.4041
   387.2000      8.2545      2.3905      0.0788     15.7299    138.5764     15.1753
   387.3000      8.2473      2.3000     -0.0158     21.2145    126.0109     15.5038
   387.4000      8.2473      2.1954     -0.0624     27.5511    115.6567     16.0934
   387.5000      8.2603      2.1079     -0.0559     32.8515    119.7591     16.3190
   387.6000      8.2603      2.0469     -0.0709     36.5503    130.8990     16.1250
   387.7000      8.2603      2.0042     -0.0563     39.1406    137.8549     16.1961
   387.8000      8.2644      1.9765     -0.0334     40.8193    139.3354     16.9711
   387.9000      8.2644      1.9798     -0.0621     40.6169    138.4351     18.1426
   388.0000      8.2852      2.0294      0.0609     37.6117    137.3598     18.8995
   388.1000      8.2852      2.1089      0.1996     32.7911    137.8556     18.9277
   388.2000      8.2852      2.1850      0.2404     28.1839    139.0203     18.5570
   388.3000      8.3277      2.2355      0.2580     25.1237    139.3058     17.7616
   388.4000      8.3277      2.2511      0.1690     24.1767    138.3231     16.6893
   388.5000      8.3619      2.2305      0.1251     25.4219    137.2865     16.2181
   388.6000      8.3619      2.1757      0.0492     28.7428    141.3094     16.3188
   388.7000      8.3619      2.0927      0.0453     33.7730    149.7107     16.1032
   388.8000      8.3567      1.9933      0.0232     39.7983    154.0702     15.3927
   388.9000      8.3567      1.8907     -0.0421     46.0208    150.8080     14.3920
   389.0000      8.3717      1.7985     -0.0915     51.6072    140.8579     13.4045
   389.1000      8.3717      1.7287     -0.0132     55.8376    128.1215     12.8897
   389.2000      8.3717      1.6792      0.0089     58.8368    119.4444     12.7927
   389.3000      8.3529      1.6398      0.0535     61.2227    116.1139     12.6329
   389.4000      8.3529      1.6044      0.0435     63.3711    113.8075     12.3568
   389.5000      8.3802      1.5754      0.1179     65.1272    106.7184     12.2263
   389.6000      8.3802      1.5600      0.2000     66.0600     92.8952     12.3605
   389.7000      8.3802      1.5644      0.2136     65.7941     79.6926     12.9452
   389.8000      8.3775      1.5965      0.2179     63.8504     76.4838     14.1698
   389.9000      8.3775      1.6642      0.1750     59.7477     81.9507     15.8506
   390.0000      8.3734      1.7583      0.2672     54.0430     88.5650     17.6840
   390.1000      8.3734      1.8567      0.2108     48.0778     92.5840     19.3758
   390.2000      8.3734      1.9613      0.2440     41.7386     93.9735     20.6712
   390.3000      8.4657      2.0814      0.4001     34.4598     93.9217     21.8459
   390.4000      8.4657      2.1994      0.4577     27.3100     94.1091     23.2455
   390.5000      8.4610      2.3007      0.4036     21.1704     96.2954     24.6074
   390.6000      8.4610      2.3922      0.3585     15.6227    103.1290     25.5469
   390.7000      8.4610      2.4725      0.3315     10.7562    114.5921     25.7388
   390.8000      8.5595      2.5273      0.2688      7.4383    122.9885     25.2021
   390.9000      8.5595      2.5504      0.1889      6.0380    124.9344     24.4670
   391.0000      8.4985      2.5421      0.1989      6.5387    127.1904     23.8830
   391.1000      8.4985      2.5058      0.0767      8.7392    133.5683     23.4276
   391.2000      8.4985      2.4622      0.0250     11.3816    141.0232     22.8328
   391.3000      8.2722      2.4259      0.0556     13.5800    144.9683     21.3133
   391.4000      8.2722      2.3911     -0.0118     15.6907    146.1377     18.8880
   391.5000      8.1922      2.3532      0.0137     17.9851    147.4745     16.8340
   391.6000      8.1922      2.3068      0.0227     20.8016    147.0573     15.8441
   391.7000      8.1922      2.2426      0.0387     24.6897    146.7350     15.4145
   391.8000      8.1916      2.1585     -0.0026     29.7899    153.2462     15.1717
   391.9000      8.1916      2.0704     -0.0367     35.1301    161.7953     15.3222
   392.0000      8.2280      2.0116     -0.0500     38.6928    160.8170     15.4606
   392.1000      8.2280      1.9956      0.0705     39.6611    152.8818     15.1635
   392.2000      8.2280      1.9999      0.0832     39.4017    148.1043     14.8089
   392.3000      8.3303      2.0017      0.1013     39.2938    149.2012     14.9488
   392.4000      8.3303      1.9882      0.1670     40.1074    149.0119     15.8482
   392.5000      8.3615      1.9553      0.1625     42.1012    142.4904     17.1286
   392.6000      8.3615      1.9180      0.1647     44.3660    135.4408     18.0672
   392.7000      8.3615      1.8989      0.1443     45.5198    131.9292     18.6667
   392.8000      8.3310      1.9118      0.2083     44.7397    129.3726     19.2942
   392.9000      8.3310      1.9591      0.0308     41.8742    127.9957     20.1757
   393.0000      8.3122      2.0368      0.0428     37.1638    128.1681     21.7718
   393.1000      8.3122      2.1241      0.1707     31.8738    127.9727     23.5877
   393.2000      8.3122      2.2004      0.1755     27.2473    126.9475     24.4575
   393.3000      8.4463      2.2716      0.2602     22.9333    124.7095     24.3058
   393.4000      8.4463      2.3484      0.3371     18.2808    121.5199     23.6759
   393.5000      8.3116      2.4262      0.3527     13.5655    118.5298     23.1826
