~Version Information
VERS.                      2.0: CWLS Log ASCII Standard - VERSION 2.0
WRAP.                       NO: One line per depth step
~Well Information Block
STRT.FT               350.0000: 
STOP.FT              2808.2500: 
STEP.FT                 0.2500: 
NULL.                -999.2500: 
COMP.          Pioneer Natural Resources: COMPANY
WELL.          Grey Goose 33-30: WELL
FLD.           Purgatoire River: FIELD
LOC.           2136' FSL & 2065' FEL--: LOCATION
STAT.                 Colorado: State
CNTY.               Las Animas: COUNTY
CTRY. USA : Country
SECT. 30 : Section
TOWN. 32S : Township
RANG. 67W : Range
SRVC.                Patterson: SERVICE COMPANY
DATE.          Fri Nov 04 09:00:45 2005: LOG DATE
API.           05 071 08546 00: UNIQUE WELL ID
~Curve Information Block
DEPT.FT            0 000 00 00: Depth
DIR.Ohm-m                     : IEL Induction Resistivity
SN.Ohm-m                      : IEL Short Normal
SP.mV                         : IEL Spontaneous Potential
GR.GAPI                       : Gamma Ray
~Parameter Information Block
~A  Depth       DIR          SN          SP          GR     
# ...
   685.0000     31.7473   2000.0000   2000.0000     88.8764
   685.2500     31.6088   2000.0000   2000.0000     87.2464
   685.5000     31.4321   2000.0000   2000.0000     83.9868
   685.7500     31.2288   2000.0000   2000.0000     81.7717
   686.0000     31.0124   2000.0000   2000.0000     78.9408
   686.2500     30.8010   2000.0000   2000.0000     77.6024
   686.5000     30.6163   2000.0000   2000.0000     76.4971
   686.7500     30.4751   2000.0000   2000.0000     76.1378
   687.0000     30.3759   2000.0000   2000.0000     75.4710
   687.2500     30.2933   2000.0000   2000.0000     74.6208
   687.5000     30.1940   2000.0000   2000.0000     72.7287
   687.7500     30.0666   2000.0000   2000.0000     71.2732
   688.0000     29.9375   2000.0000   2000.0000     69.0522
   688.2500     29.8536   2000.0000   2000.0000     67.5797
   688.5000     29.8436   2000.0000   2000.0000     65.5785
   688.7500     29.8914   2000.0000   2000.0000     64.5705
   689.0000     29.9363   2000.0000   2000.0000     63.5786
   689.2500     29.8977   2000.0000   2000.0000     63.0420
   689.5000     29.7036   2000.0000   2000.0000     62.0198
   689.7500     29.3078   2000.0000   2000.0000     61.1556
   690.0000     28.6922   2000.0000   2000.0000     59.9992
   690.2500     27.8656   2000.0000   2000.0000     59.8320
   690.5000     26.8644   2000.0000   2000.0000     61.5827
   690.7500     25.7511   2000.0000   2000.0000     64.5733
   691.0000     24.6018   2000.0000   2000.0000     71.8800
   691.2500     23.4852   2000.0000   2000.0000     78.2249
   691.5000     22.4426   2000.0000   2000.0000     88.8011
   691.7500     21.4801   2000.0000   2000.0000     95.7768
   692.0000     20.5774   2000.0000   2000.0000    104.8402
   692.2500     19.7088   2000.0000   2000.0000    109.4831
   692.5000     18.8628   2000.0000   2000.0000    114.4032
   692.7500     18.0500   2000.0000   2000.0000    116.7170
   693.0000     17.2949   2000.0000   2000.0000    119.4901
   693.2500     16.6208   2000.0000   2000.0000    121.2222
   693.5000     16.0377   2000.0000   2000.0000    124.0763
   693.7500     15.5394   2000.0000   2000.0000    126.3035
   694.0000     15.1087   2000.0000   2000.0000    130.2767
   694.2500     14.7246   2000.0000   2000.0000    133.4004
   694.5000     14.3696   2000.0000   2000.0000    138.7920
   694.7500     14.0351   2000.0000   2000.0000    142.7197
   695.0000     13.7233   2000.0000   2000.0000    148.5516
   695.2500     13.4449   2000.0000   2000.0000    151.9580
   695.5000     13.2138   2000.0000   2000.0000    155.8435
   695.7500     13.0423   2000.0000   2000.0000    157.6707
   696.0000     12.9389   2000.0000   2000.0000    159.7472
   696.2500     12.9102   2000.0000   2000.0000    160.9362
   696.5000     12.9638   2000.0000   2000.0000    162.6287
   696.7500     13.1085   2000.0000   2000.0000    163.6946
   697.0000     13.3536   2000.0000   2000.0000    164.7682
   697.2500     13.7073   2000.0000   2000.0000    164.5419
   697.5000     14.1767   2000.0000   2000.0000    161.7216
   697.7500     14.7680   2000.0000   2000.0000    158.0372
   698.0000     15.4859   2000.0000   2000.0000    150.6303
   698.2500     16.3290   2000.0000   2000.0000    145.1920
   698.5000     17.2844   2000.0000   2000.0000    137.1612
   698.7500     18.3232   2000.0000   2000.0000    131.9457
   699.0000     19.4011   2000.0000   2000.0000    123.8943
   699.2500     20.4629   2000.0000   2000.0000    118.1866
   699.5000     21.4497   2000.0000   2000.0000    109.6847
   699.7500     22.3065   2000.0000   2000.0000    105.0992
   700.0000     22.9907   2000.0000   2000.0000    102.2598
   700.2500     23.4770   2000.0000   2000.0000    104.0209
   700.5000     23.7583   2000.0000   2000.0000    111.7499
   700.7500     23.8420   2000.0000   2000.0000    118.9794
   701.0000     23.7484   2000.0000   2000.0000    130.2576
   701.2500     23.5122   2000.0000   2000.0000    136.9297
   701.5000     23.1798   2000.0000   2000.0000    144.7225
   701.7500     22.8021   2000.0000   2000.0000    148.2610
   702.0000     22.4255   2000.0000   2000.0000    150.9410
   702.2500     22.0905   2000.0000   2000.0000    150.8782
   702.5000     21.8328   2000.0000   2000.0000    148.0346
   702.7500     21.6812   2000.0000   2000.0000    144.6424
   703.0000     21.6516   2000.0000   2000.0000    138.3898
   703.2500     21.7399   2000.0000   2000.0000    134.0223
   703.5000     21.9201   2000.0000   2000.0000    127.6902
   703.7500     22.1493   2000.0000   2000.0000    123.8445
   704.0000     22.3779   2000.0000   2000.0000    119.2835
   704.2500     22.5605   2000.0000   2000.0000    117.3540
   704.5000     22.6649   2000.0000   2000.0000    115.9829
   704.7500     22.6740   2000.0000   2000.0000    115.6875
   705.0000     22.5824   2000.0000   2000.0000    115.5988
   705.2500     22.3905   2000.0000   2000.0000    115.7926
   705.5000     22.1001   2000.0000   2000.0000    117.1560
   705.7500     21.7138   2000.0000   2000.0000    119.2096
   706.0000     21.2400   2000.0000   2000.0000    123.8782
   706.2500     20.6975   2000.0000   2000.0000    127.4422
   706.5000     20.1169   2000.0000   2000.0000    132.5041
   706.7500     19.5347   2000.0000   2000.0000    135.5939
   707.0000     18.9859   2000.0000   2000.0000    140.0898
   707.2500     18.4965   2000.0000   2000.0000    142.9098
   707.5000     18.0801   2000.0000   2000.0000    145.9650
   707.7500     17.7382   2000.0000   2000.0000    146.7156
   708.0000     17.4638   2000.0000   2000.0000    146.1515
   708.2500     17.2481   2000.0000   2000.0000    145.3295
   708.5000     17.0824   2000.0000   2000.0000    144.3479
   708.7500     16.9569   2000.0000   2000.0000    143.9432
   709.0000     16.8553   2000.0000   2000.0000    143.6610
   709.2500     16.7530   2000.0000   2000.0000    143.9881
   709.5000     16.6235   2000.0000   2000.0000    146.2185
   709.7500     16.4513   2000.0000   2000.0000    149.0622
   710.0000     16.2389   2000.0000   2000.0000    154.0383
   710.2500     16.0031   2000.0000   2000.0000    156.4447
   710.5000     15.7616   2000.0000   2000.0000    157.4817
   710.7500     15.5235   2000.0000   2000.0000    157.1370
   711.0000     15.2908   2000.0000   2000.0000    157.1692
   711.2500     15.0656   2000.0000   2000.0000    157.9516
   711.5000     14.8563   2000.0000   2000.0000    158.9378
   711.7500     14.6767   2000.0000   2000.0000    158.4239
   712.0000     14.5403   2000.0000   2000.0000    155.2225
   712.2500     14.4551   2000.0000   2000.0000    151.7745
   712.5000     14.4207   2000.0000   2000.0000    145.7182
   712.7500     14.4298   2000.0000   2000.0000    141.8052
   713.0000     14.4721   2000.0000   2000.0000    137.1464
   713.2500     14.5376   2000.0000   2000.0000    135.1286
   713.5000     14.6179   2000.0000   2000.0000    133.5760
   713.7500     14.7058   2000.0000   2000.0000    133.2016
   714.0000     14.7944   2000.0000   2000.0000    132.9677
   714.2500     14.8800   2000.0000   2000.0000    132.7430
   714.5000     14.9639   2000.0000   2000.0000    132.2475
   714.7500     15.0507   2000.0000   2000.0000    131.9961
   715.0000     15.1447   2000.0000   2000.0000    132.0519
   715.2500     15.2456   2000.0000   2000.0000    132.4323
   715.5000     15.3487   2000.0000   2000.0000    133.3831
   715.7500     15.4485   2000.0000   2000.0000    134.1342
   716.0000     15.5432   2000.0000   2000.0000    135.3059
   716.2500     15.6355   2000.0000   2000.0000    136.1353
   716.5000     15.7314   2000.0000   2000.0000    137.2931
   716.7500     15.8378   2000.0000   2000.0000    137.6420
   717.0000     15.9623   2000.0000   2000.0000    136.8738
   717.2500     16.1118   2000.0000   2000.0000    135.5582
   717.5000     16.2918   2000.0000   2000.0000    133.3501
   717.7500     16.5016   2000.0000   2000.0000    132.3475
   718.0000     16.7318   2000.0000   2000.0000    132.0559
   718.2500     16.9629   2000.0000   2000.0000    132.6815
