~Version Information
VERS.                      2.0: CWLS Log ASCII Standard - VERSION 2.0
WRAP.                       NO: One line per depth step
~Well Information Block
STRT.FT                -7.5000: 
STOP.FT              1517.5000: 
STEP.FT                 0.2500: 
NULL.                -999.2500: 
COMP.          Pioneer Natural Resources: COMPANY
WELL.          McClaren 13-34 Tr: WELL
FLD.           Purgatorie River: FIELD
LOC.           1934' FSL & 826' WL--: LOCATION
PROV.                       CO: PROVINCE
CNTY.               Las Animas: COUNTRY
SRVC.          Patterson Wireline: SERVICE COMPANY
DATE.          Fri Jul 15 13:10:35 2005: LOG DATE
UWI.           05 071 08437 00: UNIQUE WELL ID
~Curve Information Block
DEPT.FT            0 000 00 00: Depth
CCL.                          : Casing Collar Locator
TT3.usec                      : CBL 3' Travel Time
AMP3.mV                       : CBL 3' Amplitude
GR.GAPI                       : Gamma Ray
~Parameter Information Block
~A  Depth       CCL         TT3         AMP3         GR     
# ...
   394.5000      0.0000    305.0663     27.5289     54.7934
   394.7500      0.0000    305.1219     27.3771     53.1445
   395.0000      0.0000    305.1793     27.1795     51.8982
   395.2500      0.0000    305.2224     26.9920     50.9769
   395.5000      0.0000    305.2377     26.8628     49.8489
   395.7500      0.0000    305.2319     26.8002     48.1758
   396.0000      0.0000    305.2310     26.7666     46.3134
   396.2500      0.0000    305.2558     26.7113     45.2184
   396.5000      0.0000    305.3033     26.6076     45.6835
   396.7500      0.0000    305.3576     26.4585     47.4087
   397.0000      0.0000    305.4083     26.2780     48.9471
   397.2500      0.0000    305.4520     26.0846     48.8693
   397.5000      0.0000    305.4839     25.9060     46.9701
   397.7500      0.0000    305.4996     25.7691     44.1222
   398.0000      0.0000    305.5034     25.6782     41.1660
   398.2500      0.0000    305.5046     25.6150     38.4281
   398.5000      0.0000    305.5095     25.5570     36.1958
   398.7500      0.0000    305.5205     25.4894     34.9908
   399.0000      0.0000    305.5371     25.4056     35.1395
   399.2500      0.0000    305.5539     25.3099     36.3761
   399.5000      0.0000    305.5655     25.2138     38.0482
   399.7500      0.0000    305.5756     25.1224     39.6841
   400.0000      0.0000    305.5925     25.0330     41.4150
   400.2500      0.0000    305.6151     24.9509     43.8189
   400.5000      0.0000    305.6327     24.8922     47.2008
   400.7500      0.0000    305.6403     24.8610     50.9658
   401.0000      0.0000    305.6467     24.8369     53.7728
   401.2500      0.0000    305.6642     24.7912     54.3712
   401.5000      0.0000    305.6976     24.7124     52.5636
   401.7500      0.0000    305.7423     24.6102     49.6374
   402.0000      0.0000    305.7880     24.5057     47.9044
   402.2500      0.0000    305.8246     24.4200     49.5907
   402.5000      0.0000    305.8434     24.3675     55.5384
   402.7500      0.0000    305.8384     24.3514     64.3381
   403.0000      0.0000    305.8104     24.3637     72.9226
   403.2500      0.0000    305.7715     24.3901     78.7723
   403.5000      0.0000    305.7370     24.4193     81.8432
   403.7500      0.0000    305.7131     24.4479     84.1468
   404.0000      0.0000    305.6988     24.4746     87.4815
   404.2500      0.0000    305.6965     24.4928     91.7561
   404.5000      0.0000    305.7088     24.4986     95.3944
   404.7500      0.0000    305.7265     24.5015     97.0721
   405.0000      0.0000    305.7293     24.5189     96.8616
   405.2500      0.0000    305.7021     24.5599     95.6933
   405.5000      0.0000    305.6492     24.6157     94.1948
   405.7500      0.0000    305.5929     24.6647     92.6067
   406.0000      0.0000    305.5592     24.6855     91.4318
   406.2500      0.0000    305.5642     24.6655     91.3349
   406.5000      0.0000    305.6088     24.6004     92.3558
   406.7500      0.0000    305.6844     24.4905     93.5592
   407.0000      0.0000    305.7805     24.3420     93.4165
   407.2500      0.0000    305.8895     24.1709     90.6218
   407.5000      0.0000    306.0024     24.0027     85.0224
   407.7500      0.0000    306.1026     23.8667     78.0065
   408.0000      0.0000    306.1662     23.7860     71.7793
   408.2500      0.0000    306.1755     23.7681     67.9820
   408.5000      0.0000    306.1318     23.8018     66.8285
   408.7500      0.0000    306.0540     23.8649     67.4551
   409.0000      0.0000    305.9643     23.9378     68.9465
   409.2500      0.0000    305.8843     24.0046     70.9772
   409.5000      0.0000    305.8407     24.0433     73.6318
   409.7500      0.0000    305.8579     24.0294     76.8671
   410.0000      0.0000    305.9383     23.9605     80.1456
   410.2500      0.0000    306.0533     23.8697     82.4203
   410.5000      0.0000    306.1606     23.8055     82.4724
   410.7500      0.0000    306.2324     23.7966     79.5650
   411.0000      0.0000    306.2708     23.8325     74.0506
   411.2500      0.0000    306.2990     23.8756     67.3725
   411.5000      0.0000    306.3332     23.8944     61.3934
   411.7500      0.0000    306.3630     23.8875     57.6397
   412.0000      0.0000    306.3636     23.8760     56.8512
   412.2500      0.0000    306.3269     23.8726     58.8061
   412.5000      0.0000    306.2716     23.8702     62.4319
   412.7500      0.0000    306.2220     23.8611     66.3034
   413.0000      0.0000    306.1841     23.8598     69.3407
   413.2500      0.0000    306.1476     23.8953     71.3068
   413.5000      0.0000    306.1037     23.9811     72.6591
   413.7500      0.0000    306.0577     24.0968     73.8644
   414.0000      0.0000    306.0260     24.1974     74.9523
   414.2500      0.0000    306.0277     24.2346     75.7928
   414.5000      0.0000    306.0763     24.1778     76.5154
   414.7500      0.0000    306.1677     24.0345     77.4007
   415.0000      0.0000    306.2761     23.8566     78.5006
   415.2500      0.0000    306.3650     23.7156     79.5199
   415.5000      0.0000    306.4069     23.6622     79.9355
   415.7500      0.0000    306.3969     23.7037     79.1651
   416.0000      0.0000    306.3640     23.8116     76.8518
   416.2500      0.0000    306.3820     23.9348     73.2704
   416.5000      0.0000    306.7262     23.9886     69.4124
   416.7500      0.0000    308.2196     23.8283     66.4645
   417.0000      0.0000    312.6982     23.2600     64.9995
   417.2500      0.0000    323.0163     22.1564     64.6369
   417.5000      0.0000    342.1140     20.6341     64.5712
   417.7500      0.0000    372.2466     19.0798     64.4861
   418.0000      0.0000    415.8525     17.8845     64.8731
   418.2500      0.0000    475.8284     17.1418     66.4070
   418.5000      0.0000    550.9348     16.6800     68.9917
   418.7500      0.0000    630.1255     16.3328     71.4250
   419.0000      0.0000    696.6987     16.0642     72.1617
   419.2500      0.0000    742.4383     15.8821     70.5484
   419.5000     -2.0000    775.0482     15.7645     67.2023
   419.7500     -1.7172    806.8327     15.6824     63.1443
   420.0000      0.0000    835.5405     15.6542     58.8663
   420.2500      0.0000    839.5602     15.7673     54.3497
   420.5000      0.0000    794.9035     16.1273     49.5514
   420.7500      0.0000    698.5341     16.7509     44.5822
   421.0000      0.0000    575.3990     17.5345     39.6731
   421.2500      0.0000    461.7911     18.3830     35.2943
   421.5000      0.0000    381.5429     19.3003     32.2580
   421.7500      0.0000    336.8918     20.2753     31.5364
   422.0000      0.0000    316.8780     21.1656     33.7463
   422.2500      0.0000    309.4977     21.7902     38.4301
   422.5000      0.0000    307.2459     22.0876     43.7615
   422.7500      0.0000    306.7287     22.1347     47.5889
   423.0000      0.0000    306.7059     22.0574     49.3533
   423.2500      0.0000    306.7821     21.9558     50.8224
   423.5000      0.0000    306.8334     21.8827     54.6175
   423.7500      0.0000    306.8408     21.8554     62.0053
   424.0000      0.0000    306.8026     21.8830     71.9100
   424.2500      0.0000    306.7190     21.9803     81.6482
   424.5000      0.0000    306.5921     22.1609     88.6553
   424.7500      0.0000    306.4325     22.4217     91.9389
   425.0000      0.0000    306.2628     22.7371     92.3030
   425.2500      0.0000    306.1071     23.0696     91.4934
   425.5000      0.0000    305.9748     23.3882     91.1025
   425.7500      0.0000    305.8585     23.6740     91.7420
   426.0000      0.0000    305.7476     23.9173     92.8393
   426.2500      0.0000    305.6370     24.1171     93.3411
   426.5000      0.0000    305.5291     24.2815     92.7005
   426.7500      0.0000    305.4334     24.4173     91.1781
   427.0000      0.0000    305.3637     24.5194     89.5195
   427.2500      0.0000    305.3309     24.5731     88.5442
   427.5000      0.0000    305.3382     24.5633     88.6400
   427.7500      0.0000    305.3775     24.4824     89.4429
