~Version Information
VERS.                      2.0: CWLS Log ASCII Standard - VERSION 2.0
WRAP.                       NO: One line per depth step
~Well Information Block
STRT.FT               530.0000: 
STOP.FT              1298.0000: 
STEP.FT                 0.1000: 
NULL.                -999.2500: 
COMP.          Pioneer Natural Resources: COMPANY
WELL.            Keiko 14-6 Tr: WELL
FLD.           Purgatoire River: FIELD
LOC.           462' FSL & 1202' FWL: LOCATION
PROV.                 Colorado: PROVINCE
CNTY.               Las Animas: COUNTRY
SRVC.                Patterson: SERVICE COMPANY
DATE.          Fri Dec 30 07:26:03 2005: LOG DATE
UWI.           05 071 08629 00: UNIQUE WELL ID
~Curve Information Block
DEPT.FT            0 000 00 00: Depth
DCAL.in                       : CDL Caliper
RHOB.g/cc                     : CDL Bulk Density
RHOC.g/cc                     : CDL Density Correction
DPOR.pu                       : CDL Density Porosity
GR.GAPI                       : Gamma Ray
~Parameter Information Block
~A  Depth       DCAL        RHOB        RHOC        DPOR         GR     
# ...
   686.8000      8.0994      2.7153      0.1092     -3.9583    126.2612
   686.9000      8.0994      2.7443      0.1445     -5.7128    132.4645
   687.0000      8.0849      2.7489      0.0651     -5.9926    132.1891
   687.1000      8.0849      2.7265      0.0031     -4.6344    126.7450
   687.2000      8.0849      2.7012     -0.0562     -3.1011    121.0207
   687.3000      8.0805      2.6869     -0.0373     -2.2337    115.8224
   687.4000      8.0805      2.6742      0.0198     -1.4683    109.7686
   687.5000      8.0813      2.6517      0.0042     -0.1021    108.1776
   687.6000      8.0813      2.6305     -0.0329      1.1813    115.6504
   687.7000      8.0813      2.6189     -0.0010      1.8874    126.9758
   687.8000      8.0806      2.6044     -0.0169      2.7655    135.3824
   687.9000      8.0806      2.5835      0.0048      4.0287    140.6031
   688.0000      8.0789      2.5676      0.0054      4.9910    142.9950
   688.1000      8.0789      2.5638      0.0377      5.2249    142.2267
   688.2000      8.0789      2.5664      0.0703      5.0696    141.8092
   688.3000      8.0814      2.5698      0.0628      4.8577    146.6512
   688.4000      8.0814      2.5703      0.0721      4.8273    156.1393
   688.5000      8.0918      2.5669      0.0526      5.0343    162.1580
   688.6000      8.0918      2.5698      0.0249      4.8584    160.6715
   688.7000      8.0918      2.5770      0.0831      4.4241    154.6489
   688.8000      8.0829      2.5664      0.0714      5.0640    145.7535
   688.9000      8.0829      2.5378      0.0241      6.8026    137.3399
   689.0000      8.0806      2.5122      0.0374      8.3513    136.5437
   689.1000      8.0806      2.5017     -0.0483      8.9896    143.4360
   689.2000      8.0806      2.5060      0.0159      8.7243    147.3016
   689.3000      8.0790      2.5144      0.0093      8.2206    141.6538
   689.4000      8.0790      2.5221      0.0031      7.7490    133.1217
   689.5000      8.0804      2.5324      0.0112      7.1283    133.2250
   689.6000      8.0804      2.5379      0.0467      6.7959    141.3405
   689.7000      8.0804      2.5398      0.0071      6.6799    147.3163
   689.8000      8.0792      2.5535      0.0439      5.8509    150.7468
   689.9000      8.0792      2.5722      0.0480      4.7150    153.8368
   690.0000      8.0774      2.5705      0.0695      4.8166    152.5692
   690.1000      8.0774      2.5436      0.0373      6.4508    145.9271
   690.2000      8.0774      2.5174     -0.0245      8.0337    139.4371
   690.3000      8.0759      2.5181      0.0142      7.9913    136.0531
   690.4000      8.0759      2.5411      0.0215      6.6014    132.5868
   690.5000      8.0772      2.5607      0.0511      5.4127    128.5510
   690.6000      8.0772      2.5642      0.0322      5.2027    126.5756
   690.7000      8.0772      2.5590      0.0340      5.5164    125.9395
   690.8000      8.0773      2.5501      0.0464      6.0542    124.6712
   690.9000      8.0773      2.5411      0.0512      6.5980    123.8534
   691.0000      8.0748      2.5456      0.0287      6.3273    124.4121
   691.1000      8.0748      2.5750      0.0606      4.5460    123.5089
   691.2000      8.0748      2.6295      0.0650      1.2448    120.3385
   691.3000      8.0792      2.7010      0.1011     -3.0914    117.2824
   691.4000      8.0792      2.7844      0.1048     -8.1446    114.3007
   691.5000      8.0732      2.8670      0.1792    -13.1502    110.8678
   691.6000      8.0732      2.9224      0.1873    -16.5096    109.4315
   691.7000      8.0732      2.9489      0.1576    -18.1147    110.4057
   691.8000      8.0679      2.9611      0.1738    -18.8522    110.6281
   691.9000      8.0679      2.9477      0.1479    -18.0436    108.6145
   692.0000      8.0585      2.8984      0.0313    -15.0543    106.7779
   692.1000      8.0585      2.8329     -0.0660    -11.0870    110.0037
   692.2000      8.0585      2.7628     -0.0939     -6.8363    118.1302
   692.3000      8.0617      2.6885     -0.1839     -2.3348    124.2151
   692.4000      8.0617      2.6286     -0.1407      1.2976    125.1198
   692.5000      8.0793      2.5973     -0.0747      3.1948    124.5221
   692.6000      8.0793      2.5891      0.0113      3.6897    123.0365
   692.7000      8.0793      2.5887      0.0072      3.7134    120.3646
   692.8000      8.0798      2.5812      0.0313      4.1718    121.4153
   692.9000      8.0798      2.5587      0.0039      5.5343    127.9394
   693.0000      8.0791      2.5333     -0.0346      7.0752    133.8374
   693.1000      8.0791      2.5236     -0.0168      7.6597    134.2293
   693.2000      8.0791      2.5247      0.0346      7.5914    132.9975
   693.3000      8.0777      2.5203      0.0029      7.8624    133.3320
   693.4000      8.0777      2.5126     -0.0239      8.3261    135.8797
   693.5000      8.0780      2.5120      0.0119      8.3661    142.7121
   693.6000      8.0780      2.5182      0.0058      7.9895    149.7303
   693.7000      8.0780      2.5255      0.0133      7.5433    148.9324
   693.8000      8.0779      2.5243      0.0141      7.6168    140.4245
   693.9000      8.0779      2.5119      0.0061      8.3722    131.4612
   694.0000      8.0762      2.4985     -0.0139      9.1791    126.3778
   694.1000      8.0762      2.4972     -0.0095      9.2588    126.8215
   694.2000      8.0762      2.5094     -0.0191      8.5234    132.3417
   694.3000      8.0765      2.5191      0.0245      7.9351    136.4527
   694.4000      8.0765      2.5118      0.0341      8.3754    135.8692
   694.5000      8.0744      2.4921     -0.0029      9.5721    135.4262
   694.6000      8.0744      2.4721     -0.0380     10.7803    137.5357
   694.7000      8.0744      2.4564     -0.0051     11.7342    141.2407
   694.8000      8.0773      2.4448     -0.0122     12.4380    144.8140
   694.9000      8.0773      2.4419     -0.0059     12.6145    146.1860
   695.0000      8.0779      2.4513     -0.0420     12.0415    146.9307
   695.1000      8.0779      2.4655      0.0172     11.1842    148.7881
   695.2000      8.0779      2.4717     -0.0024     10.8062    151.4708
   695.3000      8.0788      2.4718      0.0099     10.7972    155.8513
   695.4000      8.0788      2.4729      0.0196     10.7326    158.0444
   695.5000      8.0788      2.4722      0.0264     10.7753    152.6139
   695.6000      8.0788      2.4607      0.0076     11.4757    147.0175
   695.7000      8.0788      2.4362      0.0350     12.9562    146.8959
   695.8000      8.0756      2.4081      0.0042     14.6585    145.7158
   695.9000      8.0756      2.3895      0.0165     15.7901    142.4269
   696.0000      8.0757      2.3855      0.0222     16.0320    142.6913
   696.1000      8.0757      2.3882      0.0471     15.8666    146.2235
   696.2000      8.0757      2.3884      0.0158     15.8576    147.8328
   696.3000      8.0753      2.3837      0.0398     16.1412    144.8166
   696.4000      8.0753      2.3714      0.0169     16.8844    139.3965
   696.5000      8.0761      2.3606     -0.0220     17.5404    135.1690
   696.6000      8.0761      2.3671     -0.0036     17.1445    132.8298
   696.7000      8.0761      2.3861      0.0391     15.9960    133.4171
   696.8000      8.0756      2.4010      0.0385     15.0913    138.4423
   696.9000      8.0756      2.4112      0.0438     14.4730    145.0161
   697.0000      8.0739      2.4254      0.0785     13.6109    149.0236
   697.1000      8.0739      2.4384      0.0701     12.8266    151.3220
   697.2000      8.0739      2.4377      0.0474     12.8674    152.1932
   697.3000      8.0775      2.4238      0.0366     13.7083    148.5046
   697.4000      8.0775      2.4049      0.0217     14.8523    141.7005
   697.5000      8.0814      2.3850     -0.0129     16.0616    138.8121
   697.6000      8.0814      2.3713     -0.0326     16.8901    144.7206
   697.7000      8.0814      2.3716      0.0117     16.8757    159.4214
   697.8000      8.0741      2.3830      0.0132     16.1812    177.2336
   697.9000      8.0741      2.3966      0.0266     15.3565    181.1047
