~Version Information
VERS.                      2.0: CWLS Log ASCII Standard - VERSION 2.0
WRAP.                       NO: One line per depth step
~Well Information Block
STRT.FT               309.8000: 
STOP.FT              2184.7000: 
STEP.FT                 0.1000: 
NULL.                -999.2500: 
COMP.          Pioneer Natural Resources: COMPANY
WELL.             AMX 13-13 Tr: WELL
FLD.           Purgatoire River: FIELD
LOC.           2401' FSL & 895' FWL--: LOCATION
PROV.                 Colorado: PROVINCE
CNTY.               Las Animas: COUNTRY
SRVC.                Patterson: SERVICE COMPANY
DATE.          Thu Dec 22 15:57:57 2005: LOG DATE
UWI.           05 071 08631 00: UNIQUE WELL ID
~Curve Information Block
DEPT.FT            0 000 00 00: Depth
DCAL.in                       : CDL Caliper
RHOB.g/cc                     : CDL Bulk Density
RHOC.g/cc                     : CDL Density Correction
DPOR.pu                       : CDL Density Porosity
GR.GAPI                       : Gamma Ray
~Parameter Information Block
~A  Depth       DCAL        RHOB        RHOC        DPOR         GR     
# ...
  2157.8000      7.8751      2.5629      0.0335      5.2803      0.0000
  2157.9000      7.8751      2.5716      0.0559      4.7522   -999.2500
  2158.0000      7.8755      2.5761      0.0822      4.4803   -999.2500
  2158.1000      7.8755      2.5782      0.0501      4.3501   -999.2500
  2158.2000      7.8755      2.5883      0.0702      3.7401   -999.2500
  2158.3000      7.8737      2.5977      0.0982      3.1720   -999.2500
  2158.4000      7.8737      2.5891      0.0873      3.6923   -999.2500
  2158.5000      7.8711      2.5699      0.0515      4.8559   -999.2500
  2158.6000      7.8711      2.5571      0.0665      5.6298   -999.2500
  2158.7000      7.8711      2.5542      0.0261      5.8061   -999.2500
  2158.8000      7.8688      2.5616      0.0050      5.3567   -999.2500
  2158.9000      7.8688      2.5692      0.0758      4.8945   -999.2500
  2159.0000      7.8650      2.5586      0.0920      5.5412   -999.2500
  2159.1000      7.8650      2.5431      0.0059      6.4805   -999.2500
  2159.2000      7.8650      2.5559      0.0085      5.7052   -999.2500
  2159.3000      7.8606      2.5880      0.1102      3.7600   -999.2500
  2159.4000      7.8606      2.6009      0.0500      2.9760   -999.2500
  2159.5000      7.8599      2.5851      0.0739      3.9332   -999.2500
  2159.6000      7.8599      2.5583      0.0177      5.5592   -999.2500
  2159.7000      7.8599      2.5372      0.0209      6.8344   -999.2500
  2159.8000      7.8613      2.5269     -0.0012      7.4583   -999.2500
  2159.9000      7.8613      2.5317      0.0217      7.1693   -999.2500
  2160.0000      7.8637      2.5515      0.0526      5.9721   -999.2500
  2160.1000      7.8637      2.5721      0.0704      4.7226   -999.2500
  2160.2000      7.8637      2.5794      0.0474      4.2803   -999.2500
  2160.3000      7.8694      2.5735      0.0453      4.6376   -999.2500
  2160.4000      7.8694      2.5684      0.0372      4.9475   -999.2500
  2160.5000      7.8750      2.5731      0.0670      4.6614   -999.2500
  2160.6000      7.8750      2.5687      0.1024      4.9291   -999.2500
  2160.7000      7.8750      2.5440      0.0266      6.4220   -999.2500
  2160.8000      7.8766      2.5347     -0.0278      6.9864   -999.2500
  2160.9000      7.8766      2.5638      0.0969      5.2264   -999.2500
  2161.0000      7.8749      2.5976      0.0782      3.1747   -999.2500
  2161.1000      7.8749      2.6057      0.0778      2.6845   -999.2500
  2161.2000      7.8749      2.5923      0.0532      3.4981   -999.2500
  2161.3000      7.8734      2.5704      0.0496      4.8223   -999.2500
  2161.4000      7.8734      2.5531      0.0165      5.8711   -999.2500
  2161.5000      7.8740      2.5550      0.0315      5.7599   -999.2500
  2161.6000      7.8740      2.5747      0.0524      4.5667   -999.2500
  2161.7000      7.8740      2.5929      0.0878      3.4634   -999.2500
  2161.8000      7.8735      2.5966      0.0617      3.2383   -999.2500
  2161.9000      7.8735      2.5908      0.0713      3.5850   -999.2500
  2162.0000      7.8707      2.5851      0.0599      3.9348   -999.2500
  2162.1000      7.8707      2.5833      0.0640      4.0431   -999.2500
  2162.2000      7.8707      2.5855      0.0634      3.9101   -999.2500
  2162.3000      7.8646      2.5879      0.0517      3.7666   -999.2500
  2162.4000      7.8646      2.5901      0.0394      3.6292   -999.2500
  2162.5000      7.8554      2.6033      0.0223      2.8288   -999.2500
  2162.6000      7.8554      2.6277      0.0712      1.3509   -999.2500
  2162.7000      7.8554      2.6369      0.1234      0.7914   -999.2500
  2162.8000      7.8453      2.6167      0.0402      2.0159   -999.2500
  2162.9000      7.8453      2.5866      0.0407      3.8403   -999.2500
  2163.0000      7.8341      2.5680      0.0318      4.9716   -999.2500
  2163.1000      7.8341      2.5653     -0.0046      5.1305   -999.2500
  2163.2000      7.8341      2.5717      0.0337      4.7430   -999.2500
  2163.3000      7.8227      2.5752      0.0379      4.5339   -999.2500
  2163.4000      7.8227      2.5704      0.0472      4.8233   -999.2500
  2163.5000      7.8097      2.5630      0.0159      5.2702   -999.2500
  2163.6000      7.8097      2.5554      0.0769      5.7343   -999.2500
  2163.7000      7.8097      2.5447      0.0243      6.3790   -999.2500
  2163.8000      7.7906      2.5364      0.0215      6.8868   -999.2500
  2163.9000      7.7906      2.5288      0.0544      7.3472   -999.2500
  2164.0000      7.7664      2.5183     -0.0242      7.9830   -999.2500
  2164.1000      7.7664      2.5087      0.0501      8.5620   -999.2500
  2164.2000      7.7664      2.4990      0.0548      9.1490   -999.2500
  2164.3000      7.7393      2.4900      0.0410      9.6965   -999.2500
  2164.4000      7.7393      2.4805      0.0472     10.2717   -999.2500
  2164.5000      7.7104      2.4620      0.0468     11.3940   -999.2500
  2164.6000      7.7104      2.4411      0.0352     12.6622   -999.2500
  2164.7000      7.7104      2.4353      0.0407     13.0095   -999.2500
  2164.8000      7.6813      2.4481      0.0541     12.2335   -999.2500
  2164.9000      7.6813      2.4723      0.0825     10.7675   -999.2500
  2165.0000      7.6647      2.5040      0.0802      8.8457   -999.2500
  2165.1000      7.6647      2.5403      0.1371      6.6487   -999.2500
  2165.2000      7.6647      2.5728      0.1363      4.6814   -999.2500
  2165.3000      7.6773      2.5972      0.1649      3.1974   -999.2500
  2165.4000      7.6773      2.6286      0.1664      1.3000   -999.2500
  2165.5000      7.6806      2.6996      0.1206     -3.0047   -999.2500
  2165.6000      7.6806      2.7015      0.0799     -3.1213   -999.2500
  2165.7000      7.6806      2.2392      0.5941     24.8946   -999.2500
  2165.8000      7.2901      1.2644      0.0800     83.9787   -999.2500
  2165.9000      7.2901      0.4274      0.0800    134.7006   -999.2500
  2166.0000      5.3685      0.0810   -999.2500    155.6946   -999.2500
  2166.1000      5.3685      0.0083   -999.2500    160.1002   -999.2500
  2166.2000      5.3685      0.0005   -999.2500    160.5786   -999.2500
  2166.3000      2.1678      0.0000   -999.2500    160.6061   -999.2500
  2166.4000      2.1678      0.0000   -999.2500    160.6061   -999.2500
  2166.5000      0.2240   -999.2500   -999.2500   -999.2500   -999.2500
  2166.6000      0.2240   -999.2500   -999.2500   -999.2500   -999.2500
  2166.7000      0.2240   -999.2500   -999.2500   -999.2500   -999.2500
  2166.8000     -0.2098   -999.2500   -999.2500   -999.2500   -999.2500
  2166.9000     -0.2098   -999.2500   -999.2500   -999.2500   -999.2500
  2167.0000     -0.2455   -999.2500   -999.2500   -999.2500   -999.2500
  2167.1000     -0.2455   -999.2500   -999.2500   -999.2500   -999.2500
  2167.2000     -0.2455   -999.2500   -999.2500   -999.2500   -999.2500
  2167.3000   -999.2500   -999.2500   -999.2500   -999.2500   -999.2500
  2167.4000   -999.2500   -999.2500   -999.2500   -999.2500   -999.2500
  2167.5000   -999.2500   -999.2500   -999.2500   -999.2500   -999.2500
  2167.6000   -999.2500   -999.2500   -999.2500   -999.2500   -999.2500
  2167.7000   -999.2500   -999.2500   -999.2500   -999.2500   -999.2500
  2167.8000   -999.2500   -999.2500   -999.2500   -999.2500   -999.2500
  2167.9000   -999.2500   -999.2500   -999.2500   -999.2500   -999.2500
  2168.0000   -999.2500   -999.2500   -999.2500   -999.2500   -999.2500
  2168.1000   -999.2500   -999.2500   -999.2500   -999.2500   -999.2500
  2168.2000   -999.2500   -999.2500   -999.2500   -999.2500   -999.2500
  2168.3000   -999.2500   -999.2500   -999.2500   -999.2500   -999.2500
  2168.4000   -999.2500   -999.2500   -999.2500   -999.2500   -999.2500
  2168.5000   -999.2500   -999.2500   -999.2500   -999.2500   -999.2500
  2168.6000   -999.2500   -999.2500   -999.2500   -999.2500   -999.2500
  2168.7000   -999.2500   -999.2500   -999.2500   -999.2500   -999.2500
  2168.8000   -999.2500   -999.2500   -999.2500   -999.2500   -999.2500
  2168.9000   -999.2500   -999.2500   -999.2500   -999.2500   -999.2500
