~Version Information
VERS.                      2.0: CWLS Log ASCII Standard - VERSION 2.0
WRAP.                       NO: One line per depth step
~Well Information Block
STRT.FT               660.0000: 
STOP.FT              2491.0000: 
STEP.FT                 0.2500: 
NULL.                -999.2500: 
COMP.          Petrogulf Corporation: COMPANY
WELL.          Montoya 18-11V-B: WELL
FLD.           Purgatorie River: FIELD
LOC.           848' FNL & 619' FWL: LOCATION
PROV.                 Colorado: PROVINCE
CNTY.               Las Animas: COUNTRY
SRVC.                Patterson: SERVICE COMPANY
DATE.          Wed Oct 05 04:34:17 2005: LOG DATE
UWI.                          : UNIQUE WELL ID
~Curve Information Block
DEPT.FT            0 000 00 00: Depth
SP.mV                         : DIL Spontaneous Potential
RILD.Ohm-m                    : DIL Deep Resistivity
RILM.Ohm-m                    : DIL Medium Resistivity
RLL3.Ohm-m                    : DIL Shallow Resistivity
GR.GAPI                       : Gamma Ray
~Parameter Information Block
~A  Depth        SP         RILD        RILM        RLL3         GR     
# ...
  2088.0000    191.6543     23.8454     26.1689     30.4485     35.4997
  2088.2500    191.3536     23.9029     26.2589     30.4422     34.7309
  2088.5000    190.9247     23.8871     26.2391     30.3602     35.4082
  2088.7500    190.4183     23.8307     26.1240     30.1001     36.5855
  2089.0000    189.8950     23.7577     25.9340     29.6461     38.0405
  2089.2500    189.4072     23.6761     25.6919     29.0511     38.2453
  2089.5000    188.9864     23.5806     25.4196     28.4019     37.6972
  2089.7500    188.6419     23.4634     25.1348     27.8127     37.4677
  2090.0000    188.3696     23.3239     24.8495     27.4066     38.1286
  2090.2500    188.1605     23.1729     24.5707     27.2309     39.0172
  2090.5000    188.0039     23.0281     24.3031     27.1760     40.0397
  2090.7500    187.8830     22.9084     24.0515     27.0345     40.2013
  2091.0000    187.7689     22.8273     23.8238     26.6794     39.9488
  2091.2500    187.6219     22.7906     23.6302     26.1845     39.8448
  2091.5000    187.4036     22.7963     23.4821     25.7672     40.1585
  2091.7500    187.0945     22.8371     23.3891     25.6259     40.5483
  2092.0000    186.7041     22.9028     23.3560     25.8231     40.8795
  2092.2500    186.2662     22.9819     23.3815     26.2841     40.8388
  2092.5000    185.8247     23.0617     23.4586     26.8734     40.8172
  2092.7500    185.4191     23.1310     23.5753     27.4732     41.1528
  2093.0000    185.0741     23.1836     23.7181     28.0200     42.3616
  2093.2500    184.7931     23.2239     23.8743     28.4893     43.5102
  2093.5000    184.5612     23.2674     24.0347     28.8569     45.2627
  2093.7500    184.3573     23.3337     24.1955     29.0898     46.0720
  2094.0000    184.1701     23.4360     24.3575     29.1824     46.2824
  2094.2500    184.0040     23.5726     24.5259     29.1789     45.8146
  2094.5000    183.8716     23.7282     24.7077     29.1335     44.7877
  2094.7500    183.7822     23.8828     24.9097     29.0637     44.2117
  2095.0000    183.7354     24.0218     25.1369     28.9852     43.6063
  2095.2500    183.7188     24.1390     25.3917     28.9957     43.2325
  2095.5000    183.7086     24.2327     25.6730     29.2838     42.6045
  2095.7500    183.6748     24.3014     25.9774     30.0153     42.2354
  2096.0000    183.5917     24.3414     26.2993     31.1882     41.8995
  2096.2500    183.4499     24.3487     26.6328     32.5746     41.8160
  2096.5000    183.2587     24.3229     26.9720     33.8033     41.9732
  2096.7500    183.0403     24.2748     27.3126     34.5553     42.3259
  2097.0000    182.8192     24.2293     27.6522     34.7625     42.8402
  2097.2500    182.6148     24.2196     27.9907     34.6634     42.6526
  2097.5000    182.4376     24.2742     28.3293     34.6540     41.0968
  2097.7500    182.2898     24.4080     28.6699     35.0350     39.5342
  2098.0000    182.1709     24.6261     29.0150     35.8263     37.4400
  2098.2500    182.0806     24.9331     29.3680     36.7507     36.5644
  2098.5000    182.0164     25.3380     29.7343     37.3864     36.0362
  2098.7500    181.9673     25.8479     30.1218     37.4118     36.0601
  2099.0000    181.9158     26.4548     30.5403     36.8305     36.2019
  2099.2500    181.8457     27.1268     30.9995     36.0556     35.9729
  2099.5000    181.7477     27.8119     31.5065     35.7910     34.7162
  2099.7500    181.6183     28.4541     32.0627     36.7532     33.4207
  2100.0000    181.4582     29.0156     32.6635     39.3405     31.5520
  2100.2500    181.2728     29.4922     33.2987     43.3546     30.8406
  2100.5000    181.0762     29.9102     33.9566     47.8889     31.2683
  2100.7500    180.8912     30.3103     34.6279     51.5458     32.7117
  2101.0000    180.7389     30.7298     35.3101     53.0623     36.0297
  2101.2500    180.6301     31.1909     36.0098     52.0740     38.2356
  2101.5000    180.5667     31.6985     36.7412     49.4262     40.3574
  2101.7500    180.5558     32.2397     37.5219     46.6627     40.7658
  2102.0000    180.6191     32.7827     38.3652     45.0690     40.1613
  2102.2500    180.7884     33.2751     39.2702     45.0726     39.2390
  2102.5000    181.0937     33.6450     40.2113     46.3668     37.5424
  2102.7500    181.5585     33.8094     41.1272     48.3987     36.4189
  2103.0000    182.2047     33.6880     41.9127     50.6814     34.9826
  2103.2500    183.0583     33.2146     42.4162     52.7647     34.2826
  2103.5000    184.1490     32.3437     42.4494     54.1130     33.7579
  2103.7500    185.5046     31.0551     41.8159     54.1882     33.7208
  2104.0000    187.1426     29.3657     40.3599     52.7920     33.7948
  2104.2500    189.0660     27.3454     38.0294     50.4094     33.8602
  2104.5000    191.2639     25.1219     34.9262     48.1557     34.6183
  2104.7500    193.7174     22.8555     31.3045     47.1080     36.0942
  2105.0000    196.4013     20.6943     27.5039     47.3260     39.6733
  2105.2500    199.2690     18.7390     23.8477     47.3971     42.1196
  2105.5000    202.2250     17.0323     20.5644     45.2128     44.3643
  2105.7500    205.1093     15.5712     17.7646     39.6049     45.0041
  2106.0000    207.7225     14.3268     15.4633     31.4087     46.9503
  2106.2500    209.8850     13.2610     13.6171     22.8969     50.5558
  2106.5000    211.4975     12.3383     12.1576     16.1709     60.4751
  2106.7500    212.5635     11.5299     11.0124     12.0330     69.1463
  2107.0000    213.1714     10.8148     10.1157     10.0619     82.0878
  2107.2500    213.4537     10.1792      9.4124      9.3648     89.1297
  2107.5000    213.5483      9.6156      8.8592      9.1953     96.5161
  2107.7500    213.5724      9.1215      8.4226      9.1495     99.7141
  2108.0000    213.6095      8.6976      8.0781      9.0932    102.8505
  2108.2500    213.7054      8.3446      7.8076      9.0314    104.2002
  2108.5000    213.8705      8.0601      7.5974      9.0117    105.4861
  2108.7500    214.0835      7.8375      7.4367      9.0692    105.9313
  2109.0000    214.3010      7.6674      7.3162      9.2042    105.8512
  2109.2500    214.4731      7.5397      7.2277      9.3884    105.1674
  2109.5000    214.5608      7.4469      7.1638      9.5824    103.1534
  2109.7500    214.5456      7.3844      7.1181      9.7456    101.3239
  2110.0000    214.4270      7.3500      7.0858      9.8369     98.4768
  2110.2500    214.2159      7.3408      7.0643      9.8225     96.9638
  2110.5000    213.9252      7.3524      7.0525      9.6963     95.8786
  2110.7500    213.5591      7.3784      7.0509      9.4949     96.0504
  2111.0000    213.1001      7.4117      7.0607      9.2871     97.2532
  2111.2500    212.5053      7.4470      7.0831      9.1456     98.1520
  2111.5000    211.7267      7.4810      7.1187      9.1264     98.6865
  2111.7500    210.7453      7.5139      7.1671      9.2615     98.2677
  2112.0000    209.5942      7.5488      7.2272      9.5517     96.9100
  2112.2500    208.3486      7.5914      7.2977      9.9537     95.9460
  2112.5000    207.0910      7.6493      7.3781     10.3808     94.6428
  2112.7500    205.8773      7.7310      7.4692     10.7306     93.7879
  2113.0000    204.7218      7.8457      7.5747     10.9309     92.8876
  2113.2500    203.6012      8.0015      7.7007     10.9726     93.0907
  2113.5000    202.4738      8.2043      7.8559     10.9101     95.1033
  2113.7500    201.3092      8.4559      8.0512     10.8315     97.2832
  2114.0000    200.1172      8.7523      8.2981     10.8320    100.8546
  2114.2500    198.9611      9.0833      8.6080     11.0323    103.0023
  2114.5000    197.9464      9.4341      8.9897     11.6681    105.2701
  2114.7500    197.1959      9.7887      9.4477     13.2472    105.7042
  2115.0000    196.8227     10.1337      9.9784     16.6873    104.0450
  2115.2500    196.9092     10.4627     10.5677     23.1667    101.3215
  2115.5000    197.4896     10.7795     11.1889     33.3278     95.3980
  2115.7500    198.5372     11.0987     11.8059     45.9473     90.7193
