~Version Information
VERS.                      2.0: CWLS Log ASCII Standard - VERSION 2.0
WRAP.                       NO: One line per depth step
~Well Information Block
STRT.FT               645.0000: 
STOP.FT              2131.0000: 
STEP.FT                 0.1000: 
NULL.                -999.2500: 
COMP.          Pioneer Natural Resources: COMPANY
WELL.          Gunslinger 13-24: WELL
FLD.           Purgatoire River: FIELD
LOC.           1968' FSL & 633' FWL: LOCATION
PROV.                 Colorado: PROVINCE
CNTY.               Las Animas: COUNTRY
SRVC.                Patterson: SERVICE COMPANY
DATE.          Sat Jul 30 08:07:53 2005: LOG DATE
UWI.           05 071 08442 00: UNIQUE WELL ID
~Curve Information Block
DEPT.FT            0 000 00 00: Depth
DCAL.in                       : CDL Caliper
RHOB.g/cc                     : CDL Bulk Density
RHOC.g/cc                     : CDL Density Correction
DPOR.pu                       : CDL Density Porosity
GR.GAPI                       : Gamma Ray
NPOR.pu                       : Neutron Porosity
~Parameter Information Block
~A  Depth       DCAL        RHOB        RHOC        DPOR         GR         NPOR    
# ...
   741.0000      8.0826      2.4666      0.0447     11.1167     27.7293     13.9198
   741.1000      8.0826      2.4497      0.0300     12.1414     29.1313     13.4931
   741.2000      8.0826      2.4118     -0.0582     14.4335     30.4829     12.8998
   741.3000      8.0872      2.3753     -0.0519     16.6495     30.6143     12.4042
   741.4000      8.0872      2.3617      0.0242     17.4713     29.6338     12.1154
   741.5000      8.0875      2.3630      0.0325     17.3944     29.0263     12.0297
   741.6000      8.0875      2.3670      0.0481     17.1533     30.0527     12.0455
   741.7000      8.0875      2.3708      0.0489     16.9207     31.9071     11.9422
   741.8000      8.0857      2.3760      0.0363     16.6079     32.6127     11.6608
   741.9000      8.0857      2.3859      0.0730     16.0074     30.7588     11.3777
   742.0000      8.0754      2.3928      0.1144     15.5854     27.6984     11.0948
   742.1000      8.0754      2.3907      0.0482     15.7175     27.1545     10.8311
   742.2000      8.0754      2.3894      0.0604     15.7950     28.9036     10.8012
   742.3000      8.0919      2.3972      0.0437     15.3236     29.5781     10.8271
   742.4000      8.0919      2.4067      0.0769     14.7463     27.8845     10.4966
   742.5000      8.0998      2.4026      0.0850     14.9939     24.5784     10.0341
   742.6000      8.0998      2.3834      0.0698     16.1594     21.5060      9.8563
   742.7000      8.0998      2.3644      0.0249     17.3120     20.5317     10.1451
   742.8000      8.0966      2.3524      0.0576     18.0334     21.9789     10.8130
   742.9000      8.0966      2.3380      0.0502     18.9093     24.5826     11.3959
   743.0000      8.0933      2.3251     -0.0042     19.6938     25.7852     11.5247
   743.1000      8.0933      2.3333      0.0053     19.1952     24.0351     11.4662
   743.2000      8.0933      2.3633      0.0576     17.3729     20.5099     11.6867
   743.3000      8.0916      2.3961      0.0731     15.3860     18.7616     12.0932
   743.4000      8.0916      2.4188      0.0697     14.0112     21.6919     12.2644
   743.5000      8.1055      2.4313      0.0649     13.2521     28.5260     12.2118
   743.6000      8.1055      2.4407      0.0401     12.6863     35.0519     12.1993
   743.7000      8.1055      2.4508      0.0708     12.0754     38.3217     12.1743
   743.8000      8.1031      2.4586      0.0571     11.5985     36.7905     12.2446
   743.9000      8.1031      2.4627      0.0721     11.3492     30.8711     12.6254
   744.0000      8.0851      2.4584      0.1047     11.6138     26.4658     13.2068
   744.1000      8.0851      2.4463      0.0600     12.3425     26.6667     13.8923
   744.2000      8.0851      2.4503     -0.0049     12.1039     29.0610     14.6750
   744.3000      8.0870      2.4835      0.0965     10.0918     32.8157     15.4275
   744.4000      8.0870      2.5237      0.1098      7.6528     37.1447     16.0238
   744.5000      8.0887      2.5496      0.0775      6.0865     40.4580     16.6547
   744.6000      8.0887      2.5526      0.1198      5.9057     43.6196     17.7243
   744.7000      8.0887      2.5305      0.0217      7.2415     49.2590     19.2373
   744.8000      8.0909      2.5091      0.0033      8.5402     57.8511     20.7148
   744.9000      8.0909      2.5081      0.0758      8.5986     66.1969     21.5915
   745.0000      8.0956      2.5148      0.0148      8.1964     74.1479     21.7439
   745.1000      8.0956      2.5254      0.0173      7.5536     82.0651     21.7134
   745.2000      8.0956      2.5418      0.0346      6.5592     85.4686     21.9874
   745.3000      8.0952      2.5574      0.0026      5.6149     84.3493     22.2407
   745.4000      8.0952      2.5654      0.0833      5.1297     83.6679     21.9960
   745.5000      8.0993      2.5576      0.0366      5.5991     87.4688     21.5210
   745.6000      8.0993      2.5354      0.0463      6.9476     96.1343     21.3907
   745.7000      8.0993      2.5066      0.0208      8.6916    104.5974     21.4868
   745.8000      8.1068      2.4778     -0.0248     10.4379    108.9341     21.2924
   745.9000      8.1068      2.4556     -0.0208     11.7793    109.2194     20.9178
   746.0000      8.1089      2.4450     -0.0261     12.4228    109.6730     20.9894
   746.1000      8.1089      2.4394      0.0192     12.7663    114.6042     21.7883
   746.2000      8.1089      2.4246      0.0124     13.6633    122.8965     22.8763
   746.3000      8.1183      2.3932     -0.0166     15.5637    130.7889     23.2693
   746.4000      8.1183      2.3553     -0.0528     17.8634    134.5190     22.9526
   746.5000      8.1289      2.3378     -0.0633     18.9190    131.2825     23.0816
   746.6000      8.1289      2.3502      0.0286     18.1678    125.2391     24.0266
   746.7000      8.1289      2.3672      0.0463     17.1373    128.0680     25.1208
   746.8000      8.1435      2.3698     -0.0322     16.9796    141.2658     25.8185
   746.9000      8.1435      2.3669     -0.0292     17.1549    152.8422     26.2248
   747.0000      8.1415      2.3740     -0.0204     16.7264    154.2944     26.8980
   747.1000      8.1415      2.3996      0.0298     15.1779    147.8378     27.7865
   747.2000      8.1415      2.4412      0.0426     12.6566    141.7189     28.2295
   747.3000      8.1407      2.4829      0.1144     10.1257    139.2820     28.1588
   747.4000      8.1407      2.5081      0.0666      8.5980    135.4572     28.0247
   747.5000      8.1426      2.5173      0.0250      8.0423    127.5395     27.9064
   747.6000      8.1426      2.5226      0.0305      7.7235    120.2190     27.4396
   747.7000      8.1426      2.5293      0.0454      7.3178    118.8003     26.7242
   747.8000      8.1241      2.5296      0.0288      7.2949    125.3007     26.3189
   747.9000      8.1241      2.5200      0.0041      7.8762    133.8089     26.4908
   748.0000      8.1230      2.5037      0.0576      8.8686    133.8735     26.9917
   748.1000      8.1230      2.4826      0.0282     10.1440    128.8012     27.3126
   748.2000      8.1230      2.4613      0.0192     11.4340    129.4813     27.2746
   748.3000      8.1030      2.4434     -0.0023     12.5236    136.3338     26.8542
   748.4000      8.1030      2.4357     -0.0615     12.9864    143.6495     26.0992
   748.5000      8.0954      2.4421      0.0191     12.5979    147.2079     25.4980
   748.6000      8.0954      2.4571     -0.0025     11.6900    145.1035     25.2719
   748.7000      8.0954      2.4794      0.0412     10.3401    140.5390     25.2148
   748.8000      8.1046      2.5067      0.0447      8.6854    139.0157     25.4692
   748.9000      8.1046      2.5298      0.0559      7.2835    139.3892     26.2169
   749.0000      8.1179      2.5384      0.0696      6.7654    136.0224     27.0495
   749.1000      8.1179      2.5299      0.0575      7.2807    131.9072     27.3788
   749.2000      8.1179      2.5133      0.0457      8.2823    134.2241     27.0489
   749.3000      8.1231      2.5048      0.0237      8.7998    140.1114     26.3594
   749.4000      8.1231      2.5077      0.0514      8.6227    142.4176     25.8280
   749.5000      8.1263      2.5113      0.0586      8.4048    142.3872     25.8585
   749.6000      8.1263      2.5174      0.0211      8.0393    144.9040     26.3440
   749.7000      8.1263      2.5298      0.1081      7.2848    146.9865     26.5639
   749.8000      8.1289      2.5360      0.0873      6.9093    146.8370     25.8085
   749.9000      8.1289      2.5381      0.0243      6.7821    147.6340     24.5825
   750.0000      8.1225      2.5491      0.0742      6.1167    147.8786     24.0080
   750.1000      8.1225      2.5540      0.0914      5.8165    143.8470     24.1026
   750.2000      8.1225      2.5344      0.0534      7.0062    135.8150     24.2211
   750.3000      8.1267      2.5055     -0.0138      8.7563    127.3856     24.1894
   750.4000      8.1267      2.4908      0.0027      9.6514    123.0677     24.2305
   750.5000      8.1303      2.4881     -0.0025      9.8108    126.2156     24.6621
