~Version Information
VERS.                      2.0: CWLS Log ASCII Standard - VERSION 2.0
WRAP.                       NO: One line per depth step
~Well Information Block
STRT.FT               420.0000: 
STOP.FT              2888.7000: 
STEP.FT                 0.1000: 
NULL.                -999.2500: 
COMP.          Pioneer Natural Resources: COMPANY
WELL.          Touchstone 11-32: WELL
FLD.           Purgatoire River: FIELD
LOC.           853' FNL & 407' FWL--: LOCATION
CNTY.               Las Animas: COUNTY
SRVC.                Patterson: SERVICE COMPANY
DATE.          Fri Feb 24 11:16:52 2006: LOG DATE
UWI.           05 071 08564 00: UNIQUE WELL ID
STAT.                 Colorado: STATE
~Curve Information Block
DEPT.FT            0 000 00 00: Depth
DCAL.in                       : CDL Caliper
RHOB.g/cc                     : CDL Bulk Density
RHOC.g/cc                     : CDL Density Correction
DPOR.pu                       : CDL Density Porosity
NPOR.pu                       : Neutron Porosity
GR.GAPI                       : Gamma Ray
~Parameter Information Block
~A  Depth       DCAL        RHOB        RHOC        DPOR        NPOR         GR     
# ...
  2532.0000      7.8290      2.6083      0.0647      2.5262     22.5463     89.7581
  2532.1000      7.8290      2.5860      0.0470      3.8782     22.4424     92.0376
  2532.2000      7.8290      2.5619      0.0449      5.3368     22.6962     87.5679
  2532.3000      7.8309      2.5542      0.0054      5.8042     23.5450     84.2060
  2532.4000      7.8309      2.5677      0.0260      4.9862     24.6772     85.5607
  2532.5000      7.8336      2.5813      0.0597      4.1621     25.2497     92.4014
  2532.6000      7.8336      2.5753      0.0491      4.5256     25.1417     99.8183
  2532.7000      7.8336      2.5587      0.0542      5.5343     25.4181    104.6019
  2532.8000      7.8383      2.5432      0.0182      6.4711     26.4394    110.4073
  2532.9000      7.8383      2.5237      0.0604      7.6554     27.3444    118.2320
  2533.0000      7.8491      2.4977      0.0515      9.2318     27.4178    123.9899
  2533.1000      7.8491      2.4814      0.0232     10.2177     26.9958    127.9518
  2533.2000      7.8491      2.4837      0.0226     10.0764     26.8743    131.7696
  2533.3000      7.8615      2.4940      0.0179      9.4573     27.1005    137.1091
  2533.4000      7.8615      2.5040      0.0135      8.8493     27.3303    142.9585
  2533.5000      7.8699      2.5108      0.0502      8.4348     27.8392    142.1844
  2533.6000      7.8699      2.5027      0.0760      8.9244     29.0062    135.5707
  2533.7000      7.8699      2.4749      0.0329     10.6119     30.3013    130.3363
  2533.8000      7.8689      2.4517     -0.0298     12.0176     30.5621    127.5540
  2533.9000      7.8689      2.4538      0.0368     11.8921     29.7551    125.9500
  2534.0000      7.8599      2.4632      0.0581     11.3212     29.0983    126.8721
  2534.1000      7.8599      2.4577      0.0263     11.6537     29.0413    127.7620
  2534.2000      7.8599      2.4460      0.0223     12.3621     29.1136    128.0540
  2534.3000      7.8515      2.4530      0.0050     11.9382     29.2402    132.8335
  2534.4000      7.8515      2.4791      0.0369     10.3580     29.5985    139.2759
  2534.5000      7.8456      2.4945      0.0852      9.4232     29.8540    139.7117
  2534.6000      7.8456      2.4843      0.0649     10.0409     29.6510    134.2460
  2534.7000      7.8456      2.4683      0.0528     11.0131     29.2489    128.3244
  2534.8000      7.8393      2.4627      0.0671     11.3486     29.3493    126.3171
  2534.9000      7.8393      2.4639      0.0748     11.2805     30.0438    127.2385
  2535.0000      7.8330      2.4700      0.0658     10.9112     30.6256    126.5325
  2535.1000      7.8330      2.4866      0.0752      9.9000     30.7360    125.4248
  2535.2000      7.8330      2.5085      0.1078      8.5786     30.2632    128.7311
  2535.3000      7.8293      2.5195      0.0973      7.9064     29.1590    132.1294
  2535.4000      7.8293      2.5133      0.0978      8.2873     28.2182    128.2968
  2535.5000      7.8273      2.4964      0.0543      9.3102     28.2622    119.8605
  2535.6000      7.8273      2.4835      0.0440     10.0934     28.9966    115.5412
  2535.7000      7.8273      2.4861      0.0671      9.9305     29.5982    118.3694
  2535.8000      7.8247      2.5033      0.0629      8.8907     29.7925    124.0497
  2535.9000      7.8247      2.5172      0.1239      8.0477     29.9199    129.4871
  2536.0000      7.8230      2.5078      0.1200      8.6164     30.2884    132.3225
  2536.1000      7.8230      2.4842      0.0333     10.0457     30.6423    135.6700
  2536.2000      7.8230      2.4689      0.0518     10.9729     30.6858    143.6259
  2536.3000      7.8252      2.4624      0.0305     11.3703     30.7741    151.4398
  2536.4000      7.8252      2.4582      0.0417     11.6221     31.0471    155.1039
  2536.5000      7.8277      2.4563      0.0283     11.7402     31.0351    154.9707
  2536.6000      7.8277      2.4576      0.0529     11.6634     30.7385    151.5413
  2536.7000      7.8277      2.4577      0.0452     11.6536     30.4709    148.0226
  2536.8000      7.8272      2.4463      0.0630     12.3460     30.2039    148.1089
  2536.9000      7.8272      2.4269      0.0095     13.5196     30.1528    148.1981
  2537.0000      7.8254      2.4225      0.0180     13.7882     30.4831    143.9094
  2537.1000      7.8254      2.4393      0.0707     12.7680     30.4998    136.5712
  2537.2000      7.8254      2.4609      0.0686     11.4588     29.8804    128.4935
  2537.3000      7.8248      2.4764      0.0888     10.5214     29.1660    122.7116
  2537.4000      7.8248      2.4827      0.0699     10.1415     28.6140    122.7533
  2537.5000      7.8231      2.4790      0.0656     10.3656     28.2908    127.3205
  2537.6000      7.8231      2.4731      0.0285     10.7221     28.2734    132.0551
  2537.7000      7.8231      2.4711      0.1216     10.8439     28.3000    133.3232
  2537.8000      7.8201      2.4691      0.0644     10.9622     28.5366    130.3918
  2537.9000      7.8201      2.4711      0.0299     10.8397     29.4038    125.8341
  2538.0000      7.8173      2.4773      0.0820     10.4647     30.5474    120.9827
  2538.1000      7.8173      2.4718      0.0973     10.8014     31.2910    115.4691
  2538.2000      7.8173      2.4507      0.0271     12.0791     31.6638    111.6003
  2538.3000      7.8181      2.4291      0.0572     13.3905     31.8249    111.4888
  2538.4000      7.8181      2.4117      0.0577     14.4400     31.5340    114.9317
  2538.5000      7.8210      2.3955      0.0151     15.4221     31.1093    120.5061
  2538.6000      7.8210      2.3843      0.0423     16.1020     31.3348    125.4053
  2538.7000      7.8210      2.3871      0.0052     15.9311     32.1529    127.3226
  2538.8000      7.8233      2.4062      0.0515     14.7756     32.5881    127.9111
  2538.9000      7.8233      2.4249      0.1021     13.6438     32.0078    131.6583
  2539.0000      7.8240      2.4241      0.0811     13.6883     30.9829    136.5672
  2539.1000      7.8240      2.4092      0.0489     14.5910     30.4589    134.7006
  2539.2000      7.8240      2.4017      0.0456     15.0475     30.3222    128.7125
  2539.3000      7.8211      2.4091      0.0592     14.6020     30.1190    124.9156
  2539.4000      7.8211      2.4164      0.0807     14.1575     29.9721    122.2295
  2539.5000      7.8181      2.4137      0.1096     14.3213     30.1797    117.2266
  2539.6000      7.8181      2.4066      0.0902     14.7507     30.8634    107.8580
  2539.7000      7.8181      2.3913      0.1167     15.6807     31.8208     95.7702
  2539.8000      7.8180      2.3451      0.1400     18.4814     32.5680     88.7949
  2539.9000      7.8180      2.2579      0.0718     23.7657     32.5718     91.0780
  2540.0000      7.8201      2.1511      0.0080     30.2367     31.9774     95.9854
  2540.1000      7.8201      2.0542     -0.0367     36.1072     31.6393     94.6555
  2540.2000      7.8201      1.9782     -0.0717     40.7151     32.0338     87.4660
  2540.3000      7.8227      1.9157     -0.0486     44.5050     32.5186     83.3315
  2540.4000      7.8227      1.8640     -0.0888     47.6393     32.4624     85.2902
  2540.5000      7.8238      1.8337     -0.0554     49.4701     32.2690     86.7291
  2540.6000      7.8238      1.8325     -0.0481     49.5462     32.2778     82.7432
  2540.7000      7.8238      1.8615     -0.0224     47.7874     32.0322     76.9604
  2540.8000      7.8230      1.9238      0.0455     44.0132     31.3960     75.6004
  2540.9000      7.8230      2.0200      0.1250     38.1801     30.5494     81.1068
  2541.0000      7.8228      2.1318      0.2320     31.4037     29.2886     90.3946
  2541.1000      7.8228      2.2317      0.2492     25.3526     27.4099     96.7824
  2541.2000      7.8228      2.3137      0.2431     20.3839     25.4557     97.2720
  2541.3000      7.8246      2.3813      0.2342     16.2861     24.2983     96.8163
  2541.4000      7.8246      2.4201      0.2296     13.9363     23.9861     99.9924
  2541.5000      7.8262      2.4200      0.1533     13.9380     24.1145    104.7556
