~Version Information
VERS.                      2.0: CWLS Log ASCII Standard - VERSION 2.0
WRAP.                       NO: One line per depth step
~Well Information Block
STRT.FT                 2.0000: 
STOP.FT               698.7500: 
STEP.FT                 0.2500: 
NULL.                -999.2500: 
COMP.          XTO Energy Inc.: COMPANY
WELL.          Golden Eagle 20-14: WELL
FLD.           Purgatrorie River: FIELD
LOC.           587' FSL & 2478' FWL--: LOCATION
STAT.                       CO: State
CNTY.               Las Animas: COUNTY
CTRY. USA : Country
SECT. 20 : Section
TOWN. 33S : Township
RANG. 67W : Range
SRVC.          Patterson Wireline: SERVICE COMPANY
DATE.          Sat Dec 10 16:49:08 2005: LOG DATE
API.           05 071 08614 00: UNIQUE WELL ID
~Curve Information Block
DEPT.FT            0 000 00 00: Depth
MINMK.                        : Magnetic Mark Ticks
TEMP.degF                     : Downhole Temperature
DTMP.degF                     : Delta Temperature
~Parameter Information Block
~A  Depth      MINMK        TEMP        DTMP    
# ...
   377.7500      0.0000     61.3462      0.0349
   378.0000      0.0000     61.3548      0.0343
   378.2500      0.0000     61.3630      0.0321
   378.5000      0.0000     61.3708      0.0315
   378.7500      0.0000     61.3783      0.0301
   379.0000      0.0000     61.3871      0.0287
   379.2500      0.0000     61.3922      0.0274
   379.5000      0.0000     61.4002      0.0267
   379.7500      0.0000     61.4063      0.0255
   380.0000      0.0000     61.4122      0.0236
   380.2500      0.0000     61.4177      0.0233
   380.5000      0.0000     61.4243      0.0215
   380.7500      0.0000     61.4294      0.0206
   381.0000      0.0000     61.4342      0.0197
   381.2500      0.0000     61.4388      0.0188
   381.5000      0.0000     61.4433      0.0173
   381.7500      0.0000     61.4475      0.0166
   382.0000      0.0000     61.4515      0.0162
   382.2500      0.0000     61.4553      0.0154
   382.5000      0.0000     61.4590      0.0146
   382.7500      0.0000     61.4625      0.0139
   383.0000      0.0000     61.4665      0.0132
   383.2500      0.0000     61.4696      0.0126
   383.5000      0.0000     61.4725      0.0120
   383.7500      0.0000     61.4753      0.0114
   384.0000      0.0000     61.4780      0.0107
   384.2500      0.0000     61.4805      0.0102
   384.5000      0.0000     61.4829      0.0098
   384.7500      0.0000     61.4852      0.0093
   385.0000      0.0000     61.4879      0.0090
   385.2500      0.0000     61.4901      0.0088
   385.5000      0.0000     61.4921      0.0085
   385.7500      0.0000     61.4940      0.0082
   386.0000      0.0000     61.4959      0.0077
   386.2500      0.0000     61.4982      0.0075
   386.5000      0.0000     61.4999      0.0073
   386.7500      0.0000     61.5017      0.0071
   387.0000      0.0000     61.5033      0.0071
   387.2500      0.0000     61.5050      0.0067
   387.5000      0.0000     61.5066      0.0066
   387.7500      0.0000     61.5082      0.0065
   388.0000      0.0000     61.5101      0.0063
   388.2500      0.0000     61.5116      0.0062
   388.5000      0.0000     61.5131      0.0062
   388.7500      0.0000     61.5146      0.0061
   389.0000      0.0000     61.5160      0.0058
   389.2500      0.0000     61.5175      0.0058
   389.5000      0.0000     61.5189      0.0058
   389.7500      0.0000     61.5203      0.0057
   390.0000      0.0000     61.5217      0.0058
   390.2500      0.0000     61.5232      0.0058
   390.5000      0.0000     61.5246      0.0060
   390.7500      0.0000     61.5261      0.0061
   391.0000      0.0000     61.5275      0.0061
   391.2500      0.0000     61.5290      0.0062
   391.5000      0.0000     61.5309      0.0065
   391.7500      0.0000     61.5325      0.0066
   392.0000      0.0000     61.5340      0.0067
   392.2500      0.0000     61.5356      0.0068
   392.5000      0.0000     61.5376      0.0069
   392.7500      0.0000     61.5392      0.0070
   393.0000      0.0000     61.5409      0.0071
   393.2500      0.0000     61.5425      0.0072
   393.5000      0.0000     61.5447      0.0071
   393.7500      0.0000     61.5464      0.0072
   394.0000      0.0000     61.5482      0.0073
   394.2500      0.0000     61.5500      0.0074
   394.5000      0.0000     61.5518      0.0073
   394.7500      0.0000     61.5536      0.0075
   395.0000      0.0000     61.5555      0.0076
   395.2500      0.0000     61.5574      0.0077
   395.5000      0.0000     61.5594      0.0078
   395.7500      0.0000     61.5613      0.0082
   396.0000      0.0000     61.5634      0.0084
   396.2500      0.0000     61.5654      0.0085
   396.5000      0.0000     61.5675      0.0086
   396.7500      0.0000     61.5701      0.0088
   397.0000      0.0000     61.5722      0.0089
   397.2500      0.0000     61.5744      0.0093
   397.5000      0.0000     61.5766      0.0095
   397.7500      0.0000     61.5789      0.0093
   398.0000      0.0000     61.5812      0.0095
   398.2500      0.0000     61.5841      0.0099
   398.5000      0.0000     61.5864      0.0100
   398.7500      0.0000     61.5888      0.0102
   399.0000      0.0000     61.5912      0.0103
   399.2500      0.0000     61.5942      0.0101
   399.5000      0.0000     61.5967      0.0102
   399.7500      0.0000     61.5992      0.0104
   400.0000      0.0000     61.6017      0.0105
   400.2500      0.0000     61.6043      0.0103
   400.5000      0.0000     61.6069      0.0104
   400.7500      0.0000     61.6095      0.0105
   401.0000      0.0000     61.6122      0.0107
   401.2500      0.0000     61.6148      0.0112
   401.5000      0.0000     61.6175      0.0113
   401.7500      0.0000     61.6203      0.0114
   402.0000      0.0000     61.6231      0.0116
   402.2500      0.0000     61.6266      0.0117
   402.5000      0.0000     61.6295      0.0119
   402.7500      0.0000     61.6324      0.0120
   403.0000      0.0000     61.6353      0.0121
   403.2500      0.0000     61.6383      0.0119
   403.5000      0.0000     61.6413      0.0124
   403.7500      0.0000     61.6443      0.0125
   404.0000      0.0000     61.6473      0.0126
   404.2500      0.0000     61.6504      0.0127
   404.5000      0.0000     61.6542      0.0128
   404.7500      0.0000     61.6573      0.0128
   405.0000      0.0000     61.6605      0.0129
   405.2500      0.0000     61.6636      0.0134
   405.5000      0.0000     61.6668      0.0131
   405.7500      0.0000     61.6700      0.0131
   406.0000      0.0000     61.6731      0.0132
   406.2500      0.0000     61.6771      0.0132
   406.5000      0.0000     61.6804      0.0133
   406.7500      0.0000     61.6836      0.0133
   407.0000      0.0000     61.6868      0.0134
   407.2500      0.0000     61.6901      0.0130
   407.5000      0.0000     61.6933      0.0130
   407.7500      0.0000     61.6966      0.0134
   408.0000      0.0000     61.6998      0.0134
   408.2500      0.0000     61.7031      0.0134
   408.5000      0.0000     61.7063      0.0135
   408.7500      0.0000     61.7104      0.0135
   409.0000      0.0000     61.7137      0.0135
   409.2500      0.0000     61.7169      0.0135
   409.5000      0.0000     61.7202      0.0135
   409.7500      0.0000     61.7235      0.0136
   410.0000      0.0000     61.7268      0.0136
   410.2500      0.0000     61.7301      0.0137
   410.5000      0.0000     61.7334      0.0138
   410.7500      0.0000     61.7376      0.0144
   411.0000      0.0000     61.7410      0.0146
   411.2500      0.0000     61.7444      0.0147
   411.5000      0.0000     61.7478      0.0149
   411.7500      0.0000     61.7523      0.0147
   412.0000      0.0000     61.7559      0.0149
   412.2500      0.0000     61.7595      0.0152
   412.5000      0.0000     61.7633      0.0154
   412.7500      0.0000     61.7670      0.0152
   413.0000      0.0000     61.7708      0.0154
   413.2500      0.0000     61.7747      0.0156
   413.5000      0.0000     61.7786      0.0163
   413.7500      0.0000     61.7826      0.0166
   414.0000      0.0000     61.7866      0.0169
   414.2500      0.0000     61.7907      0.0172
   414.5000      0.0000     61.7959      0.0174
   414.7500      0.0000     61.8002      0.0183
   415.0000      0.0000     61.8046      0.0187
   415.2500      0.0000     61.8090      0.0190
   415.5000      0.0000     61.8135      0.0188
   415.7500      0.0000     61.8192      0.0191
   416.0000      0.0000     61.8239      0.0194
   416.2500      0.0000     61.8286      0.0197
   416.5000      0.0000     61.8334      0.0201
   416.7500      0.0000     61.8383      0.0205
   417.0000      0.0000     61.8433      0.0202
   417.2500      0.0000     61.8484      0.0205
   417.5000      0.0000     61.8536      0.0216
   417.7500      0.0000     61.8602      0.0220
   418.0000      0.0000     61.8642      0.0223
   418.2500      0.0000     61.8697      0.0227
   418.5000      0.0000     61.8766      0.0231
   418.7500      0.0000     61.8823      0.0228
   419.0000      0.0000     61.8880      0.0240
   419.2500      0.0000     61.8938      0.0253
