~Version Information
VERS.                      2.0: CWLS Log ASCII Standard - VERSION 2.0
WRAP.                       NO: One line per depth step
~Well Information Block
STRT.FT               520.0000: 
STOP.FT              2555.2000: 
STEP.FT                 0.1000: 
NULL.                -999.2500: 
COMP.          Pioneer Natural Resources: COMPANY
WELL.          Horsefeathers 24-34: WELL
FLD.           Purgatoire River: FIELD
LOC.           183' FSL & 1570' FWL--: LOCATION
CNTY.               Las Animas: COUNTY
SRVC.                Patterson: SERVICE COMPANY
DATE.          Mon Feb 06 08:03:40 2006: LOG DATE
UWI.           05 071 08675 00: UNIQUE WELL ID
STAT.                 Colorado: STATE
~Curve Information Block
DEPT.FT            0 000 00 00: Depth
DCAL.in                       : CDL Caliper
RHOB.g/cc                     : CDL Bulk Density
RHOC.g/cc                     : CDL Density Correction
DPOR.pu                       : CDL Density Porosity
NPOR.pu                       : Neutron Porosity
GR.GAPI                       : Gamma Ray
~Parameter Information Block
~A  Depth       DCAL        RHOB        RHOC        DPOR        NPOR         GR     
# ...
  2123.2000      8.0106      2.5482      0.0538      6.1670     25.1882    176.2003
  2123.3000      8.0095      2.5475      0.0555      6.2122     24.8862    168.4676
  2123.4000      8.0095      2.5362      0.0300      6.8997     24.4008    156.6417
  2123.5000      8.0075      2.5259      0.0192      7.5224     24.2177    154.1231
  2123.6000      8.0075      2.5341     -0.0014      7.0241     24.4077    159.9484
  2123.7000      8.0075      2.5594      0.0655      5.4892     24.4963    163.9784
  2123.8000      8.0074      2.5826      0.0834      4.0845     24.4631    161.8537
  2123.9000      8.0074      2.5882      0.1071      3.7436     24.7121    154.5531
  2124.0000      8.0079      2.5722      0.0672      4.7160     25.1624    147.0247
  2124.1000      8.0079      2.5442      0.0252      6.4130     25.3874    148.4620
  2124.2000      8.0079      2.5160      0.0619      8.1242     25.3364    159.4514
  2124.3000      8.0080      2.4951     -0.0003      9.3867     25.3860    166.7897
  2124.4000      8.0080      2.4951      0.0050      9.3860     25.6756    161.7069
  2124.5000      8.0085      2.5151      0.0374      8.1781     26.1256    154.6248
  2124.6000      8.0085      2.5347      0.0523      6.9874     26.4934    159.3294
  2124.7000      8.0085      2.5460      0.0470      6.3027     26.3608    171.6703
  2124.8000      8.0091      2.5482      0.0925      6.1725     25.8347    176.3085
  2124.9000      8.0091      2.5388      0.0647      6.7423     25.3853    170.3652
  2125.0000      8.0097      2.5306      0.0432      7.2366     25.0565    161.8194
  2125.1000      8.0097      2.5338      0.0969      7.0409     24.5894    156.8283
  2125.2000      8.0097      2.5410      0.0629      6.6056     24.1402    159.1991
  2125.3000      8.0095      2.5472      0.0650      6.2282     24.3970    164.5169
  2125.4000      8.0095      2.5548      0.0820      5.7682     25.6512    164.7635
  2125.5000      8.0094      2.5644      0.0785      5.1874     27.0451    160.4865
  2125.6000      8.0094      2.5774      0.0791      4.3975     27.2362    156.4354
  2125.7000      8.0094      2.5942      0.0846      3.3789     25.8236    152.4710
  2125.8000      8.0103      2.6089      0.0867      2.4907     23.8321    149.1740
  2125.9000      8.0103      2.6185      0.0563      1.9083     22.6443    149.9863
  2126.0000      8.0094      2.6232      0.0871      1.6235     22.5286    153.6950
  2126.1000      8.0094      2.6162      0.0439      2.0500     22.7288    156.0817
  2126.2000      8.0094      2.5987      0.0381      3.1080     22.7421    156.5774
  2126.3000      8.0074      2.5831      0.0083      4.0524     22.5103    157.8783
  2126.4000      8.0074      2.5748      0.0375      4.5561     22.1486    159.8771
  2126.5000      8.0058      2.5668      0.0393      5.0430     22.1899    160.9648
  2126.6000      8.0058      2.5558      0.0220      5.7097     22.7846    159.4536
  2126.7000      8.0058      2.5512      0.0287      5.9872     23.2410    153.2195
  2126.8000      8.0044      2.5616      0.0532      5.3598     23.5498    146.4963
  2126.9000      8.0044      2.5812      0.0678      4.1680     24.0946    145.5646
  2127.0000      8.0042      2.5920      0.0845      3.5123     24.3935    146.9998
  2127.1000      8.0042      2.5889      0.0521      3.7009     24.0938    144.4385
  2127.2000      8.0042      2.5827      0.0664      4.0768     23.7042    142.9150
  2127.3000      8.0050      2.5745      0.0634      4.5773     23.6553    151.8486
  2127.4000      8.0050      2.5661      0.0415      5.0843     23.7528    166.4594
  2127.5000      8.0072      2.5672      0.0620      5.0182     23.6720    168.5935
  2127.6000      8.0072      2.5747      0.0702      4.5662     23.4613    157.0353
  2127.7000      8.0072      2.5765      0.0793      4.4528     23.3050    150.5673
  2127.8000      8.0084      2.5707      0.0528      4.8077     23.3039    152.0931
  2127.9000      8.0084      2.5633      0.0338      5.2546     23.4552    152.7697
  2128.0000      8.0087      2.5585      0.0378      5.5474     23.4279    153.2844
  2128.1000      8.0087      2.5569      0.0468      5.6416     22.8338    156.0995
  2128.2000      8.0087      2.5528      0.0507      5.8934     22.3709    158.2958
  2128.3000      8.0104      2.5393      0.0468      6.7097     22.8944    155.4790
  2128.4000      8.0104      2.5283     -0.0028      7.3769     24.0614    149.9445
  2128.5000      8.0115      2.5370      0.0376      6.8487     24.7503    148.9414
  2128.6000      8.0115      2.5588      0.0853      5.5268     24.4216    153.8412
  2128.7000      8.0115      2.5738      0.0898      4.6152     23.7841    159.1542
  2128.8000      8.0106      2.5745      0.0790      4.5765     23.3222    160.2630
  2128.9000      8.0106      2.5606      0.0857      5.4199     22.8976    160.0085
  2129.0000      8.0085      2.5388      0.0063      6.7409     22.6208    160.2689
  2129.1000      8.0085      2.5317      0.0060      7.1670     22.4224    157.3509
  2129.2000      8.0085      2.5536      0.0301      5.8440     22.0843    153.8922
  2129.3000      8.0068      2.5892      0.0763      3.6871     21.8409    152.9822
  2129.4000      8.0068      2.6107      0.0749      2.3795     21.8184    148.6230
  2129.5000      8.0069      2.6091      0.0668      2.4807     21.7167    141.6458
  2129.6000      8.0069      2.5986      0.0367      3.1145     21.4751    141.7497
  2129.7000      8.0069      2.5950      0.0461      3.3339     21.5514    149.2823
  2129.8000      8.0090      2.5972      0.0604      3.2011     22.2179    153.3652
  2129.9000      8.0090      2.5984      0.0225      3.1275     22.9134    152.2594
  2130.0000      8.0108      2.5982      0.0621      3.1389     23.1352    155.3087
  2130.1000      8.0108      2.5966      0.0636      3.2355     23.2945    162.5690
  2130.2000      8.0108      2.5907      0.0683      3.5920     23.6571    162.9827
  2130.3000      8.0098      2.5791      0.0351      4.2946     24.0626    154.6443
  2130.4000      8.0098      2.5676      0.0262      4.9934     24.4261    149.3712
  2130.5000      8.0053      2.5587      0.0226      5.5359     24.7355    152.1977
  2130.6000      8.0053      2.5476      0.0300      6.2043     25.1478    156.3146
  2130.7000      8.0053      2.5383      0.0141      6.7722     25.5245    158.1832
  2130.8000      7.9996      2.5457     -0.0280      6.3191     25.5281    159.4995
  2130.9000      7.9996      2.5698      0.0537      4.8582     25.3540    162.6617
  2131.0000      7.9978      2.5857      0.0861      3.8973     25.1491    169.5929
  2131.1000      7.9978      2.5845      0.0433      3.9696     24.4779    175.1927
  2131.2000      7.9978      2.5753      0.0582      4.5245     23.7409    175.6094
  2131.3000      7.9976      2.5598      0.0485      5.4662     23.9388    173.3378
  2131.4000      7.9976      2.5449      0.0556      6.3686     25.0467    166.6372
  2131.5000      7.9961      2.5425      0.0531      6.5180     26.3233    157.0004
  2131.6000      7.9961      2.5493      0.0702      6.1019     27.2412    151.3630
  2131.7000      7.9961      2.5497      0.0569      6.0801     27.9074    151.1028
  2131.8000      7.9960      2.5402      0.0354      6.6574     28.3462    154.6383
  2131.9000      7.9960      2.5353      0.0396      6.9520     28.3927    163.6433
  2132.0000      7.9986      2.5421      0.0480      6.5379     28.2033    171.3956
  2132.1000      7.9986      2.5491      0.0729      6.1155     27.8109    167.8648
  2132.2000      7.9986      2.5446      0.0560      6.3874     27.1166    159.9450
  2132.3000      8.0000      2.5338      0.0404      7.0432     26.1337    160.1029
  2132.4000      8.0000      2.5294      0.0256      7.3063     25.1535    167.6514
  2132.5000      7.9989      2.5347      0.0287      6.9896     24.6764    173.8969
  2132.6000      7.9989      2.5379      0.0497      6.7950     24.5994    172.8065
  2132.7000      7.9989      2.5311      0.0581      7.2040     24.5758    166.6113
