~Version Information
VERS.                      2.0: CWLS Log ASCII Standard - VERSION 2.0
WRAP.                       NO: One line per depth step
~Well Information Block
STRT.FT               -11.5000: 
STOP.FT              1961.7500: 
STEP.FT                 0.2500: 
NULL.                -999.2500: 
COMP.          Petrogulf Corporation: COMPANY
WELL.           State 16-23R-X: WELL
FLD.           Purgatorie River: FIELD
LOC.           2381' FSL & 2072' FWL--: LOCATION
PROV.                       CO: PROVINCE
CNTY.               Las Animas: COUNTRY
SRVC.          Patterson Wireline: SERVICE COMPANY
DATE.          Fri Sep 09 14:32:42 2005: LOG DATE
UWI.           05 071 08324 00: UNIQUE WELL ID
~Curve Information Block
DEPT.FT            0 000 00 00: Depth
CCL.                          : Casing Collar Locator
TT3.usec                      : CBL 3' Travel Time
AMP3.mV                       : CBL 3' Amplitude
GR.GAPI                       : Gamma Ray
~Parameter Information Block
~A  Depth       CCL         TT3         AMP3         GR     
# ...
   122.5000      0.0000    409.5189     10.6701    106.8564
   122.7500      0.0000    398.7545     10.7351    107.5167
   123.0000      0.0000    388.5574     10.7666    108.4637
   123.2500      0.0000    380.4571     10.7857    109.7942
   123.5000      0.0000    375.3062     10.8049    110.3288
   123.7500      0.0000    373.0854     10.8174    108.2129
   124.0000      0.0000    373.7005     10.8041    102.9638
   124.2500      0.0000    378.0136     10.7442     96.1346
   124.5000      0.0000    388.3627     10.6229     89.7943
   124.7500      0.0000    407.9585     10.4359     84.9563
   125.0000      0.0000    438.7373     10.1957     81.3768
   125.2500      0.0000    478.5106      9.9362     78.2430
   125.5000      0.0000    520.1890      9.7059     74.9917
   125.7500      0.0000    555.2137      9.5515     71.7383
   126.0000      0.0000    578.7836      9.4977     68.9188
   126.2500      0.0000    591.8242      9.5394     66.6038
   126.5000      0.0000    598.3543      9.6503     64.3965
   126.7500      0.0000    601.8044      9.8008     61.9199
   127.0000      0.0000    603.4603      9.9699     59.1097
   127.2500      0.0000    602.6968     10.1443     56.1402
   127.5000      0.0000    597.0817     10.3113     53.3568
   127.7500      0.0000    582.3807     10.4592     51.1533
   128.0000      0.0000    554.6267     10.5845     49.6558
   128.2500      0.0000    514.4191     10.6958     48.6311
   128.5000      0.0000    469.2133     10.8060     48.0562
   128.7500      0.0000    429.6228     10.9215     48.6533
   129.0000      0.0000    402.5336     11.0385     51.3160
   129.2500      0.0000    387.8803     11.1463     55.8839
   129.5000      0.0000    381.1527     11.2330     60.8616
   129.7500      0.0000    377.6403     11.2918     64.4668
   130.0000      0.0000    374.7606     11.3248     65.6542
   130.2500      0.0000    372.2026     11.3417     64.2088
   130.5000      0.0000    370.8405     11.3541     60.5665
   130.7500      0.0000    371.2447     11.3713     55.7711
   131.0000      0.0000    372.8835     11.3988     51.0437
   131.2500      0.0000    374.6420     11.4402     47.1351
   131.5000      0.0000    375.7875     11.4969     44.2659
   131.7500      0.0000    376.3029     11.5654     42.5828
   132.0000      0.0000    376.5873     11.6354     42.4135
   132.2500      0.0000    377.2754     11.6945     44.0740
   132.5000      0.0000    379.5877     11.7368     47.4610
   132.7500      0.0000    386.0487     11.7658     51.8055
   133.0000      0.0000    400.5826     11.7890     56.0901
   133.2500      0.0000    426.4600     11.8120     59.8520
   133.5000      0.0000    462.3199     11.8381     63.3526
   133.7500      0.0000    500.1751     11.8718     66.9409
   134.0000      0.0000    529.1115     11.9226     70.5636
   134.2500      0.0000    541.6743     12.0042     73.9154
   134.5000      0.0000    536.2648     12.1250     76.8176
   134.7500      0.0000    515.0728     12.2792     79.2919
   135.0000      0.0000    482.8203     12.4452     81.2703
   135.2500      0.0000    447.4908     12.5909     82.4822
   135.5000      0.0000    418.9607     12.6845     82.8403
   135.7500      0.0000    404.7373     12.7065     82.7020
   136.0000      0.0000    407.0569     12.6573     82.4806
   136.2500      0.0000    423.5182     12.5558     82.3677
   136.5000      0.0000    449.0592     12.4310     82.7883
   136.7500      0.0000    477.6289     12.3094     84.6962
   137.0000      0.0000    504.2183     12.2052     88.7825
   137.2500      0.0000    526.8746     12.1168     94.2942
   137.5000      0.0000    546.4598     12.0340     98.9045
   137.7500      0.0000    563.9017     11.9500    100.0990
   138.0000      0.0000    578.1323     11.8691     97.0796
   138.2500      0.0000    587.1556     11.8014     91.4108
   138.5000      0.0000    590.6612     11.7502     85.5738
   138.7500      0.0000    590.5656     11.7059     80.7620
   139.0000      0.0000    588.7592     11.6485     76.2775
   139.2500      0.0000    585.2942     11.5602     71.0599
   139.5000      0.0000    579.4393     11.4417     65.3534
   139.7500      0.0000    571.8182     11.3194     60.7208
   140.0000      0.0000    564.6327     11.2309     58.7273
   140.2500      0.0000    560.0318     11.1984     59.8584
   140.5000      0.0000    558.7945     11.2157     63.5686
   140.7500      0.0000    560.2275     11.2603     68.8665
   141.0000      0.0000    562.6860     11.3154     74.5043
   141.2500      0.0000    564.4634     11.3810     79.1268
   141.5000      0.0000    564.8671     11.4675     82.0762
   141.7500      0.0000    564.3704     11.5787     83.9780
   142.0000      0.0000    563.4364     11.7023     85.8296
   142.2500      0.0000    561.6842     11.8143     87.3611
   142.5000      0.0000    558.6894     11.8917     86.7148
   142.7500      0.0000    555.0325     11.9223     82.1156
   143.0000      0.0000    551.9355     11.9090     74.0566
   143.2500      0.0000    550.1908     11.8697     65.6244
   143.5000      0.0000    549.8638     11.8291     60.1918
   143.7500      0.0000    550.8036     11.8054     58.7795
   144.0000      0.0000    552.9841     11.8018     59.7586
   144.2500      0.0000    556.2203     11.8092     60.7811
   144.5000      0.0000    559.7484     11.8145     60.7686
   144.7500      0.0000    562.5824     11.8075     60.1631
   145.0000      0.0000    564.5112     11.7852     59.5476
   145.2500      0.0000    566.1712     11.7529     58.5802
   145.5000      0.0000    567.4648     11.7210     56.6825
   145.7500      0.0000    566.5248     11.6949     54.3486
   146.0000      0.0000    561.4696     11.6647     52.8650
   146.2500      0.0000    553.1749     11.6082     52.6420
   146.5000      0.0000    544.9526     11.5091     52.5954
   146.7500      0.0000    539.0239     11.3790     51.5436
   147.0000      0.0000    534.3245     11.2621     49.7372
   147.2500      0.0000    528.1331     11.2157     48.6085
   147.5000      0.0000    518.6464     11.2744     49.1711
   147.7500      0.0000    505.5782     11.4260     50.9561
   148.0000      0.0000    489.7066     11.6227     52.5080
   148.2500      0.0000    472.8711     11.8203     52.7587
   148.5000      0.0000    457.7005     12.0090     51.8002
   148.7500      0.0000    446.4321     12.2105     50.3634
   149.0000      0.0000    439.9970     12.4522     48.8184
   149.2500      0.0000    438.5371     12.7467     46.9502
   149.5000      0.0000    442.6523     13.0826     44.6146
   149.7500      0.0000    453.4296     13.4169     42.2593
   150.0000      0.0000    469.9615     13.6776     40.5909
   150.2500      0.0000    486.2318     13.7936     39.8978
   150.5000      0.0000    492.2840     13.7400     39.9689
   150.7500      0.0000    481.7616     13.5581     40.6150
   151.0000      0.0000    459.3564     13.3300     41.9680
   151.2500      0.0000    439.2141     13.1290     44.2615
   151.5000      0.0000    434.8278     12.9849     47.6016
   151.7500      0.0000    450.0156     12.8878     52.1099
   152.0000      0.0000    477.9601     12.8140     58.1906
   152.2500      0.0000    507.0491     12.7505     66.3332
   152.5000      0.0000    527.8185     12.7030     76.2221
   152.7500      0.0000    536.1203     12.6955     86.0290
   153.0000      0.0000    532.2812     12.7624     93.1515
   153.2500      0.0000    519.7151     12.9325     96.1832
   153.5000      0.0000    504.5117     13.2130     96.1658
   153.7500      0.0000    493.5117     13.5889     95.5457
   154.0000      0.0000    489.9211     14.0352     95.8399
   154.2500      0.0000    490.6798     14.5248     96.6451
   154.5000      0.0000    488.9781     15.0331     96.8532
   154.7500      0.0000    479.1746     15.5461     96.2310
   155.0000      0.0000    459.8133     16.0618     95.5528
   155.2500      0.0000    433.9720     16.5695     95.6464
   155.5000      0.0000    407.8481     17.0398     96.7476
   155.7500      0.0000    387.9193     17.4365     98.5208
