~Version Information
VERS.                      2.0: CWLS Log ASCII Standard - VERSION 2.0
WRAP.                       NO: One line per depth step
~Well Information Block
STRT.FT               550.0000: 
STOP.FT              1979.0000: 
STEP.FT                 0.1000: 
NULL.                -999.2500: 
COMP.          Pioneer Natural Resources: COMPANY
WELL.          Flying Horse 12-11 Tr: WELL
FLD.           Purgatoire River: FIELD
LOC.           2459' FNL & 410' FWL: LOCATION
STAT.                 Colorado: PROVINCE
CNTY.               Las Animas: COUNTY
CTRY. USA : Country
SECT. 11 : Section
TOWN. 32S : Township
RANG. 66W : Range
SRVC.                Patterson: SERVICE COMPANY
DATE.          Tue Sep 06 07:09:24 2005: LOG DATE
API.           05 071 08485 00: UNIQUE WELL ID
~Curve Information Block
DEPT.FT            0 000 00 00: Depth
DCAL.in                       : CDL Caliper
RHOB.g/cc                     : CDL Bulk Density
RHOC.g/cc                     : CDL Density Correction
DPOR.pu                       : CDL Density Porosity
GR.GAPI                       : Gamma Ray
NPOR.pu                       : Neutron Porosity
~Parameter Information Block
~A  Depth       DCAL        RHOB        RHOC        DPOR         GR         NPOR    
# ...
  1394.8000      8.1258      2.4815      0.0290     10.2112    106.0961     28.3298
  1394.9000      8.1258      2.5056      0.0984      8.7512    112.7968     29.0930
  1395.0000      8.1394      2.5299      0.0919      7.2765    123.7735     30.7967
  1395.1000      8.1394      2.5611      0.1001      5.3907    131.0056     32.5144
  1395.2000      8.1394      2.5975      0.1468      3.1820    132.9278     33.3840
  1395.3000      8.1784      2.6255      0.0658      1.4841    129.6293     33.3348
  1395.4000      8.1784      2.6307      0.0938      1.1726    121.1635     32.7373
  1395.5000      8.1834      2.6001      0.0358      3.0239    111.2005     32.0990
  1395.6000      8.1834      2.5469      0.0237      6.2511    103.9993     31.9493
  1395.7000      8.1834      2.5042      0.0066      8.8350     98.9949     32.1069
  1395.8000      8.0983      2.4866     -0.0093      9.9016     97.8926     31.8913
  1395.9000      8.0983      2.4754     -0.0284     10.5827    100.8382     31.2534
  1396.0000      8.1045      2.4454     -0.0103     12.4002    101.4569     31.0640
  1396.1000      8.1045      2.4054     -0.0667     14.8262     99.3941     31.5554
  1396.2000      8.1045      2.3876     -0.0182     15.9044    101.9010     31.8825
  1396.3000      8.0826      2.3968      0.0574     15.3425    109.4389     31.7102
  1396.4000      8.0826      2.4214      0.0377     13.8565    117.0889     31.4742
  1396.5000      8.0741      2.4586      0.0798     11.5986    122.6563     31.3413
  1396.6000      8.0741      2.4931      0.1356      9.5084    125.5716     30.9584
  1396.7000      8.0741      2.5114      0.1505      8.4018    125.1710     30.3876
  1396.8000      8.0913      2.5230      0.1575      7.6992    124.5241     30.0817
  1396.9000      8.0913      2.5304      0.1806      7.2480    128.8598     30.0708
  1397.0000      8.1272      2.5255      0.0857      7.5474    138.9200     30.5524
  1397.1000      8.1272      2.5137      0.0374      8.2634    146.4009     31.8414
  1397.2000      8.1272      2.5059      0.0799      8.7354    145.1857     33.0330
  1397.3000      8.1019      2.5047      0.0422      8.8067    141.1415     32.8529
  1397.4000      8.1019      2.5115      0.0318      8.3927    138.6025     31.3311
  1397.5000      8.0661      2.5212      0.0782      7.8041    132.8381     29.4618
  1397.6000      8.0661      2.5190      0.0981      7.9421    123.9326     28.4204
  1397.7000      8.0661      2.5028      0.0955      8.9241    120.8414     28.4374
  1397.8000      8.1011      2.4944      0.0662      9.4274    127.5574     28.9487
  1397.9000      8.1011      2.5135      0.0929      8.2707    136.5755     29.6564
  1398.0000      8.1211      2.5518      0.0865      5.9487    140.0125     30.2216
  1398.1000      8.1211      2.5874      0.1023      3.7934    138.6192     30.1686
  1398.2000      8.1211      2.6110      0.0885      2.3624    136.3715     29.6535
  1398.3000      8.1481      2.6361      0.0301      0.8449    135.6171     28.9975
  1398.4000      8.1481      2.6687      0.1331     -1.1329    134.6095     28.4148
  1398.5000      8.1444      2.6863      0.1156     -2.2010    129.0463     28.4490
  1398.6000      8.1444      2.6778      0.1115     -1.6838    120.6819     29.0394
  1398.7000      8.1444      2.6585      0.0441     -0.5148    118.3991     29.4324
  1398.8000      8.1304      2.6321      0.0606      1.0844    122.7638     29.7010
  1398.9000      8.1304      2.5837     -0.0133      4.0192    123.4377     30.2184
  1399.0000      8.1184      2.5268     -0.0494      7.4697    116.0903     30.3705
  1399.1000      8.1184      2.4994     -0.0071      9.1271    106.3311     29.4712
  1399.2000      8.1184      2.5059      0.0998      8.7304     97.3167     27.8274
  1399.3000      8.1003      2.5207      0.0675      7.8390     92.7079     26.2883
  1399.4000      8.1003      2.5371      0.0550      6.8442     97.9785     25.2544
  1399.5000      8.1021      2.5637      0.0706      5.2283    110.2226     24.8747
  1399.6000      8.1021      2.5959      0.1478      3.2758    117.5063     25.1518
  1399.7000      8.1021      2.6162      0.1383      2.0465    115.0714     25.9604
  1399.8000      8.1370      2.6179      0.1632      1.9459    108.6601     26.8513
  1399.9000      8.1370      2.6063      0.1489      2.6499    102.0827     26.8455
  1400.0000      8.1295      2.5888      0.1225      3.7103     98.1584     25.7711
  1400.1000      8.1295      2.5763      0.0920      4.4680    101.3306     24.4350
  1400.2000      8.1295      2.5736      0.0752      4.6295    109.5953     23.4921
  1400.3000      8.1161      2.5715      0.0651      4.7585    112.4889     23.0756
  1400.4000      8.1161      2.5611      0.0509      5.3901    106.7558     22.7585
  1400.5000      8.0918      2.5546     -0.0098      5.7792     99.9081     22.4961
  1400.6000      8.0918      2.5713      0.0324      4.7683     92.4208     22.7887
  1400.7000      8.0918      2.6042      0.0564      2.7740     81.1957     23.6722
  1400.8000      8.1022      2.6309      0.0773      1.1603     71.3257     24.3236
  1400.9000      8.1022      2.6443      0.0542      0.3484     67.8751     23.8331
  1401.0000      8.0560      2.6497      0.0707      0.0181     67.0680     22.4524
  1401.1000      8.0560      2.6430      0.0880      0.4248     65.4601     21.1366
  1401.2000      8.0560      2.6175      0.0477      1.9683     67.4578     20.4370
  1401.3000      8.0099      2.5921     -0.0348      3.5087     73.1979     20.4160
  1401.4000      8.0099      2.5881      0.0544      3.7525     76.1676     20.6747
  1401.5000      8.0161      2.5970      0.0469      3.2151     74.3972     20.5212
  1401.6000      8.0161      2.6057      0.0507      2.6861     70.4161     20.2307
  1401.7000      8.0161      2.6094      0.0528      2.4583     65.0745     20.6964
  1401.8000      8.0227      2.6053      0.0346      2.7061     59.9844     21.7243
  1401.9000      8.0227      2.6002      0.0210      3.0211     58.9538     22.3052
  1402.0000      8.0272      2.5995      0.0819      3.0629     61.9948     22.3537
  1402.1000      8.0272      2.5954      0.0840      3.3077     63.1198     22.3665
  1402.2000      8.0272      2.5759      0.0971      4.4888     60.1819     22.0116
  1402.3000      8.0070      2.5369      0.0899      6.8563     58.2590     21.1578
  1402.4000      8.0070      2.4947     -0.0080      9.4147     59.4146     20.4958
  1402.5000      7.9708      2.4725     -0.0453     10.7560     60.7298     20.3764
  1402.6000      7.9708      2.4704     -0.0265     10.8860     60.2149     20.6628
  1402.7000      7.9708      2.4761     -0.0306     10.5414     58.5616     20.9751
  1402.8000      8.0291      2.4842      0.0405     10.0512     56.9962     20.9068
  1402.9000      8.0291      2.4862      0.0451      9.9261     56.6963     20.9625
  1403.0000      8.1211      2.4777      0.0545     10.4410     57.0194     21.1523
  1403.1000      8.1211      2.4626      0.0420     11.3554     56.4223     20.8550
  1403.2000      8.1211      2.4424      0.0185     12.5814     56.0108     20.4074
  1403.3000      8.1327      2.4246     -0.0078     13.6600     56.1471     20.1638
  1403.4000      8.1327      2.4242     -0.0178     13.6840     55.8511     20.0527
  1403.5000      8.1142      2.4394      0.0128     12.7638     54.8090     20.4426
  1403.6000      8.1142      2.4513      0.0356     12.0431     52.6460     21.5919
  1403.7000      8.1142      2.4477      0.0675     12.2579     50.7859     23.0935
  1403.8000      8.1152      2.4359     -0.0166     12.9734     53.1501     24.3748
  1403.9000      8.1152      2.4370     -0.0065     12.9120     60.9769     24.6614
  1404.0000      8.1254      2.4530      0.0149     11.9373     68.9710     24.0084
  1404.1000      8.1254      2.4586      0.0787     11.5981     70.1300     23.7564
  1404.2000      8.1254      2.4466     -0.0179     12.3269     65.9209     23.9881
  1404.3000      8.1259      2.4474     -0.0170     12.2769     63.8578     23.3474
