~Version Information
VERS.                      2.0: CWLS Log ASCII Standard - VERSION 2.0
WRAP.                       NO: One line per depth step
~Well Information Block
STRT.FT               295.7500: 
STOP.FT              1461.0000: 
STEP.FT                 0.2500: 
NULL.                -999.2500: 
COMP.          Pioneer Natural Resources: COMPANY
WELL.              Lucky 21-36: WELL
FLD.           Purgatoire River: FIELD
LOC.           799' FNL & 1578' FWL--: LOCATION
CDN. :
PROV. :
UWI. :
STAT. :
CNTY. :
CTRY. :
API. :
COMP. :
WELL. :
FLD. :
LOC. :
DATE. :
SRVC. :
CNTY.               Las Animas: COUNTY
SRVC.          Superior Well Services: SERVICE COMPANY
DATE.          Mon Jul 07 19-13-01 2008: LOG DATE
UWI.           05 071 08456 00: UNIQUE WELL ID
STAT.                 Colorado: STATE
~Curve Information Block
DEPT.FT            0 000 00 00: Depth
SN.Ohm-m                      : IEL Short Normal
SP.mV                         : IEL Spontaneous Potential
DIR.Ohm-m                     : IEL Induction Resistivity
GR.GAPI                       : Gamma Ray
~Parameter Information Block
~A  Depth        SN          SP         DIR          GR     
# ...
   999.2500     16.7147    -22.4652     14.6425    121.4872
   999.5000     16.2197    -22.3766     14.2597    123.0154
   999.7500     15.7716    -22.2430     13.8653    125.4819
  1000.0000     15.3659    -22.0532     13.4882    126.9800
  1000.2500     15.0147    -21.7935     13.1433    128.3183
  1000.5000     14.7248    -21.4481     12.8326    128.7846
  1000.7500     14.4932    -20.9997     12.5494    130.1562
  1001.0000     14.2568    -20.4302     12.2857    132.1185
  1001.2500     13.9842    -19.7224     12.0390    136.3214
  1001.5000     13.7807    -18.8620     11.8151    139.2224
  1001.7500     13.7146    -17.8392     11.6242    142.4531
  1002.0000     13.6721    -16.6511     11.4718    143.2684
  1002.2500     13.5687    -15.3035     11.3517    141.7760
  1002.5000     13.4408    -13.8116     11.2463    139.0276
  1002.7500     13.3192    -12.2006     11.1337    133.4294
  1003.0000     13.1542    -10.5049     10.9957    129.6306
  1003.2500     12.8983     -8.7664     10.8218    124.9104
  1003.5000     12.6552     -7.0322     10.6081    122.6551
  1003.7500     12.4782     -5.3519     10.3558    120.5949
  1004.0000     12.2864     -3.7742     10.0721    119.9741
  1004.2500     12.0822     -2.3438      9.7717    119.8597
  1004.5000     11.8894     -1.0992      9.4755    120.0343
  1004.7500     11.7407     -0.0707      9.2067    119.8001
  1005.0000     11.6919      0.7213      8.9865    118.8243
  1005.2500     11.6949      1.2663      8.8310    116.2920
  1005.5000     11.7150      1.5638      8.7507    114.6247
  1005.7500     11.7729      1.6225      8.7497    113.2199
  1006.0000     11.8194      1.4597      8.8255    112.8911
  1006.2500     11.7887      1.0996      8.9690    112.0691
  1006.5000     11.6890      0.5723      9.1651    110.6762
  1006.7500     11.4675     -0.0876      9.3954    107.7291
  1007.0000     11.1485     -0.8431      9.6402    106.4480
  1007.2500     10.9133     -1.6567      9.8810    107.9811
  1007.5000     10.9367     -2.4921     10.1027    111.6161
  1007.7500     11.3905     -3.3172     10.2936    118.7694
  1008.0000     12.3026     -4.1056     10.4444    122.6541
  1008.2500     13.3093     -4.8387     10.5471    124.9080
  1008.5000     14.0509     -5.5066     10.5961    124.0657
  1008.7500     14.4978     -6.1086     10.5933    121.0885
  1009.0000     14.7414     -6.6521     10.5520    119.1520
  1009.2500     14.8644     -7.1508     10.4944    117.0589
  1009.5000     14.7817     -7.6230     10.4449    115.6302
  1009.7500     14.4140     -8.0881     10.4237    111.8927
  1010.0000     13.8421     -8.5643     10.4457    108.1477
  1010.2500     13.2920     -9.0663     10.5223    102.3637
  1010.5000     12.9982     -9.6032     10.6618     99.9493
  1010.7500     13.1267    -10.1778     10.8682     99.7715
  1011.0000     13.5807    -10.7868     11.1359    101.1644
  1011.2500     14.2050    -11.4209     11.4455    102.8391
  1011.5000     14.8296    -12.0668     11.7619    102.9415
  1011.7500     15.1321    -12.7087     12.0404    103.2220
  1012.0000     15.1134    -13.3299     12.2388    105.2449
  1012.2500     15.1171    -13.9149     12.3302    112.3462
  1012.5000     15.3167    -14.4499     12.3079    118.8563
  1012.7500     15.5613    -14.9248     12.1795    128.0618
  1013.0000     15.6539    -15.3326     11.9599    132.3403
  1013.2500     15.4883    -15.6699     11.6668    135.6532
  1013.5000     15.0534    -15.9368     11.3224    136.7131
  1013.7500     14.4506    -16.1363     10.9560    138.4452
  1014.0000     13.9523    -16.2741     10.6035    140.2780
  1014.2500     13.7010    -16.3576     10.3025    144.0916
  1014.5000     13.6073    -16.3959     10.0858    147.0742
  1014.7500     13.5564    -16.3985      9.9763    151.4866
  1015.0000     13.5322    -16.3756      9.9858    153.8166
  1015.2500     13.5861    -16.3367     10.1154    155.2896
  1015.5000     13.7185    -16.2907     10.3568    154.4431
  1015.7500     13.8790    -16.2452     10.6929    150.2865
  1016.0000     14.0817    -16.2064     11.1014    145.8689
  1016.2500     14.3286    -16.1785     11.5587    137.5330
  1016.5000     14.5596    -16.1644     12.0432    131.3539
  1016.7500     14.8342    -16.1646     12.5332    122.2608
  1017.0000     15.2294    -16.1781     12.9990    117.0536
  1017.2500     15.6966    -16.2021     13.3991    111.5027
  1017.5000     16.1015    -16.2322     13.6852    109.4044
  1017.7500     16.2921    -16.2628     13.8179    107.8616
  1018.0000     16.2587    -16.2865     13.7822    107.2505
  1018.2500     16.0492    -16.2952     13.5915    106.7015
  1018.5000     15.7956    -16.2795     13.2793    107.1601
  1018.7500     15.5220    -16.2293     12.8857    110.1874
  1019.0000     15.1587    -16.1344     12.4482    113.5831
  1019.2500     14.7797    -15.9853     11.9981    118.8051
  1019.5000     14.4350    -15.7745     11.5614    121.0290
  1019.7500     14.0913    -15.4973     11.1584    121.2655
  1020.0000     13.7475    -15.1531     10.8040    119.5601
  1020.2500     13.4379    -14.7462     10.5060    115.8436
  1020.5000     13.1952    -14.2855     10.2648    113.9192
  1020.7500     12.9595    -13.7835     10.0757    113.8256
  1021.0000     12.7260    -13.2550      9.9302    116.0766
  1021.2500     12.5551    -12.7152      9.8184    121.9120
  1021.5000     12.4479    -12.1768      9.7297    168.0241
  1021.7500     12.3419    -11.6491      9.6539    173.7825
  1022.0000     12.1500    -11.1366      9.5828    175.6913
  1022.2500     11.8805    -10.6396      9.5113    177.1360
  1022.5000     11.5700    -10.1550      9.4384    177.9066
  1022.7500     11.2642     -9.6786      9.3658    178.6559
  1023.0000     11.0331     -9.2075      9.2967    178.4551
  1023.2500     10.9383     -8.7423      9.2330    177.0435
  1023.5000     10.9882     -8.2884      9.1747    175.9361
  1023.7500     11.1107     -7.8563      9.1200    175.4720
  1024.0000     11.2210     -7.4604      9.0668    176.5403
  1024.2500     11.2643     -7.1160      9.0138    180.0013
  1024.5000     11.2403     -6.8365      8.9604    182.7395
  1024.7500     11.1992     -6.6296      8.9070    185.9547
  1025.0000     11.1972     -6.4952      8.8560    187.2392
  1025.2500     11.2332     -6.4243      8.8132    188.6947
  1025.5000     11.2620     -6.3996      8.7891    189.8095
  1025.7500     11.3267     -6.3982      8.7972    191.3413
  1026.0000     11.4415     -6.3949      8.8506    191.7359
  1026.2500     11.5251     -6.3657      8.9582    190.7648
  1026.5000     11.5675     -6.2915      9.1221    188.6947
  1026.7500     11.5536     -6.1602      9.3381    182.6512
  1027.0000     11.4207     -5.9672      9.5968    176.6980
  1027.2500     11.1356     -5.7155      9.8852    166.2713
  1027.5000     10.8735     -5.4139     10.1863    159.3755
  1027.7500     10.8254     -5.0753     10.4798    150.8802
  1028.0000     11.0498     -4.7142     10.7443    147.7576
  1028.2500     11.5869     -4.3457     10.9615    148.8566
  1028.5000     12.4082     -3.9834     11.1192    153.2622
  1028.7500     13.2629     -3.6390     11.2119    162.2884
  1029.0000     13.7983     -3.3216     11.2401    167.7368
  1029.2500     13.8624     -3.0375     11.2105    173.0224
  1029.5000     13.6304     -2.7904     11.1362    174.5862
  1029.7500     13.3252     -2.5812     11.0366    174.9390
  1030.0000     12.9952     -2.4087     10.9351    174.4971
  1030.2500     12.6746     -2.2699     10.8540    173.4728
  1030.5000     12.4260     -2.1608     10.8092    172.5031
  1030.7500     12.2574     -2.0766     10.8064    170.2728
  1031.0000     12.1634     -2.0124     10.8412    168.2828
  1031.2500     12.1786     -1.9643     10.9036    164.9349
  1031.5000     12.3143     -1.9285     10.9822    162.6158
  1031.7500     12.4898     -1.9028     11.0672    159.0800
  1032.0000     12.6899     -1.8853     11.1510    156.9050
  1032.2500     12.9195     -1.8750     11.2288    154.7050
  1032.5000     13.0677     -1.8712     11.2982    154.3150
