~Version Information
VERS.                      2.0: CWLS Log ASCII Standard - VERSION 2.0
WRAP.                       NO: One line per depth step
~Well Information Block
STRT.FT                -8.2500: 
STOP.FT               686.7500: 
STEP.FT                 0.2500: 
NULL.                -999.2500: 
COMP.          Pioneer Natural Resources: COMPANY
WELL.           Quintessa 23-7: WELL
FLD.           Purgatorie River: FIELD
LOC.           1964' FSL & 2589' FWL--: LOCATION
PROV.                       CO: PROVINCE
CNTY.               Las Animas: COUNTRY
SRVC.          Patterson Wireline: SERVICE COMPANY
DATE.          Wed Nov 23 10:31:07 2005: LOG DATE
UWI.           05 071 08558 00: UNIQUE WELL ID
~Curve Information Block
DEPT.FT            0 000 00 00: Depth
CCL.                          : Casing Collar Locator
TT3.usec                      : CBL 3' Travel Time
AMP3.mV                       : CBL 3' Amplitude
GR.GAPI                       : Gamma Ray
~Parameter Information Block
~A  Depth       CCL         TT3         AMP3         GR     
    -8.2500   -999.2500   -999.2500   -999.2500     91.9823
    -8.0000   -999.2500   -999.2500   -999.2500     89.5746
    -7.7500   -999.2500   -999.2500   -999.2500     88.3968
    -7.5000   -999.2500   -999.2500   -999.2500     89.3845
    -7.2500   -999.2500   -999.2500   -999.2500     92.2612
    -7.0000   -999.2500   -999.2500   -999.2500     95.6865
    -6.7500   -999.2500   -999.2500   -999.2500     98.0471
    -6.5000   -999.2500   -999.2500   -999.2500     98.2492
    -6.2500   -999.2500   -999.2500   -999.2500     96.2632
    -6.0000   -999.2500   -999.2500   -999.2500     93.3281
    -5.7500   -999.2500   -999.2500   -999.2500     91.3334
    -5.5000   -999.2500   -999.2500   -999.2500     91.5917
    -5.2500   -999.2500   -999.2500   -999.2500     94.0979
    -5.0000   -999.2500   -999.2500   -999.2500     97.7662
    -4.7500   -999.2500   -999.2500   -999.2500    101.1891
    -4.5000   -999.2500   -999.2500   -999.2500    103.3488
    -4.2500   -999.2500   -999.2500   -999.2500    103.7721
    -4.0000   -999.2500   -999.2500   -999.2500    102.2178
    -3.7500   -999.2500   -999.2500   -999.2500     98.8300
    -3.5000   -999.2500   1158.0000     -0.4160     94.8050
    -3.2500   -999.2500   1158.0000     -0.4169     92.1519
    -3.0000   -999.2500   1158.0000     -0.4175     92.1845
    -2.7500   -999.2500   1158.0000     -0.4162     94.3117
    -2.5000   -999.2500   1158.0000     -0.4109     96.2865
    -2.2500   -999.2500   1158.0000     -0.4016     95.5426
    -2.0000   -999.2500   1158.0000     -0.3913     90.7629
    -1.7500   -999.2500   1158.0000     -0.3825     82.7698
    -1.5000   -999.2500   1158.0000     -0.3746     73.9113
    -1.2500   -999.2500   1158.0000     -0.3659     66.3347
    -1.0000   -999.2500   1158.0000     -0.3575     60.8098
    -0.7500   -999.2500   1158.0000     -0.3532     56.9251
    -0.5000   -999.2500   1158.0000     -0.3562     53.7981
    -0.2500   -999.2500   1158.0000     -0.3656     50.6088
     0.0000   -999.2500   1158.0000     -0.3854     44.8676
     0.2500   -999.2500   1158.0000     -0.3865     45.0078
     0.5000   -999.2500   1158.0000     -0.3809     47.8667
     0.7500   -999.2500   1158.0000     -0.3717     51.3927
     1.0000   -999.2500   1158.0000     -0.3622     52.8153
     1.2500   -999.2500   1158.0000     -0.3543     51.1114
     1.5000   -999.2500   1158.0000     -0.3490     47.7519
     1.7500      0.0000   1158.0000     -0.3479     45.0577
     2.0000      0.0000   1158.0000     -0.3518     44.2473
     2.2500      0.0000   1158.0000     -0.3588     45.2300
     2.5000      0.0000   1158.0000     -0.3648     47.7082
     2.7500      0.0000   1158.0000     -0.3661     51.6804
     3.0000      0.0000   1158.0000     -0.3616     56.8545
     3.2500      0.0000   1158.0000     -0.3529     62.2613
     3.5000      0.0000   1157.9414     -0.3384     66.8939
     3.7500      0.0000   1157.5590     -0.3004     70.4127
     4.0000      0.0000   1155.6171     -0.1541     72.8943
     4.2500      0.0000   1147.9370      0.3872     74.1693
     4.5000      0.0000   1124.2826      2.0430     73.8661
     4.7500      0.0000   1067.5438      6.1050     72.0962
     5.0000      0.0000    961.5533     14.0539     69.7039
     5.2500      0.0000    807.3590     26.4448     67.7272
     5.5000      0.0000    632.6619     41.8196     66.7976
     5.7500      0.0000    478.5205     56.9997     67.0052
     6.0000      0.0000    372.6010     68.9308     68.0313
     6.2500      0.0000    315.9162     76.4165     69.4640
     6.5000      0.0000    292.2885     80.2030     71.3661
     6.7500      0.0000    284.6178     81.7955     74.4495
     7.0000      0.0000    282.6810     82.4040     79.3108
     7.2500      0.0000    282.3085     82.6629     85.5391
     7.5000      0.0000    282.2679     82.8165     91.9454
     7.7500      0.0000    282.2927     82.9350     97.6292
     8.0000      0.0000    282.3196     83.0291    102.5590
     8.2500      0.0000    282.3430     83.0970    107.1546
     8.5000      0.0000    282.3587     83.1425    111.4912
     8.7500      0.0000    282.3650     83.1749    114.8764
     9.0000      0.0000    282.3644     83.2027    116.2181
     9.2500      0.0000    282.3618     83.2338    114.9918
     9.5000      0.0000    282.3604     83.2799    111.8406
     9.7500      0.0000    282.3589     83.3514    108.1496
    10.0000      0.0000    282.3540     83.4461    105.2171
    10.2500      0.0000    282.3445     83.5443    103.8925
    10.5000      0.0000    282.3326     83.6211    104.5126
    10.7500      0.0000    282.3220     83.6654    106.7205
    11.0000      0.0000    282.3148     83.6826    109.4251
    11.2500      0.0000    282.3117     83.6832    111.2850
    11.5000      0.0000    282.3122     83.6759    111.5899
    11.7500      0.0000    282.3155     83.6714    110.7723
    12.0000      0.0000    282.3195     83.6814    109.8140
    12.2500      0.0000    282.3219     83.7082    109.0592
    12.5000      0.0000    282.3209     83.7404    107.9090
    12.7500      0.0000    282.3169     83.7649    105.8861
    13.0000      0.0000    282.3107     83.7800    103.6868
    13.2500      0.0000    282.3029     83.7951    102.9105
    13.5000      0.0000    282.2947     83.8186    104.7573
    13.7500      0.0000    282.2881     83.8514    108.9757
    14.0000      0.0000    282.2849     83.8887    113.9097
    14.2500      0.0000    282.2849     83.9235    117.5482
    14.5000      0.0000    282.2854     83.9485    118.7933
    14.7500      0.0000    282.2850     83.9584    118.0738
    15.0000      0.0000    282.2847     83.9556    116.8288
    15.2500      0.0000    282.2873     83.9523    116.2479
    15.5000      0.0000    282.2947     83.9630    116.4269
    15.7500      0.0000    282.3077     83.9933    116.6908
    16.0000      0.0000    282.3251     84.0351    116.4854
    16.2500      0.0000    282.3433     84.0707    115.6121
    16.5000      0.0000    282.3563     84.0834    113.8645
    16.7500      0.0000    282.3592     84.0697    111.2319
    17.0000      0.0000    282.3520     84.0402    108.4880
    17.2500      0.0000    282.3397     84.0086    106.7323
    17.5000      0.0000    282.3291     83.9816    106.0665
    17.7500      0.0000    282.3247     83.9652    105.3934
    18.0000      0.0000    282.3269     83.9722    103.7897
    18.2500      0.0000    282.3329     84.0121    101.5209
    18.5000      0.0000    282.3388     84.0766     99.4765
    18.7500      0.0000    282.3420     84.1410     98.2056
    19.0000      0.0000    282.3422     84.1823     97.8497
    19.2500      0.0000    282.3404     84.1941     98.3798
    19.5000      0.0000    282.3375     84.1862     99.3130
    19.7500      0.0000    282.3339     84.1742     99.6792
    20.0000      0.0000    282.3302     84.1700     98.9089
    20.2500      0.0000    282.3275     84.1774     97.4181
    20.5000      0.0000    282.3261     84.1937     95.9147
    20.7500      0.0000    282.3250     84.2165     94.4457
    21.0000      0.0000    282.3223     84.2468     92.4795
    21.2500      0.0000    282.3162     84.2854     89.6755
    21.5000      0.0000    282.3060     84.3282     86.1510
    21.7500      0.0000    282.2919     84.3671     82.0564
    22.0000      0.0000    282.2757     84.3958     77.2297
    22.2500      0.0000    282.2606     84.4130     71.4260
    22.5000      0.0000    282.2500     84.4190     64.9472
    22.7500      0.0000    282.2454     84.4136     59.0118
    23.0000      0.0000    282.2457     84.3985     55.2695
    23.2500      0.0000    282.2482     84.3802     54.7370
    23.5000      0.0000    282.2508     84.3663     57.1504
    23.7500      0.0000    282.2527     84.3593     61.2129
    24.0000      0.0000    282.2536     84.3573     65.1564
    24.2500      0.0000    282.2527     84.3584     67.2307
    24.5000      0.0000    282.2499     84.3606     66.5492
    24.7500      0.0000    282.2455     84.3608     64.0592
    25.0000      0.0000    282.2398     84.3574     62.2435
