~Version Information
VERS.                      2.0: CWLS Log ASCII Standard - VERSION 2.0
WRAP.                       NO: One line per depth step
~Well Information Block
STRT.FT               840.0000: 
STOP.FT              1913.5000: 
STEP.FT                 0.2500: 
NULL.                -999.2500: 
COMP.          Petrogulf Corporation: COMPANY
WELL.             Kraft 17-23R: WELL
FLD.           Purgatorie River: FIELD
LOC.           1509' FSL & 1673' FWL: LOCATION
PROV.                 Colorado: PROVINCE
CNTY.               Las Animas: COUNTRY
SRVC.                Patterson: SERVICE COMPANY
DATE.          Tue Oct 11 13:03:25 2005: LOG DATE
UWI.                          : UNIQUE WELL ID
~Curve Information Block
DEPT.FT            0 000 00 00: Depth
SP.mV                         : DIL Spontaneous Potential
RILD.Ohm-m                    : DIL Deep Resistivity
RILM.Ohm-m                    : DIL Medium Resistivity
RLL3.Ohm-m                    : DIL Shallow Resistivity
GR.GAPI                       : Gamma Ray
~Parameter Information Block
~A  Depth        SP         RILD        RILM        RLL3         GR     
# ...
  1820.0000    200.4514     15.0896     15.6141     18.8863     76.9961
  1820.2500    202.2091     14.8287     14.7202     14.9097     88.2470
  1820.5000    203.5526     14.6558     14.0134     12.2919    109.3134
  1820.7500    204.4541     14.5552     13.5052     11.0308    123.5927
  1821.0000    204.9691     14.5023     13.1932     10.8444    140.0437
  1821.2500    205.1961     14.4708     13.0667     11.5274    145.8736
  1821.5000    205.2356     14.4451     13.1104     13.0194    147.5829
  1821.7500    205.1709     14.4272     13.3061     15.2349    145.6849
  1822.0000    205.0677     14.4366     13.6339     17.8797    140.2975
  1822.2500    204.9734     14.5018     14.0725     20.4747    135.2752
  1822.5000    204.9127     14.6507     14.6005     22.6023    126.0374
  1822.7500    204.8876     14.9041     15.1974     24.1347    119.6414
  1823.0000    204.8883     15.2731     15.8453     25.2111    111.6104
  1823.2500    204.9047     15.7591     16.5297     26.0322    107.8784
  1823.5000    204.9295     16.3521     17.2382     26.7057    104.3570
  1823.7500    204.9502     17.0282     17.9592     27.2147    102.7591
  1824.0000    204.9387     17.7474     18.6790     27.4319    100.6889
  1824.2500    204.8442     18.4566     19.3800     27.1965     99.4955
  1824.5000    204.5943     19.0984     20.0400     26.4861     98.1073
  1824.7500    204.1070     19.6246     20.6338     25.5239     97.1176
  1825.0000    203.3118     20.0072     21.1359     24.6421     94.4895
  1825.2500    202.1718     20.2401     21.5243     24.0367     91.7800
  1825.5000    200.6968     20.3341     21.7850     23.6913     87.0991
  1825.7500    198.9457     20.3096     21.9145     23.4960     84.1211
  1826.0000    197.0193     20.1917     21.9214     23.3581     79.9950
  1826.2500    195.0417     20.0082     21.8248     23.2047     77.1662
  1826.5000    193.1311     19.7896     21.6514     22.9543     72.1574
  1826.7500    191.3776     19.5680     21.4313     22.5355     68.0169
  1827.0000    189.8358     19.3739     21.1942     21.9440     60.6955
  1827.2500    188.5321     19.2291     20.9660     21.2880     55.6230
  1827.5000    187.4728     19.1422     20.7670     20.7632     49.0022
  1827.7500    186.6472     19.1091     20.6117     20.5311     45.7578
  1828.0000    186.0301     19.1208     20.5091     20.5853     42.8956
  1828.2500    185.5836     19.1706     20.4643     20.7542     42.1455
  1828.5000    185.2594     19.2570     20.4796     20.8685     41.9100
  1828.7500    185.0008     19.3818     20.5554     20.9337     41.7258
  1829.0000    184.7484     19.5465     20.6910     21.1321     40.8588
  1829.2500    184.4531     19.7505     20.8836     21.6504     40.0185
  1829.5000    184.0920     19.9920     21.1280     22.4892     38.8542
  1829.7500    183.6752     20.2696     21.4162     23.4206     38.2813
  1830.0000    183.2359     20.5820     21.7385     24.1387     37.8390
  1830.2500    182.8117     20.9273     22.0853     24.4784     38.0727
  1830.5000    182.4295     21.2998     22.4503     24.5111     39.8731
  1830.7500    182.1017     21.6872     22.8319     24.4435     42.1562
  1831.0000    181.8295     22.0703     23.2339     24.4517     46.5272
  1831.2500    181.6064     22.4259     23.6630     24.6140     49.4884
  1831.5000    181.4235     22.7357     24.1252     24.9554     53.4929
  1831.7500    181.2782     22.9938     24.6230     25.4877     55.8230
  1832.0000    181.1788     23.2105     25.1538     26.1741     58.5465
  1832.2500    181.1424     23.4051     25.7110     26.8984     59.5796
  1832.5000    181.1859     23.5965     26.2864     27.5504     59.8143
  1832.7500    181.3184     23.7933     26.8736     28.1665     59.2517
  1833.0000    181.5394     23.9875     27.4673     28.9365     57.6325
  1833.2500    181.8445     24.1538     28.0609     30.0402     56.1528
  1833.5000    182.2372     24.2520     28.6379     31.4905     53.4919
  1833.7500    182.7381     24.2331     29.1625     33.1400     51.3837
  1834.0000    183.3849     24.0463     29.5705     34.8016     47.2642
  1834.2500    184.2261     23.6481     29.7673     36.3522     43.6422
  1834.5000    185.3111     23.0141     29.6378     37.7702     37.2286
  1834.7500    186.6835     22.1510     29.0746     39.1314     32.9254
  1835.0000    188.3750     21.1032     28.0166     40.5150     27.6042
  1835.2500    190.3964     19.9463     26.4846     41.7458     25.3429
  1835.5000    192.7266     18.7684     24.5888     42.1313     24.6907
  1835.7500    195.3064     17.6484     22.5000     40.6053     26.5359
  1836.0000    198.0366     16.6401     20.3998     36.4532     33.1538
  1836.2500    200.7778     15.7683     18.4357     30.0915     40.1419
  1836.5000    203.3596     15.0344     16.7015     23.0617     54.5064
  1836.7500    205.6102     14.4251     15.2387     17.1017     66.6949
  1837.0000    207.4012     13.9218     14.0510     13.1508     88.0462
  1837.2500    208.6817     13.5060     13.1204     11.1261    102.8655
  1837.5000    209.4788     13.1636     12.4196     10.4048    122.3809
  1837.7500    209.8659     12.8864     11.9203     10.3742    131.8130
  1838.0000    209.9275     12.6720     11.5973     10.6602    139.6726
  1838.2500    209.7393     12.5236     11.4311     11.1069    141.4350
  1838.5000    209.3660     12.4485     11.4079     11.7063    140.7302
  1838.7500    208.8649     12.4556     11.5194     12.5600    138.7142
  1839.0000    208.2887     12.5543     11.7614     13.8430    133.9005
  1839.2500    207.6873     12.7516     12.1321     15.7220    129.9076
  1839.5000    207.1071     13.0513     12.6302     18.2210    123.6940
  1839.7500    206.5873     13.4533     13.2523     21.1104    119.7565
  1840.0000    206.1507     13.9532     13.9904     23.9455    114.2094
  1840.2500    205.7978     14.5427     14.8297     26.2726    110.6909
  1840.5000    205.5082     15.2090     15.7475     27.8326    105.8077
  1840.7500    205.2492     15.9364     16.7129     28.5889    103.0054
  1841.0000    204.9816     16.7065     17.6891     28.6178     99.6612
  1841.2500    204.6572     17.4995     18.6381     28.0236     97.8021
  1841.5000    204.2151     18.2938     19.5260     26.9387     94.6751
  1841.7500    203.5849     19.0650     20.3284     25.5571     91.8698
  1842.0000    202.7036     19.7861     21.0327     24.1318     86.5488
  1842.2500    201.5391     20.4295     21.6384     22.9201     82.6907
  1842.5000    200.1101     20.9683     22.1527     22.1202     77.0779
  1842.7500    198.4886     21.3783     22.5855     21.8553     73.4914
  1843.0000    196.7763     21.6429     22.9430     22.2000     68.2583
  1843.2500    195.0694     21.7596     23.2242     23.1870     64.9781
  1843.5000    193.4351     21.7442     23.4188     24.7368     60.6736
  1843.7500    191.9109     21.6284     23.5101     26.5542     58.1919
  1844.0000    190.5185     21.4517     23.4819     28.1282     54.4956
  1844.2500    189.2715     21.2533     23.3256     28.9146     51.6992
  1844.5000    188.1754     21.0668     23.0482     28.5991     47.2851
  1844.7500    187.2248     20.9165     22.6735     27.2407     45.0173
  1845.0000    186.4067     20.8147     22.2388     25.2052     44.1951
  1845.2500    185.7060     20.7597     21.7873     22.9758     45.6957
  1845.5000    185.1062     20.7369     21.3590     20.9874     50.3345
  1845.7500    184.5849     20.7265     20.9857     19.5453     54.3229
  1846.0000    184.1067     20.7131     20.6878     18.7931     60.8720
  1846.2500    183.6232     20.6942     20.4757     18.7053     65.4086
  1846.5000    183.0811     20.6811     20.3516     19.1343     71.5258
  1846.7500    182.4363     20.6916     20.3135     19.8956     73.8805
  1847.0000    181.6673     20.7409     20.3576     20.8107     72.5214
  1847.2500    180.7818     20.8361     20.4805     21.7023     68.1102
  1847.5000    179.8151     20.9759     20.6805     22.4352     58.5974
  1847.7500    178.8168     21.1561     20.9581     23.0065     52.5161
