~Version Information
VERS.                      2.0: CWLS Log ASCII Standard - VERSION 2.0
WRAP.                       NO: One line per depth step
~Well Information Block
STRT.FT               650.0000: 
STOP.FT              2127.7000: 
STEP.FT                 0.1000: 
NULL.                -999.2500: 
COMP.          Pioneer Natural Resources: COMPANY
WELL.          Kennington 41-26: WELL
FLD.           Purgatoire River: FIELD
LOC.           940' FNL & 1008' FEL--: LOCATION
CNTY.               Las Animas: COUNTY
SRVC.                Patterson: SERVICE COMPANY
DATE.          Wed Mar 29 11:30:50 2006: LOG DATE
UWI.           05 071 08679 00: UNIQUE WELL ID
STAT.                 Colorado: STATE
~Curve Information Block
DEPT.FT            0 000 00 00: Depth
DCAL.in                       : CDL Caliper
RHOB.g/cc                     : CDL Bulk Density
RHOC.g/cc                     : CDL Density Correction
DPOR.pu                       : CDL Density Porosity
NPOR.pu                       : Neutron Porosity
GR.GAPI                       : Gamma Ray
~Parameter Information Block
~A  Depth       DCAL        RHOB        RHOC        DPOR        NPOR         GR     
# ...
  2003.6000      7.7636      2.4811      0.0594     10.2378     18.3689     93.7817
  2003.7000      7.7636      2.5019      0.0966      8.9757     18.2317     95.8283
  2003.8000      7.7666      2.5050      0.1050      8.7880     18.0641     98.6480
  2003.9000      7.7666      2.4834      0.0453     10.0961     18.0933     98.3270
  2004.0000      7.7693      2.4624      0.0654     11.3716     18.2093     91.4596
  2004.1000      7.7693      2.4555      0.0719     11.7888     18.2393     82.3056
  2004.2000      7.7693      2.4480      0.0692     12.2445     18.1738     77.2183
  2004.3000      7.7699      2.4276      0.0606     13.4818     18.1645     77.7054
  2004.4000      7.7699      2.4078     -0.0240     14.6815     18.3665     81.0585
  2004.5000      7.7692      2.4009      0.0419     15.0992     18.7081     85.6512
  2004.6000      7.7692      2.3995     -0.0057     15.1832     18.9604     88.0655
  2004.7000      7.7692      2.4038     -0.0013     14.9236     19.0554     85.3595
  2004.8000      7.7693      2.4196      0.0486     13.9660     19.1028     81.9131
  2004.9000      7.7693      2.4368      0.0858     12.9195     19.0532     80.6131
  2005.0000      7.7696      2.4426      0.0763     12.5686     18.9107     79.5615
  2005.1000      7.7696      2.4386      0.0808     12.8107     18.6197     77.4297
  2005.2000      7.7696      2.4335      0.0533     13.1229     18.2207     74.0437
  2005.3000      7.7682      2.4325      0.0302     13.1843     17.9847     75.5240
  2005.4000      7.7682      2.4329      0.0698     13.1590     17.7136     84.8805
  2005.5000      7.7673      2.4316      0.0376     13.2388     17.1512     90.0759
  2005.6000      7.7673      2.4399      0.0271     12.7317     16.7208     84.9431
  2005.7000      7.7673      2.4684      0.0388     11.0064     16.7139     80.4008
  2005.8000      7.7689      2.5062      0.1245      8.7167     16.8780     80.6771
  2005.9000      7.7689      2.5337      0.1036      7.0504     17.3823     80.9444
  2006.0000      7.7696      2.5460      0.1121      6.3011     18.3268     82.0954
  2006.1000      7.7696      2.5515      0.1034      5.9677     18.9721     86.0011
  2006.2000      7.7696      2.5602      0.0857      5.4445     18.8215     88.5581
  2006.3000      7.7680      2.5770      0.1108      4.4224     18.1411     87.1770
  2006.4000      7.7680      2.5973      0.1134      3.1953     17.6322     86.3481
  2006.5000      7.7667      2.6034      0.1191      2.8214     17.7033     91.3849
  2006.6000      7.7667      2.5844      0.0718      3.9741     18.0536    100.7139
  2006.7000      7.7667      2.5517      0.0478      5.9553     18.3669    110.2096
  2006.8000      7.7674      2.5200      0.0333      7.8760     18.5690    115.0486
  2006.9000      7.7674      2.4944      0.0223      9.4313     18.5850    110.0078
  2007.0000      7.7675      2.4777      0.0299     10.4421     18.4907     97.9615
  2007.1000      7.7675      2.4766      0.0333     10.5112     18.5151     89.8701
  2007.2000      7.7675      2.4908      0.0641      9.6504     18.5743     91.3550
  2007.3000      7.7680      2.5075      0.0783      8.6391     18.3919     92.4458
  2007.4000      7.7680      2.5172      0.0855      8.0458     18.1920     84.9701
  2007.5000      7.7684      2.5241      0.0613      7.6310     18.3295     76.1480
  2007.6000      7.7684      2.5310      0.1167      7.2102     18.7151     71.9156
  2007.7000      7.7684      2.5271      0.0844      7.4488     18.9000     72.7940
  2007.8000      7.7675      2.5069      0.0615      8.6699     18.6975     79.9516
  2007.9000      7.7675      2.4900     -0.0191      9.6999     18.3869     90.0387
  2008.0000      7.7665      2.4967      0.0468      9.2910     18.1915     96.3940
  2008.1000      7.7665      2.5178      0.0588      8.0105     18.1787     99.4795
  2008.2000      7.7665      2.5290      0.0705      7.3347     18.4812    105.0547
  2008.3000      7.7674      2.5198      0.0437      7.8884     19.0432    111.6634
  2008.4000      7.7674      2.5066      0.0182      8.6910     19.3998    113.9740
  2008.5000      7.7693      2.5021      0.0919      8.9643     19.5022    111.7813
  2008.6000      7.7693      2.4967      0.0345      9.2916     19.7743    110.6119
  2008.7000      7.7693      2.4908      0.0342      9.6503     20.2552    112.2445
  2008.8000      7.7701      2.4883      0.0263      9.8017     20.5788    114.2258
  2008.9000      7.7701      2.4826      0.0197     10.1483     20.4712    118.5784
  2009.0000      7.7700      2.4787     -0.0181     10.3790     20.2214    122.1473
  2009.1000      7.7700      2.4831      0.0501     10.1180     20.1152    116.7254
  2009.2000      7.7700      2.4822      0.0559     10.1708     19.8862    106.4978
  2009.3000      7.7723      2.4683      0.0299     11.0114     19.3806     97.2070
  2009.4000      7.7723      2.4468      0.0732     12.3171     18.8182     86.3980
  2009.5000      7.7769      2.4261      0.0131     13.5706     18.3568     77.3793
  2009.6000      7.7769      2.4133      0.0472     14.3430     18.2724     76.3123
  2009.7000      7.7769      2.4013      0.0251     15.0715     18.7895     80.1265
  2009.8000      7.7798      2.3888      0.0227     15.8297     19.5892     82.1390
  2009.9000      7.7798      2.3874      0.0151     15.9147     20.0641     80.5956
  2010.0000      7.7811      2.3930      0.0520     15.5731     19.8307     75.4646
  2010.1000      7.7811      2.3919      0.0346     15.6436     19.3748     71.0189
  2010.2000      7.7811      2.3873      0.0267     15.9220     19.3264     71.0583
  2010.3000      7.7817      2.3842      0.0628     16.1064     19.4463     71.7821
  2010.4000      7.7817      2.3762      0.0344     16.5915     19.4677     70.2305
  2010.5000      7.7821      2.3646      0.0300     17.2989     19.4756     70.4329
  2010.6000      7.7821      2.3617      0.0045     17.4732     19.4513     77.0567
  2010.7000      7.7821      2.3757      0.0313     16.6213     19.4100     84.0240
  2010.8000      7.7790      2.3990      0.0573     15.2133     19.4980     82.3327
  2010.9000      7.7790      2.4230      0.0442     13.7557     19.8127     76.6892
  2011.0000      7.7716      2.4515      0.0711     12.0304     20.2952     74.0686
  2011.1000      7.7716      2.4868      0.0907      9.8905     20.5836     75.3521
  2011.2000      7.7716      2.5199      0.1152      7.8875     20.6450     80.1532
  2011.3000      7.7652      2.5407      0.1356      6.6217     20.9420     85.9260
  2011.4000      7.7652      2.5519      0.1024      5.9432     21.3658     89.2519
  2011.5000      7.7589      2.5499      0.1401      6.0681     21.4561     91.6157
  2011.6000      7.7589      2.5267      0.0800      7.4704     21.3144     99.8422
  2011.7000      7.7589      2.4987      0.0018      9.1697     21.3349    114.0065
  2011.8000      7.7505      2.4773      0.0264     10.4638     21.5169    125.1683
  2011.9000      7.7505      2.4553      0.0033     11.7976     21.4870    126.7942
  2012.0000      7.7449      2.4368     -0.0051     12.9231     20.9978    121.2090
  2012.1000      7.7449      2.4319     -0.0065     13.2186     20.2072    110.6199
  2012.2000      7.7449      2.4407      0.0459     12.6860     19.5697     95.8866
  2012.3000      7.7490      2.4595      0.0540     11.5451     19.3342     83.8636
  2012.4000      7.7490      2.4869      0.0597      9.8842     19.3103     79.3766
  2012.5000      7.7568      2.5071      0.1350      8.6597     19.2664     79.6224
  2012.6000      7.7568      2.5021      0.1165      8.9666     19.2044     81.5967
  2012.7000      7.7568      2.4849      0.0766     10.0054     19.0789     84.9314
  2012.8000      7.7530      2.4797      0.0905     10.3204     18.7816     89.2203
  2012.9000      7.7530      2.4877      0.0782      9.8372     18.3004     95.7979
  2013.0000      7.7413      2.4919      0.1024      9.5822     17.7645    103.0224
  2013.1000      7.7413      2.4834      0.1047     10.0975     17.4143    107.1125
