~Version Information
VERS.                      2.0: CWLS Log ASCII Standard - VERSION 2.0
WRAP.                       NO: One line per depth step
~Well Information Block
STRT.FT               970.0000: 
STOP.FT              1881.0000: 
STEP.FT                 0.1000: 
NULL.                -999.2500: 
COMP.          Petrogulf Corporation: COMPANY
WELL.             Norton 9-14R: WELL
FLD.           Purgatorie River: FIELD
LOC.           725' FSL & 1103' FWL: LOCATION
PROV.                 Colorado: PROVINCE
CNTY.               Las Animas: COUNTRY
SRVC.                Patterson: SERVICE COMPANY
DATE.          Fri Oct 07 07:52:23 2005: LOG DATE
UWI.                          : UNIQUE WELL ID
~Curve Information Block
DEPT.FT            0 000 00 00: Depth
DCAL.in                       : CDL Caliper
RHOB.g/cc                     : CDL Bulk Density
RHOC.g/cc                     : CDL Density Correction
DPOR.pu                       : CDL Density Porosity
GR.GAPI                       : Gamma Ray
NPOR.pu                       : Neutron Porosity
~Parameter Information Block
~A  Depth       DCAL        RHOB        RHOC        DPOR         GR         NPOR    
# ...
  1565.2000      7.9146      2.6092      0.0832      2.4705    110.3169     21.4210
  1565.3000      7.9053      2.6214      0.0707      1.7346    108.3125     21.8057
  1565.4000      7.9053      2.6081      0.0921      2.5379    104.6403     22.2561
  1565.5000      7.8790      2.5861      0.0386      3.8710    103.4202     22.3929
  1565.6000      7.8790      2.5724      0.0798      4.7018    107.2555     22.3225
  1565.7000      7.8790      2.5636      0.0454      5.2360    114.2147     22.1925
  1565.8000      7.8623      2.5577      0.0028      5.5909    119.1583     22.1830
  1565.9000      7.8623      2.5603      0.0226      5.4341    118.4188     22.2751
  1566.0000      7.9131      2.5697      0.0475      4.8692    114.7429     22.2689
  1566.1000      7.9131      2.5799      0.0515      4.2469    112.4493     21.9756
  1566.2000      7.9131      2.5873      0.0544      3.8012    111.7742     21.5386
  1566.3000      7.9260      2.5875      0.0670      3.7901    110.8622     21.4120
  1566.4000      7.9260      2.5822      0.0506      4.1079    109.8677     21.6171
  1566.5000      7.9217      2.5815      0.0372      4.1539    109.5530     21.9038
  1566.6000      7.9217      2.5871      0.0429      3.8129    108.3504     22.1265
  1566.7000      7.9217      2.5891      0.0666      3.6895    105.5006     22.1141
  1566.8000      7.9049      2.5796      0.0165      4.2644    101.8983     21.8884
  1566.9000      7.9049      2.5622      0.0525      5.3220     99.1536     21.6153
  1567.0000      7.8983      2.5538      0.0088      5.8294    100.9869     21.4011
  1567.1000      7.8983      2.5671      0.0628      5.0252    107.7844     21.4454
  1567.2000      7.8983      2.5860      0.0746      3.8763    115.2871     21.8709
  1567.3000      7.9113      2.5931      0.0325      3.4484    119.3939     22.4705
  1567.4000      7.9113      2.5947      0.0388      3.3489    120.1799     22.8509
  1567.5000      7.9247      2.5993      0.0716      3.0710    122.0028     22.8663
  1567.6000      7.9247      2.6059      0.0652      2.6729    124.5567     22.7511
  1567.7000      7.9247      2.6159      0.0864      2.0641    125.2516     22.7372
  1567.8000      7.9338      2.6245      0.1160      1.5453    126.1907     22.8539
  1567.9000      7.9338      2.6170      0.1202      2.0018    128.3993     23.0507
  1568.0000      7.9165      2.5974      0.0489      3.1857    129.4303     23.3107
  1568.1000      7.9165      2.5864      0.0332      3.8518    127.8792     23.5038
  1568.2000      7.9165      2.5873      0.0911      3.8009    124.8715     23.4369
  1568.3000      7.9211      2.5881      0.0619      3.7509    121.9940     23.2157
  1568.4000      7.9211      2.5850      0.0564      3.9399    120.5158     23.1728
  1568.5000      7.9219      2.5759      0.0819      4.4895    120.7923     23.5226
  1568.6000      7.9219      2.5547      0.0499      5.7777    122.9222     24.0356
  1568.7000      7.9219      2.5249      0.0202      7.5839    126.1370     24.2240
  1568.8000      7.9200      2.4977      0.0160      9.2289    128.9643     23.9789
  1568.9000      7.9200      2.4761      0.0177     10.5395    132.2038     23.5481
  1569.0000      7.9036      2.4580      0.0152     11.6385    135.6968     23.1546
  1569.1000      7.9036      2.4490      0.0116     12.1847    135.4037     22.9007
  1569.2000      7.9036      2.4573      0.0174     11.6809    131.5604     22.7678
  1569.3000      7.8269      2.4831      0.0396     10.1165    129.4150     22.7150
  1569.4000      7.8269      2.5242      0.0711      7.6221    129.9022     22.7965
  1569.5000      7.8063      2.5765      0.0563      4.4556    128.6918     22.9437
  1569.6000      7.8063      2.6193      0.1589      1.8593    124.5648     22.9627
  1569.7000      7.8063      2.6274      0.1798      1.3721    120.4845     22.8826
  1569.8000      7.8030      2.6094      0.1221      2.4613    117.0644     22.8573
  1569.9000      7.8030      2.5961      0.0933      3.2649    113.4314     22.8451
  1570.0000      7.8007      2.5918      0.0881      3.5255    111.1346     22.8928
  1570.1000      7.8007      2.5780      0.0416      4.3615    111.3936     23.2367
  1570.2000      7.8007      2.5505      0.0375      6.0303    111.8299     23.8371
  1570.3000      7.8383      2.5211      0.0073      7.8143    110.4776     24.4340
  1570.4000      7.8383      2.5024      0.0419      8.9447    109.4934     24.7720
  1570.5000      7.9036      2.5040     -0.0326      8.8477    110.7510     24.6055
  1570.6000      7.9036      2.5244      0.0704      7.6138    111.0166     24.1748
  1570.7000      7.9036      2.5411      0.0965      6.6030    106.3003     23.9915
  1570.8000      7.9038      2.5361      0.0575      6.9052     97.9039     23.9887
  1570.9000      7.9038      2.5198      0.0076      7.8919     90.2492     23.6835
  1571.0000      7.8914      2.5108     -0.0032      8.4385     85.8041     23.0029
  1571.1000      7.8914      2.5114      0.0117      8.3982     83.2697     22.2697
  1571.2000      7.8914      2.5170      0.0055      8.0599     80.0057     21.6526
  1571.3000      7.9076      2.5229      0.0339      7.7051     77.2140     21.3614
  1571.4000      7.9076      2.5245     -0.0103      7.6071     77.5469     21.6849
  1571.5000      7.8864      2.5234      0.0067      7.6701     79.7697     22.4029
  1571.6000      7.8864      2.5187      0.0066      7.9595     81.3234     23.0182
  1571.7000      7.8864      2.5081      0.0167      8.6009     82.3037     23.3798
  1571.8000      7.9042      2.4981      0.0220      9.2064     84.9795     23.4351
  1571.9000      7.9042      2.5019      0.0025      8.9728     88.8053     22.9935
  1572.0000      7.9119      2.5254      0.0406      7.5512     88.7247     22.0740
  1572.1000      7.9119      2.5510      0.0688      6.0026     84.7355     21.0505
  1572.2000      7.9119      2.5562      0.0746      5.6827     81.7654     20.1516
  1572.3000      7.9106      2.5442      0.0277      6.4113     80.7709     19.4450
  1572.4000      7.9106      2.5327      0.0514      7.1109     80.6407     19.1796
  1572.5000      7.9046      2.5268      0.0308      7.4678     81.8031     19.4006
  1572.6000      7.9046      2.5243      0.0508      7.6193     83.3962     19.9968
  1572.7000      7.9046      2.5226      0.0801      7.7216     83.8987     20.7615
  1572.8000      7.8539      2.5142      0.0967      8.2305     83.1981     21.4770
  1572.9000      7.8539      2.4963      0.0599      9.3131     81.9555     21.8657
  1573.0000      7.8359      2.4810      0.0380     10.2424     80.8229     21.8123
  1573.1000      7.8359      2.4792      0.0742     10.3501     80.7177     21.6228
  1573.2000      7.8359      2.4836      0.1154     10.0832     81.0789     21.3177
  1573.3000      7.8252      2.4888      0.0922      9.7701     80.2281     20.7310
  1573.4000      7.8252      2.5043      0.0742      8.8316     79.2789     20.0010
  1573.5000      7.8647      2.5273      0.0842      7.4352     80.0685     19.4842
  1573.6000      7.8647      2.5399      0.1118      6.6721     81.5490     19.7031
  1573.7000      7.8647      2.5389      0.1028      6.7310     83.7910     20.8771
  1573.8000      7.9023      2.5330      0.1078      7.0929     88.6172     22.5512
  1573.9000      7.9023      2.5212      0.1234      7.8079     94.5910     23.8527
  1574.0000      7.9174      2.5062      0.0139      8.7144     99.4008     24.3235
  1574.1000      7.9174      2.4973      0.0613      9.2517    102.8495     24.0025
  1574.2000      7.9174      2.4931      0.0255      9.5083    104.9443     23.2118
  1574.3000      7.9153      2.4892      0.0464      9.7431    105.6012     22.4606
  1574.4000      7.9153      2.4844      0.0151     10.0345    104.4701     22.0248
  1574.5000      7.9078      2.4818      0.0173     10.1965    101.0496     22.1103
  1574.6000      7.9078      2.4799      0.0645     10.3112     96.2551     22.5356
  1574.7000      7.9078      2.4726      0.0724     10.7495     91.1220     22.6726
