~Version Information
VERS.                      2.0: CWLS Log ASCII Standard - VERSION 2.0
WRAP.                       NO: One line per depth step
~Well Information Block
STRT.FT               645.0000: 
STOP.FT              2131.0000: 
STEP.FT                 0.1000: 
NULL.                -999.2500: 
COMP.          Pioneer Natural Resources: COMPANY
WELL.          Gunslinger 13-24: WELL
FLD.           Purgatoire River: FIELD
LOC.           1968' FSL & 633' FWL: LOCATION
PROV.                 Colorado: PROVINCE
CNTY.               Las Animas: COUNTRY
SRVC.                Patterson: SERVICE COMPANY
DATE.          Sat Jul 30 08:07:53 2005: LOG DATE
UWI.           05 071 08442 00: UNIQUE WELL ID
~Curve Information Block
DEPT.FT            0 000 00 00: Depth
DCAL.in                       : CDL Caliper
RHOB.g/cc                     : CDL Bulk Density
RHOC.g/cc                     : CDL Density Correction
DPOR.pu                       : CDL Density Porosity
GR.GAPI                       : Gamma Ray
NPOR.pu                       : Neutron Porosity
~Parameter Information Block
~A  Depth       DCAL        RHOB        RHOC        DPOR         GR         NPOR    
# ...
  1816.2000      7.8828      2.4378     -0.0639     12.8579     74.6901     24.3339
  1816.3000      7.9040      2.4259      0.0164     13.5807     78.0984     24.1296
  1816.4000      7.9040      2.4239      0.0737     13.7014     79.1112     24.1540
  1816.5000      7.9351      2.4263     -0.0106     13.5547     82.7423     24.5378
  1816.6000      7.9351      2.4447      0.0025     12.4402     89.5605     24.8915
  1816.7000      7.9351      2.4729      0.0818     10.7346     93.7455     25.0330
  1816.8000      7.9279      2.4917      0.0996      9.5945     92.6478     25.0140
  1816.9000      7.9279      2.5060      0.0302      8.7285     92.2652     24.9667
  1817.0000      7.8936      2.5296      0.0919      7.2968     97.1879     24.9041
  1817.1000      7.8936      2.5594      0.0862      5.4883    104.0252     24.4311
  1817.2000      7.8936      2.5837      0.1335      4.0184    109.2046     23.1877
  1817.3000      7.8695      2.5927      0.1311      3.4742    113.0634     21.8125
  1817.4000      7.8695      2.5902      0.0952      3.6272    114.9743     21.1621
  1817.5000      7.8526      2.5835      0.0766      4.0274    112.6325     21.2756
  1817.6000      7.8526      2.5740      0.0853      4.6088    106.3486     21.6634
  1817.7000      7.8526      2.5655      0.0666      5.1238     98.6567     22.0363
  1817.8000      7.8565      2.5599      0.0881      5.4590     93.4433     22.5093
  1817.9000      7.8565      2.5522      0.0840      5.9266     91.9550     22.9979
  1818.0000      7.8679      2.5381      0.0885      6.7844     92.6675     23.2794
  1818.1000      7.8679      2.5140      0.0849      8.2432     94.9340     23.4503
  1818.2000      7.8679      2.4852      0.0274      9.9856     94.5392     23.7491
  1818.3000      7.8579      2.4752      0.0084     10.5917     91.3030     23.9257
  1818.4000      7.8579      2.4945      0.0760      9.4232     91.6028     23.5896
  1818.5000      7.8444      2.5239      0.0779      7.6428     94.7807     23.0683
  1818.6000      7.8444      2.5403      0.0954      6.6487     99.5811     22.8491
  1818.7000      7.8444      2.5388      0.0574      6.7390    104.8279     22.8461
  1818.8000      7.8510      2.5356      0.0849      6.9351    103.9705     22.8122
  1818.9000      7.8510      2.5423      0.0320      6.5291    100.7455     22.8788
  1819.0000      7.8663      2.5461      0.1157      6.2982    100.9380     23.0395
  1819.1000      7.8663      2.5232      0.0831      7.6854     98.3409     22.8978
  1819.2000      7.8663      2.4904     -0.0520      9.6748     92.0024     22.2380
  1819.3000      7.8700      2.4893     -0.0066      9.7420     87.8253     21.5314
  1819.4000      7.8700      2.5128      0.0417      8.3149     87.8569     21.1781
  1819.5000      7.8711      2.5219      0.0815      7.7621     89.9421     21.0374
  1819.6000      7.8711      2.5068      0.0469      8.6805     88.8895     21.3528
  1819.7000      7.8711      2.4964      0.0047      9.3092     82.9074     22.0254
  1819.8000      7.8721      2.5072      0.0478      8.6559     73.1688     21.9089
  1819.9000      7.8721      2.5160      0.0539      8.1239     64.4616     20.7199
  1820.0000      7.8417      2.5141      0.0144      8.2369     63.1329     19.4136
  1820.1000      7.8417      2.5294     -0.0269      7.3072     66.6970     18.4981
  1820.2000      7.8417      2.5678      0.0434      4.9789     69.1633     18.0253
  1820.3000      7.8576      2.6060      0.0382      2.6697     70.7087     17.7445
  1820.4000      7.8576      2.6310      0.1054      1.1506     72.0742     17.3429
  1820.5000      7.8704      2.6364      0.1008      0.8253     70.9124     17.3187
  1820.6000      7.8704      2.6254      0.0876      1.4924     67.6192     18.0036
  1820.7000      7.8704      2.6085      0.0522      2.5130     63.2608     18.9004
  1820.8000      7.8815      2.5820      0.0570      4.1193     57.4841     19.3678
  1820.9000      7.8815      2.5457      0.0204      6.3203     52.1034     19.3005
  1821.0000      7.8821      2.5220     -0.0090      7.7581     49.4144     19.4054
  1821.1000      7.8821      2.5256     -0.0057      7.5409     49.0940     20.0124
  1821.2000      7.8821      2.5414      0.0380      6.5802     49.7638     20.3640
  1821.3000      7.8761      2.5462      0.0507      6.2922     49.7111     19.9458
  1821.4000      7.8761      2.5378      0.0828      6.7973     48.7309     19.3948
  1821.5000      7.8669      2.5382      0.0162      6.7750     49.4345     19.3794
  1821.6000      7.8669      2.5528      0.0901      5.8910     53.9155     19.8474
  1821.7000      7.8669      2.5582      0.0448      5.5621     60.5640     20.2729
  1821.8000      7.8523      2.5505      0.0567      6.0289     63.7176     20.2112
  1821.9000      7.8523      2.5523      0.0261      5.9235     62.7299     19.6304
  1822.0000      7.8519      2.5723      0.0863      4.7104     64.1089     19.0999
  1822.1000      7.8519      2.5896      0.0600      3.6633     69.5697     19.1891
  1822.2000      7.8519      2.5877      0.0737      3.7768     74.3815     19.6234
  1822.3000      7.8455      2.5760      0.0365      4.4860     75.7674     19.9593
  1822.4000      7.8455      2.5718      0.0671      4.7414     76.2155     19.9624
  1822.5000      7.8648      2.5761      0.0668      4.4781     77.7154     19.4219
  1822.6000      7.8648      2.5719      0.0690      4.7355     77.0301     18.9250
  1822.7000      7.8648      2.5455      0.0540      6.3327     73.2942     19.0975
  1822.8000      7.8533      2.5128     -0.0224      8.3127     70.6302     19.0873
  1822.9000      7.8533      2.5000      0.0174      9.0910     70.5468     18.2568
  1823.0000      7.8474      2.5048      0.0356      8.8004     70.4892     17.7519
  1823.1000      7.8474      2.5138      0.0184      8.2539     67.1547     18.0030
  1823.2000      7.8474      2.5191      0.0451      7.9317     63.0383     18.0743
  1823.3000      7.8684      2.5144      0.0375      8.2182     64.5529     17.5930
  1823.4000      7.8684      2.5087     -0.0249      8.5627     66.9845     17.1477
  1823.5000      7.8702      2.5131      0.0310      8.2967     62.1624     17.3985
  1823.6000      7.8702      2.5193      0.0429      7.9221     56.2056     18.1715
  1823.7000      7.8702      2.5234      0.0292      7.6704     57.4842     18.6845
  1823.8000      7.8653      2.5317      0.0626      7.1688     62.5933     18.8817
  1823.9000      7.8653      2.5399      0.0673      6.6730     64.6593     19.1490
  1824.0000      7.8446      2.5449      0.0478      6.3670     62.4003     19.4241
  1824.1000      7.8446      2.5593      0.0109      5.4957     59.6985     19.8198
  1824.2000      7.8446      2.5856      0.0957      3.9003     60.6249     20.2956
  1824.3000      7.8408      2.6080      0.0908      2.5479     63.4148     20.2680
  1824.4000      7.8408      2.6233      0.0798      1.6198     63.9212     19.4329
  1824.5000      7.7908      2.6318      0.1523      1.1040     62.8936     18.0891
  1824.6000      7.7908      2.6294      0.1161      1.2466     62.2323     17.1359
  1824.7000      7.7908      2.6246      0.1008      1.5388     59.7692     17.0577
  1824.8000      7.7294      2.6184      0.1106      1.9154     55.1036     17.1591
  1824.9000      7.7294      2.6049      0.0515      2.7335     52.9772     16.6700
  1825.0000      7.8248      2.5837      0.0940      4.0166     54.1408     16.1686
  1825.1000      7.8248      2.5598      0.0067      5.4652     53.1742     16.4395
  1825.2000      7.8248      2.5479      0.0499      6.1855     49.2288     17.2236
  1825.3000      7.8943      2.5516      0.0830      5.9624     48.6494     17.9684
  1825.4000      7.8943      2.5606      0.0464      5.4180     52.8816     18.3266
  1825.5000      7.9049      2.5597      0.0829      5.4716     56.9608     18.2631
  1825.6000      7.9049      2.5447      0.0314      6.3847     57.6472     18.2267
  1825.7000      7.9049      2.5389      0.0085      6.7361     53.1737     18.3898
