~Version Information
VERS.                      2.0: CWLS Log ASCII Standard - VERSION 2.0
WRAP.                       NO: One line per depth step
~Well Information Block
STRT.FT                 0.0000: 
STOP.FT              1238.2500: 
STEP.FT                 0.2500: 
NULL.                -999.2500: 
COMP.          Pioneer Natural Resources: COMPANY
WELL.                 Ray 34-6: WELL
FLD.           Purgatoire River: FIELD
LOC.           684' FSL & 2254' FEL: LOCATION
CNTY.               Las Animas: COUNTY
SRVC.                         : SERVICE COMPANY
DATE.          Fri Jun 23 09:23:24 2006: LOG DATE
UWI.           05 071 08695 00: UNIQUE WELL ID
STAT.                       CO: STATE
~Curve Information Block
DEPT.FT            0 000 00 00: Depth
GR.GAPI                       : Gamma Ray
CCL.                          : Casing Collar Locator
TT3.usec                      : CBL 3' Travel Time
AMP3.mV                       : CBL 3' Amplitude
~Parameter Information Block
~A  Depth        GR         CCL         TT3         AMP3    
# ...
   402.0000     80.4682      0.0000    787.4435      6.8672
   402.2500     83.6095      0.0000    793.7885      6.7799
   402.5000     87.3733      0.0000    797.1602      6.6843
   402.7500     90.4884      0.0000    796.3516      6.5751
   403.0000     92.4549      0.0000    789.8633      6.4635
   403.2500     94.5276      0.0000    776.8292      6.3706
   403.5000     99.0327      0.0000    758.8319      6.3130
   403.7500    107.2828      0.0000    739.8529      6.2899
   404.0000    118.0350      0.0000    722.8784      6.2894
   404.2500    128.0141      0.0000    706.9549      6.3045
   404.5000    134.0678      0.0000    689.1376      6.3383
   404.7500    135.2742      0.0000    668.6288      6.3955
   405.0000    133.4135      0.0000    647.3429      6.4719
   405.2500    131.4998      0.0000    627.4730      6.5543
   405.5000    131.6400      0.0000    610.8852      6.6260
   405.7500    134.0255      0.0000    600.8380      6.6766
   406.0000    137.3995      0.0000    602.2966      6.7069
   406.2500    140.0473      0.0000    618.7766      6.7197
   406.5000    140.6663      0.0000    648.0657      6.7072
   406.7500    139.1063      0.0000    681.9396      6.6566
   407.0000    136.6052      0.0000    712.1209      6.5700
   407.2500    135.0849      0.0000    736.3243      6.4723
   407.5000    135.9671      0.0000    756.7961      6.3956
   407.7500    139.5068      0.0000    774.5126      6.3574
   408.0000    144.8551      0.0000    787.5647      6.3573
   408.2500    150.4710      0.0000    794.0572      6.3933
   408.5000    154.9313      0.0000    793.9360      6.4720
   408.7500    157.7870      0.0000    788.2590      6.5951
   409.0000    159.4901      0.0000    778.2569      6.7386
   409.2500    160.6275      0.0000    765.2570      6.8593
   409.5000    161.4618      0.0000    751.2999      6.9268
   409.7500    161.6794      0.0000    740.1199      6.9431
   410.0000    160.1993      0.0000    736.7031      6.9296
   410.2500    155.8277      0.0000    743.8354      6.9053
   410.5000    148.5973      0.0000    758.5784      6.8802
   410.7500    140.2836      0.0000    773.2086      6.8608
   411.0000    133.4370      0.0000    780.2355      6.8524
   411.2500    130.0164      0.0000    776.8546      6.8582
   411.5000    130.6733      0.0000    766.1534      6.8829
   411.7500    134.5292      0.0000    755.3389      6.9400
   412.0000    139.3993      0.0000    751.6740      7.0456
   412.2500    143.0762      0.0000    757.8520      7.2008
   412.5000    145.0252      0.0000    770.1578      7.3834
   412.7500    146.4216      0.0000    781.3842      7.5613
   413.0000    148.1639      0.0000    786.0532      7.7136
   413.2500    149.3020      0.0000    783.2004      7.8345
   413.5000    147.7161      0.0000    775.4262      7.9197
   413.7500    142.1346      0.0000    766.8073      7.9601
   414.0000    133.5065      0.0000    761.2423      7.9498
   414.2500    124.6185      0.0000    760.7175      7.8950
   414.5000    118.1935      0.0000    764.3207      7.8108
   414.7500    115.0685      0.0000    769.0878      7.7104
   415.0000    114.0474      0.0000    771.7427      7.5986
   415.2500    113.2218      0.0000    770.0384      7.4762
   415.5000    111.4546      0.0000    763.6584      7.3445
   415.7500    109.0481      0.0000    754.0093      7.2043
   416.0000    107.1661      0.0000    742.7423      7.0548
   416.2500    106.5620      0.0000    730.8076      6.8976
   416.5000    107.0819      0.0000    719.1097      6.7408
   416.7500    108.3482      0.0000    709.3064      6.5998
   417.0000    110.2484      0.0000    702.9178      6.4923
   417.2500    112.5192      0.0000    699.3348      6.4313
   417.5000    114.5447      0.0000    695.4213      6.4197
   417.7500    116.1713      0.0000    687.6091      6.4498
   418.0000    118.4788      0.0000    673.7991      6.5051
   418.2500    123.0725      0.0000    653.1364      6.5633
   418.5000    130.2185      0.0000    625.7784      6.6053
   418.7500    137.9021      0.0000    594.1671      6.6265
   419.0000    142.9848      0.0000    563.4294      6.6357
   419.2500    143.3730      0.0000    538.9125      6.6367
   419.5000    139.3367      0.0000    523.3775      6.6184
   419.7500    132.9879      0.0000    517.1603      6.5696
   420.0000    126.3599      0.0000    520.8255      6.5009
   420.2500    119.9393      0.0000    536.5313      6.4470
   420.5000    113.2502      0.0000    565.6006      6.4440
   420.7500    106.4966      0.0000    604.0119      6.5044
   421.0000    100.9895      0.0000    641.3712      6.6099
   421.2500     97.9880      0.0000    666.9570      6.7278
   421.5000     97.5559      0.0000    678.2903      6.8382
   421.7500     98.5734      0.0000    682.5741      6.9423
   422.0000     99.4572      0.0000    688.7282      7.0438
   422.2500     98.7061      0.0000    699.4303      7.1302
   422.5000     95.3951      0.0000    711.5144      7.1788
   422.7500     89.9126      0.0000    721.5131      7.1788
   423.0000     84.1371      0.0000    728.9966      7.1447
   423.2500     80.3651      0.0000    735.8674      7.1078
   423.5000     79.8573      0.0000    743.7662      7.0952
   423.7500     82.4940      0.0000    751.7333      7.1158
   424.0000     87.7597      0.0000    756.3336      7.1622
   424.2500     95.8516      0.0000    754.6006      7.2244
   424.5000    107.5673      0.0000    746.8741      7.3018
   424.7500    122.8804      0.0000    736.7786      7.4047
   425.0000    139.6650      0.0000    729.2823      7.5384
   425.2500    153.9551      0.0000    728.4462      7.6828
   425.5000    161.7395      0.0000    735.0854      7.7954
   425.7500    161.1037      0.0000    745.7794      7.8410
   426.0000    153.0739      0.0000    754.9802      7.8154
   426.2500    140.5582      0.0000    758.5280      7.7407
   426.5000    126.5324      0.0000    755.6557      7.6475
   426.7500    113.0625      0.0000    748.7599      7.5644
   427.0000    101.3843      0.0000    741.1950      7.5117
   427.2500     92.1379      0.0000    734.5111      7.4928
   427.5000     85.2079      0.0000    727.8854      7.4931
   427.7500     79.7269      0.0000    720.3737      7.4914
   428.0000     74.9526      0.0000    713.1720      7.4745
   428.2500     71.3943      0.0000    709.3372      7.4439
   428.5000     70.7120      0.0000    711.4851      7.4090
   428.7500     74.2943      0.0000    719.4561      7.3769
   429.0000     82.1545      0.0000    729.6142      7.3491
   429.2500     93.1688      0.0000    736.6968      7.3246
   429.5000    105.8606      0.0000    737.3289      7.3047
   429.7500    118.6173      0.0000    732.1686      7.2948
   430.0000    129.4773      0.0000    724.4172      7.2955
   430.2500    136.4358      0.0000    716.4700      7.2890
   430.5000    138.4100      0.0000    708.2436      7.2440
   430.7500    135.9083      0.0000    698.3824      7.1438
   431.0000    130.5680      0.0000    686.6957      7.0052
   431.2500    124.1180      0.0000    675.6752      6.8662
   431.5000    118.1253      0.0000    669.5012      6.7672
   431.7500    114.5572      0.0000    670.8569      6.7466
   432.0000    115.5488      0.0000    678.5991      6.8317
   432.2500    121.7865      0.0000    688.9755      7.0138
   432.5000    131.5111      0.0000    698.7629      7.2384
   432.7500    141.7525      0.0000    706.7859      7.4362
   433.0000    150.3083      0.0000    713.2850      7.5645
   433.2500    156.2190      0.0000    718.9711      7.6194
   433.5000    159.1045      0.0000    724.4075      7.6209
   433.7500    159.0881      0.0000    729.3040      7.5948
   434.0000    157.3579      0.0000    732.2891      7.5616
   434.2500    155.9779      0.0000    732.0552      7.5354
   434.5000    156.7356      0.0000    728.9009      7.5305
   434.7500    160.2309      0.0000    724.8044      7.5603
   435.0000    165.8389      0.0000    721.9761      7.6213
   435.2500    171.8659      0.0000    721.6098      7.6843
