~Version Information
VERS.                      2.0: CWLS Log ASCII Standard - VERSION 2.0
WRAP.                       NO: One line per depth step
~Well Information Block
STRT.FT               240.0000: 
STOP.FT              1185.5000: 
STEP.FT                 0.2500: 
NULL.                -999.2500: 
COMP.          Pioneer Natural Resources: COMPANY
WELL.          Whitecoat 14-36: WELL
FLD.           Purgatorie River: FIELD
LOC.           606' FSL & 260' FWL: LOCATION
PROV.                 Colorado: PROVINCE
CNTY.               Las Animas: COUNTRY
SRVC.                Patterson: SERVICE COMPANY
DATE.          Mon Dec 05 16:51:12 2005: LOG DATE
UWI.                          : UNIQUE WELL ID
~Curve Information Block
DEPT.FT            0 000 00 00: Depth
DIR.Ohm-m                     : IEL Induction Resistivity
GR.GAPI                       : Gamma Ray
~Parameter Information Block
~A  Depth       DIR          GR     
# ...
   518.7500     15.2994    151.3635
   519.0000     15.3048    149.6087
   519.2500     15.2976    148.4100
   519.5000     15.3111    147.5383
   519.7500     15.3556    147.8656
   520.0000     15.4184    149.6840
   520.2500     15.4785    151.5282
   520.5000     15.5212    154.6770
   520.7500     15.5411    156.7406
   521.0000     15.5351    159.3730
   521.2500     15.4966    160.5852
   521.5000     15.4181    161.1716
   521.7500     15.2994    160.5994
   522.0000     15.1545    158.5674
   522.2500     15.0113    156.8555
   522.5000     14.9051    154.3024
   522.7500     14.8703    152.5256
   523.0000     14.9327    149.0634
   523.2500     15.1043    145.8144
   523.5000     15.3782    139.2897
   523.7500     15.7232    134.1409
   524.0000     16.0828    126.6275
   524.2500     16.3800    122.9279
   524.5000     16.5367    121.1116
   524.7500     16.5021    122.8439
   525.0000     16.2781    129.3808
   525.2500     15.9211    135.4650
   525.5000     15.5185    144.8657
   525.7500     15.1557    149.7029
   526.0000     14.8946    152.4274
   526.2500     14.7685    150.7129
   526.5000     14.7878    144.2427
   526.7500     14.9431    139.1536
   527.0000     15.2034    133.5859
   527.2500     15.5138    132.4798
   527.5000     15.8033    135.4002
   527.7500     16.0039    140.0358
   528.0000     16.0737    149.1616
   528.2500     16.0086    155.1437
   528.5000     15.8366    161.7926
   528.7500     15.6022    164.2567
   529.0000     15.3554    165.4024
   529.2500     15.1459    164.7251
   529.5000     15.0182    161.6229
   529.7500     15.0032    158.3285
   530.0000     15.1082    152.5816
   530.2500     15.3135    149.1427
   530.5000     15.5809    146.0948
   530.7500     15.8711    146.0160
   531.0000     16.1597    148.7823
   531.2500     16.4406    151.8800
   531.5000     16.7183    156.6423
   531.7500     16.9978    159.1095
   532.0000     17.2800    161.6233
   532.2500     17.5629    162.9112
   532.5000     17.8448    164.6633
   532.7500     18.1239    165.4960
   533.0000     18.3960    165.3071
   533.2500     18.6540    163.5272
   533.5000     18.8943    157.4224
   533.7500     19.1279    151.0715
   534.0000     19.3902    139.5347
   534.2500     19.7391    131.8844
   534.5000     20.2378    122.7279
   534.7500     20.9278    118.9138
   535.0000     21.8031    116.5578
   535.2500     22.7988    116.5778
   535.5000     23.7992    117.5651
   535.7500     24.6696    118.2436
   536.0000     25.3003    119.0078
   536.2500     25.6429    119.5785
   536.5000     25.7190    121.0710
   536.7500     25.5931    122.6094
   537.0000     25.3205    125.4180
   537.2500     24.9063    127.2705
   537.5000     24.3101    129.5103
   537.7500     23.5062    130.4734
   538.0000     22.5481    130.8457
   538.2500     21.5635    130.2211
   538.5000     20.6766    128.1806
   538.7500     19.9391    126.6613
   539.0000     19.3271    125.5173
   539.2500     18.7897    126.0817
   539.5000     18.2925    129.0033
   539.7500     17.8218    131.9412
   540.0000     17.3662    136.7730
   540.2500     16.9121    139.5858
   540.5000     16.4552    142.2928
   540.7500     16.0088    143.0508
   541.0000     15.5943    143.5330
   541.2500     15.2263    144.1575
   541.5000     14.9039    146.2703
   541.7500     14.6138    148.4019
   542.0000     14.3407    152.1739
   542.2500     14.0807    154.8197
   542.5000     13.8502    158.7646
   542.7500     13.6818    161.2894
   543.0000     13.6086    164.6569
   543.2500     13.6477    166.3507
   543.5000     13.7936    167.5347
   543.7500     14.0277    167.2817
   544.0000     14.3348    165.6266
   544.2500     14.7140    164.0611
   544.5000     15.1720    161.8227
   544.7500     15.7049    160.8805
   545.0000     16.2884    160.8140
   545.2500     16.8865    161.5261
   545.5000     17.4710    162.6448
   545.7500     18.0345    162.6331
   546.0000     18.5848    160.4626
   546.2500     19.1336    157.2597
   546.5000     19.6844    149.8559
   546.7500     20.2273    143.6890
   547.0000     20.7399    133.9381
   547.2500     21.1926    127.6489
   547.5000     21.5530    118.6455
   547.7500     21.7905    112.8665
   548.0000     21.8872    104.9611
   548.2500     21.8544    100.7930
   548.5000     21.7288     97.3239
   548.7500     21.5453     97.3654
   549.0000     21.3079    101.4340
   549.2500     20.9931    106.8385
   549.5000     20.5789    118.3321
   549.7500     20.0685    127.3166
   550.0000     19.4896    140.3103
   550.2500     18.8815    147.0520
   550.5000     18.2869    152.2921
   550.7500     17.7470    152.3379
   551.0000     17.2901    148.8114
   551.2500     16.9232    145.6731
   551.5000     16.6331    142.3475
   551.7500     16.4000    141.8690
   552.0000     16.2085    143.7927
   552.2500     16.0514    146.2559
   552.5000     15.9250    150.3094
   552.7500     15.8291    152.6118
   553.0000     15.7713    155.4059
   553.2500     15.7693    157.4162
   553.5000     15.8438    161.7073
   553.7500     16.0040    165.3574
   554.0000     16.2391    170.4536
   554.2500     16.5220    172.4169
   554.5000     16.8205    172.0714
   554.7500     17.1083    169.7019
   555.0000     17.3700    163.6655
   555.2500     17.5998    158.4195
   555.5000     17.8003    149.1995
   555.7500     17.9801    142.2856
   556.0000     18.1533    131.1079
   556.2500     18.3356    123.7395
   556.5000     18.5333    114.7042
   556.7500     18.7321    111.0794
   557.0000     18.8981    109.6928
   557.2500     18.9948    110.8041
   557.5000     19.0041    113.7092
   557.7500     18.9353    115.6031
   558.0000     18.8167    117.7439
   558.2500     18.6811    118.9131
   558.5000     18.5561    121.5845
   558.7500     18.4605    124.9316
   559.0000     18.4036    133.0089
   559.2500     18.3863    139.8564
   559.5000     18.4030    150.1265
   559.7500     18.4470    155.7350
   560.0000     18.5179    161.2872
   560.2500     18.6278    163.1809
   560.5000     18.8000    164.0256
   560.7500     19.0608    163.6417
   561.0000     19.4273    161.9275
   561.2500     19.9017    159.9437
   561.5000     20.4707    155.2892
   561.7500     21.1046    150.9269
   562.0000     21.7525    143.1343
   562.2500     22.3410    138.0590
   562.5000     22.7945    132.3956
   562.7500     23.0776    130.4462
   563.0000     23.2230    130.0232
   563.2500     23.3100    130.8947
   563.5000     23.4044    133.0028
   563.7500     23.5092    134.4590
   564.0000     23.5693    136.0245
   564.2500     23.5289    136.4368
   564.5000     23.3998    136.1778
   564.7500     23.2766    135.5724
   565.0000     23.2837    134.1858
   565.2500     23.4961    133.1071
   565.5000     23.8895    131.9086
   565.7500     24.3455    131.7539
   566.0000     24.7120    132.4066
   566.2500     24.8916    133.0003
   566.5000     24.8960    133.4098
   566.7500     24.8200    133.2072
   567.0000     24.7693    132.3233
   567.2500     24.8088    131.5004
   567.5000     24.9607    130.0767
   567.7500     25.2326    129.0361
   568.0000     25.6360    127.3567
   568.2500     26.1782    126.1164
   568.5000     26.8397    124.0266
   568.7500     27.5695    122.6586
   569.0000     28.3070    121.3526
   569.2500     29.0090    121.3583
   569.5000     29.6487    122.7801
   569.7500     30.1857    124.3797
   570.0000     30.5449    126.8829
   570.2500     30.6281    127.9865
   570.5000     30.3561    127.7214
   570.7500     29.7017    125.9003
   571.0000     28.7147    120.9906
   571.2500     27.5384    116.9058
   571.5000     26.3972    110.8383
   571.7500     25.5347    107.4174
   572.0000     25.1357    103.8312
   572.2500     25.2745    102.6021
   572.5000     25.8988    102.3268
   572.7500     26.8354    102.9669
   573.0000     27.8274    104.8793
   573.2500     28.6198    106.7057
   573.5000     29.0664    109.9784
   573.7500     29.1817    112.1481
   574.0000     29.0908    114.7026
   574.2500     28.9251    115.7484
