~Version Information
VERS.                      2.0: CWLS Log ASCII Standard - VERSION 2.0
WRAP.                       NO: One line per depth step
~Well Information Block
STRT.FT                 0.0000: 
STOP.FT               787.2500: 
STEP.FT                 0.2500: 
NULL.                -999.2500: 
COMP.          Pioneer Natural Resources: COMPANY
WELL.             Veedol 34-28: WELL
FLD.           Purgatorie River: FIELD
LOC.           357' FSL & 2520' FEL: LOCATION
PROV.                 Colorado: PROVINCE
CNTY.               Las Animas: COUNTRY
SRVC.                Patterson: SERVICE COMPANY
DATE.          Wed Dec 28 10:10:37 2005: LOG DATE
UWI.                          : UNIQUE WELL ID
~Curve Information Block
DEPT.FT            0 000 00 00: Depth
CCL.                          : Casing Collar Locator
TT3.usec                      : CBL 3' Travel Time
AMP3.mV                       : CBL 3' Amplitude
GR.GAPI                       : Gamma Ray
~Parameter Information Block
~A  Depth       CCL         TT3         AMP3         GR     
# ...
   502.5000      0.0000    718.8890     13.6832     52.9681
   502.7500      0.0000    712.8168     13.4422     56.7067
   503.0000      0.0000    703.5355     13.2576     61.7021
   503.2500      0.0000    698.8249     13.1518     66.9122
   503.5000      0.0000    703.7200     13.0770     71.1352
   503.7500      0.0000    713.1188     12.9935     73.3443
   504.0000      0.0000    719.6453     12.9245     73.1624
   504.2500      0.0000    722.0193     12.8857     71.1617
   504.5000      0.0000    722.4091     12.8458     68.6278
   504.7500      0.0000    722.3318     12.8060     66.7525
   505.0000      0.0000    722.2601     12.8128     65.7499
   505.2500      0.0000    722.2635     12.8542     64.8063
   505.5000      0.0000    722.2927     12.8267     63.0410
   505.7500      0.0000    722.3070     12.6428     60.4019
   506.0000      0.0000    722.3519     12.3438     57.5501
   506.2500      0.0000    722.4954     12.0692     55.0792
   506.5000      0.0000    722.7406     11.9383     53.0708
   506.7500      0.0000    723.0161     11.9778     51.4042
   507.0000      0.0000    723.1880     12.1231     50.1985
   507.2500      0.0000    723.1366     12.2650     49.5968
   507.5000      0.0000    722.9020     12.3142     49.1949
   507.7500      0.0000    722.6486     12.2603     48.1600
   508.0000      0.0000    722.4658     12.1701     46.0714
   508.2500      0.0000    722.3289     12.1025     43.3780
   508.5000      0.0000    722.2263     12.0476     41.0199
   508.7500      0.0000    722.1964     11.9793     39.9104
   509.0000      0.0000    722.2495     11.9212     40.7177
   509.2500      0.0000    722.2891     11.9133     43.5987
   509.5000      0.0000    721.7578     11.9436     47.7890
   509.7500      0.0000    718.5634     11.9143     51.7492
   510.0000      0.0000    708.7119     11.6705     54.2004
   510.2500      0.0000    691.1965     11.1491     55.0854
   510.5000      0.0000    675.9677     10.5360     55.2499
   510.7500      0.0000    678.0294     10.0332     55.2773
   511.0000      0.0000    698.9966      9.4767     55.1467
   511.2500      0.0000    726.6561      8.7591     54.8925
   511.5000      0.0000    749.8759      8.2877     54.7778
   511.7500      0.0000    763.5767      8.3219     54.6828
   512.0000     -2.0000    767.8651      8.5862     54.1463
   512.2500      2.0000    764.5920      8.8155     53.3754
   512.5000      0.0000    753.5316      9.0141     53.5717
   512.7500      0.0000    732.3858      9.2586     55.8093
   513.0000      0.0000    689.8018      9.6627     59.9425
   513.2500      0.0000    609.8191     10.5211     64.8551
   513.5000      0.0000    505.4569     11.9975     69.4364
   513.7500      0.0000    421.2965     13.4647     73.1245
   514.0000      0.0000    384.2170     14.0778     75.8771
   514.2500      0.0000    384.3862     13.9683     77.9210
   514.5000      0.0000    404.6160     13.8164     79.2561
   514.7500      0.0000    431.6472     13.8801     79.3226
   515.0000      0.0000    445.0005     14.0176     77.5437
   515.2500      0.0000    431.7675     14.0856     74.1689
   515.5000      0.0000    405.6509     14.1063     70.1939
   515.7500      0.0000    386.0469     14.1530     66.5522
   516.0000      0.0000    375.3254     14.2028     63.6271
   516.2500      0.0000    366.8077     14.2149     61.2394
   516.5000      0.0000    357.7504     14.2479     58.9175
   516.7500      0.0000    349.9801     14.4020     56.4914
   517.0000      0.0000    345.1172     14.7003     54.5122
   517.2500      0.0000    342.8647     15.0754     53.7878
   517.5000      0.0000    342.2073     15.4240     54.4319
   517.7500      0.0000    342.1932     15.6545     55.5428
   518.0000      0.0000    342.1236     15.7499     55.9205
   518.2500      0.0000    341.9223     15.7843     55.0846
   518.5000      0.0000    342.5004     15.8194     53.5720
   518.7500      0.0000    345.3357     15.8134     52.3122
   519.0000      0.0000    350.7662     15.6862     51.8392
   519.2500      0.0000    357.2028     15.4442     52.1771
   519.5000      0.0000    363.7678     15.1682     53.2981
   519.7500      0.0000    372.6559     14.8965     55.3302
   520.0000      0.0000    390.5940     14.6031     58.1460
   520.2500      0.0000    431.6041     14.2624     60.9853
   520.5000      0.0000    506.1035     13.8828     62.7579
   520.7500      0.0000    597.6272     13.5220     62.7397
   521.0000      0.0000    670.5383     13.2607     60.9946
   521.2500      0.0000    707.9058     13.1263     58.3842
   521.5000      0.0000    720.2080     13.0617     56.3101
   521.7500      0.0000    722.4537     12.9703     56.0861
   522.0000      0.0000    720.1616     12.8037     58.0605
   522.2500      0.0000    708.1357     12.6136     61.2743
   522.5000      0.0000    673.2428     12.4815     64.1421
   522.7500      0.0000    612.6051     12.4129     65.6021
   523.0000      0.0000    558.9354     12.3528     65.7886
   523.2500      0.0000    558.8839     12.2630     65.7162
   523.5000      0.0000    612.4498     12.1514     66.1863
   523.7500      0.0000    672.9935     12.0535     66.8157
   524.0000      0.0000    707.8417     11.9798     66.2115
   524.2500      0.0000    719.9498     11.8876     63.3410
   524.5000      0.0000    722.7361     11.7378     58.7438
   524.7500      0.0000    723.2128     11.5550     54.2178
   525.0000      0.0000    723.1574     11.4035     51.3424
   525.2500      0.0000    722.9348     11.3326     50.4373
   525.5000      0.0000    722.7508     11.3576     50.7893
   525.7500      0.0000    722.6246     11.4567     51.4795
   526.0000      0.0000    722.0332     11.5637     51.8298
   526.2500      0.0000    719.3511     11.5911     51.4166
   526.5000      0.0000    712.4239     11.4894     50.1423
   526.7500      0.0000    702.7170     11.2740     48.4155
   527.0000      0.0000    697.7927     11.0016     46.9951
   527.2500      0.0000    702.5449     10.7543     46.4965
   527.5000      0.0000    710.5916     10.5935     47.1107
   527.7500      0.0000    710.5700     10.4993     48.5774
   528.0000      0.0000    695.6650     10.4186     50.1926
   528.2500      0.0000    671.5582     10.3522     51.1974
   528.5000      0.0000    659.1110     10.3342     51.6108
   528.7500      0.0000    671.9828     10.3581     52.4085
   529.0000      0.0000    696.9086     10.3793     54.4452
   529.2500      0.0000    714.4352     10.3940     57.3361
   529.5000      0.0000    720.9751     10.4523     59.7357
   529.7500      0.0000    722.0850     10.5973     60.5375
   530.0000      0.0000    721.8213     10.8658     59.5353
   530.2500      0.0000    721.5317     11.2916     57.1914
   530.5000      0.0000    721.4666     11.8511     54.2494
   530.7500      0.0000    721.5049     12.4577     51.5695
   531.0000      0.0000    721.1225     13.0259     49.9182
   531.2500      0.0000    718.1729     13.5349     49.7131
   531.5000      0.0000    705.0059     14.0187     51.1066
   531.7500      0.0000    667.3306     14.4747     54.3061
   532.0000      0.0000    602.9141     14.8422     59.5668
   532.2500      0.0000    549.4120     15.0770     66.7989
   532.5000      0.0000    559.1506     15.1616     75.2424
   532.7500      0.0000    629.6100     15.0782     83.3481
   533.0000      0.0000    703.9353     14.8361     89.0522
   533.2500      0.0000    742.0319     14.4851     90.7578
   533.5000      0.0000    747.1745     14.1013     88.3463
   533.7500      0.0000    738.3907     13.7759     83.0087
   534.0000      0.0000    729.1461     13.5972     76.1735
   534.2500      0.0000    723.9886     13.6205     68.8173
   534.5000      0.0000    722.0236     13.8251     61.5320
   534.7500      0.0000    721.3247     14.1214     54.8536
   535.0000      0.0000    720.5383     14.4405     49.4932
   535.2500      0.0000    717.0938     14.7830     46.2333
   535.5000      0.0000    702.0287     15.1943     45.5212
   535.7500      0.0000    656.7089     15.7509     47.3204
