~Version Information
VERS.                      2.0: CWLS Log ASCII Standard - VERSION 2.0
WRAP.                       NO: One line per depth step
~Well Information Block
STRT.FT               390.0000: 
STOP.FT               825.0000: 
STEP.FT                 0.1000: 
NULL.                -999.2500: 
COMP.          Pioneer Natural Resources: COMPANY
WELL.             Veedol 34-28: WELL
FLD.           Purgatoire River: FIELD
LOC.           357' FSL & 2520' FEL: LOCATION
PROV.                 Colorado: PROVINCE
CNTY.               Las Animas: COUNTRY
SRVC.                Patterson: SERVICE COMPANY
DATE.          Thu Dec 22 14:38:20 2005: LOG DATE
UWI.           05 071 08628 00: UNIQUE WELL ID
~Curve Information Block
DEPT.FT            0 000 00 00: Depth
DCAL.in                       : CDL Caliper
RHOB.g/cc                     : CDL Bulk Density
RHOC.g/cc                     : CDL Density Correction
DPOR.pu                       : CDL Density Porosity
GR.GAPI                       : Gamma Ray
NPOR.pu                       : Neutron Porosity
~Parameter Information Block
~A  Depth       DCAL        RHOB        RHOC        DPOR         GR         NPOR    
# ...
   668.4000      7.9467      1.5614      0.1749     65.9784     53.5066     19.3234
   668.5000      7.9397      1.6936      0.2099     57.9632     63.4077     21.1033
   668.6000      7.9397      1.8231      0.2671     50.1153     73.5699     22.9949
   668.7000      7.9397      1.9475      0.2801     42.5728     84.9514     24.8354
   668.8000      7.9353      2.0656      0.3300     35.4204     96.1456     26.0651
   668.9000      7.9353      2.1756      0.3093     28.7512    104.3028     27.0653
   669.0000      7.9295      2.2750      0.3023     22.7266    109.3565     28.2863
   669.1000      7.9295      2.3523      0.2669     18.0405    112.7010     29.1427
   669.2000      7.9295      2.4080      0.1615     14.6683    118.2360     29.9268
   669.3000      7.9241      2.4618      0.1007     11.4034    126.2555     31.2540
   669.4000      7.9241      2.5154      0.1437      8.1601    129.8047     32.3112
   669.5000      7.9214      2.5464      0.1503      6.2773    125.2793     32.4854
   669.6000      7.9214      2.5497      0.1132      6.0795    114.3822     31.9914
   669.7000      7.9214      2.5448      0.0712      6.3731    102.1510     31.0296
   669.8000      7.9202      2.5451      0.0432      6.3578     95.2804     29.8552
   669.9000      7.9202      2.5423      0.0507      6.5299     96.0083     28.8294
   670.0000      7.9191      2.5290      0.0360      7.3323    102.7537     27.9916
   670.1000      7.9191      2.5190     -0.0244      7.9402    113.3712     27.3340
   670.2000      7.9191      2.5292      0.0117      7.3234    120.6468     26.9437
   670.3000      7.9180      2.5499      0.0486      6.0641    116.2101     26.8460
   670.4000      7.9180      2.5661      0.0286      5.0850    105.4767     26.8713
   670.5000      7.9174      2.5821     -0.0057      4.1128     96.3577     26.5077
   670.6000      7.9174      2.5967      0.0487      3.2274     90.1355     25.6879
   670.7000      7.9174      2.5951      0.0605      3.3264     86.5356     24.7672
   670.8000      7.9180      2.5752      0.0438      4.5327     85.6993     23.8313
   670.9000      7.9180      2.5448      0.0240      6.3788     88.3234     23.1673
   671.0000      7.9187      2.5125     -0.0022      8.3356     92.9935     23.0425
   671.1000      7.9187      2.4942      0.0001      9.4399     95.0678     23.4713
   671.2000      7.9187      2.5048     -0.0211      8.8014     92.9355     24.2836
   671.3000      7.9193      2.5387      0.0357      6.7479     91.7414     24.9548
   671.4000      7.9193      2.5749      0.0460      4.5523     95.0433     24.7780
   671.5000      7.9207      2.6110      0.0516      2.3609     98.4959     23.9667
   671.6000      7.9207      2.6543      0.1334     -0.2610     97.0452     23.7327
   671.7000      7.9207      2.6838      0.1607     -2.0456     95.0278     24.0736
   671.8000      7.9221      2.6715      0.1677     -1.3055    100.7867     24.2391
   671.9000      7.9221      2.6270      0.0734      1.3968    113.9324     24.4754
   672.0000      7.9243      2.5874      0.0396      3.7957    124.7294     25.1850
   672.1000      7.9243      2.5659      0.0934      5.0997    125.4128     25.9246
   672.2000      7.9243      2.5506      0.0486      6.0251    119.7487     26.0742
   672.3000      7.9277      2.5427      0.0466      6.5000    114.8837     25.8756
   672.4000      7.9277      2.5448      0.0609      6.3730    111.4662     25.8785
   672.5000      7.9294      2.5512      0.0605      5.9908    107.4290     25.9966
   672.6000      7.9294      2.5640      0.0369      5.2147    104.4932     26.0019
   672.7000      7.9294      2.5808      0.0676      4.1937    104.2120     25.7963
   672.8000      7.9288      2.5903      0.0703      3.6156    106.1062     25.4300
   672.9000      7.9288      2.5910      0.0842      3.5729    110.6476     25.2679
   673.0000      7.9285      2.5813      0.0744      4.1661    114.1391     25.2972
   673.1000      7.9285      2.5629      0.0535      5.2789    112.6083     25.5052
   673.2000      7.9285      2.5582      0.0153      5.5644    109.8973     25.9648
   673.3000      7.9298      2.5766      0.0674      4.4456    109.4056     26.1767
   673.4000      7.9298      2.5887      0.1112      3.7129    110.0915     25.8832
   673.5000      7.9316      2.5774      0.0363      4.3973    111.6187     25.7184
   673.6000      7.9316      2.5662      0.0463      5.0776    112.8382     26.0512
   673.7000      7.9316      2.5653      0.0870      5.1353    112.6206     26.2457
   673.8000      7.9324      2.5599      0.0576      5.4601    112.5811     26.0903
   673.9000      7.9324      2.5511      0.0701      5.9964    113.0207     26.0093
   674.0000      7.9321      2.5501      0.0901      6.0542    113.6434     25.7165
   674.1000      7.9321      2.5560      0.0465      5.6999    113.1650     24.9015
   674.2000      7.9321      2.5585      0.0843      5.5456    108.9064     23.7134
   674.3000      7.9319      2.5453      0.0828      6.3425    103.3867     22.3157
   674.4000      7.9319      2.5056      0.0552      8.7495    101.6345     20.6006
   674.5000      7.9321      2.4323     -0.0131     13.1957    103.2231     18.5018
   674.6000      7.9321      2.3267     -0.0097     19.5913    103.6110     16.4593
   674.7000      7.9321      2.1968     -0.0582     27.4650     99.9964     14.7814
   674.8000      7.9328      2.0546     -0.0896     36.0860     92.6079     13.5038
   674.9000      7.9328      1.9157     -0.1433     44.5019     83.1927     12.7424
   675.0000      7.9352      1.7962     -0.1802     51.7455     74.5543     12.1238
   675.1000      7.9352      1.7027     -0.1693     57.4112     68.7829     11.3751
   675.2000      7.9352      1.6226     -0.0934     62.2690     63.7585     10.9503
   675.3000      7.9393      1.5450     -0.0831     66.9675     58.3804     11.0810
   675.4000      7.9393      1.4833     -0.0158     70.7104     56.0087     11.3897
   675.5000      7.9438      1.4502      0.0600     72.7180     56.2950     11.4897
   675.6000      7.9438      1.4393      0.1064     73.3752     53.8608     11.6058
   675.7000      7.9438      1.4373      0.1119     73.4986     49.6116     12.3199
   675.8000      7.9465      1.4422      0.0876     73.1983     49.9233     13.7567
   675.9000      7.9465      1.4684      0.0567     71.6111     56.0405     15.6654
   676.0000      7.9441      1.5265      0.0777     68.0924     62.6647     17.9335
   676.1000      7.9441      1.6124      0.0887     62.8826     66.2758     20.4694
   676.2000      7.9441      1.7212      0.1391     56.2939     68.0019     22.8099
   676.3000      7.9277      1.8427      0.2259     48.9295     67.9618     24.5768
   676.4000      7.9277      1.9599      0.2355     41.8261     67.4293     25.7977
   676.5000      7.8986      2.0671      0.2438     35.3263     69.4148     26.5578
   676.6000      7.8986      2.1737      0.2392     28.8695     74.8151     27.0324
   676.7000      7.8986      2.2854      0.2468     22.0979     83.0977     27.2279
   676.8000      7.8780      2.3866      0.2401     15.9659     91.0566     27.1388
   676.9000      7.8780      2.4452      0.2193     12.4149     97.3426     27.1014
   677.0000      7.9088      2.4488      0.1377     12.1929    102.2661     27.0647
   677.1000      7.9088      2.4275      0.0599     13.4847    103.2773     27.1524
   677.2000      7.9088      2.4198      0.0423     13.9523    102.4241     27.8224
   677.3000      7.9051      2.4350      0.0537     13.0326    105.1748     28.7929
   677.4000      7.9051      2.4568      0.0603     11.7085    110.3654     29.4535
   677.5000      7.9039      2.4621      0.0859     11.3902    114.9887     29.6172
   677.6000      7.9039      2.4429      0.0719     12.5509    118.1942     29.4286
   677.7000      7.9039      2.4195      0.0381     13.9672    117.2865     29.3964
   677.8000      7.9049      2.4138      0.0493     14.3151    113.4057     29.5452
   677.9000      7.9049      2.4268      0.0295     13.5274    109.9372     29.4001
