~Version Information
VERS.                      2.0: CWLS Log ASCII Standard - VERSION 2.0
WRAP.                       NO: One line per depth step
~Well Information Block
STRT.FT               485.0000: 
STOP.FT              1030.5000: 
STEP.FT                 0.1000: 
NULL.                -999.2500: 
COMP.          Pioneer Natural Resources: COMPANY
WELL.          Red Raider 22-15: WELL
FLD.           Purgatoire River: FIELD
LOC.           1809' FNL & 2107' FWL: LOCATION
CNTY.               Las Animas: COUNTY
SRVC.                Patterson: SERVICE COMPANY
DATE.          Tue Apr 11 10:06:17 2006: LOG DATE
UWI.           05 071 08718 00: UNIQUE WELL ID
STAT.                 Colorado: STATE
~Curve Information Block
DEPT.FT            0 000 00 00: Depth
DCAL.in                       : CDL Caliper
RHOB.g/cc                     : CDL Bulk Density
RHOC.g/cc                     : CDL Density Correction
DPOR.pu                       : CDL Density Porosity
GR.GAPI                       : Gamma Ray
NPOR.pu                       : Neutron Porosity
~Parameter Information Block
~A  Depth       DCAL        RHOB        RHOC        DPOR         GR         NPOR    
# ...
   984.2000      7.8626      2.5054      0.0886      8.7621     64.3226     21.6919
   984.3000      7.8624      2.4928      0.0291      9.5245     65.3125     20.2934
   984.4000      7.8624      2.4745      0.0557     10.6355     67.2268     19.2743
   984.5000      7.8626      2.4626      0.0073     11.3603     67.7633     18.9735
   984.6000      7.8626      2.4615      0.0092     11.4234     67.3308     19.1109
   984.7000      7.8626      2.4659      0.0392     11.1585     69.3544     19.5154
   984.8000      7.8632      2.4675      0.0226     11.0630     71.8735     20.1144
   984.9000      7.8632      2.4638      0.0336     11.2845     71.0201     20.8401
   985.0000      7.8631      2.4572      0.0234     11.6856     68.1306     21.6775
   985.1000      7.8631      2.4533      0.0277     11.9186     66.2951     22.4719
   985.2000      7.8631      2.4518      0.0457     12.0099     66.9590     22.6940
   985.3000      7.8627      2.4550      0.0180     11.8199     68.4386     22.3727
   985.4000      7.8627      2.4697      0.0410     10.9268     67.4090     22.1775
   985.5000      7.8626      2.4815      0.0808     10.2147     64.1860     22.0757
   985.6000      7.8626      2.4729      0.0007     10.7309     64.1823     21.7287
   985.7000      7.8626      2.4596     -0.0142     11.5418     70.8340     21.4700
   985.8000      7.8630      2.4595      0.0127     11.5476     79.0741     21.6509
   985.9000      7.8630      2.4566      0.0432     11.7197     81.7664     22.2216
   986.0000      7.8632      2.4356      0.0044     12.9930     79.2012     22.7246
   986.1000      7.8632      2.4146     -0.0193     14.2681     74.9207     22.7232
   986.2000      7.8632      2.4099     -0.0036     14.5528     71.5266     22.4879
   986.3000      7.8621      2.4144      0.0257     14.2780     69.9508     22.3267
   986.4000      7.8621      2.4173      0.0242     14.1035     69.7448     22.2500
   986.5000      7.8615      2.4193     -0.0401     13.9830     71.1444     22.3368
   986.6000      7.8615      2.4187      0.0350     14.0173     72.1826     22.5229
   986.7000      7.8615      2.4049      0.0117     14.8548     71.4392     22.5413
   986.8000      7.8618      2.3873     -0.0272     15.9223     70.1558     22.3641
   986.9000      7.8618      2.3893     -0.0087     15.7972     69.3751     22.3529
   987.0000      7.8624      2.4083      0.0370     14.6485     68.7172     22.5393
   987.1000      7.8624      2.4246      0.0435     13.6603     68.4646     22.4984
   987.2000      7.8624      2.4366      0.0576     12.9330     68.1316     21.9354
   987.3000      7.8629      2.4546      0.0364     11.8414     68.2079     21.0361
   987.4000      7.8629      2.4702      0.1127     10.8968     70.4198     20.3172
   987.5000      7.8628      2.4671      0.0372     11.0874     71.1604     20.1839
   987.6000      7.8628      2.4516      0.0325     12.0254     69.0209     20.6813
   987.7000      7.8628      2.4322      0.0365     13.1997     67.8754     21.3882
   987.8000      7.8627      2.4067      0.0137     14.7451     68.6176     22.1559
   987.9000      7.8627      2.3775     -0.0033     16.5125     71.1089     23.0987
   988.0000      7.8626      2.3545      0.0037     17.9088     74.4736     23.7973
   988.1000      7.8626      2.3441     -0.0006     18.5386     76.0601     23.8258
   988.2000      7.8626      2.3457     -0.0079     18.4400     76.9260     23.1050
   988.3000      7.8624      2.3546      0.0299     17.9003     79.5111     22.4477
   988.4000      7.8624      2.3624      0.0453     17.4306     81.2868     23.2354
   988.5000      7.8623      2.3672     -0.0039     17.1371     78.8839     25.2558
   988.6000      7.8623      2.3728      0.0160     16.8019     74.2498     26.5091
   988.7000      7.8623      2.3753      0.0513     16.6513     73.8680     25.7436
   988.8000      7.8625      2.3758      0.0376     16.6161     77.9358     23.5452
   988.9000      7.8625      2.3845      0.0381     16.0905     80.6580     22.0622
   989.0000      7.8622      2.4056      0.0226     14.8132     81.5352     22.5390
   989.1000      7.8622      2.4297      0.0745     13.3494     82.5448     23.4567
   989.2000      7.8622      2.4390      0.0820     12.7871     83.1043     23.1081
   989.3000      7.8598      2.4297      0.0449     13.3516     81.5591     22.4543
   989.4000      7.8598      2.4151      0.0339     14.2344     78.3030     22.8006
   989.5000      7.8586      2.4060      0.0402     14.7883     76.0416     23.6955
   989.6000      7.8586      2.4018      0.0547     15.0401     76.0872     24.1331
   989.7000      7.8586      2.3931      0.0423     15.5682     78.2838     24.2179
   989.8000      7.8606      2.3770      0.0128     16.5471     80.5409     24.4231
   989.9000      7.8606      2.3671     -0.0099     17.1429     82.4590     24.6862
   990.0000      7.8621      2.3732      0.0084     16.7757     87.2832     24.8715
   990.1000      7.8621      2.3854      0.0168     16.0342     93.9444     24.7735
   990.2000      7.8621      2.3906      0.0268     15.7182     98.1855     24.5376
   990.3000      7.8624      2.3859      0.0107     16.0044     98.5047     24.3952
   990.4000      7.8624      2.3771      0.0194     16.5394     94.5906     24.3165
   990.5000      7.8634      2.3740      0.0028     16.7274     87.3972     24.4796
   990.6000      7.8634      2.3844      0.0230     16.0997     79.7585     24.7577
   990.7000      7.8634      2.4013      0.0491     15.0755     73.4321     24.6420
   990.8000      7.8643      2.4096      0.0504     14.5715     70.3768     24.2612
   990.9000      7.8643      2.4073      0.0370     14.7109     73.7722     24.2208
   991.0000      7.8638      2.4025      0.0416     15.0022     81.0814     24.6173
   991.1000      7.8638      2.4006      0.0352     15.1172     85.9983     25.1089
   991.2000      7.8638      2.4035      0.0509     14.9376     85.1324     25.2518
   991.3000      7.8629      2.4090      0.0177     14.6039     80.5594     24.8844
   991.4000      7.8629      2.4139      0.0478     14.3118     76.5603     24.7412
   991.5000      7.8621      2.4175      0.0248     14.0916     76.5263     25.2428
   991.6000      7.8621      2.4187      0.0294     14.0201     81.6366     25.5527
   991.7000      7.8621      2.4170      0.0145     14.1239     88.7238     25.2566
   991.8000      7.8608      2.4173      0.0339     14.1026     93.5956     24.8140
   991.9000      7.8608      2.4171      0.0521     14.1172     96.6909     24.3439
   992.0000      7.8605      2.4075      0.0288     14.6951     99.2316     23.7143
   992.1000      7.8605      2.3932      0.0318     15.5655     99.8931     23.2809
   992.2000      7.8605      2.3816      0.0276     16.2674     98.6015     23.2980
   992.3000      7.8581      2.3707      0.0442     16.9263     97.7983     23.3341
   992.4000      7.8581      2.3619     -0.0082     17.4589     99.2097     23.1111
   992.5000      7.8538      2.3649     -0.0025     17.2773     98.4835     23.4170
   992.6000      7.8538      2.3779      0.0311     16.4930     92.2510     24.5075
   992.7000      7.8538      2.3902      0.0174     15.7429     85.8160     25.5378
   992.8000      7.8558      2.4016      0.0325     15.0516     81.6351     26.0117
   992.9000      7.8558      2.4085      0.0444     14.6345     76.5731     26.0204
   993.0000      7.8605      2.4030      0.0352     14.9712     74.8315     26.0227
   993.1000      7.8605      2.3967     -0.0001     15.3523     82.4490     26.4367
   993.2000      7.8605      2.4045      0.0540     14.8762     95.2113     27.1333
   993.3000      7.8624      2.4189      0.0430     14.0056    104.9925     27.6155
   993.4000      7.8624      2.4314      0.0261     13.2482    107.8467     27.5731
   993.5000      7.8621      2.4445      0.0366     12.4567    105.9079     26.7372
   993.6000      7.8621      2.4631     -0.0015     11.3276    105.0071     25.1585
   993.7000      7.8621      2.4908      0.0219      9.6479    107.9702     23.9478
