~Version Information
VERS.                      2.0: CWLS Log ASCII Standard - VERSION 2.0
WRAP.                       NO: One line per depth step
~Well Information Block
STRT.FT               875.0000: 
STOP.FT              2054.5000: 
STEP.FT                 0.2500: 
NULL.                -999.2500: 
COMP.          Pioneer Natural Resources: COMPANY
WELL.          Woodstock 43-19: WELL
FLD.           Purgatoire River: FIELD
LOC.           2195' FSL & 250' FEL: LOCATION
CNTY.               Las Animas: COUNTY
SRVC.                Patterson: SERVICE COMPANY
DATE.          Thu Feb 02 03:08:19 2006: LOG DATE
UWI.           05 071 08677 00: UNIQUE WELL ID
STAT.                 Colorado: STATE
~Curve Information Block
DEPT.FT            0 000 00 00: Depth
SN.Ohm-m                      : IEL Short Normal
SP.mV                         : IEL Spontaneous Potential
DIR.Ohm-m                     : IEL Induction Resistivity
GR.GAPI                       : Gamma Ray
~Parameter Information Block
~A  Depth        SN          SP         DIR          GR     
# ...
  1243.5000   2000.0000   2000.0000     15.8248    154.8927
  1243.7500   2000.0000   2000.0000     15.7257    155.1288
  1244.0000   2000.0000   2000.0000     15.6392    151.3738
  1244.2500   2000.0000   2000.0000     15.5735    146.6318
  1244.5000   2000.0000   2000.0000     15.5495    136.6608
  1244.7500   2000.0000   2000.0000     15.5892    128.7099
  1245.0000   2000.0000   2000.0000     15.7074    116.5541
  1245.2500   2000.0000   2000.0000     15.9124    109.2018
  1245.5000   2000.0000   2000.0000     16.2099     99.9146
  1245.7500   2000.0000   2000.0000     16.6029     94.8853
  1246.0000   2000.0000   2000.0000     17.0823     89.4749
  1246.2500   2000.0000   2000.0000     17.6156     87.9498
  1246.5000   2000.0000   2000.0000     18.1458     89.7854
  1246.7500   2000.0000   2000.0000     18.6067     93.5893
  1247.0000   2000.0000   2000.0000     18.9459    101.2499
  1247.2500   2000.0000   2000.0000     19.1430    106.1069
  1247.5000   2000.0000   2000.0000     19.2100    111.1091
  1247.7500   2000.0000   2000.0000     19.1749    112.8056
  1248.0000   2000.0000   2000.0000     19.0611    114.2587
  1248.2500   2000.0000   2000.0000     18.8746    115.5494
  1248.5000   2000.0000   2000.0000     18.6066    118.8793
  1248.7500   2000.0000   2000.0000     18.2472    121.7685
  1249.0000   2000.0000   2000.0000     17.7970    125.7830
  1249.2500   2000.0000   2000.0000     17.2697    127.4254
  1249.5000   2000.0000   2000.0000     16.6912    127.4787
  1249.7500   2000.0000   2000.0000     16.0974    125.9627
  1250.0000   2000.0000   2000.0000     15.5294    122.8136
  1250.2500   2000.0000   2000.0000     15.0217    121.6187
  1250.5000   2000.0000   2000.0000     14.5874    123.3477
  1250.7500   2000.0000   2000.0000     14.2128    126.8772
  1251.0000   2000.0000   2000.0000     13.8660    133.3357
  1251.2500   2000.0000   2000.0000     13.5175    136.5736
  1251.5000   2000.0000   2000.0000     13.1577    138.2674
  1251.7500   2000.0000   2000.0000     12.7992    137.7186
  1252.0000   2000.0000   2000.0000     12.4630    136.2531
  1252.2500   2000.0000   2000.0000     12.1631    135.7664
  1252.5000   2000.0000   2000.0000     11.8992    136.2663
  1252.7500   2000.0000   2000.0000     11.6599    137.0897
  1253.0000   2000.0000   2000.0000     11.4318    138.0370
  1253.2500   2000.0000   2000.0000     11.2066    138.1525
  1253.5000   2000.0000   2000.0000     10.9839    138.0922
  1253.7500   2000.0000   2000.0000     10.7691    138.5837
  1254.0000   2000.0000   2000.0000     10.5704    140.8149
  1254.2500   2000.0000   2000.0000     10.3976    143.1699
  1254.5000   2000.0000   2000.0000     10.2600    147.3984
  1254.7500   2000.0000   2000.0000     10.1624    150.4007
  1255.0000   2000.0000   2000.0000     10.1023    154.6532
  1255.2500   2000.0000   2000.0000     10.0710    156.8374
  1255.5000   2000.0000   2000.0000     10.0601    158.4470
  1255.7500   2000.0000   2000.0000     10.0691    158.5039
  1256.0000   2000.0000   2000.0000     10.1087    158.1364
  1256.2500   2000.0000   2000.0000     10.1961    158.3284
  1256.5000   2000.0000   2000.0000     10.3457    159.8428
  1256.7500   2000.0000   2000.0000     10.5617    161.2878
  1257.0000   2000.0000   2000.0000     10.8360    162.1942
  1257.2500   2000.0000   2000.0000     11.1557    160.4741
  1257.5000   2000.0000   2000.0000     11.5115    152.4270
  1257.7500   2000.0000   2000.0000     11.9023    143.1826
  1258.0000   2000.0000   2000.0000     12.3323    125.1672
  1258.2500   2000.0000   2000.0000     12.8060    112.3808
  1258.5000   2000.0000   2000.0000     13.3277     95.7297
  1258.7500   2000.0000   2000.0000     13.9031     87.6256
  1259.0000   2000.0000   2000.0000     14.5396     80.0212
  1259.2500   2000.0000   2000.0000     15.2381     77.2718
  1259.5000   2000.0000   2000.0000     15.9814     75.5465
  1259.7500   2000.0000   2000.0000     16.7228     75.7108
  1260.0000   2000.0000   2000.0000     17.3850     77.7233
  1260.2500   2000.0000   2000.0000     17.8703     80.1194
  1260.5000   2000.0000   2000.0000     18.0826     85.0515
  1260.7500   2000.0000   2000.0000     17.9579     89.1131
  1261.0000   2000.0000   2000.0000     17.4956     96.3276
  1261.2500   2000.0000   2000.0000     16.7672    102.0358
  1261.5000   2000.0000   2000.0000     15.8897    112.3582
  1261.7500   2000.0000   2000.0000     14.9771    120.4261
  1262.0000   2000.0000   2000.0000     14.1063    133.4892
  1262.2500   2000.0000   2000.0000     13.3138    142.0724
  1262.5000   2000.0000   2000.0000     12.6072    153.8979
  1262.7500   2000.0000   2000.0000     11.9791    160.9851
  1263.0000   2000.0000   2000.0000     11.4150    170.1782
  1263.2500   2000.0000   2000.0000     10.8984    174.9262
  1263.5000   2000.0000   2000.0000     10.4145    179.5645
  1263.7500   2000.0000   2000.0000      9.9540    181.3082
  1264.0000   2000.0000   2000.0000      9.5148    182.6366
  1264.2500   2000.0000   2000.0000      9.1017    182.6837
  1264.5000   2000.0000   2000.0000      8.7231    181.2182
  1264.7500   2000.0000   2000.0000      8.3881    179.4358
  1265.0000   2000.0000   2000.0000      8.1029    176.4851
  1265.2500   2000.0000   2000.0000      7.8693    174.6048
  1265.5000   2000.0000   2000.0000      7.6852    171.6097
  1265.7500   2000.0000   2000.0000      7.5460    169.4559
  1266.0000   2000.0000   2000.0000      7.4466    166.9787
  1266.2500   2000.0000   2000.0000      7.3814    166.6315
  1266.5000   2000.0000   2000.0000      7.3434    168.2688
  1266.7500   2000.0000   2000.0000      7.3246    169.9532
  1267.0000   2000.0000   2000.0000      7.3170    171.4449
  1267.2500   2000.0000   2000.0000      7.3150    171.2664
  1267.5000   2000.0000   2000.0000      7.3157    169.9697
  1267.7500   2000.0000   2000.0000      7.3175    169.1702
  1268.0000   2000.0000   2000.0000      7.3180    168.6696
  1268.2500   2000.0000   2000.0000      7.3135    168.7071
  1268.5000   2000.0000   2000.0000      7.3003    169.1976
  1268.7500   2000.0000   2000.0000      7.2774    169.9253
  1269.0000   2000.0000   2000.0000      7.2474    171.4363
  1269.2500   2000.0000   2000.0000      7.2152    172.1456
  1269.5000   2000.0000   2000.0000      7.1851    171.8150
  1269.7500   2000.0000   2000.0000      7.1588    170.8363
  1270.0000   2000.0000   2000.0000      7.1360    169.7634
  1270.2500   2000.0000   2000.0000      7.1170    170.1339
  1270.5000   2000.0000   2000.0000      7.1034    172.3688
  1270.7500   2000.0000   2000.0000      7.0973    174.3216
  1271.0000   2000.0000   2000.0000      7.0980    176.7225
  1271.2500   2000.0000   2000.0000      7.1012    177.6014
  1271.5000   2000.0000   2000.0000      7.1008    177.7705
  1271.7500   2000.0000   2000.0000      7.0919    177.2948
  1272.0000   2000.0000   2000.0000      7.0729    176.4936
  1272.2500   2000.0000   2000.0000      7.0457    176.6478
  1272.5000   2000.0000   2000.0000      7.0145    178.8728
  1272.7500   2000.0000   2000.0000      6.9839    181.5756
  1273.0000   2000.0000   2000.0000      6.9573    186.3412
  1273.2500   2000.0000   2000.0000      6.9366    189.3161
  1273.5000   2000.0000   2000.0000      6.9215    192.6344
  1273.7500   2000.0000   2000.0000      6.9115    193.6873
  1274.0000   2000.0000   2000.0000      6.9062    193.3118
  1274.2500   2000.0000   2000.0000      6.9057    192.2187
  1274.5000   2000.0000   2000.0000      6.9101    190.5914
  1274.7500   2000.0000   2000.0000      6.9191    189.7412
  1275.0000   2000.0000   2000.0000      6.9321    187.8506
  1275.2500   2000.0000   2000.0000      6.9487    185.6009
  1275.5000   2000.0000   2000.0000      6.9707    181.1517
  1275.7500   2000.0000   2000.0000      7.0031    178.2674
  1276.0000   2000.0000   2000.0000      7.0543    175.0193
  1276.2500   2000.0000   2000.0000      7.1332    173.6510
  1276.5000   2000.0000   2000.0000      7.2467    172.5089
  1276.7500   2000.0000   2000.0000      7.3955    172.1056
