~Version Information
VERS.                      2.0: CWLS Log ASCII Standard - VERSION 2.0
WRAP.                       NO: One line per depth step
~Well Information Block
STRT.FT                -9.5000: 
STOP.FT              2305.7500: 
STEP.FT                 0.2500: 
NULL.                -999.2500: 
COMP.          Pioneer Natural Resources: COMPANY
WELL.          Fittipaldi 21-12: WELL
FLD.           Purgatorie River: FIELD
LOC.           207' FNL & 2110' FWL--: LOCATION
CNTY.               Las Animas: COUNTY
SRVC.          Patterson Wireline: SERVICE COMPANY
DATE.          Wed Apr 12 10:38:25 2006: LOG DATE
UWI.           05 071 08492 00: UNIQUE WELL ID
STAT.                       CO: STATE
~Curve Information Block
DEPT.FT            0 000 00 00: Depth
CCL.                          : Casing Collar Locator
TT3.usec                      : CBL 3' Travel Time
AMP3.mV                       : CBL 3' Amplitude
GR.GAPI                       : Gamma Ray
~Parameter Information Block
~A  Depth       CCL         TT3         AMP3         GR     
# ...
   158.0000      0.0000    750.8593      5.4688     51.6262
   158.2500      0.0000    762.9373      5.4456     50.3828
   158.5000      0.0000    771.9836      5.4155     50.5530
   158.7500      0.0000    777.6411      5.3813     51.8424
   159.0000      0.0000    779.3668      5.3498     53.5516
   159.2500      0.0000    776.6624      5.3232     54.7937
   159.5000      0.0000    769.7209      5.2955     55.2561
   159.7500      0.0000    759.6033      5.2588     55.5855
   160.0000      0.0000    748.3605      5.2136     56.9162
   160.2500      0.0000    738.9988      5.1697     60.1115
   160.5000      0.0000    734.2215      5.1372     65.2756
   160.7500      0.0000    734.4865      5.1174     71.6327
   161.0000      0.0000    737.3179      5.1006     77.9563
   161.2500      0.0000    738.3837      5.0723     83.4134
   161.5000      0.0000    733.8233      5.0249     88.0315
   161.7500      0.0000    723.2167      4.9691     92.4139
   162.0000      0.0000    711.3094      4.9279     97.0456
   162.2500      0.0000    705.8172      4.9074    101.5567
   162.5000      0.0000    711.9056      4.8790    104.5130
   162.7500      0.0000    727.8735      4.8130    104.2973
   163.0000      0.0000    746.4415      4.7214    100.4243
   163.2500      0.0000    760.7538      4.6460     94.0184
   163.5000      2.0000    768.9238      4.6115     87.3069
   163.7500      0.0000    772.3639      4.6090     82.7241
   164.0000      0.0000    771.0559      4.6153     81.8116
   164.2500      0.0000    762.9012      4.6175     84.2730
   164.5000      0.0000    747.9415      4.6243     88.1449
   164.7500      0.0000    731.1345      4.6621     91.2606
   165.0000      0.0000    719.6708      4.7531     92.5772
   165.2500      0.0000    717.9967      4.8918     92.0788
   165.5000      0.0000    725.6679      5.0404     89.9193
   165.7500      0.0000    738.9710      5.1528     86.0658
   166.0000      0.0000    753.5685      5.2056     80.4892
   166.2500      0.0000    766.0131      5.2097     73.4622
   166.5000      0.0000    774.4274      5.1949     65.8872
   166.7500      0.0000    778.6987      5.1864     59.3370
   167.0000      0.0000    779.7034      5.1903     55.2850
   167.2500      0.0000    777.9854      5.1980     53.8727
   167.5000      0.0000    773.6400      5.2017     53.6983
   167.7500      0.0000    767.4100      5.2065     53.2742
   168.0000      0.0000    760.9810      5.2257     52.4817
   168.2500      0.0000    755.7835      5.2646     52.1982
   168.5000      0.0000    751.8214      5.3101     52.8623
   168.7500      0.0000    747.9265      5.3381     54.0092
   169.0000      0.0000    743.2281      5.3334     55.0401
   169.2500      0.0000    738.3466      5.3017     55.8680
   169.5000      0.0000    734.8261      5.2648     56.7417
   169.7500      0.0000    733.4039      5.2435     57.7374
   170.0000      0.0000    733.3214      5.2422     58.5139
   170.2500      0.0000    733.3021      5.2508     58.4631
   170.5000      0.0000    732.3205      5.2563     57.1026
   170.7500      0.0000    729.3315      5.2542     54.4633
   171.0000      0.0000    723.5440      5.2489     51.1818
   171.2500      0.0000    715.6458      5.2453     48.2885
   171.5000      0.0000    707.9586      5.2413     46.8795
   171.7500      0.0000    702.8999      5.2314     47.5569
   172.0000      0.0000    701.6163      5.2160     49.7480
   172.2500      0.0000    703.9595      5.2043     51.8055
   172.5000      0.0000    709.0799      5.2066     52.3193
   172.7500      0.0000    716.0029      5.2259     51.3952
   173.0000      0.0000    724.1493      5.2568     50.4248
   173.2500      0.0000    733.5419      5.2897     50.8045
   173.5000      0.0000    744.4883      5.3133     53.1144
   173.7500      0.0000    756.9850      5.3172     57.0359
   174.0000      0.0000    770.1274      5.2985     61.4486
   174.2500      0.0000    781.9192      5.2651     64.8755
   174.5000      0.0000    789.9926      5.2290     66.5154
   174.7500      0.0000    793.0080      5.1960     66.8531
   175.0000      0.0000    791.6879      5.1631     66.8249
   175.2500      0.0000    788.5351      5.1289     66.4263
   175.5000      0.0000    785.9520      5.1025     64.7338
   175.7500      0.0000    783.7976      5.0990     61.6180
   176.0000      0.0000    778.8459      5.1276     58.8068
   176.2500      0.0000    767.6390      5.1833     58.3794
   176.5000      0.0000    750.3235      5.2490     60.2312
   176.7500      0.0000    731.2145      5.3030     61.8537
   177.0000      0.0000    715.4281      5.3326     61.0315
   177.2500      0.0000    705.3889      5.3416     58.2700
   177.5000      0.0000    700.3765      5.3429     56.0699
   177.7500      0.0000    698.3346      5.3432     56.2492
   178.0000      0.0000    697.5434      5.3375     58.5948
   178.2500      0.0000    697.1253      5.3187     61.6276
   178.5000      0.0000    696.8218      5.2891     63.7798
   178.7500      0.0000    696.6733      5.2617     64.0504
   179.0000      0.0000    696.9094      5.2508     62.4519
   179.2500      0.0000    698.0663      5.2611     60.0208
   179.5000      0.0000    701.0433      5.2839     57.9662
   179.7500      0.0000    706.6791      5.3043     56.7215
   180.0000      0.0000    714.8753      5.3126     55.8463
   180.2500      0.0000    724.1279      5.3113     54.5656
   180.5000      0.0000    732.2825      5.3094     52.3135
   180.7500      0.0000    737.9404      5.3114     49.2289
   181.0000      0.0000    741.0903      5.3133     46.4113
   181.2500      0.0000    742.5589      5.3083     45.3276
   181.5000      0.0000    743.1642      5.2935     46.6086
   181.7500      0.0000    743.3529      5.2715     49.5000
   182.0000      0.0000    743.2957      5.2481     52.5213
   182.2500      0.0000    743.0852      5.2268     54.4722
   182.5000      0.0000    742.8210      5.2060     54.9104
   182.7500      0.0000    742.5772      5.1830     54.0309
   183.0000      0.0000    742.3167      5.1579     52.4126
   183.2500      0.0000    741.8038      5.1368     50.9841
   183.5000      0.0000    740.5321      5.1292     50.8091
   183.7500      0.0000    737.8173      5.1433     52.2049
   184.0000      0.0000    733.3719      5.1793     54.1024
   184.2500      0.0000    728.1646      5.2293     54.9338
   184.5000      0.0000    724.4792      5.2836     54.2865
   184.7500      0.0000    724.3260      5.3346     53.2236
   185.0000      0.0000    727.5860      5.3753     52.8489
   185.2500      0.0000    732.0903      5.3953     53.0420
   185.5000      0.0000    735.2827      5.3838     53.0443
   185.7500      0.0000    735.2260      5.3390     52.9489
   186.0000      0.0000    730.7813      5.2741     53.7414
   186.2500      0.0000    722.3557      5.2112     55.6174
   186.5000      0.0000    712.4107      5.1689     57.1540
   186.7500      0.0000    704.0630      5.1534     56.8118
   187.0000      0.0000    699.0345      5.1590     54.6075
   187.2500      0.0000    697.3221      5.1758     51.7195
   187.5000      0.0000    698.2619      5.1973     49.0809
   187.7500      0.0000    701.1278      5.2209     46.8784
   188.0000      0.0000    704.9832      5.2405     44.9436
   188.2500      0.0000    708.9607      5.2454     43.2118
   188.5000      0.0000    713.1793      5.2284     42.0682
   188.7500      0.0000    718.8241      5.1944     42.3585
   189.0000      0.0000    726.7790      5.1557     44.7941
   189.2500      0.0000    736.2970      5.1200     49.1756
   189.5000      0.0000    745.1876      5.0883     54.1447
   189.7500      0.0000    751.1368      5.0608     57.6834
   190.0000      0.0000    753.0446      5.0395     58.1953
   190.2500      0.0000    751.5887      5.0235     55.6837
   190.5000      0.0000    748.6186      5.0095     51.9044
   190.7500      0.0000    745.8471      4.9969     48.9878
   191.0000      0.0000    743.9660      4.9881     47.9684
   191.2500      0.0000    742.6916      4.9834     48.7543
