~Version Information
VERS.                      2.0: CWLS Log ASCII Standard - VERSION 2.0
WRAP.                       NO: One line per depth step
~Well Information Block
STRT.FT                -3.0000: 
STOP.FT              1123.0000: 
STEP.FT                 0.2500: 
NULL.                -999.2500: 
COMP.          Pioneer Natural Resources: COMPANY
WELL.               Ryan 41-17: WELL
FLD.           Purgatoire River: FIELD
LOC.           822' FNL & 532' FEL--: LOCATION
CNTY.               Las Animas: COUNTY
SRVC.                Patterson: SERVICE COMPANY
DATE.          Mon Mar 27 14:50:31 2006: LOG DATE
UWI.           05 071 08719 00: UNIQUE WELL ID
STAT.                 Colorado: STATE
~Curve Information Block
DEPT.FT            0 000 00 00: Depth
CCL.                          : Casing Collar Locator
TT3.usec                      : CBL 3' Travel Time
AMP3.mV                       : CBL 3' Amplitude
GR.GAPI                       : Gamma Ray
~Parameter Information Block
~A  Depth       CCL         TT3         AMP3         GR     
# ...
  1069.0000      0.0000    637.5237      9.4843     60.4978
  1069.2500      0.0000    662.0795      9.1943     55.7972
  1069.5000      0.0000    693.6381      8.6341     46.3955
  1069.7500      0.0000    706.7582      8.2772     40.3069
  1070.0000      0.0000    716.1230      7.8350     35.1964
  1070.2500      0.0000    718.3007      7.5808     35.4716
  1070.5000      0.0000    718.7549      7.2174     39.4707
  1070.7500      0.0000    717.8762      6.9917     42.1959
  1071.0000      0.0000    715.1749      6.6952     43.8566
  1071.2500      0.0000    712.9054      6.5114     43.6807
  1071.5000      0.0000    710.2284      6.2306     43.5291
  1071.7500      0.0000    709.5963      6.0704     44.1643
  1072.0000      0.0000    710.0040      5.9904     45.9954
  1072.2500      0.0000    710.1680      6.0875     47.4823
  1072.5000      0.0000    708.9120      6.4038     49.6617
  1072.7500      0.0000    707.3432      6.6501     50.6236
  1073.0000      0.0000    705.7936      6.9804     50.3368
  1073.2500      0.0000    706.2656      7.1709     48.9687
  1073.5000      0.0000    709.2833      7.4317     47.0502
  1073.7500      0.0000    712.0603      7.5773     47.5940
  1074.0000      0.0000    716.0632      7.7017     52.6704
  1074.2500      0.0000    718.5984      7.7105     57.9767
  1074.5000      0.0000    723.8366      7.6593     65.0303
  1074.7500      0.0000    729.8671      7.6243     67.1432
  1075.0000      0.0000    744.6085      7.5985     65.6001
  1075.2500      0.0000    757.7000      7.5798     62.4715
  1075.5000      0.0000    778.3582      7.5018     57.2409
  1075.7500      0.0000    790.3240      7.4092     54.4785
  1076.0000      0.0000    804.1187      7.2356     52.0752
  1076.2500      0.0000    811.5828      7.1152     51.4008
  1076.5000      0.0000    822.5749      6.9426     50.6460
  1076.7500      0.0000    829.9919      6.8362     49.7969
  1077.0000      0.0000    839.5248      6.6984     48.6019
  1077.2500      0.0000    843.8270      6.6267     48.7998
  1077.5000      0.0000    847.1776      6.5511     51.3084
  1077.7500      0.0000    848.0552      6.5147     53.8165
  1078.0000      0.0000    848.5685      6.4599     56.8516
  1078.2500      0.0000    848.7855      6.4143     57.6479
  1078.5000      0.0000    849.2467      6.3356     57.3195
  1078.7500      0.0000    849.7625      6.2886     56.8923
  1079.0000      0.0000    851.0740      6.2496     57.0274
  1079.2500      0.0000    852.2770      6.2497     57.4948
  1079.5000      0.0000    853.6643      6.2779     57.4126
  1079.7500      0.0000    853.1470      6.3037     56.3707
  1080.0000      0.0000    847.6690      6.3399     54.7387
  1080.2500      0.0000    839.6782      6.3615     55.1804
  1080.5000      0.0000    820.8739      6.3965     59.1009
  1080.7500      0.0000    805.1208      6.4251     62.6192
  1081.0000      0.0000    781.0773      6.4759     65.7650
  1081.2500      0.0000    767.3509      6.5097     65.3224
  1081.5000      0.0000    752.0796      6.5481     61.6844
  1081.7500      0.0000    744.7934      6.5612     58.5802
  1082.0000      0.0000    736.3829      6.5625     54.5975
  1082.2500      0.0000    732.4374      6.5538     52.8705
  1082.5000      0.0000    730.7999      6.5322     52.2638
  1082.7500      0.0000    733.4435      6.5172     53.3273
  1083.0000      0.0000    742.3138      6.5050     56.3358
  1083.2500      0.0000    749.6631      6.5088     58.2974
  1083.5000      0.0000    758.4930      6.5339     59.5836
  1083.7500      0.0000    760.8317      6.5613     58.8673
  1084.0000      0.0000    758.0774      6.6115     55.6202
  1084.2500      0.0000    753.3682      6.6460     52.8749
  1084.5000      0.0000    747.1597      6.6923     50.4762
  1084.7500      0.0000    747.5980      6.7202     51.1919
  1085.0000      0.0000    760.1237      6.7647     54.8900
  1085.2500      0.0000    775.8990      6.7976     57.0125
  1085.5000      0.0000    803.0247      6.8417     56.2882
  1085.7500      0.0000    817.0026      6.8565     52.8937
  1086.0000      0.0000    823.1815      6.8427     45.9936
  1086.2500      0.0000    815.9152      6.8098     42.4321
  1086.5000      0.0000    792.5815      6.7384     41.5276
  1086.7500      0.0000    774.7988      6.6854     44.2377
  1087.0000      0.0000    756.0448      6.6090     51.5284
  1087.2500      0.0000    752.3675      6.5663     56.9332
  1087.5000      0.0000    757.8754      6.5296     63.9451
  1087.7500      0.0000    764.5410      6.5318     67.6675
  1088.0000      0.0000    772.1216      6.5781     72.3653
  1088.2500      0.0000    773.1691      6.6283     75.2429
  1088.5000      0.0000    766.7443      6.7052     79.3421
  1088.7500      0.0000    757.5256      6.7422     81.7677
  1089.0000      0.0000    740.6815      6.7591     84.2849
  1089.2500      0.0000    730.8674      6.7406     84.7452
  1089.5000      0.0000    721.4724      6.6716     83.3146
  1089.7500      0.0000    718.4598      6.6055     81.3209
  1090.0000      0.0000    716.6927      6.4936     77.9220
  1090.2500      0.0000    716.3212      6.4215     75.8187
  1090.5000      0.0000    716.1497      6.3407     72.9536
  1090.7500      0.0000    716.2195      6.3191     71.2081
  1091.0000      0.0000    716.8667      6.3433     69.1227
  1091.2500      0.0000    717.9013      6.3859     68.0766
  1091.5000      0.0000    720.5499      6.4577     66.0516
  1091.7500      0.0000    722.8935      6.4993     63.7269
  1092.0000      0.0000    727.0164      6.5562     59.0147
  1092.2500      0.0000    730.4709      6.6004     56.2032
  1092.5000      0.0000    737.6082      6.6938     54.8199
  1092.7500      0.0000    743.3173      6.7827     56.3715
  1093.0000      0.0000    750.0297      6.9623     61.3158
  1093.2500      0.0000    750.8964      7.1112     65.0056
  1093.5000      0.0000    745.5207      7.3749     69.2315
  1093.7500      0.0000    739.0700      7.5773     70.7463
  1094.0000      0.0000    729.4818      7.9062     71.1402
  1094.2500      0.0000    724.9334      8.1227     70.4438
  1094.5000      0.0000    721.3943      8.4180     68.8837
  1094.7500      0.0000    720.5722      8.6013     68.2666
  1095.0000      0.0000    720.3518      8.8844     69.1268
  1095.2500      0.0000    720.4031      9.0819     70.8565
  1095.5000      0.0000    720.4321      9.3624     73.1460
  1095.7500      0.0000    720.3751      9.5205     72.7971
  1096.0000      0.0000    720.2339      9.7100     68.6394
  1096.2500      0.0000    720.1597      9.8126     64.8137
  1096.5000      0.0000    720.1362      9.9334     60.9411
  1096.7500      0.0000    720.1651      9.9830     60.6298
  1097.0000      0.0000    720.1964      9.9976     62.6656
  1097.2500      0.0000    720.1716      9.9714     64.2831
  1097.5000      0.0000    720.0690      9.9074     65.2194
  1097.7500      0.0000    719.9868      9.8703     64.8045
  1098.0000      0.0000    719.8774      9.8485     64.0824
  1098.2500      0.0000    719.8127      9.8533     64.4785
  1098.5000      0.0000    719.7381      9.8489     66.8379
  1098.7500      0.0000    719.7412      9.8075     69.0910
  1099.0000      0.0000    719.9056      9.6669     72.4431
  1099.2500      0.0000    720.1237      9.5371     74.5515
  1099.5000      0.0000    720.4977      9.3384     77.8210
  1099.7500      0.0000    720.6555      9.2249     79.7580
  1100.0000      0.0000    720.4807      9.0915     80.8375
  1100.2500      0.0000    719.8838      9.0152     79.9238
  1100.5000      0.0000    717.9939      8.8773     77.2815
  1100.7500      0.0000    716.2136      8.7470     75.8121
  1101.0000      0.0000    713.8146      8.4987     74.7373
  1101.2500      0.0000    713.1538      8.3311     74.1938
  1101.5000      0.0000    713.9804      8.1408     72.3147
  1101.7500      0.0000    715.2809      8.0656     70.1755
  1102.0000      0.0000    717.2158      7.9945     66.4003
  1102.2500      0.0000    718.1288      7.9484     63.7608
