~Version Information
VERS.                      2.0: CWLS Log ASCII Standard - VERSION 2.0
WRAP.                       NO: One line per depth step
~Well Information Block
STRT.FT               615.0000: 
STOP.FT              2807.0000: 
STEP.FT                 0.1000: 
NULL.                -999.2500: 
COMP.          Pioneer Natural Resources: COMPANY
WELL.              Loews 41-32: WELL
FLD.           Purgatoire River: FIELD
LOC.           751' FNL & 128' FEL: LOCATION
CNTY.               Las Animas: COUNTY
SRVC.                Patterson: SERVICE COMPANY
DATE.          Mon Feb 13 07:19:27 2006: LOG DATE
UWI.           05 071 08693 00: UNIQUE WELL ID
STAT.                 Colorado: STATE
~Curve Information Block
DEPT.FT            0 000 00 00: Depth
DCAL.in                       : CDL Caliper
RHOB.g/cc                     : CDL Bulk Density
RHOC.g/cc                     : CDL Density Correction
DPOR.pu                       : CDL Density Porosity
GR.GAPI                       : Gamma Ray
NPOR.pu                       : Neutron Porosity
~Parameter Information Block
~A  Depth       DCAL        RHOB        RHOC        DPOR         GR         NPOR    
# ...
  2650.2000      8.4188      2.1275     -0.0437     31.6664     68.2597     24.6629
  2650.3000      8.4530      1.8795     -0.1559     46.6973     65.9753     24.7564
  2650.4000      8.4530      1.6799     -0.2200     58.7944     66.0850     25.1300
  2650.5000      8.5855      1.5857     -0.1755     64.5019     71.7709     26.0756
  2650.6000      8.5855      1.5733     -0.2145     65.2532     81.6488     27.2153
  2650.7000      8.5855      1.6310     -0.2202     61.7549     89.4610     28.0430
  2650.8000      8.4982      1.7674     -0.0564     53.4913     88.2062     28.5207
  2650.9000      8.4982      1.9442      0.2300     42.7770     80.0968     28.8458
  2651.0000      8.4879      2.0987      0.2607     33.4100     75.8919     28.8193
  2651.1000      8.4879      2.2102      0.2826     26.6551     80.3875     28.2825
  2651.2000      8.4879      2.2885      0.2901     21.9110     86.6055     27.7324
  2651.3000      8.5130      2.3388      0.3077     18.8590     86.6084     27.5847
  2651.4000      8.5130      2.3563      0.2869     17.8015     80.5039     27.8880
  2651.5000      8.4949      2.3345      0.2596     19.1190     76.4927     28.6457
  2651.6000      8.4949      2.2793      0.1101     22.4641     82.2502     29.5796
  2651.7000      8.4949      2.2088      0.0420     26.7371     93.8610     30.0962
  2651.8000      8.4303      2.1423     -0.0043     30.7710    101.6601     29.8272
  2651.9000      8.4303      2.1062     -0.0267     32.9594    102.2828     29.3053
  2652.0000      8.3667      2.1137      0.0570     32.5059     99.1395     29.2997
  2652.1000      8.3667      2.1420      0.0696     30.7899     96.0050     29.7417
  2652.2000      8.3667      2.1697      0.0620     29.1117     95.6903     30.0094
  2652.3000      8.3517      2.1989      0.1128     27.3370     97.6679     30.0857
  2652.4000      8.3517      2.2352      0.1897     25.1380     98.3005     30.4028
  2652.5000      8.3345      2.2737      0.2835     22.8087     98.3616     30.8105
  2652.6000      8.3345      2.3109      0.2460     20.5523    100.7181     30.9688
  2652.7000      8.3345      2.3509      0.2234     18.1247    104.2795     30.8413
  2652.8000      8.3327      2.3818      0.2133     16.2562    103.0389     30.3995
  2652.9000      8.3327      2.3812      0.1339     16.2882     95.3972     29.8017
  2653.0000      8.3303      2.3537      0.0433     17.9553     88.2752     29.3712
  2653.1000      8.3303      2.3250      0.0374     19.6953     87.1318     29.3808
  2653.2000      8.3303      2.3128      0.0233     20.4337     89.3614     29.8656
  2653.3000      8.3231      2.3214      0.0173     19.9138     90.7768     30.4970
  2653.4000      8.3231      2.3401      0.0663     18.7816     90.1236     31.2565
  2653.5000      8.3293      2.3497      0.0397     18.1983     86.9311     31.9408
  2653.6000      8.3293      2.3495     -0.0077     18.2115     83.7983     31.8152
  2653.7000      8.3293      2.3539      0.0165     17.9438     84.3687     30.9520
  2653.8000      8.3310      2.3634      0.0430     17.3719     88.2856     30.3919
  2653.9000      8.3310      2.3704      0.0265     16.9462     93.4033     30.5532
  2654.0000      8.3305      2.3758      0.0324     16.6185     98.2061     30.7359
  2654.1000      8.3305      2.3808      0.0428     16.3131    100.3002     30.5128
  2654.2000      8.3305      2.3825      0.0537     16.2120     98.0896     30.5594
  2654.3000      8.3297      2.3782      0.0362     16.4751     94.8248     31.2626
  2654.4000      8.3297      2.3705      0.0402     16.9399     93.3622     31.6560
  2654.5000      8.3231      2.3685      0.0350     17.0579     91.4439     30.9339
  2654.6000      8.3231      2.3791      0.0468     16.4154     89.6277     29.7969
  2654.7000      8.3231      2.4014      0.0469     15.0691     93.3356     29.1016
  2654.8000      8.3145      2.4337      0.0445     13.1088    101.0037     28.7562
  2654.9000      8.3145      2.4751      0.0667     10.5982    105.7643     28.5686
  2655.0000      8.3006      2.5128      0.1222      8.3129    105.5735     28.5288
  2655.1000      8.3006      2.5290      0.1095      7.3309    101.0202     28.5888
  2655.2000      8.3006      2.5229      0.1262      7.7021     96.7795     28.6833
  2655.3000      8.2952      2.5148      0.0469      8.1933     96.9100     28.4414
  2655.4000      8.2952      2.5255      0.0900      7.5424     97.3195     27.8879
  2655.5000      8.2891      2.5435      0.1115      6.4576     95.3374     27.6598
  2655.6000      8.2891      2.5382      0.0643      6.7773     92.8812     27.8407
  2655.7000      8.2891      2.5097     -0.0250      8.5014     91.2395     27.8417
  2655.8000      8.2832      2.4855      0.0063      9.9717     91.8291     27.6583
  2655.9000      8.2832      2.4792      0.0090     10.3488     93.1141     27.9141
  2656.0000      8.2824      2.4840      0.0170     10.0635     89.9484     28.6508
  2656.1000      8.2824      2.4848      0.0203     10.0123     83.7254     29.1979
  2656.2000      8.2824      2.4714      0.0145     10.8263     82.9510     29.3331
  2656.3000      8.2814      2.4416      0.0071     12.6293     87.2686     29.5325
  2656.4000      8.2814      2.3948     -0.0007     15.4656     88.3394     29.6650
  2656.5000      8.2807      2.3280     -0.0077     19.5178     84.4422     29.2605
  2656.6000      8.2807      2.2464     -0.0540     24.4593     80.2547     28.7774
  2656.7000      8.2807      2.1743     -0.0750     28.8306     78.9819     28.8675
  2656.8000      8.2815      2.1424     -0.1236     30.7666     80.3221     29.3067
  2656.9000      8.2815      2.1563     -0.0815     29.9202     82.3623     29.6269
  2657.0000      8.2788      2.1857      0.0007     28.1364     82.3316     30.0838
  2657.1000      8.2788      2.2078      0.0156     26.8013     77.7690     30.8404
  2657.2000      8.2788      2.2381      0.0209     24.9620     70.2440     31.4747
  2657.3000      8.2806      2.2886      0.1018     21.9042     65.9267     31.7938
  2657.4000      8.2806      2.3417      0.1132     18.6876     66.4636     31.7084
  2657.5000      8.2747      2.3867      0.1327     15.9600     67.0148     31.0863
  2657.6000      8.2747      2.4286      0.1377     13.4157     66.8885     30.2959
  2657.7000      8.2747      2.4618      0.1278     11.4077     68.0462     29.7339
  2657.8000      8.2665      2.4748      0.0698     10.6195     70.7532     29.1634
  2657.9000      8.2665      2.4773      0.0354     10.4666     75.6278     28.3408
  2658.0000      8.2532      2.4870      0.0478      9.8811     82.8087     27.4506
  2658.1000      8.2532      2.5051      0.0525      8.7841     90.8960     26.8888
  2658.2000      8.2532      2.5204      0.0396      7.8569     96.3063     26.8957
  2658.3000      8.2479      2.5239      0.0262      7.6424     95.2338     27.1832
  2658.4000      8.2479      2.5203     -0.0186      7.8595     89.8330     27.5328
  2658.5000      8.2445      2.5222     -0.0187      7.7436     86.0701     27.8813
  2658.6000      8.2445      2.5276      0.0489      7.4177     86.0384     27.8655
  2658.7000      8.2445      2.5262      0.0143      7.5042     87.8139     27.5657
  2658.8000      8.2405      2.5234      0.0090      7.6719     89.3412     27.4889
  2658.9000      8.2405      2.5285      0.0171      7.3634     91.0893     27.5424
  2659.0000      8.2369      2.5373      0.0328      6.8300     96.0399     27.4029
  2659.1000      8.2369      2.5413      0.0170      6.5897    104.6824     27.0250
  2659.2000      8.2369      2.5363      0.0408      6.8880    113.1408     26.5945
  2659.3000      8.2328      2.5201      0.0046      7.8725    119.4761     26.4785
  2659.4000      8.2328      2.4987      0.0112      9.1709    124.2337     26.5932
  2659.5000      8.2276      2.4886     -0.0270      9.7793    124.1610     26.6717
  2659.6000      8.2276      2.4941      0.0189      9.4477    118.2923     27.0488
  2659.7000      8.2276      2.5032     -0.0215      8.8998    111.5177     27.8723
