~Version Information
VERS.                      2.0: CWLS Log ASCII Standard - VERSION 2.0
WRAP.                       NO: One line per depth step
~Well Information Block
STRT.FT               -12.0000: 
STOP.FT              1728.0000: 
STEP.FT                 0.2500: 
NULL.                -999.2500: 
COMP.          XTO Energy Inc.: COMPANY
WELL.          Apache Canyon 35-06: WELL
FLD.              Vermejo Coal: FIELD
LOC.           2422' FNL & 1889' FWL--: LOCATION
STAT.                       CO: State
CNTY.               Las Animas: COUNTY
CTRY. USA : Country
SECT.  : Section
TOWN.  : Township
RANG.  : Range
SRVC.          Patterson Wireline: SERVICE COMPANY
DATE.          Fri Jan 06 08:11:44 2006: LOG DATE
API.              05 071 08540: UNIQUE WELL ID
~Curve Information Block
DEPT.FT            0 000 00 00: Depth
CCL.                          : Casing Collar Locator
TT3.usec                      : CBL 3' Travel Time
AMP3.mV                       : CBL 3' Amplitude
GR.GAPI                       : Gamma Ray
~Parameter Information Block
~A  Depth       CCL         TT3         AMP3         GR     
# ...
   557.5000      0.0000    821.9698      6.6642    144.2693
   557.7500      0.0000    812.4809      6.8543    153.0979
   558.0000      0.0000    801.5054      7.0522    159.9135
   558.2500      0.0000    793.5674      7.2621    163.0633
   558.5000      0.0000    793.7275      7.4783    161.5184
   558.7500      0.0000    801.4815      7.6815    155.5931
   559.0000      0.0000    808.0743      7.8539    146.4420
   559.2500      0.0000    803.1112      7.9924    135.3506
   559.5000      0.0000    784.6267      8.1084    124.0138
   559.7500      0.0000    760.5512      8.2161    114.8563
   560.0000      0.0000    740.4964      8.3209    109.8761
   560.2500      0.0000    728.4800      8.4153    108.9518
   560.5000      0.0000    723.0256      8.4862    109.9166
   560.7500      0.0000    721.0218      8.5289    110.4062
   561.0000      0.0000    720.1335      8.5533    109.1218
   561.2500      0.0000    718.7948      8.5740    105.5905
   561.5000      0.0000    715.2964      8.5952     99.8964
   561.7500      0.0000    707.4713      8.6083     93.0606
   562.0000      0.0000    694.1339      8.6040     86.9095
   562.2500      0.0000    677.9689      8.5842     83.0356
   562.5000      0.0000    666.4453      8.5592     81.9428
   562.7500      0.0000    667.7005      8.5373     83.0603
   563.0000      0.0000    683.6920      8.5180     85.2388
   563.2500      0.0000    707.7532      8.4948     87.3812
   563.5000      0.0000    730.2325      8.4631     88.9973
   563.7500      0.0000    746.9283      8.4219     90.3627
   564.0000      0.0000    760.8551      8.3714     92.1403
   564.2500      0.0000    774.8434      8.3104     94.8467
   564.5000      0.0000    785.0688      8.2338     98.5728
   564.7500      0.0000    785.6953      8.1300    102.8794
   565.0000      0.0000    778.8926      7.9847    106.8825
   565.2500      0.0000    775.4473      7.7943    110.0183
   565.5000      0.0000    783.3323      7.5743    113.0216
   565.7500      0.0000    798.2601      7.3518    117.5185
   566.0000      0.0000    806.8193      7.1503    124.3055
   566.2500      0.0000    796.5596      6.9853    132.4617
   566.5000      0.0000    763.5610      6.8673    140.1667
   566.7500      0.0000    715.0553      6.8028    145.6658
   567.0000      0.0000    666.7161      6.7909    147.5133
   567.2500      0.0000    634.9156      6.8213    145.0434
   567.5000      0.0000    628.0392      6.8780    139.1390
   567.7500      0.0000    642.8710      6.9446    131.9124
   568.0000      0.0000    668.4268      7.0071    125.2511
   568.2500      0.0000    693.5865      7.0577    120.0202
   568.5000      0.0000    712.4149      7.0971    116.7355
   568.7500      0.0000    723.8875      7.1289    116.2523
   569.0000      0.0000    728.2925      7.1539    119.0377
   569.2500      0.0000    724.8187      7.1716    124.0091
   569.5000      0.0000    712.4915      7.1884    128.9071
   569.7500      0.0000    693.4868      7.2168    131.9508
   570.0000      0.0000    675.2107      7.2640    132.6479
   570.2500      0.0000    667.4298      7.3257    131.1037
   570.5000      0.0000    675.6864      7.3932    127.3066
   570.7500      0.0000    697.6801      7.4652    121.2783
   571.0000      0.0000    726.0500      7.5474    113.5092
   571.2500      0.0000    752.9299      7.6419    105.0473
   571.5000      0.0000    771.6525      7.7360     97.3821
   571.7500      0.0000    777.6450      7.8048     92.1788
   572.0000      0.0000    771.1583      7.8249     90.6088
   572.2500      0.0000    758.4730      7.7872     92.5072
   572.5000      0.0000    747.9411      7.6984     96.1756
   572.7500      0.0000    744.1524      7.5747     99.2243
   573.0000      0.0000    746.3764      7.4313    100.0326
   573.2500      0.0000    752.0992      7.2771     98.8175
   573.5000      0.0000    760.7298      7.1196     97.4138
   573.7500      0.0000    772.9659      6.9729     97.8907
   574.0000      0.0000    787.2459      6.8540    101.1423
   574.2500      0.0000    798.8992      6.7716    106.4354
   574.5000      0.0000    803.5360      6.7223    111.9305
   574.7500      0.0000    799.8835      6.6944    115.7037
   575.0000      0.0000    789.6005      6.6759    116.7639
   575.2500      0.0000    776.7418      6.6589    115.4234
   575.5000      0.0000    767.4194      6.6436    112.7187
   575.7500      0.0000    766.7350      6.6385    109.4667
   576.0000      0.0000    774.4945      6.6576    105.9181
   576.2500      0.0000    784.6996      6.7140    102.2181
   576.5000      0.0000    789.4568      6.8066     99.1345
   576.7500      0.0000    783.4286      6.9056     98.3338
   577.0000      0.0000    766.0355      6.9588    101.4852
   577.2500      0.0000    741.4271      6.9249    108.5442
   577.5000      0.0000    716.8293      6.8050    117.2074
   577.7500      0.0000    699.5945      6.6398    124.6666
   578.0000      0.0000    693.8137      6.4783    129.8344
   578.2500      0.0000    697.9105      6.3528    133.5519
   578.5000      0.0000    704.8398      6.2742    136.7081
   578.7500      0.0000    705.9294      6.2364    138.4247
   579.0000      0.0000    697.2581      6.2242    136.3736
   579.2500      0.0000    683.5255      6.2205    129.2624
   579.5000      0.0000    674.5961      6.2134    119.1536
   579.7500      0.0000    676.8125      6.1992    110.8350
   580.0000      0.0000    687.9750      6.1817    108.3400
   580.2500      0.0000    700.8487      6.1674    112.0398
   580.5000      0.0000    710.4285      6.1586    118.9597
   580.7500      0.0000    717.0944      6.1522    125.3960
   581.0000      0.0000    723.4826      6.1455    129.1787
   581.2500      0.0000    730.0377      6.1399    130.0665
   581.5000      0.0000    734.9983      6.1385    128.7601
   581.7500      0.0000    737.9356      6.1434    126.1222
   582.0000      0.0000    740.7668      6.1565    123.3053
   582.2500      0.0000    744.3334      6.1797    121.8120
   582.5000      0.0000    745.6061      6.2164    122.7010
   582.7500      0.0000    739.7465      6.2755    125.8149
   583.0000      0.0000    724.9686      6.3679    130.0300
   583.2500      0.0000    704.9014      6.4850    134.1402
   583.5000      0.0000    686.4010      6.5802    137.4707
   583.7500      0.0000    675.3119      6.5891    139.7725
   584.0000      0.0000    674.2185      6.4824    140.5984
   584.2500      0.0000    683.2637      6.2984    138.9966
   584.5000      0.0000    701.5327      6.1133    134.1532
   584.7500      0.0000    727.3658      5.9831    126.5171
   585.0000     -2.0000    759.1671      5.9165    118.4190
   585.2500      2.0000    796.6324      5.8920    113.4216
   585.5000      0.0000    839.2502      5.8904    114.1415
   585.7500      0.0000    882.2261      5.9183    119.9664
   586.0000      0.0000    915.2322      6.0041    127.0991
   586.2500      0.0000    927.6451      6.1578    131.2540
   586.5000      0.0000    916.4038      6.3250    130.5105
   586.7500      0.0000    888.9642      6.4095    125.9980
   587.0000      0.0000    858.5572      6.3610    120.4235
   587.2500      0.0000    836.3513      6.2237    116.1487
   587.5000      0.0000    826.5146      6.0837    114.2660
   587.7500      0.0000    825.7669      5.9909    114.6962
   588.0000      0.0000    826.3693      5.9438    116.5839
   588.2500      0.0000    821.4996      5.9233    118.9348
   588.5000      0.0000    810.0499      5.9181    121.4648
   588.7500      0.0000    796.1867      5.9221    124.7436
   589.0000      0.0000    783.8278      5.9271    129.2752
   589.2500      0.0000    772.8469      5.9240    134.6435
   589.5000      0.0000    762.3967      5.9100    139.7041
   589.7500      0.0000    756.3541      5.8887    143.4990
   590.0000      0.0000    762.6959      5.8638    145.9059
   590.2500      0.0000    787.0262      5.8349    147.5122
   590.5000      0.0000    827.4742      5.8023    148.9243
   590.7500      0.0000    874.8839      5.7704    150.2020
