~Version Information
VERS.                      2.0: CWLS Log ASCII Standard - VERSION 2.0
WRAP.                       NO: One line per depth step
~Well Information Block
STRT.FT                10.0000: 
STOP.FT              1187.0000: 
STEP.FT                 0.1000: 
NULL.                -999.2500: 
COMP.          Pioneer Natural Resources: COMPANY
WELL.          Whitecoat 14-36: WELL
FLD.           Purgatorie River: FIELD
LOC.           606' FSL & 260' FWL: LOCATION
PROV.                 Colorado: PROVINCE
CNTY.               Las Animas: COUNTRY
SRVC.                Patterson: SERVICE COMPANY
DATE.          Tue Dec 06 07:14:37 2005: LOG DATE
UWI.                          : UNIQUE WELL ID
~Curve Information Block
DEPT.FT            0 000 00 00: Depth
DCAL.in                       : CDL Caliper
RHOB.g/cc                     : CDL Bulk Density
RHOC.g/cc                     : CDL Density Correction
DPOR.pu                       : CDL Density Porosity
GR.GAPI                       : Gamma Ray
NPOR.pu                       : Neutron Porosity
~Parameter Information Block
~A  Depth       DCAL        RHOB        RHOC        DPOR         GR         NPOR    
# ...
   864.4000      7.9414      2.5261      0.1345      7.5080    114.6337     23.9017
   864.5000      7.9115      2.5431      0.1273      6.4801    114.8473     24.0754
   864.6000      7.9115      2.5528      0.1483      5.8884    115.5800     24.3097
   864.7000      7.9115      2.5545      0.1425      5.7908    114.9563     24.6495
   864.8000      7.9253      2.5536      0.1131      5.8404    114.6555     24.9460
   864.9000      7.9253      2.5587      0.1289      5.5320    114.1637     25.0629
   865.0000      7.9122      2.5615      0.1472      5.3608    112.0873     24.8370
   865.1000      7.9122      2.5486      0.1108      6.1484    109.6539     24.5218
   865.2000      7.9122      2.5296      0.0397      7.2954    108.4172     24.4475
   865.3000      7.8877      2.5267      0.0306      7.4713    108.0004     24.5518
   865.4000      7.8877      2.5370      0.0881      6.8496    105.9692     24.8383
   865.5000      7.8600      2.5439      0.0383      6.4327    102.6457     25.3662
   865.6000      7.8600      2.5467      0.0628      6.2616    100.4758     25.6904
   865.7000      7.8600      2.5432      0.0971      6.4751    100.3468     25.4253
   865.8000      7.8995      2.5166      0.0736      8.0874    101.8592     24.9766
   865.9000      7.8995      2.4634      0.0748     11.3074    103.2408     24.5707
   866.0000      7.9297      2.4076      0.0152     14.6923    103.8168     24.0537
   866.1000      7.9297      2.3801     -0.0452     16.3564    104.8518     23.6349
   866.2000      7.9297      2.3835      0.0347     16.1519    106.1070     23.4276
   866.3000      7.9184      2.3944      0.0579     15.4926    107.4147     23.2853
   866.4000      7.9184      2.4013      0.0448     15.0711    109.1854     23.1123
   866.5000      7.9674      2.4089      0.0796     14.6126    110.9238     22.8898
   866.6000      7.9674      2.4238      0.0924     13.7092    112.1185     22.6086
   866.7000      7.9674      2.4466      0.1722     12.3245    111.4753     22.2545
   866.8000      7.9386      2.4710      0.2026     10.8472    109.2574     21.8862
   866.9000      7.9386      2.4991      0.1803      9.1451    108.7749     21.6087
   867.0000      7.8694      2.5386      0.2240      6.7486    110.5222     21.4835
   867.1000      7.8694      2.5814      0.2497      4.1576    111.5304     21.4934
   867.2000      7.8694      2.6118      0.2563      2.3165    111.3789     21.6523
   867.3000      7.8402      2.6199      0.2545      1.8240    112.5666     21.7590
   867.4000      7.8402      2.6000      0.2081      3.0310    115.7463     21.5732
   867.5000      7.8563      2.5588      0.1586      5.5258    118.2172     21.4546
   867.6000      7.8563      2.5183      0.0933      7.9793    117.9963     21.7730
   867.7000      7.8563      2.4979      0.1354      9.2178    116.2904     22.0899
   867.8000      7.9024      2.4967      0.1045      9.2898    116.1538     22.0966
   867.9000      7.9024      2.4988      0.1044      9.1648    118.5554     22.1569
   868.0000      7.9131      2.4933      0.0767      9.4992    120.5733     22.3504
   868.1000      7.9131      2.4894      0.0463      9.7352    120.1212     22.5871
   868.2000      7.9131      2.4986      0.0714      9.1784    117.8925     22.9365
   868.3000      7.9202      2.5107      0.0716      8.4453    114.6838     23.3625
   868.4000      7.9202      2.5113      0.0452      8.4081    111.9473     23.8699
   868.5000      7.9290      2.5046      0.0619      8.8096    110.9571     24.4267
   868.6000      7.9290      2.5025      0.0181      8.9373    111.0690     24.8246
   868.7000      7.9290      2.5026      0.0816      8.9313    112.7252     24.8985
   868.8000      7.9227      2.4943      0.0644      9.4358    117.1297     24.6660
   868.9000      7.9227      2.4853      0.0218      9.9830    122.0952     24.3821
   869.0000      7.9351      2.4896      0.0422      9.7182    123.5598     24.4019
   869.1000      7.9351      2.5028      0.0532      8.9193    121.0300     24.6428
   869.2000      7.9351      2.5086      0.0806      8.5684    119.2854     24.7743
   869.3000      7.9394      2.5005     -0.0013      9.0585    121.1717     24.8155
   869.4000      7.9394      2.4889     -0.0055      9.7615    122.4422     24.9157
   869.5000      7.9411      2.4796     -0.0203     10.3257    119.2330     24.9452
   869.6000      7.9411      2.4702      0.0081     10.8977    114.0306     24.8525
   869.7000      7.9411      2.4673     -0.0150     11.0698    111.0726     24.8395
   869.8000      7.9643      2.4750      0.0090     10.6054    110.6000     25.0073
   869.9000      7.9643      2.4759      0.0203     10.5497    109.7053     25.2089
   870.0000      7.9936      2.4598     -0.0109     11.5260    107.6165     25.3086
   870.1000      7.9936      2.4479     -0.0354     12.2493    105.0625     25.3174
   870.2000      7.9936      2.4644      0.0130     11.2506    103.0238     25.3088
   870.3000      8.0012      2.5052      0.0682      8.7773    102.0025     25.2427
   870.4000      8.0012      2.5516      0.0876      5.9664    100.7363     25.1530
   870.5000      7.9438      2.5941      0.1120      3.3858     99.1326     25.3077
   870.6000      7.9438      2.6272      0.1511      1.3828     97.5916     25.7102
   870.7000      7.9438      2.6450      0.1533      0.3035     96.2423     25.8737
   870.8000      7.8553      2.6561      0.1328     -0.3727     95.5365     25.5702
   870.9000      7.8553      2.6736      0.1349     -1.4313     94.2646     25.1544
   871.0000      7.8357      2.6938      0.1657     -2.6539     92.2457     24.7794
   871.1000      7.8357      2.7001      0.1669     -3.0336     91.0856     24.1785
   871.2000      7.8357      2.6885      0.1253     -2.3360     90.8723     23.5667
   871.3000      7.8354      2.6743      0.1076     -1.4753     91.2771     23.3634
   871.4000      7.8354      2.6629      0.1123     -0.7802     91.9035     23.3916
   871.5000      7.8789      2.6465      0.0900      0.2095     91.8640     23.3641
   871.6000      7.8789      2.6266      0.0912      1.4189     89.3943     23.2762
   871.7000      7.8789      2.6093      0.0796      2.4690     84.5690     23.1067
   871.8000      7.8843      2.6008      0.0290      2.9799     80.8928     22.7933
   871.9000      7.8843      2.6044      0.0557      2.7662     80.7600     22.5203
   872.0000      7.9254      2.6115      0.0355      2.3348     83.0826     22.5131
   872.1000      7.9254      2.6097      0.0900      2.4406     85.1291     22.6315
   872.2000      7.9254      2.5977      0.0212      3.1726     87.2285     22.5358
   872.3000      7.9181      2.5877      0.0484      3.7750     90.7281     22.1875
   872.4000      7.9181      2.5809      0.0395      4.1871     94.4222     21.8137
   872.5000      7.9174      2.5694     -0.0086      4.8874     96.1189     21.5122
   872.6000      7.9174      2.5556      0.0424      5.7197     94.0859     21.2817
   872.7000      7.9174      2.5413      0.0305      6.5851     89.9235     21.1317
   872.8000      7.9261      2.5283     -0.0315      7.3755     86.6911     21.0787
   872.9000      7.9261      2.5220      0.0141      7.7556     84.2758     21.2140
   873.0000      7.9335      2.5206     -0.0256      7.8426     82.5106     21.4008
   873.1000      7.9335      2.5246     -0.0875      7.5996     81.6689     21.3857
   873.2000      7.9335      2.5380      0.0147      6.7868     81.5276     21.3227
   873.3000      7.9472      2.5554      0.0087      5.7326     82.9713     21.5490
   873.4000      7.9472      2.5687      0.0436      4.9300     86.4380     22.0476
   873.5000      7.9862      2.5724      0.0139      4.7037     88.8823     22.4592
   873.6000      7.9862      2.5735     -0.0461      4.6362     86.3132     22.5147
   873.7000      7.9862      2.5784      0.0601      4.3379     80.3607     22.2573
   873.8000      7.9955      2.5727      0.0619      4.6834     76.6515     21.8225
   873.9000      7.9955      2.5523     -0.0033      5.9239     78.0026     21.4118
