~Version Information
VERS.                      2.0: CWLS Log ASCII Standard - VERSION 2.0
WRAP.                       NO: One line per depth step
~Well Information Block
STRT.FT                -8.7500: 
STOP.FT              1860.5000: 
STEP.FT                 0.2500: 
NULL.                -999.2500: 
COMP.          Pioneer Natural Resources: COMPANY
WELL.          Cortina 23-25 Tr: WELL
FLD.           Purgatorie River: FIELD
LOC.           --2521' FSL & 2345' FWL------: LOCATION
STAT.                       CO: PROVINCE
CNTY.               Las Animas: COUNTY
CTRY. USA : country
SECT. 25 : Section
TOWN. 32S : Township
RANG. 67W : Range
SRVC.          Patterson Wireline: SERVICE COMPANY
DATE.          Thu Sep 29 11:30:45 2005: LOG DATE
API.           05 071 08534 00: UNIQUE WELL ID
~Curve Information Block
DEPT.FT            0 000 00 00: Depth
CCL.                          : Casing Collar Locator
TT3.usec                      : CBL 3' Travel Time
AMP3.mV                       : CBL 3' Amplitude
GR.GAPI                       : Gamma Ray
~Parameter Information Block
~A  Depth       CCL         TT3         AMP3         GR     
# ...
   359.7500      0.0000    322.8962     29.1454     47.4547
   360.0000      0.0000    322.9286     28.9786     46.3829
   360.2500      0.0000    322.9646     28.8003     44.7360
   360.5000      0.0000    322.9962     28.6317     43.1181
   360.7500      0.0000    323.0187     28.4858     42.4165
   361.0000      0.0000    323.0340     28.3612     43.3014
   361.2500      0.0000    323.0463     28.2538     45.7019
   361.5000      0.0000    323.0563     28.1704     48.7113
   361.7500      0.0000    323.0600     28.1260     51.1332
   362.0000      0.0000    323.0550     28.1286     52.2080
   362.2500      0.0000    323.0456     28.1680     51.8710
   362.5000      0.0000    323.0421     28.2176     50.4649
   362.7500      0.0000    323.0550     28.2479     48.3678
   363.0000      0.0000    323.0887     28.2401     45.9910
   363.2500      0.0000    323.1396     28.1903     44.0112
   363.5000      0.0000    323.1997     28.1074     43.2808
   363.7500      0.0000    323.2614     28.0091     44.2487
   364.0000      0.0000    323.3171     27.9210     46.5434
   364.2500      0.0000    323.3586     27.8693     49.1987
   364.5000      0.0000    323.3797     27.8643     51.1451
   364.7500      0.0000    323.3812     27.8885     51.5998
   365.0000      0.0000    323.3736     27.9006     50.5051
   365.2500      0.0000    323.3752     27.8519     48.8367
   365.5000      0.0000    323.4050     27.7084     48.0486
   365.7500      0.0000    323.4717     27.4686     48.7240
   366.0000      0.0000    323.5667     27.1664     49.8671
   366.2500      0.0000    323.6718     26.8487     49.8539
   366.5000      0.0000    323.7730     26.5456     48.0263
   366.7500      0.0000    323.8638     26.2629     45.0769
   367.0000      0.0000    323.9375     26.0015     41.9682
   367.2500      0.0000    323.9855     25.7713     38.9798
   367.5000      0.0000    324.0072     25.5807     36.0588
   367.7500      0.0000    324.0144     25.4238     33.7034
   368.0000      0.0000    324.0209     25.2875     32.9747
   368.2500      0.0000    324.0316     25.1704     34.5419
   368.5000      0.0000    324.0438     25.0866     37.9628
   368.7500      0.0000    324.0535     25.0509     41.9946
   369.0000      0.0000    324.0590     25.0627     45.4232
   369.2500      0.0000    324.0643     25.0992     47.5148
   369.5000      0.0000    324.0811     25.1230     47.9425
   369.7500      0.0000    324.1219     25.1039     46.6452
   370.0000      0.0000    324.1897     25.0336     43.8788
   370.2500      0.0000    324.2776     24.9210     40.2994
   370.5000      0.0000    324.3735     24.7830     36.8828
   370.7500      0.0000    324.4616     24.6458     34.7079
   371.0000      0.0000    324.5255     24.5434     34.6255
   371.2500      0.0000    324.5612     24.4965     36.7849
   371.5000      0.0000    324.5871     24.4908     40.2633
   371.7500      0.0000    324.6299     24.4856     43.4225
   372.0000      0.0000    324.6958     24.4496     45.0132
   372.2500      0.0000    324.7596     24.3875     44.9565
   372.5000      0.0000    324.7860     24.3315     44.0628
   372.7500      0.0000    324.7603     24.3105     43.2997
   373.0000      0.0000    324.6974     24.3297     43.3703
   373.2500      0.0000    324.6262     24.3746     44.4419
   373.5000      0.0000    324.5694     24.4281     45.8938
   373.7500      0.0000    324.5364     24.4813     46.6093
   374.0000      0.0000    324.5277     24.5340     45.9119
   374.2500      0.0000    324.5396     24.5875     44.1412
   374.5000      0.0000    324.5634     24.6400     42.2100
   374.7500      0.0000    324.5858     24.6877     40.7955
   375.0000      0.0000    324.5921     24.7298     40.0250
   375.2500      0.0000    324.5762     24.7708     39.8294
   375.5000      0.0000    324.5428     24.8166     40.5177
   375.7500      0.0000    324.4984     24.8704     42.7653
   376.0000      0.0000    324.4405     24.9352     46.7019
   376.2500      0.0000    324.3582     25.0165     51.1633
   376.5000      0.0000    324.2468     25.1177     54.3546
   376.7500      0.0000    324.1168     25.2300     55.4223
   377.0000      0.0000    323.9910     25.3312     55.1299
   377.2500      0.0000    323.8919     25.3973     54.8798
   377.5000      0.0000    323.8311     25.4163     55.2698
   377.7500      0.0000    323.8072     25.3909     55.8737
   378.0000      0.0000    323.8109     25.3321     56.3708
   378.2500      0.0000    323.8329     25.2546     57.3199
   378.5000      0.0000    323.8683     25.1735     59.4712
   378.7500      0.0000    323.9159     25.0984     62.7474
   379.0000      0.0000    323.9781     25.0297     66.2849
   379.2500      0.0000    324.0565     24.9634     69.1921
   379.5000      0.0000    324.1455     24.9020     71.0703
   379.7500      0.0000    324.2276     24.8602     72.1317
   380.0000      0.0000    324.2784     24.8596     73.0852
   380.2500      0.0000    324.2809     24.9180     74.7036
   380.5000      0.0000    324.2345     25.0437     77.1320
   380.7500      0.0000    324.1470     25.2395     79.5447
   381.0000      0.0000    324.0264     25.5047     80.7393
   381.2500      0.0000    323.8848     25.8251     80.1890
   381.5000      0.0000    323.7457     26.1578     78.2887
   381.7500      0.0000    323.6367     26.4398     75.6710
   382.0000      0.0000    323.5727     26.6235     72.7349
   382.2500      0.0000    323.5483     26.7039     69.8885
   382.5000      0.0000    323.5448     26.7122     67.8867
   382.7500      0.0000    323.5416     26.6890     67.5816
   383.0000      0.0000    323.5251     26.6634     69.1356
   383.2500      0.0000    323.4924     26.6446     71.5931
   383.5000      0.0000    323.4516     26.6225     73.5753
   383.7500      0.0000    323.4171     26.5748     74.5669
   384.0000      0.0000    323.4033     26.4810     75.3403
   384.2500      0.0000    323.4166     26.3379     77.0406
   384.5000      0.0000    323.4509     26.1656     80.0139
   384.7500      0.0000    323.4890     26.0023     83.4787
   385.0000      0.0000    323.5121     25.8874     86.0356
   385.2500      0.0000    323.5098     25.8447     86.4560
   385.5000      0.0000    323.4812     25.8765     84.3380
   385.7500      0.0000    323.4312     25.9683     80.4265
   386.0000      0.0000    323.3669     26.0954     76.4577
   386.2500      0.0000    323.2968     26.2280     74.4267
   386.5000      0.0000    323.2288     26.3379     75.5383
   386.7500      0.0000    323.1673     26.4109     79.5062
   387.0000      0.0000    323.1113     26.4543     84.9238
   387.2500      0.0000    323.0565     26.4871     90.5446
   387.5000      0.0000    322.9988     26.5210     96.0524
   387.7500      0.0000    322.9372     26.5501    101.2347
   388.0000      0.0000    322.8759     26.5562    104.8427
   388.2500      0.0000    322.8241     26.5203    105.2312
   388.5000      0.0000    322.7912     26.4334    102.2231
   388.7500      0.0000    322.7783     26.2997     97.7239
   389.0000      0.0000    322.7771     26.1320     94.2583
   389.2500      0.0000    322.7768     25.9445     93.0365
   389.5000      0.0000    322.7709     25.7514     93.2751
   389.7500      0.0000    322.7575     25.5685     93.1376
   390.0000      0.0000    322.7366     25.4124     91.5310
   390.2500      0.0000    322.7083     25.2989     89.3105
   390.5000      0.0000    322.6706     25.2409     88.5696
   390.7500      0.0000    322.6189     25.2455     90.5648
   391.0000      0.0000    322.5482     25.3107     94.4859
   391.2500      0.0000    322.4762     25.4314     98.3050
   391.5000      0.0000    322.4759     25.6092    100.5410
   391.7500      0.0000    322.8941     25.8375    100.9533
   392.0000      0.0000    324.7820     26.0533     99.8566
   392.2500      0.0000    330.3952     26.0863     97.4715
   392.5000      0.0000    342.6227     25.6894     94.1359
   392.7500      0.0000    362.2476     24.7001     90.5920
   393.0000      0.0000    384.6822     23.2326     87.5897
