~Version Information
VERS.                      2.0: CWLS Log ASCII Standard - VERSION 2.0
WRAP.                       NO: One line per depth step
~Well Information Block
STRT.FT               240.0000: 
STOP.FT              1342.0000: 
STEP.FT                 0.1000: 
NULL.                -999.2500: 
COMP.          Pioneer Natural Resources: COMPANY
WELL.          Lorencito 9-4-34-66: WELL
FLD.           Purgatoire River: FIELD
LOC.           2540' FSL & 438' FEL: LOCATION
STAT.                 Colorado: State
CNTY.               Las Animas: COUNTY
CTRY. USA : Country
SECT. 4 : Section
TOWN. 34S : Township
RANG. 68W : range
SRVC.                Patterson: SERVICE COMPANY
DATE.          Thu Sep 15 13:16:59 2005: LOG DATE
API.           05 071 08498 00: UNIQUE WELL ID
~Curve Information Block
DEPT.FT            0 000 00 00: Depth
DCAL.in                       : CDL Caliper
RHOB.g/cc                     : CDL Bulk Density
RHOC.g/cc                     : CDL Density Correction
DPOR.pu                       : CDL Density Porosity
GR.GAPI                       : Gamma Ray
NPOR.pu                       : Neutron Porosity
~Parameter Information Block
~A  Depth       DCAL        RHOB        RHOC        DPOR         GR         NPOR    
# ...
   604.8000      8.1557      2.5286      0.0267      7.3558     89.6454     15.8200
   604.9000      8.1557      2.5190      0.0174      7.9418     92.5752     15.6952
   605.0000      8.1516      2.5058      0.0577      8.7408     95.3555     15.4315
   605.1000      8.1516      2.4908     -0.0122      9.6487     92.1169     15.1268
   605.2000      8.1516      2.4864     -0.0046      9.9124     89.3869     14.8313
   605.3000      8.1512      2.4908      0.0319      9.6469     90.4935     14.5403
   605.4000      8.1512      2.4862      0.0245      9.9262     87.6636     14.2337
   605.5000      8.1551      2.4699      0.0245     10.9165     77.4276     13.8380
   605.6000      8.1551      2.4563     -0.0008     11.7378     68.4003     13.3647
   605.7000      8.1551      2.4563      0.0155     11.7367     67.3617     13.0448
   605.8000      8.1552      2.4725      0.0032     10.7556     69.7669     13.1283
   605.9000      8.1552      2.5027      0.0365      8.9260     69.6694     13.5177
   606.0000      8.1370      2.5330      0.0673      7.0937     65.3212     13.9380
   606.1000      8.1370      2.5471      0.0924      6.2343     58.3734     14.2201
   606.2000      8.1370      2.5400      0.1110      6.6651     56.2590     14.2765
   606.3000      8.0959      2.5176      0.0665      8.0248     62.6083     14.2312
   606.4000      8.0959      2.5001      0.0354      9.0865     68.3566     14.2891
   606.5000      8.0604      2.4937      0.1156      9.4702     68.3359     14.4817
   606.6000      8.0604      2.4781      0.0621     10.4206     68.5142     14.9473
   606.7000      8.0604      2.4561      0.0268     11.7499     71.5812     15.5765
   606.8000      8.0493      2.4554      0.0400     11.7952     75.1572     16.0370
   606.9000      8.0493      2.4774      0.0748     10.4614     78.4893     16.5062
   607.0000      8.0409      2.4997      0.0747      9.1114     79.1427     17.3653
   607.1000      8.0409      2.5165      0.0513      8.0921     76.8557     18.6972
   607.2000      8.0409      2.5405      0.0548      6.6343     77.9022     19.8874
   607.3000      8.0821      2.5673      0.1321      5.0093     85.1637     20.3271
   607.4000      8.0821      2.5825      0.0963      4.0886     95.2499     20.2151
   607.5000      8.0902      2.5865      0.1005      3.8513    103.8363     19.9816
   607.6000      8.0902      2.5774      0.1416      4.4029    108.7630     19.8392
   607.7000      8.0902      2.5517      0.0590      5.9571    112.8663     19.8384
   607.8000      8.1074      2.5219     -0.0039      7.7633    118.6022     20.0958
   607.9000      8.1074      2.5008      0.0158      9.0415    124.0763     20.1186
   608.0000      8.0919      2.4854      0.0385      9.9775    127.4403     19.0429
   608.1000      8.0919      2.4574      0.0838     11.6739    130.4658     17.3272
   608.2000      8.0919      2.4035      0.0433     14.9387    137.5359     16.6246
   608.3000      8.1182      2.3429     -0.0408     18.6118    148.7958     17.6591
   608.4000      8.1182      2.3065      0.0083     20.8199    158.1106     19.2325
   608.5000      8.1309      2.2987      0.0041     21.2882    162.3993     19.9468
   608.6000      8.1309      2.3075      0.0897     20.7557    163.8918     20.5347
   608.7000      8.1309      2.3251      0.0673     19.6934    160.6775     22.0019
   608.8000      8.1389      2.3490      0.1118     18.2430    153.7796     23.3324
   608.9000      8.1389      2.3731      0.1098     16.7836    153.5775     23.5730
   609.0000      8.1688      2.3959      0.1330     15.4009    161.4500     23.4084
   609.1000      8.1688      2.4280      0.1586     13.4552    164.2212     23.3552
   609.2000      8.1688      2.4715      0.1887     10.8156    156.6810     23.2403
   609.3000      8.2186      2.5094      0.1550      8.5190    143.8787     23.1614
   609.4000      8.2186      2.5237      0.1154      7.6544    132.4569     23.3699
   609.5000      8.1899      2.5179      0.0519      8.0037    128.6302     23.8916
   609.6000      8.1899      2.5174      0.0115      8.0343    130.4666     24.5303
   609.7000      8.1899      2.5314      0.0771      7.1872    132.6856     24.6118
   609.8000      8.1651      2.5376      0.1008      6.8126    133.1612     23.7850
   609.9000      8.1651      2.5270      0.0161      7.4550    130.0999     22.8413
   610.0000      8.1539      2.5174      0.0422      8.0335    124.4888     22.4634
   610.1000      8.1539      2.5203      0.0570      7.8603    117.6614     22.2378
   610.2000      8.1539      2.5334      0.0928      7.0687    112.4364     21.7080
   610.3000      8.0942      2.5510      0.1119      6.0014    114.5175     21.2772
   610.4000      8.0942      2.5652      0.1593      5.1374    122.1175     21.5249
   610.5000      8.0359      2.5643      0.1323      5.1922    130.1841     22.1191
   610.6000      8.0359      2.5465      0.0856      6.2734    137.8414     22.2507
   610.7000      8.0359      2.5279      0.0759      7.4000    146.1525     21.9210
   610.8000      8.0291      2.5303      0.0924      7.2515    153.7220     21.9684
   610.9000      8.0291      2.5630      0.1259      5.2756    155.0287     22.9939
   611.0000      8.0333      2.6036      0.1529      2.8133    152.4324     24.3104
   611.1000      8.0333      2.6164      0.1848      2.0366    151.8178     24.6585
   611.2000      8.0333      2.6026      0.0836      2.8733    149.4853     24.5625
   611.3000      8.0667      2.5932      0.1003      3.4412    145.0421     25.2336
   611.4000      8.0667      2.5893      0.1446      3.6776    142.9981     26.0215
   611.5000      8.1148      2.5776      0.0707      4.3856    143.1102     26.1799
   611.6000      8.1148      2.5704      0.0537      4.8246    144.2301     25.9504
   611.7000      8.1148      2.5758      0.1164      4.4942    143.7033     25.5309
   611.8000      8.1353      2.5802      0.1078      4.2318    141.8031     25.1629
   611.9000      8.1353      2.5760      0.1028      4.4867    143.5504     25.0652
   612.0000      8.1276      2.5690      0.0669      4.9111    146.9428     25.1891
   612.1000      8.1276      2.5652      0.0472      5.1372    145.9339     25.5483
   612.2000      8.1276      2.5673      0.0408      5.0102    140.2447     26.2288
   612.3000      8.0910      2.5722      0.0627      4.7164    133.8931     26.8288
   612.4000      8.0910      2.5774      0.0531      4.3981    130.4085     26.7314
   612.5000      8.0768      2.5903      0.0677      3.6196    130.6834     26.1018
   612.6000      8.0768      2.6178      0.0666      1.9543    133.4619     25.3132
   612.7000      8.0768      2.6494      0.0767      0.0345    133.9219     24.4432
   612.8000      8.0881      2.6610      0.1280     -0.6657    126.5806     23.9215
   612.9000      8.0881      2.6430      0.0910      0.4235    115.5803     24.1548
   613.0000      8.0503      2.6164      0.0263      2.0340    107.4259     24.7957
   613.1000      8.0503      2.5992      0.0568      3.0792    102.8895     25.6179
   613.2000      8.0503      2.5857      0.0244      3.8951    101.7609     26.5508
   613.3000      8.0865      2.5694      0.0584      4.8831    102.0691     26.8254
   613.4000      8.0865      2.5535     -0.0232      5.8479    100.3800     25.8976
   613.5000      8.1017      2.5488      0.0252      6.1308     98.3224     24.4279
   613.6000      8.1017      2.5628      0.0229      5.2871     99.3700     23.3016
   613.7000      8.1017      2.5852      0.0820      3.9297    103.0505     22.5364
   613.8000      8.0861      2.5925      0.0858      3.4849    105.3356     22.0668
   613.9000      8.0861      2.5813      0.0273      4.1622    104.2771     21.9305
   614.0000      8.0908      2.5673      0.0511      5.0152    102.7020     21.6878
   614.1000      8.0908      2.5551      0.0488      5.7523    106.6994     21.3217
   614.2000      8.0908      2.5446      0.0466      6.3892    117.5165     21.3346
   614.3000      8.0628      2.5352      0.0425      6.9570    125.3766     21.7444
