~Version Information
VERS.                      2.0: CWLS Log ASCII Standard - VERSION 2.0
WRAP.                       NO: One line per depth step
~Well Information Block
STRT.FT                -6.2500: 
STOP.FT              1327.5000: 
STEP.FT                 0.2500: 
NULL.                -999.2500: 
COMP.          Pioneer Natural Resources: COMPANY
WELL.            Avant 14-3 Tr: WELL
FLD.           Purgatorie River: FIELD
LOC.           170' FSL & 1174' FWL--: LOCATION
STAT.                       CO: State
CNTY.               Las Animas: COUNTY
CTRY. USA : Country
SECT. 3 : Section
TOWN. 33S : Township
RANG. 67W : Range
SRVC.          Patterson Wireline: SERVICE COMPANY
DATE.          Tue Aug 23 16:44:25 2005: LOG DATE
API.           05 071 08463 00: UNIQUE WELL ID
~Curve Information Block
DEPT.FT            0 000 00 00: Depth
CCL.                          : Casing Collar Locator
TT3.usec                      : CBL 3' Travel Time
AMP3.mV                       : CBL 3' Amplitude
GR.GAPI                       : Gamma Ray
~Parameter Information Block
~A  Depth       CCL         TT3         AMP3         GR     
# ...
  1199.7500      0.0000    767.5290      8.6724    119.0357
  1200.0000      0.0000    760.9048      8.7456    119.0747
  1200.2500      0.0000    755.5807      8.7939    120.8479
  1200.5000      0.0000    752.1920      8.8142    123.2872
  1200.7500      0.0000    749.9261      8.8241    125.3407
  1201.0000      0.0000    747.5490      8.8500    125.9053
  1201.2500      0.0000    744.3980      8.9106    124.2088
  1201.5000      0.0000    741.0789      9.0133    120.6053
  1201.7500      0.0000    739.1415      9.1595    116.7353
  1202.0000      0.0000    739.3631      9.3485    114.2956
  1202.2500      0.0000    740.1952      9.5802    113.4474
  1202.5000      0.0000    738.7599      9.8564    112.9211
  1202.7500      0.0000    733.7840     10.1810    112.0120
  1203.0000      0.0000    726.9106     10.5549    111.7806
  1203.2500      0.0000    720.9640     10.9695    113.5014
  1203.5000      0.0000    717.7518     11.4003    116.3995
  1203.7500      0.0000    717.8136     11.8031    117.7459
  1204.0000      0.0000    721.2902     12.1100    114.9881
  1204.2500      0.0000    727.9788     12.2277    107.3988
  1204.5000      0.0000    736.4538     12.0532     96.2102
  1204.7500      0.0000    744.0405     11.5164     84.0044
  1205.0000      0.0000    748.6512     10.6341     74.0053
  1205.2500      0.0000    750.9622      9.5306     68.9108
  1205.5000      0.0000    754.5272      8.3969     69.1917
  1205.7500      0.0000    763.6000      7.4062     72.3216
  1206.0000      0.0000    780.4370      6.6520     74.4310
  1206.2500      0.0000    803.9779      6.1449     73.2350
  1206.5000      0.0000    831.2261      5.8520     69.3926
  1206.7500      0.0000    860.6038      5.7348     65.3628
  1207.0000      0.0000    892.6801      5.7701     63.4538
  1207.2500      0.0000    924.8617      5.9623     64.7715
  1207.5000      0.0000    946.7766      6.3479     69.2840
  1207.7500      0.0000    947.1339      6.9776     76.5157
  1208.0000      0.0000    926.6382      7.8785     86.0928
  1208.2500      0.0000    898.6284      9.0160     97.4066
  1208.5000      0.0000    875.2076     10.2709    108.8560
  1208.7500      0.0000    857.5669     11.4385    118.0495
  1209.0000      0.0000    840.8824     12.2677    123.1874
  1209.2500      0.0000    823.1131     12.5584    124.1048
  1209.5000      0.0000    806.2896     12.2655    121.8365
  1209.7500      0.0000    793.5125     11.5162    117.3960
  1210.0000      0.0000    787.9280     10.5253    111.0921
  1210.2500      0.0000    791.7462      9.4958    102.6258
  1210.5000      0.0000    802.4360      8.5711     91.7093
  1210.7500      0.0000    811.3170      7.8249     79.0261
  1211.0000      0.0000    809.7780      7.2646     66.7760
  1211.2500      0.0000    797.0494      6.8476     57.8675
  1211.5000      0.0000    779.9907      6.5203     54.1813
  1211.7500      0.0000    766.3772      6.2636     55.6357
  1212.0000      0.0000    760.2296      6.1152     60.8934
  1212.2500      0.0000    762.0322      6.1493     68.5473
  1212.5000      0.0000    769.9432      6.4250     77.2508
  1212.7500      0.0000    779.7499      6.9370     85.1688
  1213.0000      0.0000    786.0554      7.6047     90.3319
  1213.2500      0.0000    786.1893      8.3084     92.0659
  1213.5000      0.0000    782.8538      8.9478     91.9149
  1213.7500      0.0000    781.6591      9.4846     92.8041
  1214.0000      0.0000    786.3869      9.9559     97.0152
  1214.2500      0.0000    796.8031     10.4443    104.6783
  1214.5000      0.0000    809.0208     10.9886    113.9186
  1214.7500      0.0000    816.9500     11.4837    122.2933
  1215.0000      0.0000    815.7367     11.7202    128.3511
  1215.2500      0.0000    805.9203     11.5813    132.2002
  1215.5000      0.0000    793.0908     11.1652    134.6326
  1215.7500      0.0000    782.3876     10.6785    135.6099
  1216.0000      0.0000    774.6252     10.2632    133.8792
  1216.2500      0.0000    767.7840      9.9556    128.4895
  1216.5000      0.0000    760.0604      9.7450    120.6108
  1216.7500      0.0000    751.1760      9.6149    113.5447
  1217.0000      0.0000    742.7744      9.5422    110.7132
  1217.2500      0.0000    738.2311      9.4946    113.2017
  1217.5000      0.0000    740.7571      9.4476    118.7948
  1217.7500      0.0000    750.5922      9.3969    123.5511
  1218.0000      0.0000    764.0239      9.3482    124.8556
  1218.2500      0.0000    775.2565      9.2940    123.1034
  1218.5000      0.0000    779.4683      9.2136    120.6604
  1218.7500      0.0000    774.8019      9.1011    119.7343
  1219.0000      0.0000    762.7676      8.9805    121.0420
  1219.2500      0.0000    747.4368      8.8839    123.5947
  1219.5000      0.0000    733.4568      8.8201    125.4477
  1219.7500      0.0000    723.7092      8.7724    125.0313
  1220.0000      0.0000    718.3951      8.7209    121.9842
  1220.2500      0.0000    716.0682      8.6562    116.9942
  1220.5000      0.0000    715.1689      8.5748    111.2941
  1220.7500      0.0000    714.7242      8.4713    106.3691
  1221.0000      0.0000    714.2728      8.3355    103.6076
  1221.2500      0.0000    713.6868      8.1626    103.7556
  1221.5000      0.0000    713.3792      7.9728    106.5818
  1221.7500      0.0000    714.9122      7.8194    111.1323
  1222.0000      0.0000    721.0656      7.7637    116.3014
  1222.2500      0.0000    734.0618      7.8310    120.9932
  1222.5000      0.0000    752.7808      7.9940    123.8177
  1222.7500      0.0000    772.4231      8.1960    123.2535
  1223.0000      0.0000    788.0089      8.3875    118.8660
  1223.2500      0.0000    797.9011      8.5430    112.4391
  1223.5000      0.0000    803.5670      8.6626    107.3762
  1223.7500      0.0000    807.1298      8.7656    106.4163
  1224.0000      0.0000    809.9778      8.8820    109.5585
  1224.2500      0.0000    812.4750      9.0376    114.2300
  1224.5000      0.0000    813.7855      9.2379    117.8178
  1224.7500      0.0000    812.5889      9.4571    120.0080
  1225.0000      0.0000    808.7416      9.6411    122.4177
  1225.2500      0.0000    803.8134      9.7280    126.4119
  1225.5000      0.0000    799.7021      9.6809    131.7859
  1225.7500      0.0000    797.1304      9.5096    137.1119
  1226.0000      0.0000    795.4917      9.2649    140.7269
  1226.2500      0.0000    793.4959      9.0112    141.7206
  1226.5000      0.0000    789.8100      8.7965    140.5409
  1226.7500      0.0000    783.7853      8.6388    138.7124
  1227.0000      0.0000    776.2253      8.5344    137.8913
  1227.2500      0.0000    769.2643      8.4755    138.9869
  1227.5000      0.0000    764.7517      8.4612    141.6952
  1227.7500      0.0000    762.3850      8.4929    144.5915
  1228.0000      0.0000    759.7628      8.5627    145.9234
  1228.2500      0.0000    755.0500      8.6461    144.5531
  1228.5000      0.0000    749.8074      8.7125    140.2184
  1228.7500      0.0000    748.3077      8.7471    133.2383
  1229.0000      0.0000    753.3165      8.7619    124.4640
  1229.2500      0.0000    763.1182      8.7839    115.3078
  1229.5000      0.0000    773.4212      8.8344    107.1146
  1229.7500      0.0000    781.6050      8.9223    100.0935
  1230.0000      0.0000    788.0708      9.0498     93.1744
  1230.2500      0.0000    793.7732      9.2216     85.4363
  1230.5000      0.0000    798.0309      9.4451     77.6219
  1230.7500      0.0000    799.3581      9.7192     71.8832
  1231.0000      0.0000    797.2665     10.0166     70.2179
  1231.2500      0.0000    792.4630     10.2840     73.4341
  1231.5000      0.0000    786.1891     10.4703     81.1065
  1231.7500      0.0000    780.0966     10.5589     91.7386
  1232.0000      0.0000    775.6339     10.5704    103.0996
  1232.2500      0.0000    772.3979     10.5358    113.1151
  1232.5000      0.0000    767.9305     10.4732    120.7637
  1232.7500      0.0000    760.7025     10.3899    126.1008
  1233.0000      0.0000    753.1128     10.2911    129.6747
