~Version Information
VERS.                      2.0: CWLS Log ASCII Standard - VERSION 2.0
WRAP.                       NO: One line per depth step
~Well Information Block
STRT.FT                -6.0000: 
STOP.FT              1295.2500: 
STEP.FT                 0.2500: 
NULL.                -999.2500: 
COMP.          Pioneer Natural Resources: COMPANY
WELL.            Erin 21-15 Tr: WELL
FLD.           Purgatoire River: FIELD
LOC.           1217' FNL & 2284' FWL--: LOCATION
CNTY.               Las Animas: COUNTY
SRVC.                         : SERVICE COMPANY
DATE.          Fri Mar 10 09:14:17 2006: LOG DATE
UWI.           05 071 08712 00: UNIQUE WELL ID
STAT.                       CO: STATE
~Curve Information Block
DEPT.FT            0 000 00 00: Depth
GR.GAPI                       : Gamma Ray
CCL.                          : Casing Collar Locator
TT3.usec                      : CBL 3' Travel Time
AMP3.mV                       : CBL 3' Amplitude
~Parameter Information Block
~A  Depth        GR         CCL         TT3         AMP3    
# ...
  1267.0000    105.1114      0.0000    684.7512      7.6006
  1267.2500     96.2581      0.0000    654.9365      7.5669
  1267.5000     89.1458      0.0000    628.6918      7.5200
  1267.7500     82.9144      0.0000    611.1833      7.4729
  1268.0000     76.3597      0.0000    605.3103      7.4280
  1268.2500     69.7357      0.0000    610.9893      7.3846
  1268.5000     64.5374      0.0000    623.8694      7.3464
  1268.7500     61.7274      0.0000    636.0366      7.3143
  1269.0000     60.7847      0.0000    640.9811      7.2732
  1269.2500     60.6382      0.0000    638.5698      7.1975
  1269.5000     60.9608      0.0000    634.0391      7.0779
  1269.7500     62.1692      0.0000    633.0719      6.9371
  1270.0000     64.6248      0.0000    639.1996      6.8133
  1270.2500     68.3547      0.0000    653.4100      6.7351
  1270.5000     73.1560      0.0000    672.8890      6.7109
  1270.7500     78.4213      0.0000    691.1602      6.7280
  1271.0000     83.1714      0.0000    702.3116      6.7529
  1271.2500     86.9688      0.0000    705.6545      6.7443
  1271.5000     90.6689      0.0000    705.5842      6.6808
  1271.7500     95.4666      0.0000    706.9942      6.5795
  1272.0000    101.0401      0.0000    711.4221      6.4834
  1272.2500    105.5388      0.0000    717.5757      6.4298
  1272.5000    107.9277      0.0000    724.2864      6.4287
  1272.7500    109.7702      0.0000    731.6446      6.4659
  1273.0000    114.1046      0.0000    739.4230      6.5207
  1273.2500    122.6613      0.0000    745.2577      6.5789
  1273.5000    134.2636      0.0000    745.1514      6.6343
  1273.7500    145.7197      0.0000    736.1652      6.6817
  1274.0000    154.2990      0.0000    718.5853      6.7148
  1274.2500    159.6046      0.0000    695.2815      6.7346
  1274.5000    163.0919      0.0000    669.7069      6.7579
  1274.7500    165.9621      0.0000    645.9094      6.8141
  1275.0000    168.0520      0.0000    629.7498      6.9295
  1275.2500    168.8761      0.0000    627.4388      7.1099
  1275.5000    168.7658      0.0000    641.4234      7.3306
  1275.7500    168.0978      0.0000    667.7610      7.5446
  1276.0000    165.8620      0.0000    697.5443      7.7082
  1276.2500    160.0813      0.0000    721.4255      7.8080
  1276.5000    149.7944      0.0000    734.2811      7.8623
  1276.7500    136.1757      0.0000    736.9041      7.9002
  1277.0000    121.7134      0.0000    733.8422      7.9409
  1277.2500    108.6164      0.0000    729.6140      7.9897
  1277.5000     97.9649      0.0000    726.5189      8.0420
  1277.7500     90.0256      0.0000    724.8259      8.0826
  1278.0000     84.9511      0.0000    724.0045      8.0796
  1278.2500     82.9779      0.0000    723.6116      7.9921
  1278.5000     84.0705      0.0000    723.4982      7.7974
  1278.7500     87.6542      0.0000    723.6599      7.5106
  1279.0000     92.8975      0.0000    724.0884      7.1694
  1279.2500     99.2741      0.0000    724.8270      6.8014
  1279.5000    106.5965      0.0000    726.0344      6.4165
  1279.7500    114.3238      0.0000    727.6633      6.0287
  1280.0000    121.1133      0.0000    728.4131      5.6646
  1280.2500    125.5999      0.0000    724.0981      5.3326
  1280.5000    127.7478      0.0000    705.6176      4.9853
  1280.7500    129.1469      0.0000    658.6085      4.5198
  1281.0000    131.7732      0.0000    569.7393      3.8355
  1281.2500    136.6487      0.0000    440.1355      2.9286
  1281.5000    143.5116      0.0000    293.3319      1.9400
  1281.7500    151.1579      0.0000    164.0024      1.0823
  1282.0000    157.9503      0.0000     75.3378      0.4973
  1282.2500    162.3234      0.0000     28.0131      0.1852
  1282.5000    163.0791      0.0000      8.3406      0.0553
  1282.7500    159.7618      0.0000      1.9710      0.0131
  1283.0000    153.3010      0.0000      0.3641      0.0024
  1283.2500    146.0248      0.0000      0.0480      0.0003
  1283.5000    140.4820      0.0000   -999.2500   -999.2500
  1283.7500    138.0287      0.0000   -999.2500   -999.2500
  1284.0000    138.2636      0.0000   -999.2500   -999.2500
  1284.2500    139.4238      0.0000   -999.2500   -999.2500
  1284.5000    139.5397      0.0000   -999.2500   -999.2500
  1284.7500    137.8666      0.0000   -999.2500   -999.2500
  1285.0000    135.3914      0.0000   -999.2500   -999.2500
  1285.2500    133.9046      0.0000   -999.2500   -999.2500
  1285.5000    134.6890      0.0000   -999.2500   -999.2500
  1285.7500    138.0866      0.0000   -999.2500   -999.2500
  1286.0000    143.6792      0.0000   -999.2500   -999.2500
  1286.2500    150.3860      0.0000   -999.2500   -999.2500
  1286.5000    156.6880      0.0000   -999.2500   -999.2500
  1286.7500    161.1878      0.0000   -999.2500   -999.2500
  1287.0000    162.9621      0.0000   -999.2500   -999.2500
  1287.2500    161.5736      0.0000   -999.2500   -999.2500
  1287.5000    157.2502      0.0000   -999.2500   -999.2500
  1287.7500    151.0638      0.0000   -999.2500   -999.2500
  1288.0000    144.3845      0.0000   -999.2500   -999.2500
  1288.2500    137.9395      0.0000   -999.2500   -999.2500
  1288.5000    131.6002      0.0000   -999.2500   -999.2500
  1288.7500    125.0542      0.0000   -999.2500   -999.2500
  1289.0000    118.4529   -999.2500   -999.2500   -999.2500
  1289.2500    112.5566   -999.2500   -999.2500   -999.2500
  1289.5000    108.5059   -999.2500   -999.2500   -999.2500
  1289.7500    107.3549   -999.2500   -999.2500   -999.2500
  1290.0000    109.4081   -999.2500   -999.2500   -999.2500
  1290.2500    113.9040   -999.2500   -999.2500   -999.2500
  1290.5000    119.2111   -999.2500   -999.2500   -999.2500
  1290.7500    122.7279   -999.2500   -999.2500   -999.2500
  1291.0000    120.5198   -999.2500   -999.2500   -999.2500
  1291.2500    108.5582   -999.2500   -999.2500   -999.2500
  1291.5000     86.1696   -999.2500   -999.2500   -999.2500
  1291.7500     58.2706   -999.2500   -999.2500   -999.2500
  1292.0000     32.7346   -999.2500   -999.2500   -999.2500
  1292.2500     15.0093   -999.2500   -999.2500   -999.2500
  1292.5000      5.5489   -999.2500   -999.2500   -999.2500
  1292.7500      1.6399   -999.2500   -999.2500   -999.2500
  1293.0000      0.3843   -999.2500   -999.2500   -999.2500
  1293.2500      0.0707   -999.2500   -999.2500   -999.2500
  1293.5000      0.0089   -999.2500   -999.2500   -999.2500
  1293.7500      0.0000   -999.2500   -999.2500   -999.2500
  1294.0000   -999.2500   -999.2500   -999.2500   -999.2500
  1294.2500   -999.2500   -999.2500   -999.2500   -999.2500
  1294.5000   -999.2500   -999.2500   -999.2500   -999.2500
  1294.7500   -999.2500   -999.2500   -999.2500   -999.2500
  1295.0000   -999.2500   -999.2500   -999.2500   -999.2500
  1295.2500   -999.2500   -999.2500   -999.2500   -999.2500
