~Version Information
 VERS.                                  2.0 : CWLS LAS VERSION
 WRAP.                                   NO : WRAPING MODE
 SWARE .                 MController 2.5.0N : SOFTWARE VERSION
~Well Information
 WELL.                      Pioneer 34-27TR : WELL
 COMP.  Pioneer Natural Resources USA, Inc. : COMPANY
 FLD.                      Purgatoire River : FIELD
 LOC.               SW/SE Sec 27 T32S  R67W : LOCATION
 DATE.                            10/5-6/05 : DATE(S) LOGGED
 SRVC.       BLANCO Geological Services LLC : SERVICE COMPANY
 STAT.                                   CO : STATE
 CNTY.                           Las Animas : COUNTY
 CTRY.                                  USA : COUNTRY
 API.                       05-071-08548-00 : API NUMBER
 STRT.FT                             486.00 : START DEPTH
 STOP.FT                            1560.00 : STOP DEPTH
 STEP.FT                               1.00 : DEPTH INCREMENT
 NULL.                                -9999 : NULL VALUE
~Curve information
 DEPTH.FT                                   :
 ROP.MIN/FT                                 :
 GAS.UNITS                                  :
~ASCII Log data
# ...
       686.0         2.30          2.1 
       687.0         0.33          2.0 
       688.0         0.58          2.0 
       689.0         0.43          1.9 
       690.0         0.27          2.0 
       691.0         0.10          1.4 
       692.0         0.10          1.7 
       693.0         0.20          1.7 
       694.0         0.23          1.6 
       695.0         0.27          1.9 
       696.0         0.27          1.8 
       697.0         0.27          1.9 
       698.0         0.23          1.4 
       699.0         0.30          1.8 
       700.0         0.35          1.6 
       701.0         0.37          1.7 
       702.0         0.43          1.8 
       703.0         0.37          1.8 
       704.0         0.20          1.7 
       705.0         0.17          1.8 
       706.0         0.47          1.6 
       707.0         0.73          1.7 
       708.0         0.42          1.7 
       709.0         0.30          1.7 
       710.0         0.23          1.7 
       711.0         0.27          1.6 
       712.0         0.27          1.6 
       713.0         0.27          1.6 
       714.0         0.23          1.7 
       715.0         0.23          1.6 
       716.0         2.22          1.7 
       717.0         0.50          1.5 
       718.0         0.37          1.3 
       719.0         0.30          1.2 
       720.0         0.27          1.9 
       721.0         0.27          1.9 
       722.0         0.30          1.1 
       723.0         0.32          0.9 
       724.0         0.33          1.1 
       725.0         0.30          1.2 
       726.0         0.30          1.4 
       727.0         0.23          1.5 
       728.0         0.23          1.6 
       729.0         0.23          2.1 
       730.0         0.27          1.8 
       731.0         0.33          1.4 
       732.0         0.20          0.7 
       733.0         0.23          1.8 
       734.0         0.20          1.5 
       735.0         0.22          1.5 
       736.0         0.20          1.2 
       737.0         0.20          1.2 
       738.0         0.13          1.3 
       739.0         0.20          1.4 
       740.0         0.17          1.7 
       741.0         0.17          2.4 
       742.0         0.17          2.3 
       743.0         0.20          3.1 
       744.0         0.17          2.9 
       745.0         0.17          3.0 
       746.0         2.62          7.0 
       747.0         0.33          4.5 
       748.0         0.23          2.2 
       749.0         0.17          1.7 
       750.0         0.20          1.8 
       751.0         0.20          1.6 
       752.0         0.23          1.5 
       753.0         0.20          1.5 
       754.0         0.23          1.2 
       755.0         0.25          0.9 
       756.0         0.27          1.1 
       757.0         0.23          1.0 
       758.0         0.23          1.0 
       759.0         0.23          1.5 
       760.0         0.20          1.3 
       761.0         0.20          1.2 
       762.0         0.17          0.8 
       763.0         0.20          1.3 
       764.0         0.20          1.1 
       765.0         0.17          1.1 
       766.0         0.17          0.8 
       767.0         0.17          0.8 
       768.0         0.17          1.2 
       769.0         0.17          1.4 
       770.0         0.22          1.5 
       771.0         0.23          1.4 
       772.0         0.20          1.1 
       773.0         0.20          1.4 
       774.0         0.20          1.2 
       775.0         0.20          1.1 
       776.0         1.87          4.1 
       777.0         0.35          5.3 
       778.0         0.43          5.3 
       779.0         0.37          3.6 
       780.0         0.37          2.1 
       781.0         0.37          1.8 
       782.0         0.33          1.6 
       783.0         0.30          1.6 
       784.0         0.27          1.5 
       785.0         0.27          1.5 
       786.0         0.30          1.4 
       787.0         0.28          1.1 
       788.0         0.20          0.9 
       789.0         0.20          1.0 
       790.0         0.23          1.2 
       791.0         0.20          1.1 
       792.0         0.17          0.9 
       793.0         0.17          0.8 
       794.0         0.27          1.3 
       795.0         0.27          1.2 
       796.0         0.17          2.5 
       797.0         0.17          5.4 
       798.0         0.20          6.9 
       799.0         0.30          8.9 
       800.0         0.30          9.3 
       801.0         0.23          9.1 
       802.0         0.28          8.3 
       803.0         0.23          7.8 
       804.0         0.30          7.7 
       805.0         0.27          6.4 
       806.0         2.17         28.8 
       807.0         0.55         28.3 
       808.0         0.27         14.6 
       809.0         0.33         10.7 
       810.0         0.40          7.7 
       811.0         0.27          6.3 
       812.0         0.27          5.4 
       813.0         0.27          5.1 
       814.0         0.33          5.0 
       815.0         0.33          4.6 
       816.0         0.27          4.3 
       817.0         0.25          3.5 
       818.0         0.23          3.4 
       819.0         0.23          3.1 
       820.0         0.20          2.6 
       821.0         0.20          1.7 
       822.0         0.20          1.7 
       823.0         0.17          1.4 
       824.0         0.13          1.3 
       825.0         0.17          1.1 
       826.0         0.17          0.9 
       827.0         0.13          0.8 
       828.0         0.17          0.6 
       829.0         0.20          0.5 
       830.0         0.20          0.4 
       831.0         0.17          0.6 
       832.0         0.25          0.4 
       833.0         0.20          0.8 
       834.0         0.20          0.7 
       835.0         0.23          1.1 
       836.0         2.42         23.1 
       837.0         0.37          9.4 
       838.0         0.37          6.9 
       839.0         0.33          5.5 
       840.0         0.27          5.1 
       841.0         0.27          4.9 
       842.0         0.30          4.7 
       843.0         0.27          4.3 
       844.0         0.37          4.0 
       845.0         0.23          3.7 
       846.0         0.28          4.3 
       847.0         0.30          3.7 
       848.0         0.17          3.7 
       849.0         0.30          3.8 
       850.0         0.33          3.4 
       851.0         0.20          3.3 
       852.0         0.23          3.3 
       853.0         0.47          3.5 
       854.0         0.27          3.4 
       855.0         0.20          3.3 
       856.0         0.17          3.3 
       857.0         0.20          3.3 
       858.0         0.20          3.2 
       859.0         0.25          3.1 
       860.0         0.27          3.2 
       861.0         0.33          3.1 
       862.0         0.30          2.3 
       863.0         0.27          2.2 
       864.0         0.23          2.0 
       865.0         0.20          1.5 
       866.0         1.82          1.4 
       867.0         0.40          1.3 
       868.0         0.33          1.8 
       869.0         0.30          1.9 
       870.0         0.37          1.7 
       871.0         0.30          1.7 
       872.0         0.23          1.4 
       873.0         0.27          1.3 
       874.0         0.20          1.3 
       875.0         0.23          1.3 
       876.0         0.15          1.4 
       877.0         0.17          2.2 
       878.0         0.13          2.8 
       879.0         0.13          4.4 
       880.0         0.13          6.7 
       881.0         0.13          8.6 
       882.0         0.20         11.4 
       883.0         0.17         14.0 
       884.0         0.13         16.3 
       885.0         0.17         19.0 
