~Version Information
VERS.                      2.0: CWLS Log ASCII Standard - VERSION 2.0
WRAP.                       NO: One line per depth step
~Well Information Block
STRT.FT                -8.0000: 
STOP.FT              2135.0000: 
STEP.FT                 0.2500: 
NULL.                -999.2500: 
COMP.          Pioneer Natural Resources: COMPANY
WELL.             AMX 13-13 Tr: WELL
FLD.           Purgatorie River: FIELD
LOC.           2401' FSL & 895' FWL--: LOCATION
PROV.                       CO: PROVINCE
CNTY.               Las Animas: COUNTRY
SRVC.          Patterson Wireline: SERVICE COMPANY
DATE.          Thu Jan 05 10:37:28 2006: LOG DATE
UWI.           05 071 08631 00: UNIQUE WELL ID
~Curve Information Block
DEPT.FT            0 000 00 00: Depth
CCL.                          : Casing Collar Locator
TT3.usec                      : CBL 3' Travel Time
AMP3.mV                       : CBL 3' Amplitude
GR.GAPI                       : Gamma Ray
~Parameter Information Block
~A  Depth       CCL         TT3         AMP3         GR     
# ...
  1265.0000      0.0000    724.0008     13.3886     78.9891
  1265.2500      0.0000    724.6183     13.5995     80.7240
  1265.5000      0.0000    724.6267     13.7938     81.4693
  1265.7500      0.0000    724.5428     13.9432     81.2367
  1266.0000      0.0000    724.4894     14.0487     81.2015
  1266.2500      0.0000    724.4977     14.1260     83.5241
  1266.5000      0.0000    724.5762     14.1905     89.9053
  1266.7500      0.0000    724.7182     14.2595     99.8530
  1267.0000      0.0000    724.8628     14.3569    110.5989
  1267.2500      0.0000    724.8843     14.5025    119.0353
  1267.5000      0.0000    724.6299     14.6883    123.8044
  1267.7500      0.0000    723.9688     14.8698    125.5701
  1268.0000      0.0000    722.7886     14.9858    125.6022
  1268.2500      0.0000    721.0212     14.9903    124.4185
  1268.5000      0.0000    718.8633     14.8730    121.6678
  1268.7500      0.0000    717.0396     14.6609    117.0042
  1269.0000      0.0000    716.5615     14.4043    111.0264
  1269.2500      0.0000    717.8993     14.1585    105.5145
  1269.5000      0.0000    720.4756     13.9681    102.7522
  1269.7500      0.0000    723.1713     13.8576    104.2365
  1270.0000      0.0000    725.2313     13.8244    109.4418
  1270.2500      0.0000    726.6462     13.8410    115.6594
  1270.5000      0.0000    727.9802     13.8704    119.6289
  1270.7500      0.0000    730.0151     13.8886    119.9136
  1271.0000      0.0000    733.1992     13.8921    117.6507
  1271.2500      0.0000    736.9518     13.8821    114.9744
  1271.5000      0.0000    739.5828     13.8495    113.2006
  1271.7500      0.0000    739.4699     13.7811    112.5731
  1272.0000      0.0000    736.5568     13.6739    112.8505
  1272.2500      0.0000    732.4436     13.5386    113.5241
  1272.5000      0.0000    728.9775     13.3911    113.8533
  1272.7500      0.0000    727.0058     13.2476    113.1413
  1273.0000      0.0000    726.3365     13.1237    111.0345
  1273.2500      0.0000    726.3918     13.0382    107.7579
  1273.5000      0.0000    726.7391     13.0122    104.2928
  1273.7500      0.0000    727.2975     13.0580    102.2097
  1274.0000      0.0000    728.3639     13.1586    102.8994
  1274.2500      0.0000    730.5031     13.2630    106.5549
  1274.5000      0.0000    734.1792     13.3103    111.8394
  1274.7500      0.0000    739.2690     13.2660    116.8434
  1275.0000      0.0000    745.1196     13.1399    120.6714
  1275.2500      0.0000    751.3705     12.9820    124.0616
  1275.5000      0.0000    758.2814     12.8610    128.2925
  1275.7500      0.0000    765.5665     12.8290    133.4513
  1276.0000      0.0000    771.3208     12.8926    138.0067
  1276.2500      0.0000    773.1757     13.0173    140.2120
  1276.5000      0.0000    770.5261     13.1590    139.6822
  1276.7500      0.0000    764.9755     13.2860    137.3785
  1277.0000      0.0000    758.8167     13.3771    134.3263
  1277.2500      0.0000    753.7663     13.4151    130.7685
  1277.5000      0.0000    750.7490     13.3888    126.6863
  1277.7500      0.0000    749.7701     13.2981    122.9859
  1278.0000      0.0000    749.7756     13.1581    121.5922
  1278.2500      0.0000    749.4540     13.0016    123.9065
  1278.5000      0.0000    748.5657     12.8735    129.3264
  1278.7500      0.0000    748.0094     12.8111    135.5721
  1279.0000      0.0000    748.5283     12.8268    140.5134
  1279.2500      0.0000    750.0808     12.9040    143.6632
  1279.5000      0.0000    752.5347     13.0086    145.7691
  1279.7500      0.0000    756.0268     13.1061    147.0338
  1280.0000      0.0000    760.4287     13.1777    146.2760
  1280.2500      0.0000    765.2551     13.2268    142.0912
  1280.5000      0.0000    770.3920     13.2737    134.6091
  1280.7500      0.0000    776.3228     13.3393    125.9090
  1281.0000      0.0000    783.1105     13.4306    118.6019
  1281.2500      0.0000    789.5071     13.5404    113.7737
  1281.5000      0.0000    793.5282     13.6607    110.1909
  1281.7500      0.0000    793.8223     13.7939    105.5021
  1282.0000      0.0000    790.5269     13.9454     98.1844
  1282.2500      0.0000    784.9184     14.1045     88.6457
  1282.5000      0.0000    777.8441     14.2369     78.8506
  1282.7500      0.0000    767.8157     14.3037     70.8814
  1283.0000      0.0000    751.6838     14.2895     65.6167
  1283.2500      0.0000    729.2411     14.2086     62.5657
  1283.5000      0.0000    707.3749     14.0895     60.7292
  1283.7500      0.0000    696.8838     13.9559     59.4977
  1284.0000      0.0000    702.9216     13.8190     58.8097
  1284.2500      0.0000    719.8532     13.6808     58.6719
  1284.5000      0.0000    737.0684     13.5424     58.6442
  1284.7500      0.0000    748.1356     13.4126     57.8104
  1285.0000      0.0000    753.1124     13.3088     55.4314
  1285.2500      0.0000    754.3541     13.2492     51.8109
  1285.5000      0.0000    752.3879     13.2420     48.3296
  1285.7500      0.0000    744.9150     13.2799     46.3314
  1286.0000      0.0000    728.5195     13.3389     46.0833
  1286.2500      0.0000    702.1194     13.3881     46.9911
  1286.5000      0.0000    668.9569     13.4156     48.5232
  1286.7500      0.0000    632.7894     13.4557     50.4990
  1287.0000      0.0000    592.2048     13.5851     52.6092
  1287.2500      0.0000    543.9424     13.8493     54.2031
  1287.5000      0.0000    494.1972     14.1412     54.8340
  1287.7500      0.0000    461.3874     14.1861     54.8504
  1288.0000      0.0000    463.8203     13.7551     55.2490
  1288.2500      0.0000    505.9667     12.9192     57.0055
  1288.5000      0.0000    575.8935     12.0147     60.6370
  1288.7500      0.0000    652.3995     11.3507     66.1783
  1289.0000      0.0000    715.6704     11.0137     73.2978
  1289.2500      0.0000    755.6491     10.9327     81.5934
  1289.5000      0.0000    772.4222     11.0376     90.8913
  1289.7500      0.0000    768.5062     11.3550    101.0017
  1290.0000      0.0000    741.7422     11.9993    111.0357
  1290.2500      0.0000    687.5630     13.0373    119.1703
  1290.5000      0.0000    609.0638     14.2986    123.5302
  1290.7500      0.0000    522.8818     15.3749    123.7966
  1291.0000      0.0000    452.0902     15.9206    122.0414
  1291.2500      0.0000    413.4050     15.9339    121.5115
  1291.5000      0.0000    411.6378     15.6776    124.1001
  1291.7500      0.0000    440.9178     15.3979    128.8923
  1292.0000      0.0000    484.8967     15.1957    133.1598
  1292.2500      0.0000    519.8235     15.0858    134.7864
  1292.5000      0.0000    529.0341     15.0595    133.9773
  1292.7500      0.0000    519.0851     15.0838    132.7469
  1293.0000      0.0000    516.2242     15.1016    132.7256
  1293.2500      0.0000    542.3332     15.0689    133.6036
  1293.5000      0.0000    595.6123     14.9857    133.8158
  1293.7500      0.0000    655.1944     14.8811    132.6071
  1294.0000      0.0000    700.7504     14.7710    131.1841
  1294.2500      0.0000    725.3644     14.6431    131.6829
  1294.5000      0.0000    733.5951     14.4811    134.9475
  1294.7500      0.0000    733.2311     14.2948    139.4162
  1295.0000      0.0000    730.0434     14.1209    142.3173
  1295.2500      0.0000    726.7394     13.9975    141.9672
  1295.5000      0.0000    723.3665     13.9402    138.8161
  1295.7500      0.0000    717.6071     13.9403    134.5471
  1296.0000      0.0000    705.6238     13.9798    130.6125
  1296.2500      0.0000    685.0057     14.0401    127.6247
  1296.5000      0.0000    659.3229     14.0980    125.5006
  1296.7500      0.0000    638.5854     14.1267    123.6417
  1297.0000      0.0000    631.5842     14.1117    121.4021
  1297.2500      0.0000    637.7866     14.0640    118.9792
  1297.5000      0.0000    650.0037     14.0137    117.4816
  1297.7500      0.0000    663.6127     13.9892    117.6013
  1298.0000      0.0000    678.6839     14.0004    118.6886
  1298.2500      0.0000    694.6940     14.0350    119.6095
