~Version Information
VERS.                      2.0: CWLS Log ASCII Standard - VERSION 2.0
WRAP.                       NO: One line per depth step
~Well Information Block
STRT.FT                -7.0000: 
STOP.FT              1239.2500: 
STEP.FT                 0.2500: 
NULL.                -999.2500: 
COMP.          Pioneer Natural Resources: COMPANY
WELL.              Julie 11-30: WELL
FLD.           Purgatorie River: FIELD
LOC.           672' FNL & 1052' FWL--: LOCATION
CNTY.               Las Animas: COUNTY
SRVC.          Patterson Wireline: SERVICE COMPANY
DATE.          Tue Apr 18 11:12:35 2006: LOG DATE
UWI.           05 071 08724 00: UNIQUE WELL ID
STAT.                       CO: STATE
~Curve Information Block
DEPT.FT            0 000 00 00: Depth
CCL.                          : Casing Collar Locator
TT3.usec                      : CBL 3' Travel Time
AMP3.mV                       : CBL 3' Amplitude
GR.GAPI                       : Gamma Ray
~Parameter Information Block
~A  Depth       CCL         TT3         AMP3         GR     
# ...
   629.5000      0.0000    477.1271     11.5401    121.7824
   629.7500      0.0000    533.4825     11.3386    111.0153
   630.0000      0.0000    565.6454     11.1408    102.0739
   630.2500      0.0000    565.6400     10.9371     95.4431
   630.5000      0.0000    550.3746     10.7302     90.8692
   630.7500      0.0000    549.4919     10.5305     88.2309
   631.0000      0.0000    581.2028     10.3416     88.0650
   631.2500      0.0000    639.3170     10.1543     90.7842
   631.5000      0.0000    701.7466      9.9548     95.8309
   631.7500      0.0000    749.3243      9.7365    102.1947
   632.0000      0.0000    776.9666      9.5055    109.4183
   632.2500      0.0000    790.8063      9.2755    117.4346
   632.5000      0.0000    798.8629      9.0606    125.6170
   632.7500      0.0000    805.2207      8.8723    132.7359
   633.0000      0.0000    810.3651      8.7216    138.0122
   633.2500      0.0000    813.9587      8.6201    141.7363
   633.5000      0.0000    816.0805      8.5754    144.6310
   633.7500      0.0000    816.5859      8.5790    146.7865
   634.0000      0.0000    814.3682      8.6011    147.3085
   634.2500      0.0000    808.3381      8.6056    144.9831
   634.5000      0.0000    799.6801      8.5747    139.3318
   634.7500      0.0000    792.5610      8.5193    131.0125
   635.0000      0.0000    791.3129      8.4653    121.2634
   635.2500      0.0000    796.5714      8.4302    111.2014
   635.5000      0.0000    804.6485      8.4085    101.7014
   635.7500      0.0000    810.6196      8.3781     93.7822
   636.0000      0.0000    811.9665      8.3239     89.1254
   636.2500      0.0000    810.1094      8.2531     90.0808
   636.5000      0.0000    808.9471      8.1794     98.3706
   636.7500      0.0000    811.3771      8.0989    113.0431
   637.0000      0.0000    816.9254      7.9919    129.8205
   637.2500      0.0000    822.7980      7.8513    142.9767
   637.5000      0.0000    826.6015      7.6975    148.1071
   637.7500      0.0000    827.5717      7.5640    143.8070
   638.0000      0.0000    826.1882      7.4688    132.1647
   638.2500      0.0000    823.8112      7.4032    118.2275
   638.5000      0.0000    822.1369      7.3479    107.8026
   638.7500      0.0000    821.7240      7.3014    104.2962
   639.0000      0.0000    821.2047      7.2890    107.0090
   639.2500      0.0000    818.8376      7.3360    112.2861
   639.5000      0.0000    814.7212      7.4304    116.3055
   639.7500      0.0000    810.8790      7.5168    117.1285
   640.0000      0.0000    809.2023      7.5292    114.8007
   640.2500      0.0000    809.6469      7.4333    110.2778
   640.5000      0.0000    810.3787      7.2400    104.5435
   640.7500      0.0000    809.4163      6.9863     98.3019
   641.0000      0.0000    806.1435      6.7054     92.1141
   641.2500      0.0000    801.5921      6.4138     86.8318
   641.5000      0.0000    797.5980      6.1179     83.6131
   641.7500      0.0000    795.7584      5.8254     83.0327
   642.0000      0.0000    796.8785      5.5493     84.4838
   642.2500      0.0000    800.7498      5.3042     87.1750
   642.5000      0.0000    806.0427      5.1025     91.7157
   642.7500      0.0000    810.7783      4.9533    100.1340
   643.0000      0.0000    813.4642      4.8636    113.9205
   643.2500      0.0000    813.7007      4.8356    131.8883
   643.5000      0.0000    811.6359      4.8628    149.9035
   643.7500      0.0000    807.5645      4.9335    163.0051
   644.0000      0.0000    802.6119      5.0445    168.3667
   644.2500      0.0000    799.1281      5.2049    166.5565
   644.5000      0.0000    799.3816      5.4245    160.3547
   644.7500      0.0000    803.6177      5.7019    153.2926
   645.0000      0.0000    809.7545      6.0254    149.3328
   645.2500      0.0000    814.4224      6.3814    151.7238
   645.5000      0.0000    813.6865      6.7592    160.0952
   645.7500      0.0000    804.4873      7.1513    169.4579
   646.0000      0.0000    789.0196      7.5496    173.9267
   646.2500      0.0000    778.3340      7.9425    171.5222
   646.5000      0.0000    787.3315      8.3160    164.9257
   646.7500      0.0000    822.2890      8.6556    158.4393
   647.0000      0.0000    873.9305      8.9455    154.9083
   647.2500      0.0000    924.0674      9.1704    154.9312
   647.5000      0.0000    957.6870      9.3231    157.8396
   647.7500      0.0000    968.8729      9.4101    162.4703
   648.0000      0.0000    959.6564      9.4462    166.9790
   648.2500      0.0000    937.3241      9.4438    169.1183
   648.5000      0.0000    911.3868      9.4082    167.7520
   648.7500      0.0000    889.5985      9.3441    163.7216
   649.0000      0.0000    874.7671      9.2639    158.5144
   649.2500      0.0000    863.9959      9.1880    152.5878
   649.5000      0.0000    851.1923      9.1376    145.8220
   649.7500      0.0000    832.9019      9.1279    139.1469
   650.0000      0.0000    813.1620      9.1683    134.5166
   650.2500      0.0000    800.2868      9.2688    133.0741
   650.5000      0.0000    795.3166      9.4436    134.1139
   650.7500      0.0000    783.5709      9.7056    136.1374
   651.0000      0.0000    742.4629     10.0603    138.4497
   651.2500      0.0000    662.4135     10.5048    141.5346
   651.5000      0.0000    559.3123     11.0296    146.1543
   651.7500      0.0000    463.3170     11.6154    152.3455
   652.0000      0.0000    396.0295     12.2257    159.2168
   652.2500      0.0000    359.8111     12.8099    165.4748
   652.5000      0.0000    344.6546     13.3177    170.2158
   652.7500      0.0000    339.6619     13.7128    173.4481
   653.0000      0.0000    338.3254     13.9753    175.6583
   653.2500      0.0000    338.0178     14.1017    176.5983
   653.5000      0.0000    337.9712     14.1040    174.8940
   653.7500      0.0000    338.0113     14.0052    169.3737
   654.0000      0.0000    338.0802     13.8277    160.5629
   654.2500      0.0000    338.2003     13.5743    150.6014
   654.5000      0.0000    338.5583     13.2193    141.9437
   654.7500      0.0000    339.9549     12.7274    136.2293
   655.0000      0.0000    344.9004     12.0925    133.8307
   655.2500      0.0000    359.4852     11.3494    134.0255
   655.5000      0.0000    394.0656     10.5382    135.8323
   655.7500      0.0000    459.0368      9.6691    138.7458
   656.0000      0.0000    555.1630      8.7558    142.1954
   656.2500      0.0000    666.3827      7.8802    144.5060
   656.5000      0.0000    764.9943      7.1826    143.4127
   656.7500      0.0000    827.7219      6.7587    138.0407
   657.0000      0.0000    849.4418      6.5817    130.1865
   657.2500      0.0000    844.1182      6.5360    123.5721
   657.5000     -2.0000    833.4801      6.5087    121.6954
   657.7500      0.0000    832.1653      6.4529    125.9460
   658.0000      0.0000    840.0720      6.3994    135.0746
   658.2500      0.0000    847.2510      6.4267    146.0130
   658.5000      0.0000    844.1902      6.6075    155.4638
   658.7500      0.0000    826.6198      6.9723    161.6902
   659.0000      0.0000    795.9476      7.5198    165.4414
   659.2500      0.0000    761.8182      8.2215    169.0229
   659.5000      0.0000    740.4272      8.9928    174.0131
   659.7500      0.0000    742.2193      9.6948    179.6622
   660.0000      0.0000    761.4022     10.2098    183.4973
   660.2500      0.0000    781.2953     10.5109    183.5682
   660.5000      0.0000    787.6925     10.6497    180.0266
   660.7500      0.0000    775.9182     10.6939    174.5945
   661.0000      0.0000    750.8716     10.6846    168.9190
   661.2500      0.0000    724.4659     10.6347    163.5386
   661.5000      0.0000    708.4691     10.5480    158.0960
   661.7500      0.0000    703.7034     10.4344    152.2765
   662.0000      0.0000    697.0948     10.3082    146.2831
   662.2500      0.0000    673.3364     10.1795    140.2526
   662.5000      0.0000    629.2095     10.0568    133.6472
   662.7500      0.0000    575.2816      9.9619    126.0182
