~Version Information
VERS.                      2.0: CWLS Log ASCII Standard - VERSION 2.0
WRAP.                       NO: One line per depth step
~Well Information Block
STRT.FT               555.0000: 
STOP.FT              2322.2500: 
STEP.FT                 0.2500: 
NULL.                -999.2500: 
COMP.          Pioneer Natural Resources: COMPANY
WELL.          Fittipaldi 21-12: WELL
FLD.           Purgatoire River: FIELD
LOC.           207' FNL & 2110' FWL--: LOCATION
CNTY.               Las Animas: COUNTY
SRVC.                Patterson: SERVICE COMPANY
DATE.          Tue Mar 21 10:27:48 2006: LOG DATE
UWI.           05 071 08492 00: UNIQUE WELL ID
STAT.                 Colorado: STATE
~Curve Information Block
DEPT.FT            0 000 00 00: Depth
SN.Ohm-m                      : IEL Short Normal
SP.mV                         : IEL Spontaneous Potential
DIR.Ohm-m                     : IEL Induction Resistivity
GR.GAPI                       : Gamma Ray
~Parameter Information Block
~A  Depth        SN          SP         DIR          GR     
# ...
  1593.5000      7.7072     25.1810      6.6789    101.5970
  1593.7500      7.8244     25.1444      6.8354     91.4177
  1594.0000      7.9577     25.1136      6.9593     77.0575
  1594.2500      8.1703     25.0900      7.0503     69.8765
  1594.5000      8.5062     25.0762      7.1151     64.9485
  1594.7500      8.9335     25.0762      7.1633     66.0627
  1595.0000      9.3366     25.0958      7.2023     73.5849
  1595.2500      9.5749     25.1414      7.2324     81.3325
  1595.5000      9.5641     25.2187      7.2455     94.6329
  1595.7500      9.3144     25.3316      7.2281    103.3850
  1596.0000      8.9054     25.4811      7.1673    114.8932
  1596.2500      8.4323     25.6655      7.0586    120.9777
  1596.5000      7.9670     25.8817      6.9086    127.1943
  1596.7500      7.5472     26.1260      6.7331    129.2814
  1597.0000      7.1805     26.3941      6.5505    129.7006
  1597.2500      6.8597     26.6805      6.3747    128.7816
  1597.5000      6.5809     26.9764      6.2128    126.8379
  1597.7500      6.3490     27.2684      6.0654    125.5686
  1598.0000      6.1661     27.5387      5.9297    123.5138
  1598.2500      6.0197     27.7671      5.8017    121.6768
  1598.5000      5.8921     27.9354      5.6788    118.0906
  1598.7500      5.7786     28.0319      5.5612    115.6494
  1599.0000      5.6921     28.0547      5.4521    113.2430
  1599.2500      5.6487     28.0130      5.3564    112.9039
  1599.5000      5.6517     27.9244      5.2784    113.9560
  1599.7500      5.6867     27.8107      5.2204    115.2156
  1600.0000      5.7309     27.6912      5.1833    117.3481
  1600.2500      5.7681     27.5767      5.1671    118.6942
  1600.5000      5.7977     27.4650      5.1715    119.9955
  1600.7500      5.8338     27.3407      5.1964    120.0374
  1601.0000      5.8923     27.1782      5.2406    118.9225
  1601.2500      5.9760     26.9512      5.3022    117.8769
  1601.5000      6.0685     26.6437      5.3768    116.7380
  1601.7500      6.1434     26.2598      5.4583    116.4510
  1602.0000      6.1828     25.8319      5.5394    116.6386
  1602.2500      6.1842     25.4201      5.6136    117.1180
  1602.5000      6.1548     25.1047      5.6766    118.1941
  1602.7500      6.1053     24.9701      5.7274    118.8369
  1603.0000      6.0482     25.0864      5.7672    119.0030
  1603.2500      5.9976     25.4897      5.7984    118.4863
  1603.5000      5.9654     26.1698      5.8225    117.5049
  1603.7500      5.9574     27.0663      5.8410    117.3010
  1604.0000      5.9736     28.0771      5.8554    117.8329
  1604.2500      6.0157     29.0762      5.8682    118.2854
  1604.5000      6.0898     29.9385      5.8833    118.5549
  1604.7500      6.1956     30.5639      5.9032    118.7568
  1605.0000      6.3149     30.8962      5.9281    120.2018
  1605.2500      6.4163     30.9315      5.9547    122.3305
  1605.5000      6.4748     30.7138      5.9779    127.0178
  1605.7500      6.4843     30.3205      5.9940    130.6109
  1606.0000      6.4567     29.8420      6.0020    135.8526
  1606.2500      6.4115     29.3616      6.0030    139.0317
  1606.5000      6.3680     28.9408      5.9995    143.4453
  1606.7500      6.3395     28.6136      5.9939    146.3869
  1607.0000      6.3323     28.3893      5.9894    151.2084
  1607.2500      6.3467     28.2599      5.9903    154.7951
  1607.5000      6.3831     28.2103      6.0008    160.2981
  1607.7500      6.4438     28.2244      6.0238    163.2426
  1608.0000      6.5325     28.2890      6.0602    164.3917
  1608.2500      6.6519     28.3930      6.1101    161.9152
  1608.5000      6.8033     28.5251      6.1755    153.5040
  1608.7500      6.9854     28.6719      6.2628    146.2514
  1609.0000      7.1918     28.8179      6.3839    136.3394
  1609.2500      7.4142     28.9473      6.5552    131.6516
  1609.5000      7.6527     29.0451      6.7955    127.1286
  1609.7500      7.9259     29.1002      7.1232    124.4022
  1610.0000      8.2689     29.1057      7.5533    118.2376
  1610.2500      8.7203     29.0586      8.0948    112.0079
  1610.5000      9.3155     28.9595      8.7484     99.6038
  1610.7500     10.1033     28.8122      9.5075     89.8796
  1611.0000     11.1827     28.6237     10.3616     74.7031
  1611.2500     12.7218     28.4053     11.3033     65.3362
  1611.5000     14.9033     28.1727     12.3346     54.2560
  1611.7500     17.7869     27.9457     13.4683     49.5798
  1612.0000     21.1762     27.7461     14.7224     46.9656
  1612.2500     24.6210     27.5941     16.1015     47.7215
  1612.5000     27.5900     27.5041     17.5690     50.9663
  1612.7500     29.6919     27.4803     19.0181     53.4999
  1613.0000     30.7904     27.5149     20.2682     56.9386
  1613.2500     30.9643     27.5891     21.1119     59.1314
  1613.5000     30.3872     27.6783     21.4054     63.1069
  1613.7500     29.2330     27.7590     21.1402     66.6203
  1614.0000     27.6514     27.8153     20.4345     73.4909
  1614.2500     25.7915     27.8439     19.4618     79.2510
  1614.5000     23.8215     27.8534     18.3775     89.8139
  1614.7500     21.9084     27.8600     17.2849     97.9228
  1615.0000     20.1705     27.8805     16.2359    110.5061
  1615.2500     18.6464     27.9255     15.2497    118.3401
  1615.5000     17.3098     27.9963     14.3323    128.2982
  1615.7500     16.1160     28.0854     13.4890    133.4298
  1616.0000     15.0469     28.1800     12.7294    138.6210
  1616.2500     14.1229     28.2672     12.0667    140.5885
  1616.5000     13.3829     28.3377     11.5158    142.1357
  1616.7500     12.8536     28.3870     11.0916    142.6954
  1617.0000     12.5352     28.4147     10.8080    143.1914
  1617.2500     12.4101     28.4221     10.6775    143.3157
  1617.5000     12.4619     28.4110     10.7086    143.0854
  1617.7500     12.6807     28.3825     10.9036    142.4520
  1618.0000     13.0486     28.3380     11.2539    139.7664
  1618.2500     13.5198     28.2800     11.7380    135.7851
  1618.5000     14.0237     28.2128     12.3215    125.3158
  1618.7500     14.4968     28.1422     12.9618    116.0353
  1619.0000     14.9144     28.0745     13.6155    102.3696
  1619.2500     15.2942     28.0155     14.2442     95.7477
  1619.5000     15.6678     27.9685     14.8153     91.3089
  1619.7500     16.0401     27.9341     15.2970     91.5514
  1620.0000     16.3622     27.9104     15.6488     94.7951
  1620.2500     16.5404     27.8937     15.8177     98.0062
  1620.5000     16.4794     27.8799     15.7489    104.0848
  1620.7500     16.1334     27.8659     15.4109    109.2414
  1621.0000     15.5281     27.8501     14.8205    118.7237
  1621.2500     14.7467     27.8328     14.0465    125.6321
  1621.5000     13.8992     27.8153     13.1877    134.9650
  1621.7500     13.0916     27.7978     12.3405    139.3454
  1622.0000     12.4013     27.7781     11.5769    142.3037
  1622.2500     11.8618     27.7508     10.9373    142.4025
  1622.5000     11.4638     27.7085     10.4352    141.8151
  1622.7500     11.1728     27.6447     10.0654    141.9473
  1623.0000     10.9497     27.5597      9.8116    143.1935
  1623.2500     10.7610     27.4668      9.6516    144.0380
  1623.5000     10.5798     27.3964      9.5611    143.5489
  1623.7500     10.3898     27.3953      9.5186    141.3045
  1624.0000     10.1956     27.5191      9.5093    135.3505
  1624.2500     10.0246     27.8176      9.5283    130.8005
  1624.5000      9.9158     28.3167      9.5777    125.6662
  1624.7500      9.8973     29.0039      9.6585    124.4223
  1625.0000      9.9636     29.8225      9.7613    125.8219
  1625.2500     10.0669     30.6800      9.8592    127.7973
  1625.5000     10.1304     31.4679      9.9110    129.5565
  1625.7500     10.0846     32.0888      9.8743    128.9112
  1626.0000      9.9060     32.4787      9.7244    125.6385
  1626.2500      9.6345     32.6198      9.4666    123.0159
  1626.5000      9.3523     32.5384      9.1333    120.2047
  1626.7500      9.1387     32.2908      8.7685    119.7226
