~Version Information
VERS.                      2.0: CWLS Log ASCII Standard - VERSION 2.0
WRAP.                       NO: One line per depth step
~Well Information Block
STRT.FT              1186.0000: 
STOP.FT              1577.0000: 
STEP.FT                 0.2500: 
NULL.                -999.2500: 
COMP.          XTO Energy Inc.: COMPANY
WELL.          Golden Eagle 19-10: WELL
FLD.           Purgatorie River: FIELD
LOC.           2684' FSL & 1825' FEL--: LOCATION
CNTY.               Las Animas: COUNTY
SRVC.          Superior Well Services: SERVICE COMPANY
DATE.          Mon Dec 11 16:19:11 2006: LOG DATE
UWI.           05 071 08697 00: UNIQUE WELL ID
STAT.                       CO: STATE
~Curve Information Block
DEPT.FT            0 000 00 00: Depth
CCL.                          : Casing Collar Locator
TT3.usec                      : CBL 3' Travel Time
AMP3.mV                       : CBL 3' Amplitude
GR.GAPI                       : Gamma Ray
~Parameter Information Block
~A  Depth       CCL         TT3         AMP3         GR     
# ...
  1320.0000      0.0000    260.8839     75.6322    109.1767
  1320.2500      0.0000    260.8604     75.9855    131.9865
  1320.5000      0.0000    260.8365     76.3331    153.1901
  1320.7500      0.0000    260.8160     76.6616    170.7454
  1321.0000      0.0000    260.8022     76.9882    184.2617
  1321.2500      0.0000    260.7960     77.3142    193.6259
  1321.5000      0.0000    260.7956     77.6009    198.1429
  1321.7500      0.0000    260.7974     77.7975    197.3458
  1322.0000      0.0000    260.7985     77.8768    192.0779
  1322.2500      0.0000    260.7972     77.8354    184.5067
  1322.5000      0.0000    260.7932     77.6772    177.3169
  1322.7500      0.0000    260.7867     77.4118    172.5916
  1323.0000      0.0000    260.7788     77.0624    170.8675
  1323.2500      0.0000    260.7708     76.6633    171.1037
  1323.5000      0.0000    260.7647     76.2521    171.7616
  1323.7500      0.0000    260.7639     75.8760    172.1222
  1324.0000      0.0000    260.7717     75.6016    172.5992
  1324.2500      0.0000    260.7871     75.5015    173.6885
  1324.5000      0.0000    260.8040     75.6082    174.8588
  1324.7500      0.0000    260.8181     75.8559    174.7724
  1325.0000      0.0000    260.8401     76.0384    172.3773
  1325.2500      0.0000    260.9186     75.7825    167.3194
  1325.5000      0.0000    261.1638     74.5576    159.3138
  1325.7500      0.0000    261.7470     71.8312    147.9454
  1326.0000      0.0000    262.8277     67.4367    133.7180
  1326.2500      0.0000    264.4216     61.9072    118.7403
  1326.5000      0.0000    266.3159     56.3538    105.5057
  1326.7500      0.0000    268.1422     51.8711     95.1485
  1327.0000      0.0000    269.5745     48.9856     87.4193
  1327.2500      0.0000    270.4875     47.5718     81.7967
  1327.5000      0.0000    270.9858     47.1465     77.7779
  1327.7500     -2.0000    271.3438     47.2108     74.4976
  1328.0000      0.0000    271.9385     47.4456     71.0675
  1328.2500      0.0000    273.0952     47.8048     67.3186
  1328.5000      0.0000    274.7288     48.5860     63.6784
  1328.7500      0.0000    276.0355     50.3622     60.3585
  1329.0000      0.0000    275.8471     53.5941     57.0955
  1329.2500      0.0000    273.6408     58.1231     53.8124
  1329.5000      0.0000    270.1162     63.1047     51.4082
  1329.7500      0.0000    266.5921     67.5040     51.6014
  1330.0000      0.0000    263.9841     70.6499     55.5907
  1330.2500      0.0000    262.4459     72.4316     62.6981
  1330.5000      0.0000    261.6878     73.1690     70.5282
  1330.7500      0.0000    261.3641     73.3435     76.5094
  1331.0000      0.0000    261.2386     73.3484     79.1200
  1331.2500      0.0000    261.1910     73.3797     77.9833
  1331.5000      0.0000    261.1747     73.4746     73.7049
  1331.7500      0.0000    261.1727     73.6072     67.9472
  1332.0000      0.0000    261.1779     73.7442     63.1123
  1332.2500      0.0000    261.1852     73.8639     61.3089
  1332.5000      0.0000    261.1898     73.9585     63.1801
  1332.7500      0.0000    261.1883     74.0305     67.3941
  1333.0000      0.0000    261.1785     74.0789     71.2810
  1333.2500      0.0000    261.1614     74.0834     72.3258
  1333.5000      0.0000    261.1416     74.0084     69.5040
  1333.7500      0.0000    261.1252     73.8273     63.5781
  1334.0000      0.0000    261.1165     73.5518     56.3589
  1334.2500      0.0000    261.1171     73.2368     49.6184
  1334.5000      0.0000    261.1253     72.9498     44.4004
  1334.7500      0.0000    261.1382     72.7284     40.9360
  1335.0000      0.0000    261.1528     72.5642     38.9504
  1335.2500      0.0000    261.1674     72.4198     38.0538
  1335.5000      0.0000    261.1812     72.2569     37.9823
  1335.7500      0.0000    261.1949     72.0616     38.7152
  1336.0000      0.0000    261.2088     71.8524     40.5975
  1336.2500      0.0000    261.2228     71.6537     44.2394
  1336.5000      0.0000    261.2378     71.4618     49.9234
  1336.7500      0.0000    261.2557     71.2523     56.9698
  1337.0000      0.0000    261.2776     71.0273     63.9103
  1337.2500      0.0000    261.3022     70.8343     69.4141
  1337.5000      0.0000    261.3273     70.7296     72.9670
  1337.7500      0.0000    261.3505     70.7281     74.8099
  1338.0000      0.0000    261.3682     70.7902     75.7905
  1338.2500      0.0000    261.3763     70.8497     77.5467
  1338.5000      0.0000    261.3723     70.8577     82.1448
  1338.7500      0.0000    261.3569     70.8119     90.4084
  1339.0000      0.0000    261.3325     70.7521    100.3710
  1339.2500      0.0000    261.3023     70.7274    108.0882
  1339.5000      0.0000    261.2693     70.7690    110.4630
  1339.7500      0.0000    261.2373     70.8920    107.3074
  1340.0000      0.0000    261.2111     71.1106    100.9889
  1340.2500      0.0000    261.1947     71.4355     94.4484
  1340.5000      0.0000    261.1891     71.8434     89.2034
  1340.7500      0.0000    261.1921     72.2460     84.7011
  1341.0000      0.0000    261.2002     72.5077     79.5067
  1341.2500      0.0000    261.2102     72.5250     73.0599
  1341.5000      0.0000    261.2198     72.3040     66.1798
  1341.7500      0.0000    261.2274     71.9533     60.2366
  1342.0000      0.0000    261.2322     71.5987     56.3846
  1342.2500      0.0000    261.2343     71.3096     55.4009
  1342.5000      0.0000    261.2335     71.0954     57.4490
  1342.7500      0.0000    261.2295     70.9442     61.6796
  1343.0000      0.0000    261.2233     70.8489     66.5634
  1343.2500      0.0000    261.2169     70.8044     71.0795
  1343.5000      0.0000    261.2133     70.7959     75.5209
  1343.7500      0.0000    261.2152     70.7980     81.0161
  1344.0000      0.0000    261.2233     70.7872     88.2654
  1344.2500      0.0000    261.2352     70.7541     96.6421
  1344.5000      0.0000    261.2475     70.6999    104.4929
  1344.7500      0.0000    261.2580     70.6224    110.4374
  1345.0000      0.0000    261.2669     70.5110    114.4019
  1345.2500      0.0000    261.2739     70.3608    117.3340
  1345.5000      0.0000    261.2777     70.1837    119.9038
  1345.7500      0.0000    261.2776     69.9984    121.4645
  1346.0000      0.0000    261.2749     69.8122    120.3732
  1346.2500      0.0000    261.2730     69.6230    115.4812
  1346.5000      0.0000    261.2751     69.4428    107.1893
  1346.7500      0.0000    261.2815     69.3163     96.9125
  1347.0000      0.0000    261.2895     69.3046     85.9243
  1347.2500      0.0000    261.2961     69.4370     75.1017
  1347.5000      0.0000    261.3008     69.6746     65.2834
  1347.7500      0.0000    261.3060     69.9244     57.1800
  1348.0000      0.0000    261.3137     70.1013     50.9803
  1348.2500      0.0000    261.3228     70.1834     46.3723
  1348.5000      0.0000    261.3290     70.2092     42.9380
  1348.7500      0.0000    261.3291     70.2260     40.3958
  1349.0000      0.0000    261.3231     70.2502     38.5575
  1349.2500      0.0000    261.3136     70.2744     37.2484
  1349.5000      0.0000    261.3038     70.3045     36.3411
  1349.7500      0.0000    261.2960     70.3764     35.8473
  1350.0000      0.0000    261.2922     70.5329     35.9611
  1350.2500      0.0000    261.2945     70.7822     36.9816
  1350.5000      0.0000    261.3047     71.0795     39.1081
  1350.7500      0.0000    261.3222     71.3520     42.1687
  1351.0000      0.0000    261.3440     71.5466     45.5038
  1351.2500      0.0000    261.3654     71.6577     48.2893
  1351.5000      0.0000    261.3816     71.7165     50.1355
  1351.7500      0.0000    261.3887     71.7598     51.2426
  1352.0000      0.0000    261.3853     71.8044     51.7931
  1352.2500      0.0000    261.3742     71.8450     51.4026
  1352.5000      0.0000    261.3609     71.8680     49.5635
  1352.7500      0.0000    261.3518     71.8695     46.6243
  1353.0000      0.0000    261.3520     71.8606     43.8922
  1353.2500      0.0000    261.3634     71.8603     42.7138
