~Version Information
VERS.                      2.0: CWLS Log ASCII Standard - VERSION 2.0
WRAP.                       NO: One line per depth step
~Well Information Block
STRT.FT                 0.0000: 
STOP.FT               787.2500: 
STEP.FT                 0.2500: 
NULL.                -999.2500: 
COMP.          Pioneer Natural Resources: COMPANY
WELL.             Veedol 34-28: WELL
FLD.           Purgatorie River: FIELD
LOC.           357' FSL & 2520' FEL: LOCATION
PROV.                 Colorado: PROVINCE
CNTY.               Las Animas: COUNTRY
SRVC.                Patterson: SERVICE COMPANY
DATE.          Wed Dec 28 10:10:37 2005: LOG DATE
UWI.                          : UNIQUE WELL ID
~Curve Information Block
DEPT.FT            0 000 00 00: Depth
CCL.                          : Casing Collar Locator
TT3.usec                      : CBL 3' Travel Time
AMP3.mV                       : CBL 3' Amplitude
GR.GAPI                       : Gamma Ray
~Parameter Information Block
~A  Depth       CCL         TT3         AMP3         GR     
# ...
   100.5000      0.0000    725.5289     13.9189     99.6761
   100.7500      0.0000    725.5823     13.7743     97.6744
   101.0000      0.0000    725.5753     13.6002     94.3717
   101.2500      0.0000    725.2160     13.4613     91.1643
   101.5000      0.0000    722.9008     13.4157     89.1213
   101.7500      0.0000    713.0996     13.5074     88.3539
   102.0000      0.0000    687.8485     13.7668     88.2583
   102.2500      0.0000    652.1972     14.1173     88.2488
   102.5000      0.0000    634.0537     14.3679     88.1461
   102.7500      0.0000    652.5160     14.3779     88.0710
   103.0000      0.0000    688.4520     14.1807     88.2855
   103.2500      0.0000    713.8902     13.9204     89.1634
   103.5000      0.0000    723.7513     13.7301     91.0283
   103.7500      0.0000    726.0372     13.6868     93.7886
   104.0000      0.0000    726.3574     13.7988     96.6855
   104.2500      0.0000    726.3954     13.9811     98.5861
   104.5000      0.0000    726.4529     14.1121     98.7982
   104.7500      0.0000    726.5708     14.1551     97.6035
   105.0000      0.0000    726.7183     14.1507     95.8305
   105.2500      0.0000    726.8096     14.1060     94.1160
   105.5000      0.0000    726.7704     14.0072     92.8398
   105.7500      0.0000    726.6197     13.9074     92.3836
   106.0000      0.0000    726.4203     13.8840     92.8177
   106.2500      0.0000    726.2213     13.9353     93.3165
   106.5000      0.0000    726.0884     13.9897     92.3503
   106.7500      0.0000    726.0798     13.9818     88.8604
   107.0000      0.0000    726.1579     13.8830     83.4260
   107.2500      0.0000    726.2162     13.7047     78.2596
   107.5000      0.0000    726.2214     13.5067     75.7428
   107.7500      0.0000    726.2413     13.3725     76.5860
   108.0000      0.0000    726.3444     13.3561     79.2328
   108.2500      0.0000    726.5450     13.4618     80.9968
   108.5000      0.0000    726.7891     13.6423     79.8675
   108.7500      0.0000    726.9573     13.8216     75.6454
   109.0000      0.0000    726.9526     13.9525     69.7848
   109.2500      0.0000    726.7794     14.0312     64.3448
   109.5000      0.0000    726.4984     14.0498     60.9254
   109.7500      0.0000    726.1709     13.9903     60.1105
   110.0000      0.0000    725.8896     13.8926     61.3383
   110.2500      0.0000    725.7555     13.8642     63.1402
   110.5000      0.0000    725.7532     13.9919     63.9299
   110.7500      0.0000    725.5776     14.2657     63.0036
   111.0000      0.0000    723.5341     14.5905     60.8524
   111.2500      0.0000    713.9216     14.8652     58.5590
   111.5000      0.0000    688.6295     15.0416     56.9475
   111.7500      0.0000    652.7389     15.1108     56.0953
   112.0000      0.0000    634.3311     15.0870     55.3781
   112.2500      0.0000    652.6838     15.0089     54.0646
   112.5000      0.0000    688.7892     14.9233     52.0804
   112.7500      0.0000    714.6149     14.8533     50.2481
   113.0000      0.0000    724.8050     14.7864     49.8149
   113.2500      0.0000    727.2313     14.7009     51.7395
   113.5000      0.0000    727.6517     14.5867     56.1297
   113.7500      0.0000    727.7742     14.4410     62.1489
   114.0000      0.0000    727.6851     14.2753     68.6373
   114.2500      0.0000    727.2995     14.1334     75.0059
   114.5000      0.0000    726.7482     14.0766     81.3866
   114.7500      0.0000    726.2101     14.1369     87.8302
   115.0000      0.0000    725.4254     14.2937     93.5879
   115.2500      0.0000    722.3569     14.5054     97.3148
   115.5000      0.0000    709.4832     14.7500     97.8411
   115.7500      0.0000    671.4409     15.0255     94.7123
   116.0000      0.0000    597.8322     15.3288     88.3394
   116.2500      0.0000    505.9262     15.6198     79.9611
   116.5000      0.0000    432.0952     15.8088     71.2079
   116.7500      0.0000    393.8767     15.8576     63.3127
   117.0000      0.0000    381.0022     15.8759     56.7714
   117.2500      0.0000    377.9932     16.0272     51.7460
   117.5000      0.0000    376.9952     16.3561     48.4306
   117.7500      0.0000    374.9173     16.7610     47.0213
   118.0000      0.0000    369.7810     17.1154     47.7828
   118.2500      0.0000    362.5490     17.3559     51.2427
   118.5000      0.0000    358.9656     17.4537     57.7097
   118.7500      0.0000    362.9000     17.4051     66.1759
   119.0000      0.0000    370.2850     17.2556     74.1306
   119.2500      0.0000    375.3611     17.0648     79.0970
   119.5000      0.0000    377.2052     16.8639     80.3487
   119.7500      0.0000    377.5963     16.6605     78.9561
   120.0000      0.0000    378.0112     16.4495     76.6105
   120.2500      0.0000    380.6707     16.2154     74.8263
   120.5000      0.0000    392.8919     15.9476     74.8201
   120.7500      0.0000    428.4746     15.6578     77.2790
   121.0000      0.0000    490.7433     15.3839     81.9332
   121.2500      0.0000    548.2915     15.1732     87.6343
   121.5000      0.0000    561.1193     15.0288     93.0725
   121.7500      0.0000    544.8576     14.8869     97.4431
   122.0000      0.0000    557.4444     14.7021    100.5688
   122.2500      0.0000    614.1613     14.5174    102.5482
   122.5000      0.0000    673.3167     14.3970    103.3110
   122.7500      0.0000    696.2708     14.3545    102.6191
   123.0000      0.0000    670.9670     14.3621    100.6018
   123.2500      0.0000    602.1113     14.3767     98.0368
   123.5000      0.0000    519.9918     14.3696     95.7255
   123.7500      0.0000    471.2849     14.3647     93.6895
   124.0000      0.0000    468.9806     14.4318     91.4898
   124.2500      0.0000    475.0387     14.6063     89.3535
   124.5000      0.0000    456.5973     14.8159     88.3491
   124.7500      0.0000    432.7670     14.9504     89.1111
   125.0000      0.0000    445.2118     14.9924     90.8812
   125.2500      0.0000    509.1609     14.9788     92.1844
   125.5000      0.0000    598.9885     14.9014     92.1040
   125.7500      0.0000    672.3633     14.7491     90.6577
   126.0000      0.0000    709.8403     14.5478     88.4668
   126.2500      0.0000    719.9698     14.3174     86.4534
   126.5000      0.0000    712.6904     14.0755     85.5215
   126.7500      0.0000    687.6317     13.8692     86.0263
   127.0000      0.0000    651.8822     13.7369     87.4296
   127.2500      0.0000    633.6469     13.6618     88.5520
   127.5000      0.0000    651.9952     13.6030     88.2974
   127.7500      0.0000    687.8232     13.5652     86.4142
   128.0000      0.0000    713.2117     13.6085     83.8630
   128.2500      0.0000    722.8149     13.7423     82.3635
   128.5000      0.0000    723.5962     13.8500     83.1974
   128.7500      0.0000    719.3746     13.8187     86.2027
   129.0000      0.0000    711.4566     13.6796     89.9370
   129.2500      0.0000    704.3432     13.5240     92.8438
   129.5000      0.0000    704.1082     13.3818     94.3093
   129.7500      0.0000    710.8267     13.2473     94.7509
   130.0000      0.0000    718.5310     13.1147     94.8876
   130.2500      0.0000    722.9892     12.9602     94.9867
   130.5000      0.0000    724.5580     12.7806     94.7226
   130.7500      0.0000    724.9554     12.6481     93.5469
   131.0000      0.0000    725.0602     12.6461     91.1049
   131.2500      0.0000    725.0774     12.7722     87.4975
   131.5000      0.0000    725.0466     12.9623     83.3278
   131.7500      0.0000    724.9443     13.1687     79.4985
   132.0000      0.0000    724.3500     13.3683     76.9404
   132.2500      0.0000    721.6807     13.5463     76.3546
   132.5000      0.0000    714.4024     13.7144     77.8034
   132.7500      0.0000    702.6011     13.8873     80.4501
   133.0000      0.0000    690.8131     13.9789     83.0217
   133.2500      0.0000    679.9813     13.7720     84.6891
   133.5000      0.0000    662.3696     13.1508     85.4022
   133.7500      0.0000    634.0721     12.4370     85.5709
