~Version Information
VERS.                      2.0: CWLS Log ASCII Standard - VERSION 2.0
WRAP.                       NO: One line per depth step
~Well Information Block
STRT.FT                -7.5000: 
STOP.FT              2228.7500: 
STEP.FT                 0.2500: 
NULL.                -999.2500: 
COMP.          Pioneer Natural Resources: COMPANY
WELL.          McDonald 33-31 R: WELL
FLD.           Purgatorie River: FIELD
LOC.           1386' FSL & 1926' FEL: LOCATION
STAT.                       CO: State
CNTY.               Las Animas: COUNTY
CTRY.                      USA: Country
SECT.                       31: Section
TOWN.                      32S: Township
RANG.                      66W: Range
SRVC.          Patterson Wireline: SERVICE COMPANY
DATE.          Wed Sep 28 13:29:18 2005: LOG DATE
API.           05 071 08533 00: API#
~Curve Information Block
DEPT.FT            0 000 00 00: Depth
CCL.                          : Casing Collar Locator
TT3.usec                      : CBL 3' Travel Time
AMP3.mV                       : CBL 3' Amplitude
GR.GAPI                       : Gamma Ray
~Parameter Information Block
~A  Depth       CCL         TT3         AMP3         GR     
# ...
  2069.5000      0.0000    713.3961      7.9783     70.2526
  2069.7500      0.0000    715.9861      8.1908     72.1682
  2070.0000      0.0000    717.1782      8.3984     74.2166
  2070.2500      0.0000    717.7114      8.5699     75.8938
  2070.5000      0.0000    718.0925      8.6704     77.4338
  2070.7500      0.0000    718.4957      8.6686     79.2110
  2071.0000      0.0000    718.8746      8.5519     81.2352
  2071.2500      0.0000    719.1287      8.3411     83.2142
  2071.5000      0.0000    719.2411      8.0925     84.9281
  2071.7500      0.0000    719.3478      7.8736     86.3107
  2072.0000      0.0000    719.7493      7.7255     86.9200
  2072.2500      0.0000    720.9317      7.6470     85.4577
  2072.5000      0.0000    723.5294      7.6147     80.3564
  2072.7500      0.0000    728.0022      7.6154     71.2866
  2073.0000      0.0000    734.1138      7.6556     59.9893
  2073.2500      0.0000    740.7856      7.7454     49.3958
  2073.5000      0.0000    746.6214      7.8772     41.7851
  2073.7500      0.0000    750.6198      8.0178     37.6824
  2074.0000      0.0000    752.4669      8.1283     36.3719
  2074.2500      0.0000    752.2253      8.2004     37.2351
  2074.5000      0.0000    749.7803      8.2651     40.3813
  2074.7500      0.0000    744.9338      8.3516     46.0567
  2075.0000      0.0000    738.2449      8.4426     53.7074
  2075.2500      0.0000    731.1937      8.4846     61.7061
  2075.5000      0.0000    724.8434      8.4419     68.0490
  2075.7500      0.0000    718.3231      8.3314     71.5593
  2076.0000      0.0000    708.7889      8.2128     72.6221
  2076.2500      0.0000    693.2380      8.1532     72.6598
  2076.5000      0.0000    671.6301      8.1944     72.8055
  2076.7500      0.0000    649.4598      8.3355     73.1946
  2077.0000      0.0000    636.2687      8.5326     73.5082
  2077.2500      0.0000    638.6794      8.7191     73.8853
  2077.5000      0.0000    653.6318      8.8376     75.0738
  2077.7500      0.0000    669.7985      8.8617     77.7344
  2078.0000      0.0000    676.6410      8.7956     81.7751
  2078.2500      0.0000    672.1345      8.6594     86.4910
  2078.5000      0.0000    662.8655      8.4794     91.2409
  2078.7500      0.0000    657.9932      8.2895     95.6522
  2079.0000      0.0000    662.5167      8.1299     99.2283
  2079.2500      0.0000    674.8680      8.0335    101.3049
  2079.5000      0.0000    689.7717      8.0060    101.6336
  2079.7500      0.0000    702.3627      8.0224    100.6811
  2080.0000      0.0000    709.5908      8.0455     99.3359
  2080.2500      0.0000    708.9472      8.0478     98.6604
  2080.5000      0.0000    697.0902      8.0212     99.6912
  2080.7500      0.0000    670.7311      7.9711    102.6854
  2081.0000      0.0000    630.1197      7.9081    106.3709
  2081.2500      0.0000    581.9384      7.8429    108.5282
  2081.5000      0.0000    537.7599      7.7843    107.6527
  2081.7500      0.0000    509.0345      7.7370    103.9178
  2082.0000      0.0000    503.0948      7.7013     98.7317
  2082.2500      0.0000    521.4622      7.6749     93.7566
  2082.5000      0.0000    558.6351      7.6554     90.1839
  2082.7500      0.0000    602.6062      7.6385     88.2507
  2083.0000      0.0000    640.0723      7.6163     87.1655
  2083.2500      0.0000    663.6824      7.5803     85.7975
  2083.5000      0.0000    673.7858      7.5307     83.7348
  2083.7500      0.0000    673.6292      7.4809     81.7430
  2084.0000      0.0000    666.0546      7.4479     81.1974
  2084.2500      0.0000    655.5050      7.4403     82.9585
  2084.5000      0.0000    648.1257      7.4608     86.6629
  2084.7500      0.0000    645.1459      7.5237     90.9247
  2085.0000      0.0000    638.2294      7.6644     94.0090
  2085.2500      0.0000    615.8327      7.9201     94.4988
  2085.5000      0.0000    574.7461      8.2902     91.9954
  2085.7500      0.0000    524.0273      8.7134     87.5828
  2086.0000      0.0000    477.8645      9.0911     83.2459
  2086.2500      0.0000    445.5604      9.3391     80.3881
  2086.5000      0.0000    427.7732      9.4176     78.9986
  2086.7500      0.0000    419.9482      9.3225     78.3080
  2087.0000      0.0000    417.2319      9.0720     77.9554
  2087.2500      0.0000    416.6422      8.7137     78.3709
  2087.5000      0.0000    416.7059      8.3321     80.1948
  2087.7500      0.0000    416.6061      8.0207     83.4711
  2088.0000      0.0000    415.9908      7.8322     87.3389
  2088.2500      0.0000    415.7291      7.7579     90.4862
  2088.5000      0.0000    419.2664      7.7589     92.0611
  2088.7500      0.0000    432.6615      7.8121     92.2450
  2089.0000      0.0000    460.9343      7.9234     91.8848
  2089.2500      0.0000    501.5290      8.1045     91.6155
  2089.5000      0.0000    541.3751      8.3483     91.4159
  2089.7500      0.0000    563.9144      8.6298     90.9150
  2090.0000      0.0000    562.5812      8.9223     90.0771
  2090.2500      0.0000    547.4377      9.2077     89.6069
  2090.5000      0.0000    535.9908      9.4765     90.4790
  2090.7500      0.0000    536.2660      9.7241     92.8742
  2091.0000      0.0000    540.3478      9.9467     95.8264
  2091.2500      0.0000    535.7204     10.1372     98.1657
  2091.5000      0.0000    520.2826     10.2855     99.4519
  2091.7500      0.0000    502.4645     10.3871     99.6206
  2092.0000      0.0000    488.2494     10.4570     98.1948
  2092.2500      0.0000    474.1619     10.5327     94.5876
  2092.5000      0.0000    454.5315     10.6523     89.1264
  2092.7500      0.0000    430.3415     10.8287     83.1049
  2093.0000      0.0000    407.7852     11.0480     77.6007
  2093.2500      0.0000    391.3038     11.2945     72.7034
  2093.5000      0.0000    381.1233     11.5618     68.1433
  2093.7500      0.0000    376.0530     11.8192     64.1375
  2094.0000      0.0000    376.7256     11.9681     61.0385
  2094.2500      0.0000    386.2154     11.8619     58.4075
  2094.5000      0.0000    408.0318     11.4060     55.1645
  2094.7500      0.0000    443.1595     10.6330     50.8984
  2095.0000      0.0000    488.4933      9.6505     46.7342
  2095.2500      0.0000    537.7255      8.5280     44.5594
  2095.5000      0.0000    583.3954      7.3086     45.3230
  2095.7500      0.0000    618.9522      6.1667     48.1869
  2096.0000      0.0000    639.5334      5.4625     51.2928
  2096.2500      0.0000    640.9186      5.5183     53.2709
  2096.5000      0.0000    620.3184      6.3106     54.2357
  2096.7500      0.0000    582.4778      7.4180     55.6580
  2097.0000      0.0000    544.1692      8.2784     59.2893
  2097.2500     -2.0000    525.7827      8.5091     65.9496
  2097.5000      0.0000    534.4789      8.0556     75.0692
  2097.7500      0.0000    558.3828      7.1388     84.9333
  2098.0000      0.0000    579.2708      6.0996     93.1873
  2098.2500      0.0000    586.8619      5.2487     97.8690
  2098.5000      0.0000    579.2153      4.7782     98.8429
  2098.7500      0.0000    556.4878      4.7392     98.0484
  2099.0000      0.0000    521.0710      5.0615     97.7258
  2099.2500      0.0000    480.7869      5.5946     98.3927
  2099.5000      0.0000    445.9248      6.1643     98.7586
  2099.7500      0.0000    422.5534      6.6386     97.3712
  2100.0000      0.0000    410.1695      6.9668     94.1655
  2100.2500      0.0000    404.7986      7.1638     90.6794
  2100.5000      0.0000    402.7006      7.2649     88.9383
  2100.7500      0.0000    401.7446      7.2975     90.1119
  2101.0000      0.0000    401.0652      7.2808     93.9735
  2101.2500      0.0000    400.3936      7.2335     99.0872
  2101.5000      0.0000    399.6844      7.1790    103.3530
  2101.7500      0.0000    398.9425      7.1482    105.0571
  2102.0000      0.0000    398.1577      7.1705    103.9204
  2102.2500      0.0000    397.3065      7.2558    101.0223
  2102.5000      0.0000    396.3866      7.3861     97.7180
  2102.7500      0.0000    395.4197      7.5270     94.7201
