~Version Information
VERS.                      2.0: CWLS Log ASCII Standard - VERSION 2.0
WRAP.                       NO: One line per depth step
~Well Information Block
STRT.FT               233.8000: 
STOP.FT              1692.5000: 
STEP.FT                 0.1000: 
NULL.                -999.2500: 
COMP.          Pioneer Natural Resources: COMPANY
WELL.            Relay 12-7 Tr: WELL
FLD.           Purgatoire River: FIELD
LOC.           2025' FNL & 790' FWL: LOCATION
PROV.                 Colorado: PROVINCE
CNTY.               Las Animas: COUNTRY
SRVC.                Patterson: SERVICE COMPANY
DATE.          Mon Jan 16 13:23:17 2006: LOG DATE
UWI.           05 071 08603 00: UNIQUE WELL ID
~Curve Information Block
DEPT.FT            0 000 00 00: Depth
DCAL.in                       : CDL Caliper
RHOB.g/cc                     : CDL Bulk Density
RHOC.g/cc                     : CDL Density Correction
DPOR.pu                       : CDL Density Porosity
GR.GAPI                       : Gamma Ray
~Parameter Information Block
~A  Depth       DCAL        RHOB        RHOC        DPOR         GR     
# ...
   446.6000      8.1870      2.3062      0.0967     20.8373     60.7154
   446.7000      8.1870      2.3239      0.0865     19.7655     61.2454
   446.8000      8.1683      2.3486      0.1709     18.2678     64.2236
   446.9000      8.1683      2.3691      0.1523     17.0267     64.4672
   447.0000      8.1369      2.3836      0.1588     16.1433     61.5512
   447.1000      8.1369      2.3930      0.1727     15.5785     61.7640
   447.2000      8.1369      2.3927      0.1614     15.5937     66.5125
   447.3000      8.0956      2.3861      0.1304     15.9956     71.3799
   447.4000      8.0956      2.3858      0.1086     16.0128     75.8502
   447.5000      8.0744      2.4008      0.0815     15.1055     82.9617
   447.6000      8.0744      2.4298      0.1009     13.3435     90.0677
   447.7000      8.0744      2.4648      0.1591     11.2231     91.3624
   447.8000      8.0707      2.4911      0.1505      9.6320     89.1424
   447.9000      8.0707      2.4906      0.1616      9.6608     89.8695
   448.0000      8.0668      2.4649      0.0986     11.2198     93.3824
   448.1000      8.0668      2.4442      0.0649     12.4736     96.3378
   448.2000      8.0668      2.4465      0.0830     12.3319     97.2238
   448.3000      8.0381      2.4555      0.0978     11.7855     96.0734
   448.4000      8.0381      2.4590      0.0513     11.5740     94.4285
   448.5000      8.0318      2.4706      0.0549     10.8722     95.1144
   448.6000      8.0318      2.4959      0.0903      9.3414     97.9911
   448.7000      8.0318      2.5141      0.1221      8.2349     98.7814
   448.8000      8.0675      2.5079      0.1158      8.6119     95.6236
   448.9000      8.0675      2.4852      0.0823      9.9899     91.2445
   449.0000      8.0689      2.4677      0.0258     11.0510     89.4105
   449.1000      8.0689      2.4675      0.0502     11.0628     90.4857
   449.2000      8.0689      2.4738      0.0949     10.6762     92.0146
   449.3000      8.0621      2.4713      0.0859     10.8324     92.7286
   449.4000      8.0621      2.4605      0.0586     11.4876     91.4000
   449.5000      8.0595      2.4454      0.0289     12.4012     85.2355
   449.6000      8.0595      2.4217      0.0606     13.8390     74.1732
   449.7000      8.0595      2.3900      0.0258     15.7565     64.1762
   449.8000      8.0870      2.3610      0.0216     17.5163     61.6320
   449.9000      8.0870      2.3470     -0.0265     18.3666     65.1091
   450.0000      8.0959      2.3571     -0.0120     17.7503     68.0463
   450.1000      8.0959      2.3806      0.0860     16.3278     67.8769
   450.2000      8.0959      2.3968      0.0725     15.3456     66.0003
   450.3000      8.1482      2.4015      0.0576     15.0586     64.0926
   450.4000      8.1482      2.4017      0.0288     15.0478     63.7084
   450.5000      8.1616      2.4018      0.0371     15.0409     65.7151
   450.6000      8.1616      2.4038      0.0327     14.9231     67.9742
   450.7000      8.1616      2.4094      0.0230     14.5823     68.2550
   450.8000      8.1220      2.4135      0.0706     14.3309     69.6713
   450.9000      8.1220      2.4106     -0.0178     14.5105     72.7530
   451.0000      8.0786      2.4012      0.0116     15.0793     74.1661
   451.1000      8.0786      2.3834     -0.0077     16.1594     74.9666
   451.2000      8.0786      2.3661     -0.0572     17.2078     77.0389
   451.3000      8.0614      2.3621     -0.0063     17.4456     80.4993
   451.4000      8.0614      2.3581      0.0354     17.6926     83.5576
   451.5000      8.0615      2.3388     -0.0050     18.8627     84.1391
   451.6000      8.0615      2.3230      0.0110     19.8211     84.0388
   451.7000      8.0615      2.3286      0.0520     19.4758     81.3217
   451.8000      8.0433      2.3412      0.1004     18.7172     72.2047
   451.9000      8.0433      2.3474      0.1126     18.3411     61.1213
   452.0000      8.0326      2.3592      0.1383     17.6240     54.5510
   452.1000      8.0326      2.3759      0.1832     16.6092     52.2438
   452.2000      8.0326      2.3751      0.1431     16.6625     51.0160
   452.3000      8.0084      2.3557      0.0925     17.8349     49.7947
   452.4000      8.0084      2.3435      0.0400     18.5753     51.6829
   452.5000      8.0232      2.3511      0.1281     18.1171     58.0151
   452.6000      8.0232      2.3658      0.1068     17.2225     65.3602
   452.7000      8.0232      2.3749      0.1099     16.6699     69.5906
   452.8000      8.0415      2.3792      0.0556     16.4149     69.9752
   452.9000      8.0415      2.3934      0.0910     15.5536     70.8859
   453.0000      8.0456      2.4262      0.1113     13.5665     74.6962
   453.1000      8.0456      2.4602      0.1561     11.5034     80.8662
   453.2000      8.0456      2.4725      0.1266     10.7601     86.0618
   453.3000      8.0410      2.4647      0.1125     11.2312     86.6907
   453.4000      8.0410      2.4503      0.0929     12.1007     85.7289
   453.5000      8.0526      2.4312      0.0338     13.2617     87.0847
   453.6000      8.0526      2.4072      0.0238     14.7136     89.9085
   453.7000      8.0526      2.3823      0.0654     16.2237     90.4494
   453.8000      8.0553      2.3564      0.0459     17.7966     85.8306
   453.9000      8.0553      2.3315      0.0843     19.3016     78.2401
   454.0000      8.0569      2.3185      0.0705     20.0893     73.0354
   454.1000      8.0569      2.3246      0.0865     19.7210     72.0646
   454.2000      8.0569      2.3485      0.1030     18.2703     73.5665
   454.3000      8.0344      2.3914      0.1396     15.6748     73.4762
   454.4000      8.0344      2.4495      0.1766     12.1530     70.4012
   454.5000      8.0121      2.5037      0.2512      8.8665     70.5018
   454.6000      8.0121      2.5339      0.2674      7.0370     75.3878
   454.7000      8.0121      2.5394      0.2248      6.7042     77.2758
   454.8000      8.0077      2.5355      0.2000      6.9407     73.1521
   454.9000      8.0077      2.5276      0.2348      7.4175     70.6040
   455.0000      8.0160      2.5104      0.1433      8.4587     71.7623
   455.1000      8.0160      2.4906      0.1280      9.6610     73.7017
   455.2000      8.0160      2.4868      0.0470      9.8931     76.9928
   455.3000      7.9994      2.5092      0.0734      8.5304     79.3185
   455.4000      7.9994      2.5382      0.1571      6.7743     78.9687
   455.5000      7.9821      2.5485      0.1401      6.1524     79.6132
   455.6000      7.9821      2.5375      0.1048      6.8176     82.8003
   455.7000      7.9821      2.5159      0.0647      8.1245     85.7190
   455.8000      7.9702      2.5022      0.0310      8.9593     89.1428
   455.9000      7.9702      2.5090      0.0766      8.5479     96.2394
   456.0000      7.9795      2.5255      0.0710      7.5433    104.9292
   456.1000      7.9795      2.5290      0.0726      7.3306    111.3994
   456.2000      7.9795      2.5090      0.0752      8.5478    113.3625
   456.3000      8.1228      2.4786      0.0411     10.3851    111.8482
   456.4000      8.1228      2.4625      0.0040     11.3659    112.9579
   456.5000      8.2224      2.4699      0.0430     10.9123    119.8998
   456.6000      8.2224      2.4861      0.0537      9.9330    126.0550
   456.7000      8.2224      2.4947      0.0267      9.4103    123.6402
   456.8000      8.2457      2.4918      0.0482      9.5876    117.8791
   456.9000      8.2457      2.4746      0.0261     10.6333    119.2580
   457.0000      8.2812      2.4495      0.0085     12.1495    125.1358
   457.1000      8.2812      2.4312      0.0112     13.2587    126.4290
   457.2000      8.2812      2.4297     -0.0012     13.3529    124.2714
   457.3000      8.3107      2.4487     -0.0223     12.1973    123.6339
   457.4000      8.3107      2.4751      0.0376     10.5977    123.6265
   457.5000      8.3137      2.4865      0.0566      9.9102    122.2038
   457.6000      8.3137      2.4833      0.0399     10.1016    120.6129
   457.7000      8.3137      2.4759      0.0250     10.5511    120.8406
