~Version Information
VERS.                      2.0: CWLS Log ASCII Standard - VERSION 2.0
WRAP.                       NO: One line per depth step
~Well Information Block
STRT.FT                -4.0000: 
STOP.FT              1544.0000: 
STEP.FT                 0.2500: 
NULL.                -999.2500: 
COMP.          Pioneer Natural Resources: COMPANY
WELL.           Screamin 12-29: WELL
FLD.           Purgatoire River: FIELD
LOC.           2038' FNL & 612' FWL--: LOCATION
CNTY.               Las Animas: COUNTY
SRVC.                Patterson: SERVICE COMPANY
DATE.          Fri Apr 14 00:36:42 2006: LOG DATE
UWI.           05 071 08661 00: UNIQUE WELL ID
STAT.                 Colorado: STATE
~Curve Information Block
DEPT.FT            0 000 00 00: Depth
GR.GAPI                       : Gamma Ray
CCL.                          : Casing Collar Locator
TT3.usec                      : CBL 3' Travel Time
AMP3.mV                       : CBL 3' Amplitude
~Parameter Information Block
~A  Depth        GR         CCL         TT3         AMP3    
# ...
  1001.0000    156.6365      0.0000    697.9698      5.6946
  1001.2500    158.4192      0.0000    693.0668      5.6723
  1001.5000    158.3982      0.0000    683.5392      5.6447
  1001.7500    157.6463      0.0000    676.2321      5.6230
  1002.0000    157.3507      0.0000    667.9099      5.5776
  1002.2500    158.5801      0.0000    666.4504      5.5407
  1002.5000    162.9973      0.0000    670.2758      5.4906
  1002.7500    166.9812      0.0000    674.7720      5.4725
  1003.0000    172.7083      0.0000    681.8292      5.4811
  1003.2500    175.8661      0.0000    686.8441      5.5070
  1003.5000    179.8136      0.0000    695.1700      5.5519
  1003.7500    181.8238      0.0000    699.9924      5.5719
  1004.0000    183.0168      0.0000    703.0754      5.5867
  1004.2500    182.3370      0.0000    702.3047      5.5993
  1004.5000    179.6663      0.0000    700.7325      5.6447
  1004.7500    177.2589      0.0000    701.9755      5.6934
  1005.0000    173.3291      0.0000    708.1339      5.7753
  1005.2500    170.9886      0.0000    713.0954      5.8226
  1005.5000    168.5947      0.0000    716.6924      5.8727
  1005.7500    167.5173      0.0000    714.5908      5.8943
  1006.0000    165.4826      0.0000    705.4086      5.9177
  1006.2500    163.5417      0.0000    697.5206      5.9328
  1006.5000    160.4220      0.0000    686.8313      5.9639
  1006.7500    158.8239      0.0000    681.3417      5.9934
  1007.0000    158.1654      0.0000    675.1859      6.0473
  1007.2500    159.4567      0.0000    672.2286      6.0837
  1007.5000    164.1075      0.0000    669.8307      6.1319
  1007.7500    168.2672      0.0000    669.5536      6.1630
  1008.0000    174.3513      0.0000    669.3608      6.2200
  1008.2500    177.5551      0.0000    667.6720      6.2668
  1008.5000    180.1203      0.0000    660.7033      6.3373
  1008.7500    180.1037      0.0000    653.2972      6.3755
  1009.0000    178.7208      0.0000    640.9363      6.4166
  1009.2500    178.3025      0.0000    634.1780      6.4362
  1009.5000    179.5664      0.0000    628.9088      6.4536
  1009.7500    180.6787      0.0000    628.6096      6.4533
  1010.0000    179.4646      0.0000    630.6990      6.4307
  1010.2500    175.5261      0.0000    632.0808      6.4021
  1010.5000    165.9849      0.0000    632.3394      6.3452
  1010.7500    159.2537      0.0000    631.4616      6.3016
  1011.0000    152.3773      0.0000    630.2730      6.2248
  1011.2500    151.3297      0.0000    630.5206      6.1554
  1011.5000    154.9838      0.0000    633.8342      6.0035
  1011.7500    159.2555      0.0000    639.0852      5.8711
  1012.0000    164.2954      0.0000    652.6407      5.6590
  1012.2500    165.0883      0.0000    664.4812      5.5363
  1012.5000    162.0497      0.0000    682.8008      5.4144
  1012.7500    157.7250      0.0000    693.8131      5.3796
  1013.0000    148.6015      0.0000    707.9062      5.3837
  1013.2500    141.1715      0.0000    715.6865      5.4103
  1013.5000    129.0504      0.0000    724.3528      5.4611
  1013.7500    121.3330      0.0000    727.6395      5.4866
  1014.0000    112.5906      0.0000    728.2933      5.4826
  1014.2500    109.6159      0.0000    725.5604      5.4409
  1014.5000    109.0868      0.0000    715.9168      5.3328
  1014.7500    110.1694      0.0000    705.8301      5.2562
  1015.0000    111.9163      0.0000    687.5494      5.1789
  1015.2500    112.5751      0.0000    675.4769      5.1607
  1015.5000    112.6734      0.0000    660.1327      5.1631
  1015.7500    112.2780      0.0000    651.9683      5.1669
  1016.0000    111.2113      0.0000    642.4620      5.1571
  1016.2500    110.2360      0.0000    638.1202      5.1366
  1016.5000    108.4705      0.0000    635.1680      5.0882
  1016.7500    107.3956     -2.0000    635.4352      5.0536
  1017.0000    107.0936      0.0000    637.5138      5.0209
  1017.2500    108.4092      0.0000    638.3781      5.0209
  1017.5000    112.5081      0.0000    636.5768      5.0656
  1017.7500    115.8757      0.0000    633.5079      5.1382
  1018.0000    121.0048      0.0000    629.3683      5.3292
  1018.2500    124.9080      0.0000    628.8048      5.4997
  1018.5000    132.9760      0.0000    631.1025      5.7595
  1018.7500    140.1542      0.0000    632.7646      5.8987
  1019.0000    152.5875      0.0000    631.7316      6.0282
  1019.2500    160.8384      0.0000    627.5286      6.0665
  1019.5000    171.0604      0.0000    616.2524      6.0801
  1019.7500    175.4561      0.0000    606.7939      6.0766
  1020.0000    177.8156      0.0000    593.2331      6.0680
  1020.2500    177.0007      0.0000    586.4519      6.0630
  1020.5000    173.6535      0.0000    581.1486      6.0591
  1020.7500    170.8210      0.0000    580.9203      6.0585
  1021.0000    166.7514      0.0000    585.8433      6.0545
  1021.2500    164.6399      0.0000    593.3561      6.0454
  1021.5000    162.9756      0.0000    611.6688      6.0187
  1021.7500    163.1314      0.0000    627.3080      5.9920
  1022.0000    165.3461      0.0000    650.5806      5.9424
  1022.2500    167.7019      0.0000    662.7180      5.9113
  1022.5000    170.9664      0.0000    673.6315      5.8945
  1022.7500    171.9324      0.0000    676.9601      5.9181
  1023.0000    170.0388      0.0000    678.8711      6.0104
  1023.2500    165.9275      0.0000    679.0251      6.0984
  1023.5000    155.9035      0.0000    677.0373      6.2398
  1023.7500    148.2487      0.0000    673.1835      6.3233
  1024.0000    139.1540      0.0000    662.7332      6.4124
  1024.2500    136.1541      0.0000    653.9113      6.4457
  1024.5000    136.2714      0.0000    643.1106      6.4716
  1024.7500    138.2903      0.0000    640.4500      6.4842
  1025.0000    140.9528      0.0000    643.8152      6.5034
  1025.2500    140.2882      0.0000    648.5673      6.5164
  1025.5000    133.6309      0.0000    654.8859      6.5445
  1025.7500    126.3009      0.0000    657.5701      6.5786
  1026.0000    115.0284      0.0000    659.9104      6.6559
  1026.2500    109.5309      0.0000    660.6479      6.7098
  1026.5000    105.7608      0.0000    660.0453      6.7516
  1026.7500    105.8790      0.0000    658.0885      6.7377
  1027.0000    108.5840      0.0000    652.9101      6.6693
  1027.2500    111.1680      0.0000    648.9581      6.6200
  1027.5000    114.9564      0.0000    645.1715      6.5777
  1027.7500    117.1972      0.0000    644.8851      6.5695
  1028.0000    120.8641      0.0000    645.2792      6.5628
  1028.2500    124.1232      0.0000    643.4778      6.5528
  1028.5000    130.4189      0.0000    636.0978      6.5289
  1028.7500    135.0793      0.0000    629.7113      6.5073
  1029.0000    141.8476      0.0000    622.0355      6.4664
  1029.2500    146.0138      0.0000    619.4705      6.4407
  1029.5000    151.9979      0.0000    619.8226      6.4246
  1029.7500    156.0445      0.0000    623.0429      6.4305
  1030.0000    161.9140      0.0000    632.6508      6.4378
  1030.2500    164.8059      0.0000    641.4647      6.4214
  1030.5000    165.7433      0.0000    655.0620      6.3549
  1030.7500    163.8415      0.0000    662.5263      6.2961
  1031.0000    158.8078      0.0000    670.0420      6.2223
  1031.2500    155.3078      0.0000    672.7701      6.1992
  1031.5000    151.0829      0.0000    674.0118      6.2146
  1031.7500    149.1526      0.0000    673.0554      6.2542
  1032.0000    148.2747      0.0000    668.8403      6.3381
  1032.2500    149.7268      0.0000    664.2910      6.3970
  1032.5000    155.1215      0.0000    656.0680      6.4683
  1032.7500    159.7948      0.0000    650.8336      6.4943
  1033.0000    165.7162      0.0000    644.9612      6.4946
  1033.2500    167.9088      0.0000    642.5778      6.4781
  1033.5000    168.3761      0.0000    640.7056      6.4556
  1033.7500    167.3865      0.0000    640.1439      6.4498
  1034.0000    165.6007      0.0000    639.8605      6.4429
  1034.2500    165.1319      0.0000    639.9002      6.4281
