~Version Information
VERS.                      2.0: CWLS Log ASCII Standard - VERSION 2.0
WRAP.                       NO: One line per depth step
~Well Information Block
STRT.FT               555.0000: 
STOP.FT              2283.0000: 
STEP.FT                 0.2500: 
NULL.                -999.2500: 
COMP.          Pioneer Natural Resources: COMPANY
WELL.          Roadster 41-33 Kv: WELL
FLD.           Purgatoire River: FIELD
LOC.           903' FNL & 248' FEL: LOCATION
PROV.                 Colorado: PROVINCE
CNTY.               Las Animas: COUNTRY
SRVC.                Patterson: SERVICE COMPANY
DATE.          Wed Dec 14 23:52:42 2005: LOG DATE
UWI.           05 071 08615 00: UNIQUE WELL ID
~Curve Information Block
DEPT.FT            0 000 00 00: Depth
SN.Ohm-m                      : IEL Short Normal
SP.mV                         : IEL Spontaneous Potential
DIR.Ohm-m                     : IEL Induction Resistivity
GR.GAPI                       : Gamma Ray
~Parameter Information Block
~A  Depth        SN          SP         DIR          GR     
# ...
  2029.0000     23.4439     50.9487     22.4404     76.4996
  2029.2500     23.3873     50.4849     22.2116     74.6677
  2029.5000     23.4130     50.1713     21.9985     71.9511
  2029.7500     23.5327     49.9656     21.8368     70.4224
  2030.0000     23.6933     49.8315     21.7438     68.7321
  2030.2500     23.8318     49.7492     21.7216     68.1420
  2030.5000     23.9410     49.7132     21.7644     68.2202
  2030.7500     24.0510     49.7232     21.8638     68.7177
  2031.0000     24.1820     49.7769     22.0079     69.3466
  2031.2500     24.3379     49.8658     22.1816     69.3805
  2031.5000     24.5198     49.9727     22.3695     69.3042
  2031.7500     24.7277     50.0690     22.5608     69.8533
  2032.0000     24.9527     50.1201     22.7538     72.2771
  2032.2500     25.1841     50.1041     22.9555     74.5798
  2032.5000     25.4337     50.0256     23.1742     77.4883
  2032.7500     25.7439     49.9121     23.4048     78.3662
  2033.0000     26.1581     49.7943     23.6197     78.1244
  2033.2500     26.6695     49.6906     23.7757     77.3693
  2033.5000     27.2014     49.6024     23.8371     75.7093
  2033.7500     27.6668     49.5211     23.7950     74.0616
  2034.0000     28.0307     49.4362     23.6697     70.6353
  2034.2500     28.2775     49.3426     23.4975     68.1846
  2034.5000     28.3395     49.2428     23.3182     65.5979
  2034.7500     28.1238     49.1441     23.1679     65.1205
  2035.0000     27.6494     49.0528     23.0720     66.3889
  2035.2500     27.0972     48.9683     23.0388     68.3872
  2035.5000     26.6599     48.8832     23.0576     72.5595
  2035.7500     26.3857     48.7885     23.1028     75.4918
  2036.0000     26.1923     48.6816     23.1451     78.5318
  2036.2500     25.9744     48.5697     23.1617     78.8811
  2036.5000     25.6908     48.4665     23.1464     76.7938
  2036.7500     25.3992     48.3845     23.1146     74.4014
  2037.0000     25.2159     48.3273     23.1007     71.1131
  2037.2500     25.2237     48.2864     23.1459     69.9020
  2037.5000     25.4158     48.2446     23.2856     69.7787
  2037.7500     25.7269     48.1859     23.5431     70.3345
  2038.0000     26.0996     48.1053     23.9305     70.9321
  2038.2500     26.5124     48.0137     24.4479     70.7623
  2038.5000     26.9907     47.9361     25.0783     69.8125
  2038.7500     27.6112     47.9019     25.7813     69.0728
  2039.0000     28.4441     47.9333     26.4958     68.0765
  2039.2500     29.4783     48.0372     27.1523     67.2231
  2039.5000     30.6409     48.2052     27.6871     64.7936
  2039.7500     31.8765     48.4206     28.0509     62.0812
  2040.0000     33.1816     48.6657     28.2135     56.6899
  2040.2500     34.5777     48.9280     28.1721     52.8849
  2040.5000     36.0168     49.2029     27.9574     48.2884
  2040.7500     37.2657     49.4961     27.6247     46.6702
  2041.0000     37.9293     49.8186     27.2295     47.1816
  2041.2500     37.6814     50.1770     26.8006     49.6569
  2041.5000     36.5153     50.5653     26.3273     56.4120
  2041.7500     34.7642     50.9647     25.7729     62.5791
  2042.0000     32.8578     51.3527     25.1059     73.0593
  2042.2500     31.0518     51.7126     24.3265     79.7020
  2042.5000     29.3724     52.0381     23.4685     87.0938
  2042.7500     27.7618     52.3313     22.5763     89.7897
  2043.0000     26.2235     52.5969     21.6814     91.3924
  2043.2500     24.8203     52.8394     20.7960     91.9102
  2043.5000     23.5407     53.0618     19.9226     93.1422
  2043.7500     22.2294     53.2681     19.0676     94.3620
  2044.0000     20.7697     53.4643     18.2456     96.2834
  2044.2500     19.2885     53.6546     17.4741     97.2850
  2044.5000     18.0339     53.8375     16.7647     97.9706
  2044.7500     17.1224     54.0056     16.1203     97.8477
  2045.0000     16.4960     54.1523     15.5392     97.3200
  2045.2500     16.0504     54.2763     15.0215     97.4011
  2045.5000     15.7197     54.3799     14.5702     99.3481
  2045.7500     15.4471     54.4643     14.1868    102.1031
  2046.0000     15.1722     54.5286     13.8659    107.7629
  2046.2500     14.9039     54.5722     13.5940    111.9445
  2046.5000     14.7118     54.5983     13.3549    118.2916
  2046.7500     14.6246     54.6161     13.1392    122.4367
  2047.0000     14.5967     54.6383     12.9501    127.6510
  2047.2500     14.5491     54.6768     12.8013    129.6431
  2047.5000     14.4289     54.7415     12.7107    129.8824
  2047.7500     14.2596     54.8371     12.6929    128.8197
  2048.0000     14.1278     54.9565     12.7548    127.0007
  2048.2500     14.1168     55.0768     12.8944    126.0491
  2048.5000     14.2664     55.1690     13.1040    124.3121
  2048.7500     14.5704     55.2162     13.3766    122.1405
  2049.0000     14.9917     55.2226     13.7119    116.3674
  2049.2500     15.4937     55.2058     14.1141    110.7724
  2049.5000     16.0808     55.1787     14.5822    100.6112
  2049.7500     16.8057     55.1404     15.1016     93.6076
  2050.0000     17.7072     55.0855     15.6413     84.3791
  2050.2500     18.7423     55.0163     16.1607     79.5058
  2050.5000     19.8138     54.9427     16.6175     73.8680
  2050.7500     20.8397     54.8729     16.9683     70.9074
  2051.0000     21.7684     54.8093     17.1680     67.3733
  2051.2500     22.5392     54.7510     17.1771     65.5395
  2051.5000     23.0374     54.6959     16.9808     63.4654
  2051.7500     23.1265     54.6415     16.6039     62.6968
  2052.0000     22.7409     54.5854     16.1062     63.5501
  2052.2500     21.9260     54.5268     15.5593     66.3615
  2052.5000     20.8183     54.4705     15.0241     74.8110
  2052.7500     19.6028     54.4291     14.5406     82.9304
  2053.0000     18.4479     54.4235     14.1307     97.2583
  2053.2500     17.4447     54.4758     13.8048    107.2473
  2053.5000     16.5694     54.5995     13.5634    121.0624
  2053.7500     15.6879     54.7921     13.3962    128.0077
  2054.0000     14.6640     55.0361     13.2831    132.1902
  2054.2500     13.5411     55.3070     13.2030    129.9851
  2054.5000     12.5813     55.5821     13.1455    120.4369
  2054.7500     12.0977     55.8444     13.1178    111.8306
  2055.0000     12.2952     56.0832     13.1441     98.9790
  2055.2500     13.1975     56.2920     13.2560     91.7914
  2055.5000     14.5712     56.4648     13.4832     84.0945
  2055.7500     15.9911     56.5944     13.8461     81.0348
  2056.0000     17.1611     56.6740     14.3520     78.8081
  2056.2500     18.1497     56.6998     14.9944     78.1772
  2056.5000     19.2250     56.6730     15.7544     77.2516
  2056.7500     20.5210     56.5984     16.6021     76.0904
  2057.0000     21.9173     56.4844     17.4986     73.0701
  2057.2500     23.1844     56.3451     18.3973     70.3632
  2057.5000     24.1795     56.1976     19.2468     66.2390
  2057.7500     24.9130     56.0543     19.9977     64.0738
  2058.0000     25.4670     55.9162     20.6113     62.0861
  2058.2500     25.8603     55.7773     21.0692     61.4063
  2058.5000     26.0041     55.6331     21.3761     61.0167
  2058.7500     25.7971     55.4840     21.5524     61.2845
  2059.0000     25.2276     55.3313     21.6188     62.9382
  2059.2500     24.3923     55.1721     21.5833     64.9305
  2059.5000     23.4669     54.9979     21.4399     68.6439
  2059.7500     22.6450     54.7995     21.1787     71.0416
  2060.0000     22.0433     54.5728     20.8006     73.8146
  2060.2500     21.6353     54.3225     20.3236     74.9804
  2060.5000     21.2843     54.0619     19.7759     75.8773
  2060.7500     20.8537     53.8102     19.1834     76.1996
  2061.0000     20.2936     53.5881     18.5637     77.0765
  2061.2500     19.6583     53.4101     17.9318     78.4830
  2061.5000     19.0490     53.2780     17.3073     82.4617
  2061.7500     18.5076     53.1796     16.7119     86.1952
  2062.0000     17.9581     53.0953     16.1574     92.1799
  2062.2500     17.2735     53.0070     15.6394     95.6419
