~Version Information
VERS.                      2.0: CWLS Log ASCII Standard - VERSION 2.0
WRAP.                       NO: One line per depth step
~Well Information Block
STRT.FT                15.0000: 
STOP.FT              1532.0000: 
STEP.FT                 0.2500: 
NULL.                -999.2500: 
COMP.          Pioneer Natural Resources: COMPANY
WELL.           Bobsy 34-11 Tr: WELL
FLD.           Purgatoire River: FIELD
LOC.           514' FSL & 1784' FEL: LOCATION
PROV.                 Colorado: PROVINCE
CNTY.               Las Animas: COUNTRY
SRVC.                Patterson: SERVICE COMPANY
DATE.          Fri Jul 22 12:22:14 2005: LOG DATE
UWI.           05 071 08438 00: UNIQUE WELL ID
~Curve Information Block
DEPT.FT            0 000 00 00: Depth
GR.GAPI                       : Gamma Ray
CCL.                          : Casing Collar Locator
TT3.usec                      : CBL 3' Travel Time
AMP3.mV                       : CBL 3' Amplitude
~Parameter Information Block
~A  Depth        GR         CCL         TT3         AMP3    
# ...
  1388.5000     62.5902      0.0000    730.1666      3.4980
  1388.7500     62.2000      0.0000    739.9932      3.4656
  1389.0000     64.0021      0.0000    744.6248      3.5017
  1389.2500     68.1084      0.0000    742.6837      3.6262
  1389.5000     74.7702      0.0000    734.6200      3.8445
  1389.7500     83.9504      0.0000    722.9697      4.1502
  1390.0000     95.0693      0.0000    711.0878      4.5334
  1390.2500    107.0794      0.0000    701.4808      4.9830
  1390.5000    118.6402      0.0000    695.0690      5.4841
  1390.7500    128.4062      0.0000    691.5531      6.0180
  1391.0000    135.6421      0.0000    690.1198      6.5625
  1391.2500    140.7849      0.0000    689.3923      7.0852
  1391.5000    145.0138      0.0000    686.9985      7.5426
  1391.7500    148.8780      0.0000    680.6133      7.8946
  1392.0000    151.5881      0.0000    670.1519      8.1258
  1392.2500    152.0847      0.0000    658.2784      8.2480
  1392.5000    150.5540      0.0000    648.3088      8.2841
  1392.7500    148.3735      0.0000    641.9016      8.2572
  1393.0000    146.7472      0.0000    638.6664      8.1932
  1393.2500    146.0228      0.0000    637.3485      8.1218
  1393.5000    146.0945      0.0000    637.0814      8.0651
  1393.7500    146.7367      0.0000    637.8654      8.0280
  1394.0000    147.5668      0.0000    640.3101      8.0041
  1394.2500    148.2122      0.0000    644.8366      7.9901
  1394.5000    148.5166      0.0000    650.7980      7.9925
  1394.7500    148.4612      0.0000    656.3995      8.0174
  1395.0000    148.0997      0.0000    659.9471      8.0564
  1395.2500    147.6241      0.0000    661.2682      8.0868
  1395.5000    147.2605      0.0000    661.5924      8.0890
  1395.7500    147.0895      0.0000    661.9529      8.0614
  1396.0000    147.1187      0.0000    661.9493      8.0175
  1396.2500    147.2957      0.0000    660.3840      7.9728
  1396.5000    147.0957      0.0000    657.2494      7.9372
  1396.7500    145.3781      0.0000    654.6833      7.9162
  1397.0000    141.3421      0.0000    655.2966      7.9151
  1397.2500    135.6831      0.0000    659.5923      7.9378
  1397.5000    130.2199      0.0000    665.5740      7.9790
  1397.7500    126.2555      0.0000    670.7665      8.0202
  1398.0000    123.7551      0.0000    674.0428      8.0398
  1398.2500    122.1780      0.0000    675.6535      8.0326
  1398.5000    121.4950      0.0000    676.3144      8.0160
  1398.7500    122.0985      0.0000    676.5767      8.0159
  1399.0000    124.1886      0.0000    676.7198      8.0477
  1399.2500    127.5547      0.0000    676.8398      8.1075
  1399.5000    131.7007      0.0000    676.9352      8.1751
  1399.7500    135.9647      0.0000    676.9605      8.2247
  1400.0000    139.8213      0.0000    676.8714      8.2414
  1400.2500    143.3393      0.0000    676.6579      8.2282
  1400.5000    147.1719      0.0000    676.3308      8.1966
  1400.7500    151.8667      0.0000    675.9050      8.1523
  1401.0000    157.1512      0.0000    675.4294      8.0971
  1401.2500    161.7872      0.0000    675.0212      8.0431
  1401.5000    164.0442      0.0000    674.8306      8.0171
  1401.7500    162.6682      0.0000    675.0391      8.0416
  1402.0000    157.9611      0.0000    676.0684      8.1145
  1402.2500    152.0044      0.0000    678.9752      8.2095
  1402.5000    147.5040      0.0000    685.5921      8.2959
  1402.7500    146.0105      0.0000    697.6791      8.3578
  1403.0000    146.8856      0.0000    715.0371      8.3962
  1403.2500    147.7870      0.0000    734.3239      8.4185
  1403.5000    146.3471      0.0000    750.5908      8.4260
  1403.7500    141.8157      0.0000    760.6454      8.4138
  1404.0000    135.4823      0.0000    764.6459      8.3810
  1404.2500    129.7514      0.0000    764.5942      8.3394
  1404.5000    126.7496      0.0000    762.3698      8.3103
  1404.7500    127.1675      0.0000    759.4894      8.3067
  1405.0000    129.6960      0.0000    757.3012      8.3182
  1405.2500    131.7042      0.0000    756.0074      8.3146
  1405.5000    131.1602      0.0000    754.0525      8.2711
  1405.7500    128.3803      0.0000    749.7136      8.1930
  1406.0000    126.0210      0.0000    743.0519      8.1099
  1406.2500    127.1325      0.0000    735.3184      8.0465
  1406.5000    132.7980      0.0000    726.7419      8.0040
  1406.7500    141.4471      0.0000    716.3078      7.9711
  1407.0000    150.4054      0.0000    704.0157      7.9445
  1407.2500    157.8111      0.0000    692.0204      7.9337
  1407.5000    162.9376      0.0000    682.8818      7.9511
  1407.7500    165.1933      0.0000    677.6160      7.9988
  1408.0000    163.6540      0.0000    675.8931      8.0623
  1408.2500    158.0082      0.0000    677.3555      8.1180
  1408.5000    149.6800      0.0000    681.7424      8.1492
  1408.7500    141.4999      0.0000    687.3837      8.1574
  1409.0000    136.1173      0.0000    689.9565      8.1554
  1409.2500    134.6718      0.0000    683.8698      8.1510
  1409.5000    136.5644      0.0000    666.1957      8.1429
  1409.7500    140.0868      0.0000    639.9571      8.1304
  1410.0000    143.4769      0.0000    613.9423      8.1237
  1410.2500    145.7526      0.0000    598.9895      8.1375
  1410.5000    146.5396      0.0000    602.3185      8.1693
  1410.7500    145.2632      0.0000    622.4078      8.1777
  1411.0000    141.1530      0.0000    648.3787      8.0873
  1411.2500    134.2793      0.0000    666.3874      7.8431
  1411.5000    126.1530      0.0000    669.1440      7.4856
  1411.7500    118.9013      0.0000    660.5094      7.1463
  1412.0000    113.9212      0.0000    651.3687      6.9249
  1412.2500    111.3328      0.0000    651.1369      6.7910
  1412.5000    110.4352      0.0000    662.1183      6.6524
  1412.7500    110.4768      0.0000    680.0113      6.4822
  1413.0000    111.1608      0.0000    698.1528      6.3244
  1413.2500    112.7905      0.0000    711.4583      6.2054
  1413.5000    116.0949      0.0000    718.3792      6.1037
  1413.7500    121.5779      3.0000    720.9703      5.9918
  1414.0000    128.5793      0.0000    722.7854      5.8806
  1414.2500    135.0184      0.0000    725.4304      5.8172
  1414.5000    138.6937      0.0000    726.8394      5.8344
  1414.7500    139.2367      0.0000    723.2265      5.8923
  1415.0000    138.4807      0.0000    712.7809      5.9013
  1415.2500    138.6269      0.0000    697.9105      5.8364
  1415.5000    140.4290      0.0000    684.5728      5.7894
  1415.7500    143.3565      0.0000    679.0458      5.8604
  1416.0000    146.7721      0.0000    683.7849      6.0366
  1416.2500    150.1382      0.0000    695.0397      6.2224
  1416.5000    152.5514      0.0000    704.7887      6.3494
  1416.7500    153.1263      0.0000    706.8842      6.4172
  1417.0000    152.0195      0.0000    702.5273      6.4492
  1417.2500    150.5758      0.0000    699.1842      6.4458
  1417.5000    150.1693      0.0000    703.5921      6.3842
  1417.7500    150.8936      0.0000    716.1971      6.2506
  1418.0000    151.5296      0.0000    732.0667      6.0657
  1418.2500    150.7197      0.0000    745.7534      5.8784
  1418.5000    147.9240      0.0000    754.7163      5.7360
  1418.7500    143.3703      0.0000    759.3653      5.6574
  1419.0000    137.6495      0.0000    761.3102      5.6283
  1419.2500    131.5975      0.0000    761.9446      5.6200
  1419.5000    126.3414      0.0000    762.0490      5.6123
  1419.7500    123.2148      0.0000    761.9169      5.5995
  1420.0000    123.2988      0.0000    761.3736      5.5823
  1420.2500    126.6303      0.0000    759.4816      5.5632
  1420.5000    131.8598      0.0000    754.4202      5.5549
  1420.7500    136.9495      0.0000    744.2181      5.5852
  1421.0000    140.2413      0.0000    728.2597      5.6829
  1421.2500    141.0145      0.0000    708.0728      5.8483
  1421.5000    139.5847      0.0000    686.2659      6.0426
  1421.7500    137.1814      0.0000    665.2171      6.2124
