~Version Information
VERS.                      2.0: CWLS Log ASCII Standard - VERSION 2.0
WRAP.                       NO: One line per depth step
~Well Information Block
STRT.FT               529.2000: 
STOP.FT              1325.2000: 
STEP.FT                 0.1000: 
NULL.                -999.2500: 
COMP.          Pioneer Natural Resources: COMPANY
WELL.            Erin 21-15 Tr: WELL
FLD.           Purgatoire River: FIELD
LOC.           1217' FNL & 2284' FWL--: LOCATION
CNTY.               Las Animas: COUNTY
SRVC.                Patterson: SERVICE COMPANY
DATE.          Mon Mar 06 14:26:48 2006: LOG DATE
UWI.           05 071 08712 00: UNIQUE WELL ID
STAT.                 Colorado: STATE
~Curve Information Block
DEPT.FT            0 000 00 00: Depth
DCAL.in                       : CDL Caliper
RHOB.g/cc                     : CDL Bulk Density
RHOC.g/cc                     : CDL Density Correction
DPOR.pu                       : CDL Density Porosity
GR.GAPI                       : Gamma Ray
~Parameter Information Block
~A  Depth       DCAL        RHOB        RHOC        DPOR         GR     
# ...
   686.0000      7.9736      2.6502      0.0919     -0.0151    121.8122
   686.1000      7.9736      2.6469      0.0633      0.1882    119.1135
   686.2000      7.9736      2.6305      0.0481      1.1838    117.2903
   686.3000      7.9720      2.6183      0.0638      1.9211    117.7824
   686.4000      7.9720      2.6083      0.0723      2.5261    119.9359
   686.5000      7.9693      2.5948      0.0552      3.3480    119.5770
   686.6000      7.9693      2.5826     -0.0135      4.0821    115.1266
   686.7000      7.9693      2.5743      0.0784      4.5906    111.9166
   686.8000      7.9665      2.5588      0.0352      5.5275    111.6819
   686.9000      7.9665      2.5433      0.0090      6.4692    113.4930
   687.0000      7.9676      2.5473      0.0336      6.2226    118.1552
   687.1000      7.9676      2.5685      0.0497      4.9370    121.3335
   687.2000      7.9676      2.5869      0.0755      3.8238    122.2454
   687.3000      7.9695      2.5890      0.0680      3.6945    128.5822
   687.4000      7.9695      2.5762      0.0454      4.4701    136.0963
   687.5000      7.9691      2.5644     -0.0167      5.1879    133.7514
   687.6000      7.9691      2.5723      0.0055      4.7106    126.7256
   687.7000      7.9691      2.5912      0.0632      3.5662    124.4370
   687.8000      7.9679      2.5935      0.0890      3.4248    127.2120
   687.9000      7.9679      2.5769      0.0178      4.4294    130.3830
   688.0000      7.9674      2.5643      0.0074      5.1912    131.8747
   688.1000      7.9674      2.5682      0.0398      4.9560    134.9675
   688.2000      7.9674      2.5856      0.0255      3.9047    137.7462
   688.3000      7.9657      2.6073      0.0496      2.5883    134.3369
   688.4000      7.9657      2.6196      0.0717      1.8441    128.5948
   688.5000      7.9633      2.6126      0.0808      2.2685    128.9656
   688.6000      7.9633      2.5853      0.0724      3.9221    135.0300
   688.7000      7.9633      2.5529      0.0096      5.8867    140.7001
   688.8000      7.9623      2.5331      0.0353      7.0824    144.5894
   688.9000      7.9623      2.5227      0.0418      7.7145    144.6656
   689.0000      7.9615      2.5154      0.0146      8.1548    139.9538
   689.1000      7.9615      2.5083      0.0248      8.5868    135.5403
   689.2000      7.9615      2.4955      0.0142      9.3645    133.4903
   689.3000      7.9614      2.4875     -0.0417      9.8485    129.5462
   689.4000      7.9614      2.5048     -0.0150      8.7978    121.5412
   689.5000      7.9625      2.5378      0.0852      6.7995    115.4493
   689.6000      7.9625      2.5516      0.0850      5.9628    116.6539
   689.7000      7.9625      2.5416      0.0478      6.5695    123.9589
   689.8000      7.9599      2.5328      0.0592      7.1009    132.5631
   689.9000      7.9599      2.5345      0.0988      6.9997    138.9964
   690.0000      7.9554      2.5409      0.0710      6.6092    142.7341
   690.1000      7.9554      2.5515      0.0941      5.9715    143.1550
   690.2000      7.9554      2.5647      0.1062      5.1692    142.2449
   690.3000      7.9534      2.5744      0.1164      4.5838    142.4322
   690.4000      7.9534      2.5724      0.0980      4.7057    145.1712
   690.5000      7.9538      2.5527      0.1101      5.8949    154.5612
   690.6000      7.9538      2.5196      0.0884      7.9043    165.8846
   690.7000      7.9538      2.4891      0.0496      9.7539    164.8990
   690.8000      7.9548      2.4705      0.0501     10.8773    151.5587
   690.9000      7.9548      2.4593      0.0156     11.5572    140.6970
   691.0000      7.9537      2.4508      0.0271     12.0717    137.3848
   691.1000      7.9537      2.4527     -0.0422     11.9603    135.1877
   691.2000      7.9537      2.4766      0.0412     10.5118    130.6834
   691.3000      7.9456      2.5133      0.0672      8.2861    123.7061
   691.4000      7.9456      2.5486      0.0973      6.1461    115.4998
   691.5000      7.9355      2.5873      0.1003      3.7998    110.8086
   691.6000      7.9355      2.6359      0.1312      0.8542    108.6360
   691.7000      7.9355      2.6780      0.1298     -1.6970    103.8292
   691.8000      7.9314      2.6924      0.0968     -2.5700     98.9144
   691.9000      7.9314      2.6874      0.0587     -2.2662     94.8137
   692.0000      7.9321      2.6907      0.0727     -2.4688     87.3594
   692.1000      7.9321      2.7076      0.0858     -3.4937     79.5736
   692.2000      7.9321      2.7246      0.0747     -4.5183     78.0416
   692.3000      7.9329      2.7334      0.1190     -5.0565     81.2956
   692.4000      7.9329      2.7343      0.0866     -5.1086     84.1068
   692.5000      7.9328      2.7353      0.1380     -5.1712     83.7740
   692.6000      7.9328      2.7379      0.1564     -5.3270     79.4773
   692.7000      7.9328      2.7394      0.1211     -5.4193     75.6977
   692.8000      7.9342      2.7542      0.0847     -6.3158     77.6972
   692.9000      7.9342      2.7800      0.1790     -7.8808     82.5612
   693.0000      7.9378      2.7819      0.1449     -7.9944     82.7622
   693.1000      7.9378      2.7526      0.0910     -6.2196     77.2275
   693.2000      7.9378      2.7202      0.0426     -4.2575     72.7673
   693.3000      7.9429      2.7029      0.0386     -3.2055     70.6262
   693.4000      7.9429      2.6996      0.0219     -3.0044     66.8357
   693.5000      7.9463      2.7037      0.0407     -3.2525     63.2057
   693.6000      7.9463      2.7031      0.0521     -3.2209     63.5248
   693.7000      7.9463      2.6827      0.0373     -1.9846     66.7215
   693.8000      7.9467      2.6397      0.0186      0.6238     70.3512
   693.9000      7.9467      2.5914     -0.0537      3.5540     72.4716
   694.0000      7.9499      2.5486      0.0139      6.1477     73.6737
   694.1000      7.9499      2.5023     -0.0123      8.9487     79.3228
   694.2000      7.9499      2.4500     -0.0264     12.1194     88.3405
   694.3000      7.9592      2.3990     -0.0407     15.2101     93.5585
   694.4000      7.9592      2.3561     -0.0396     17.8111     92.9905
   694.5000      7.9670      2.3278     -0.0413     19.5260     92.0232
   694.6000      7.9670      2.3126     -0.0062     20.4466     96.7148
   694.7000      7.9670      2.2984      0.0222     21.3113    103.6737
   694.8000      7.9700      2.2851      0.0062     22.1147    107.2974
   694.9000      7.9700      2.2842      0.0471     22.1686    110.0334
   695.0000      7.9738      2.2929      0.0539     21.6448    115.4196
   695.1000      7.9738      2.2983      0.0655     21.3138    122.2870
   695.2000      7.9738      2.3007      0.0265     21.1722    126.2465
   695.3000      7.9818      2.3006      0.0458     21.1780    125.2705
   695.4000      7.9818      2.2783      0.0800     22.5250    123.4871
   695.5000      7.9927      2.2317     -0.0126     25.3513    122.4507
   695.6000      7.9927      2.1956      0.0008     27.5411    119.5138
   695.7000      7.9927      2.1913      0.0510     27.7973    116.1877
   695.8000      8.0085      2.2078      0.0494     26.8017    112.7497
   695.9000      8.0085      2.2283      0.0519     25.5579    108.1298
   696.0000      8.0220      2.2474      0.0611     24.4004    104.2494
   696.1000      8.0220      2.2699      0.0732     23.0343    102.0809
   696.2000      8.0220      2.2981      0.0949     21.3278    101.5480
   696.3000      8.0199      2.3171      0.1503     20.1772    102.1785
   696.4000      8.0199      2.3068      0.1270     20.8004    103.7308
   696.5000      8.0008      2.2715      0.0725     22.9421    106.1312
   696.6000      8.0008      2.2306      0.0746     25.4188    106.9397
   696.7000      8.0008      2.1884      0.0685     27.9740    102.9370
   696.8000      7.9705      2.1404      0.0510     30.8879     95.7632
   696.9000      7.9705      2.0898      0.0119     33.9493     92.5949
   697.0000      7.9482      2.0408      0.0252     36.9188     92.6729
   697.1000      7.9482      1.9915      0.0184     39.9070     88.1655
