~Version Information
VERS.                      2.0: CWLS Log ASCII Standard - VERSION 2.0
WRAP.                       NO: One line per depth step
~Well Information Block
STRT.FT               650.0000: 
STOP.FT              2053.7000: 
STEP.FT                 0.1000: 
NULL.                -999.2500: 
COMP.          Pioneer Natural Resources: COMPANY
WELL.           Alabaster 11-8: WELL
FLD.           Purgatoire River: FIELD
LOC.           1249' FNL & 215' FWL--: LOCATION
PROV.                 Colorado: PROVINCE
CNTY.               Las Animas: COUNTRY
SRVC.                Patterson: SERVICE COMPANY
DATE.          Thu Jan 19 09:16:54 2006: LOG DATE
UWI.           05 071 08642 00: UNIQUE WELL ID
~Curve Information Block
DEPT.FT            0 000 00 00: Depth
DCAL.in                       : CDL Caliper
RHOB.g/cc                     : CDL Bulk Density
RHOC.g/cc                     : CDL Density Correction
DPOR.pu                       : CDL Density Porosity
NPOR.pu                       : Neutron Porosity
GR.GAPI                       : Gamma Ray
~Parameter Information Block
~A  Depth       DCAL        RHOB        RHOC        DPOR        NPOR         GR     
# ...
   928.4000      8.2550      2.5642      0.0653      5.2017     17.0251    145.3314
   928.5000      8.2553      2.5350      0.0836      6.9717     17.1047    144.1319
   928.6000      8.2553      2.5111      0.0651      8.4171     17.2717    143.3378
   928.7000      8.2553      2.5051      0.0286      8.7833     18.1153    140.9065
   928.8000      8.2549      2.5098      0.0327      8.4957     19.0279    136.8222
   928.9000      8.2549      2.5166      0.0621      8.0848     19.2337    134.6117
   929.0000      8.2539      2.5196      0.0728      7.9010     19.1126    135.8733
   929.1000      8.2539      2.5106      0.0944      8.4455     19.2255    139.4271
   929.2000      8.2539      2.4921      0.0451      9.5687     19.4392    144.6469
   929.3000      8.2542      2.4809      0.0131     10.2513     19.4825    149.6142
   929.4000      8.2542      2.4852      0.0308      9.9854     19.3446    149.4827
   929.5000      8.2554      2.4928      0.0624      9.5285     19.0837    143.0449
   929.6000      8.2554      2.4906      0.0657      9.6580     18.9021    136.7866
   929.7000      8.2554      2.4803      0.0286     10.2821     19.0003    135.1107
   929.8000      8.2559      2.4733      0.0315     10.7077     19.1209    135.0077
   929.9000      8.2559      2.4818      0.0253     10.1958     19.0220    132.0422
   930.0000      8.2567      2.5065      0.0904      8.6951     18.9801    128.3482
   930.1000      8.2567      2.5335      0.0667      7.0613     19.1841    129.9834
   930.2000      8.2567      2.5448      0.1206      6.3736     19.6037    135.6383
   930.3000      8.2578      2.5318      0.0756      7.1614     20.0725    139.8048
   930.4000      8.2578      2.5080      0.0271      8.6044     20.2992    139.3923
   930.5000      8.2578      2.4946      0.0770      9.4166     20.3828    136.0946
   930.6000      8.2578      2.4950      0.0651      9.3913     20.4458    133.8702
   930.7000      8.2578      2.4986      0.0763      9.1782     20.4840    132.3936
   930.8000      8.2583      2.4982      0.0604      9.2007     20.6345    130.4541
   930.9000      8.2583      2.4920      0.0801      9.5784     20.6899    131.0394
   931.0000      8.2627      2.4781      0.0467     10.4181     20.4212    133.8101
   931.1000      8.2627      2.4614      0.0212     11.4327     20.1030    135.4564
   931.2000      8.2627      2.4519     -0.0023     12.0066     20.2489    135.9498
   931.3000      8.2728      2.4514      0.0471     12.0366     20.7080    136.3549
   931.4000      8.2728      2.4527     -0.0024     11.9589     20.9257    136.9721
   931.5000      8.2840      2.4529      0.0252     11.9468     20.8469    138.6319
   931.6000      8.2840      2.4502      0.0345     12.1105     20.4545    140.4932
   931.7000      8.2840      2.4456      0.0344     12.3906     19.7803    139.5179
   931.8000      8.2938      2.4471     -0.0067     12.2946     19.2489    137.1545
   931.9000      8.2938      2.4527      0.0490     11.9602     19.2148    137.8081
   932.0000      8.3030      2.4577      0.0132     11.6522     19.3785    140.3986
   932.1000      8.3030      2.4762      0.0573     10.5309     19.0839    140.7947
   932.2000      8.3030      2.5111      0.1133      8.4160     18.6342    138.6075
   932.3000      8.3088      2.5489      0.1268      6.1283     18.8474    136.4685
   932.4000      8.3088      2.5840      0.1701      4.0000     19.5419    136.4307
   932.5000      8.3123      2.6210      0.1772      1.7551     20.0239    135.0156
   932.6000      8.3123      2.6706      0.1380     -1.2474     20.0794    127.2414
   932.7000      8.3123      2.7353      0.1609     -5.1691     19.9406    118.3059
   932.8000      8.3151      2.7956      0.1938     -8.8224     19.9694    116.3052
   932.9000      8.3151      2.8358      0.1630    -11.2607     20.3380    119.7566
   933.0000      8.3156      2.8588      0.1599    -12.6547     21.1407    121.8117
   933.1000      8.3156      2.8685      0.1322    -13.2407     22.4308    120.4899
   933.2000      8.3156      2.8705      0.1049    -13.3610     23.6395    119.5963
   933.3000      8.3150      2.8617      0.1283    -12.8296     24.1837    124.4728
   933.4000      8.3150      2.8220      0.0772    -10.4243     24.3174    135.8541
   933.5000      8.3150      2.7462      0.0186     -5.8308     24.2761    145.9779
   933.6000      8.3150      2.6598     -0.0614     -0.5949     23.8832    148.5497
   933.7000      8.3150      2.5935     -0.0799      3.4239     22.9492    147.7484
   933.8000      8.3144      2.5599     -0.0639      5.4598     21.6301    143.7736
   933.9000      8.3144      2.5552      0.0151      5.7475     20.3828    133.8069
   934.0000      8.3136      2.5566      0.0669      5.6605     19.5518    127.1880
   934.1000      8.3136      2.5430      0.0557      6.4819     19.4116    129.3264
   934.2000      8.3136      2.5172      0.0717      8.0485     19.7528    132.4576
   934.3000      8.3123      2.4962      0.0418      9.3227     19.7722    130.5763
   934.4000      8.3123      2.4936      0.0898      9.4817     19.3848    128.2560
   934.5000      8.3105      2.5073      0.1311      8.6471     19.4121    131.3922
   934.6000      8.3105      2.5223      0.0971      7.7409     20.0420    139.8601
   934.7000      8.3105      2.5166      0.1315      8.0870     20.4785    147.3394
   934.8000      8.3101      2.4866      0.0540      9.9046     20.0357    148.6427
   934.9000      8.3101      2.4554      0.0574     11.7946     19.0819    145.2693
   935.0000      8.3097      2.4373      0.0602     12.8882     18.5162    139.5043
   935.1000      8.3097      2.4330      0.0718     13.1520     18.5936    133.7931
   935.2000      8.3097      2.4417      0.0784     12.6261     18.8669    132.6944
   935.3000      8.3099      2.4549      0.0943     11.8212     19.0662    139.0873
   935.4000      8.3099      2.4650      0.0833     11.2146     19.4186    147.7044
   935.5000      8.3119      2.4764      0.0670     10.5231     19.8420    149.7236
   935.6000      8.3119      2.4875      0.1316      9.8481     19.9106    145.4547
   935.7000      8.3119      2.4799      0.1401     10.3120     19.6476    142.5197
   935.8000      8.3134      2.4486      0.0704     12.2058     19.5509    143.1914
   935.9000      8.3134      2.4098      0.0844     14.5574     19.8493    139.2785
   936.0000      8.3127      2.3769      0.0273     16.5528     19.9709    128.1950
   936.1000      8.3127      2.3597      0.0528     17.5968     19.2770    122.7978
   936.2000      8.3127      2.3644      0.0415     17.3061     18.0614    130.7167
   936.3000      8.3137      2.3805      0.0946     16.3324     17.0377    141.7071
   936.4000      8.3137      2.3838      0.0890     16.1359     16.5028    145.2500
   936.5000      8.3153      2.3724      0.0780     16.8240     16.5352    141.7726
   936.6000      8.3153      2.3674      0.0712     17.1302     16.8042    135.8793
   936.7000      8.3153      2.3790      0.1073     16.4246     16.6995    131.3334
   936.8000      8.3167      2.3966      0.1140     15.3575     16.2832    129.2902
   936.9000      8.3167      2.4030      0.1886     14.9704     15.9398    129.5446
   937.0000      8.3254      2.3948      0.0966     15.4691     15.7578    131.8956
   937.1000      8.3254      2.3882      0.0847     15.8685     15.6169    134.9790
   937.2000      8.3254      2.3887      0.1893     15.8380     15.2837    138.6997
   937.3000      8.3496      2.3824      0.1398     16.2207     14.8358    141.6734
   937.4000      8.3496      2.3612      0.1312     17.5054     14.7380    141.8662
   937.5000      8.3589      2.3225      0.1268     19.8482     15.0621    141.2273
   937.6000      8.3589      2.2633      0.1198     23.4337     15.3386    141.1774
   937.7000      8.3589      2.1864      0.0498     28.0976     15.2285    140.3562
   937.8000      8.3171      2.1005     -0.0054     33.3020     14.8359    138.5289
   937.9000      8.3171      2.0120     -0.0460     38.6681     14.2905    132.1404
