~Version Information
VERS.                      2.0: CWLS Log ASCII Standard - VERSION 2.0
WRAP.                       NO: One line per depth step
~Well Information Block
STRT.FT               830.0000: 
STOP.FT              1782.5000: 
STEP.FT                 0.1000: 
NULL.                -999.2500: 
COMP.          Pioneer Natural Resources: COMPANY
WELL.          Manville 42-14 Tr: WELL
FLD.           Purgatoire River: FIELD
LOC.           2018 FNL & 562' FEL: LOCATION
STAT.                 Colorado: State
CNTY.               Las Animas: COUNTY
CTRY. USA : Country
SECT. 14 : Section
TOWN. 32S : Township
RANG. 66W : Range
SRVC.                Patterson: SERVICE COMPANY
DATE.          Mon Sep 19 09:44:06 2005: LOG DATE
API.           05 071 08522 00: UNIQUE WELL ID
~Curve Information Block
DEPT.FT            0 000 00 00: Depth
DCAL.in                       : CDL Caliper
RHOB.g/cc                     : CDL Bulk Density
RHOC.g/cc                     : CDL Density Correction
DPOR.pu                       : CDL Density Porosity
GR.GAPI                       : Gamma Ray
NPOR.pu                       : Neutron Porosity
~Parameter Information Block
~A  Depth       DCAL        RHOB        RHOC        DPOR         GR         NPOR    
# ...
  1022.0000      8.1622      2.5340      0.0183      7.0303    139.2499     25.7477
  1022.1000      8.1622      2.5204      0.0274      7.8523    143.2415     25.2903
  1022.2000      8.1622      2.5095      0.0373      8.5163    138.8893     24.8394
  1022.3000      8.1482      2.5068      0.0889      8.6766    132.5570     24.7615
  1022.4000      8.1482      2.4910      0.1123      9.6370    130.8622     25.1650
  1022.5000      8.1507      2.4506      0.1111     12.0833    132.0643     25.3219
  1022.6000      8.1507      2.4091      0.0535     14.5992    134.2202     25.0286
  1022.7000      8.1507      2.3872      0.0330     15.9267    136.7968     24.8931
  1022.8000      8.1413      2.3699      0.1349     16.9768    133.6586     24.8948
  1022.9000      8.1413      2.3439      0.0731     18.5515    123.8908     24.6946
  1023.0000      8.1269      2.3301      0.0906     19.3885    117.5180     24.5185
  1023.1000      8.1269      2.3407      0.1667     18.7471    118.6657     24.6429
  1023.2000      8.1269      2.3637      0.1761     17.3512    122.6348     25.0627
  1023.3000      8.1084      2.4021      0.1793     15.0242    128.8612     25.5375
  1023.4000      8.1084      2.4785      0.1317     10.3916    135.2892     25.8325
  1023.5000      8.0600      2.5850      0.3524      3.9391    134.4512     25.9868
  1023.6000      8.0600      2.6680      0.3634     -1.0884    126.2019     25.9466
  1023.7000      8.0600      2.7004      0.3088     -3.0519    119.9516     25.5396
  1023.8000      8.0156      2.7065      0.2609     -3.4235    119.8632     25.2763
  1023.9000      8.0156      2.7110      0.2145     -3.6957    122.4084     25.7993
  1024.0000      8.0407      2.7285      0.1594     -4.7604    125.1005     26.7662
  1024.1000      8.0407      2.7728      0.1549     -7.4406    127.8827     27.4246
  1024.2000      8.0407      2.8235      0.2334    -10.5149    129.1543     27.7136
  1024.3000      8.1378      2.8361      0.1868    -11.2781    125.7575     27.7200
  1024.4000      8.1378      2.8069      0.0802     -9.5084    118.0687     27.3742
  1024.5000      8.1822      2.7647      0.0489     -6.9513    110.8793     26.7873
  1024.6000      8.1822      2.7199      0.0154     -4.2388    107.3124     25.9026
  1024.7000      8.1822      2.6640     -0.0153     -0.8492    107.0243     25.0597
  1024.8000      8.2179      2.5968     -0.1016      3.2246    108.5800     24.6751
  1024.9000      8.2179      2.5431     -0.1070      6.4816    108.5620     24.5645
  1025.0000      8.1701      2.5211     -0.0548      7.8130    106.0093     24.5857
  1025.1000      8.1701      2.5081     -0.0249      8.6030    103.8396     24.4897
  1025.2000      8.1701      2.4811     -0.0732     10.2339    102.7574     23.9658
  1025.3000      8.1694      2.4605     -0.0763     11.4864    102.5648     23.3753
  1025.4000      8.1694      2.4641     -0.0325     11.2678    104.8259     23.1663
  1025.5000      8.1769      2.4658      0.0459     11.1666    109.0643     23.1734
  1025.6000      8.1769      2.4405      0.0164     12.6969    114.5656     23.0568
  1025.7000      8.1769      2.4148     -0.0338     14.2555    120.9119     22.8746
  1025.8000      8.1731      2.4257      0.0078     13.5963    125.0822     22.7390
  1025.9000      8.1731      2.4625      0.0648     11.3615    126.4696     22.7742
  1026.0000      8.1776      2.4881      0.1023      9.8136    124.5373     23.1843
  1026.1000      8.1776      2.4903      0.0514      9.6815    118.4416     23.8382
  1026.2000      8.1776      2.4878      0.0531      9.8328    113.8470     24.4737
  1026.3000      8.1744      2.4952      0.0733      9.3790    115.6804     24.9941
  1026.4000      8.1744      2.5121      0.0564      8.3565    120.3134     25.3088
  1026.5000      8.1910      2.5254      0.1377      7.5541    122.8702     25.5365
  1026.6000      8.1910      2.5198      0.1163      7.8891    122.7485     25.9064
  1026.7000      8.1910      2.5055      0.0967      8.7604    122.2330     26.0654
  1026.8000      8.1779      2.5044      0.0754      8.8234    121.9259     25.6512
  1026.9000      8.1779      2.5124      0.1393      8.3422    119.7555     25.0942
  1027.0000      8.1557      2.5091      0.1373      8.5419    116.5306     24.6931
  1027.1000      8.1557      2.4965      0.0999      9.3020    116.1521     24.1885
  1027.2000      8.1557      2.4908      0.0799      9.6479    121.1741     23.9505
  1027.3000      8.1389      2.4989      0.1252      9.1606    127.8393     24.4045
  1027.4000      8.1389      2.5195      0.1176      7.9080    129.8642     24.9685
  1027.5000      8.1237      2.5436      0.1748      6.4499    127.3560     25.1574
  1027.6000      8.1237      2.5566      0.1742      5.6586    126.7805     25.2041
  1027.7000      8.1237      2.5564      0.1661      5.6718    130.9937     25.1043
  1027.8000      8.1368      2.5516      0.1485      5.9620    131.8205     24.9110
  1027.9000      8.1368      2.5464      0.1563      6.2770    126.3754     24.9316
  1028.0000      8.1437      2.5466      0.1367      6.2653    123.6925     25.1265
  1028.1000      8.1437      2.5587      0.1672      5.5321    127.7233     25.2880
  1028.2000      8.1437      2.5739      0.1362      4.6138    133.3700     25.2463
  1028.3000      8.1452      2.5766      0.1596      4.4479    137.6357     25.0509
  1028.4000      8.1452      2.5602      0.1432      5.4420    141.8506     24.8980
  1028.5000      8.1377      2.5224      0.1662      7.7338    142.6096     25.0179
  1028.6000      8.1377      2.4642      0.1498     11.2616    136.2669     25.3224
  1028.7000      8.1377      2.4051      0.0826     14.8442    128.6782     25.2224
  1028.8000      8.1370      2.3722      0.0411     16.8350    126.2413     24.7604
  1028.9000      8.1370      2.3706      0.0342     16.9360    127.9362     24.6375
  1029.0000      8.1535      2.3838      0.0731     16.1353    128.7480     24.7031
  1029.1000      8.1535      2.3942      0.0942     15.5009    128.3497     24.3592
  1029.2000      8.1535      2.3965      0.1090     15.3618    131.6533     23.5917
  1029.3000      8.1593      2.4090      0.1305     14.6087    135.7472     22.7714
  1029.4000      8.1593      2.4543      0.1968     11.8610    135.9657     22.2511
  1029.5000      8.1709      2.5199      0.3126      7.8866    135.5497     22.1649
  1029.6000      8.1709      2.5684      0.3445      4.9435    136.1694     22.2177
  1029.7000      8.1709      2.5806      0.3351      4.2052    137.2113     21.8159
  1029.8000      8.1650      2.5659      0.2744      5.0943    139.0427     20.9817
  1029.9000      8.1650      2.5416      0.3374      6.5717    139.5248     20.3384
  1030.0000      8.2271      2.5078      0.3180      8.6159    137.3042     20.0980
  1030.1000      8.2271      2.4565      0.2245     11.7259    134.4125     19.8208
  1030.2000      8.2271      2.3858      0.1989     16.0117    132.6098     19.1830
  1030.3000      8.3916      2.2989      0.1228     21.2800    128.7805     18.5071
  1030.4000      8.3916      2.2039      0.0835     27.0392    124.1724     18.0003
  1030.5000      8.4515      2.1069      0.0447     32.9177    126.2234     17.4795
  1030.6000      8.4515      2.0144     -0.0204     38.5236    134.2776     17.2908
  1030.7000      8.4515      1.9300      0.0340     43.6389    140.6001     17.7870
  1030.8000      8.4681      1.8540      0.0293     48.2437    139.6222     18.5384
  1030.9000      8.4681      1.8036      0.0236     51.2992    133.4007     19.2871
  1031.0000      8.5303      1.7976      0.0728     51.6616    130.0751     20.3396
  1031.1000      8.5303      1.8330      0.0796     49.5179    134.0579     21.5791
  1031.2000      8.5303      1.9000      0.1276     45.4552    137.7380     22.5695
  1031.3000      8.4296      1.9929      0.1742     39.8243    132.9676     23.3755
  1031.4000      8.4296      2.1036      0.2722     33.1138    125.3451     24.1304
  1031.5000      8.3908      2.2231      0.2562     25.8698    120.2296     24.6730
