~Version Information
VERS.                      2.0: CWLS Log ASCII Standard - VERSION 2.0
WRAP.                       NO: One line per depth step
~Well Information Block
STRT.FT                 0.0000: 
STOP.FT               787.2500: 
STEP.FT                 0.2500: 
NULL.                -999.2500: 
COMP.          Pioneer Natural Resources: COMPANY
WELL.             Veedol 34-28: WELL
FLD.           Purgatorie River: FIELD
LOC.           357' FSL & 2520' FEL: LOCATION
PROV.                 Colorado: PROVINCE
CNTY.               Las Animas: COUNTRY
SRVC.                Patterson: SERVICE COMPANY
DATE.          Wed Dec 28 10:10:37 2005: LOG DATE
UWI.                          : UNIQUE WELL ID
~Curve Information Block
DEPT.FT            0 000 00 00: Depth
CCL.                          : Casing Collar Locator
TT3.usec                      : CBL 3' Travel Time
AMP3.mV                       : CBL 3' Amplitude
GR.GAPI                       : Gamma Ray
~Parameter Information Block
~A  Depth       CCL         TT3         AMP3         GR     
# ...
   201.0000      0.0000    689.3406     12.3483     67.6401
   201.2500      0.0000    685.3154     12.3098     64.4624
   201.5000      0.0000    685.1415     12.2486     63.2156
   201.7500      0.0000    688.0472     12.1617     65.1824
   202.0000      0.0000    692.4702     12.0700     70.3074
   202.2500      0.0000    694.6941     11.9926     77.1608
   202.5000      0.0000    692.3696     11.9388     84.0932
   202.7500      0.0000    688.1459     11.9161     90.1743
   203.0000      0.0000    686.4698     11.9260     95.0014
   203.2500      0.0000    689.8989     11.9454     98.2883
   203.5000      0.0000    698.6549     11.9363    100.0390
   203.7500      0.0000    709.6551     11.8844    100.6042
   204.0000      0.0000    717.4959     11.8053    100.0877
   204.2500      0.0000    718.9870     11.7210     98.1993
   204.5000      0.0000    716.0209     11.6549     95.1765
   204.7500      0.0000    713.9534     11.6296     92.3902
   205.0000      0.0000    715.8893     11.6540     91.3672
   205.2500      0.0000    718.8488     11.7167     92.3254
   205.5000      0.0000    717.7455     11.7920     94.0457
   205.7500      0.0000    711.5642     11.8606     95.0583
   206.0000      0.0000    705.2865     11.9201     94.7613
   206.2500      0.0000    705.3352     11.9726     93.6582
   206.5000      0.0000    711.9182     12.0073     92.8541
   206.7500      0.0000    719.3098     12.0062     93.2294
   207.0000      0.0000    723.4694     11.9785     94.7743
   207.2500      0.0000    724.8102     11.9653     96.6105
   207.5000      0.0000    725.0858     11.9773     97.7988
   207.7500      0.0000    725.2038     11.9718     98.3276
   208.0000      0.0000    725.3082     11.9315     99.1292
   208.2500      0.0000    725.0956     11.8992    100.7666
   208.5000      0.0000    723.5156     11.9052    102.1383
   208.7500      0.0000    718.5532     11.9240    101.0267
   209.0000      0.0000    708.9002     11.9128     96.2742
   209.2500      0.0000    696.8402     11.8656     89.1138
   209.5000      0.0000    687.1521     11.8400     82.0514
   209.7500      0.0000    682.2390     11.9238     76.8529
   210.0000      0.0000    681.0383     12.1254     74.0443
   210.2500      0.0000    682.4078     12.3217     73.8643
   210.5000      0.0000    687.2395     12.3908     76.6789
   210.7500      0.0000    696.5759     12.3377     82.1894
   211.0000      0.0000    708.1752     12.2307     88.9567
   211.2500      0.0000    717.4330     12.1077     95.2514
   211.5000      0.0000    722.1741     12.0014    100.1012
   211.7500      0.0000    723.7202     11.9695    103.3596
   212.0000      0.0000    723.9659     12.0683    105.2836
   212.2500      0.0000    723.4301     12.3232    106.4764
   212.5000      0.0000    720.7475     12.7007    107.7905
   212.7500      0.0000    713.3683     13.0876    109.5175
   213.0000      0.0000    701.4706     13.3578    110.7135
   213.2500      0.0000    689.4442     13.5026    110.0353
   213.5000      0.0000    676.1400     13.6611    107.4731
   213.7500      0.0000    650.4542     13.9895    104.6705
   214.0000      0.0000    612.6752     14.4420    103.1545
   214.2500      0.0000    590.6130     14.6235    102.7371
   214.5000      0.0000    609.5164     14.0078    102.1333
   214.7500      0.0000    657.7579     12.6112    100.7059
   215.0000      0.0000    707.0386     11.2251     98.9400
   215.2500      0.0000    742.7089     10.5318     97.4038
   215.5000      0.0000    761.9181     10.4197     95.9860
   215.7500      0.0000    769.8801     10.4641     94.4228
   216.0000     -2.0000    776.8469     10.4971     93.1648
   216.2500      0.0000    781.0179     10.5431     93.2907
   216.5000      0.0000    767.9296     10.6678     95.5205
   216.7500      0.0000    737.1592     11.0921     99.4695
   217.0000      0.0000    708.0563     12.0958    103.9059
   217.2500      0.0000    688.5414     13.4828    107.5072
   217.5000      0.0000    655.6008     14.6301    109.3605
   217.7500      0.0000    585.6075     15.3051    109.1887
   218.0000      0.0000    495.0074     15.6856    107.4257
   218.2500      0.0000    424.9705     15.7557    104.8237
   218.5000      0.0000    394.3015     15.4401    101.7517
   218.7500      0.0000    397.2740     14.9338     98.1367
   219.0000      0.0000    433.4276     14.4757     94.2329
   219.2500      0.0000    506.2582     14.1086     90.8765
   219.5000      0.0000    595.4507     13.7770     88.7395
   219.7500      0.0000    662.0440     13.4780     87.9106
   220.0000      0.0000    689.9064     13.2763     88.3824
   220.2500      0.0000    697.0217     13.2308     90.2569
   220.5000      0.0000    702.5743     13.3141     93.2524
   220.7500      0.0000    703.1540     13.4360     96.6687
   221.0000      0.0000    684.9095     13.5236    100.0156
   221.2500      0.0000    651.5518     13.5042    103.1143
   221.5000      0.0000    631.6392     13.3012    105.5043
   221.7500      0.0000    640.2379     12.9531    106.4319
   222.0000      0.0000    650.6265     12.6382    105.8472
   222.2500      0.0000    639.9431     12.5019    104.8555
   222.5000      0.0000    631.1898     12.5193    104.5078
   222.7500      0.0000    651.6594     12.5646    104.5100
   223.0000      0.0000    687.8116     12.5543    103.7562
   223.2500      0.0000    713.2192     12.4932    101.7286
   223.5000      0.0000    723.0212     12.4318     98.8184
   223.7500      0.0000    725.2267     12.4274     95.5586
   224.0000      0.0000    725.4539     12.5039     92.0753
   224.2500      0.0000    725.4409     12.6151     88.3385
   224.5000      0.0000    725.5003     12.7029     84.8660
   224.7500      0.0000    725.5991     12.7738     82.8978
   225.0000      0.0000    725.6629     12.8434     83.3760
   225.2500      0.0000    725.7020     12.8588     85.6455
   225.5000      0.0000    725.7698     12.7650     87.6508
   225.7500      0.0000    725.8930     12.5967     87.7064
   226.0000      0.0000    726.0586     12.4524     85.9247
   226.2500      0.0000    726.2405     12.4167     83.9478
   226.5000      0.0000    726.4193     12.5172     83.4609
   226.7500      0.0000    726.5779     12.7041     84.7651
   227.0000      0.0000    726.6880     12.8698     86.6148
   227.2500      0.0000    726.7283     12.9366     87.5952
   227.5000      0.0000    726.6915     12.9296     87.5968
   227.7500      0.0000    726.5551     12.9258     87.6412
   228.0000      0.0000    726.3098     12.9556     88.4353
   228.2500      0.0000    726.0192     12.9953     89.5147
   228.5000      0.0000    725.7864     13.0218     89.7489
   228.7500      0.0000    725.6636     13.0354     88.3136
   229.0000      0.0000    725.6348     13.0422     85.2556
   229.2500      0.0000    725.6622     13.0293     81.5840
   229.5000      0.0000    725.7092     12.9826     78.8972
   229.7500      0.0000    725.7534     12.9290     78.4416
   230.0000      0.0000    725.7997     12.9285     80.1633
   230.2500      0.0000    725.8441     13.0162     82.7152
   230.5000      0.0000    725.8525     13.1687     84.5110
   230.7500      0.0000    725.8292     13.3247     84.7204
   231.0000      0.0000    725.8295     13.4261     83.3808
   231.2500      0.0000    725.8503     13.4407     80.9896
   231.5000      0.0000    725.8246     13.3767     78.2255
   231.7500      0.0000    725.7374     13.2837     75.7994
   232.0000      0.0000    725.6248     13.2205     74.3517
   232.2500      0.0000    725.5002     13.2124     74.3567
   232.5000      0.0000    725.3585     13.2452     75.7747
   232.7500      0.0000    725.2074     13.2816     77.6550
   233.0000      0.0000    725.0720     13.2856     78.4870
   233.2500      0.0000    724.9946     13.2584     77.3068
   233.5000      0.0000    725.0132     13.2412     74.4704
   233.7500      0.0000    725.1086     13.2636     71.4139
   234.0000      0.0000    725.2075     13.3106     69.5857
   234.2500      0.0000    725.2797     13.3403     69.4210
