~Version Information
VERS.                      2.0: CWLS Log ASCII Standard - VERSION 2.0
WRAP.                       NO: One line per depth step
~Well Information Block
STRT.FT                -5.2500: 
STOP.FT              1184.2500: 
STEP.FT                 0.2500: 
NULL.                -999.2500: 
COMP.          Pioneer Natural Resources: COMPANY
WELL.          Lucky Lady 42-29: WELL
FLD.           Purgatoire River: FIELD
LOC.           2482' FNL & 662' FEL: LOCATION
CNTY.               Las Animas: COUNTY
SRVC.                         : SERVICE COMPANY
DATE.          Tue Mar 14 14:47:22 2006: LOG DATE
UWI.           05 071 08659 00: UNIQUE WELL ID
STAT.                       CO: STATE
~Curve Information Block
DEPT.FT            0 000 00 00: Depth
GR.GAPI                       : Gamma Ray
CCL.                          : Casing Collar Locator
TT3.usec                      : CBL 3' Travel Time
AMP3.mV                       : CBL 3' Amplitude
~Parameter Information Block
~A  Depth        GR         CCL         TT3         AMP3    
# ...
   631.2500    120.3681      0.0000    833.6296     10.0810
   631.5000    128.4377      0.0000    823.9675     10.0300
   631.7500    137.3631      0.0000    815.4279     10.0027
   632.0000    145.3925      0.0000    810.0649     10.0047
   632.2500    150.5772      0.0000    807.4954     10.0193
   632.5000    151.6487      0.0000    806.5237     10.0210
   632.7500    148.5483      0.0000    806.2078      9.9995
   633.0000    142.1079      0.0000    805.9676      9.9697
   633.2500    133.5914      0.0000    805.3093      9.9536
   633.5000    124.6479      0.0000    803.6664      9.9481
   633.7500    117.2087      0.0000    800.5823      9.9238
   634.0000    112.9431      0.0000    796.0762      9.8644
   634.2500    112.6181      0.0000    790.7286      9.7941
   634.5000    115.7371      0.0000    785.3927      9.7503
   634.7500    120.4930      0.0000    780.9897      9.7408
   635.0000    124.4199      0.0000    778.4303      9.7421
   635.2500    125.9549      0.0000    778.1902      9.7375
   635.5000    125.5989      0.0000    779.8601      9.7416
   635.7500    125.1058      0.0000    782.5829      9.7825
   636.0000    125.4525      0.0000    785.9954      9.8703
   636.2500    125.8784      0.0000    790.1107      9.9845
   636.5000    124.8871      0.0000    793.9732     10.0844
   636.7500    121.8011      0.0000    795.0580     10.1279
   637.0000    117.2178      0.0000    790.7520     10.0924
   637.2500    112.4518      0.0000    780.6467      9.9853
   637.5000    109.0606      0.0000    767.3177      9.8365
   637.7500    108.3794      0.0000    754.7034      9.6783
   638.0000    110.4737      0.0000    745.5743      9.5331
   638.2500    113.4748      0.0000    740.3665      9.4109
   638.5000    114.7824      0.0000    737.9443      9.3118
   638.7500    113.2180      0.0000    736.9741      9.2314
   639.0000    109.7171      0.0000    736.6425      9.1666
   639.2500    106.0406      0.0000    736.6533      9.1179
   639.5000    103.3063      0.0000    737.0474      9.0858
   639.7500    101.7669      0.0000    738.1555      9.0646
   640.0000    101.3861      0.0000    740.5640      9.0403
   640.2500    102.2328      0.0000    744.7784      8.9985
   640.5000    104.4316      0.0000    750.5421      8.9377
   640.7500    107.9583      0.0000    756.3841      8.8747
   641.0000    112.6026      0.0000    760.1453      8.8349
   641.2500    118.1146      0.0000    760.4423      8.8367
   641.5000    124.2099      0.0000    757.9579      8.8848
   641.7500    130.2296      0.0000    755.2459      8.9742
   642.0000    134.9243      0.0000    754.8486      9.0987
   642.2500    136.8713      0.0000    757.2662      9.2532
   642.5000    135.4141      0.0000    760.6812      9.4255
   642.7500    131.4705      0.0000    762.3752      9.5888
   643.0000    127.3617      0.0000    760.1576      9.7096
   643.2500    125.3258      0.0000    753.2051      9.7672
   643.5000    125.9613      0.0000    742.6854      9.7663
   643.7500    128.2824      0.0000    731.4194      9.7319
   644.0000    130.8767      0.0000    721.8181      9.7005
   644.2500    132.5071      0.0000    714.0893      9.7091
   644.5000    132.2243      0.0000    707.1413      9.7756
   644.7500    129.9256      0.0000    700.7047      9.8850
   645.0000    126.7803      0.0000    695.6136      9.9955
   645.2500    124.5466      0.0000    692.5661     10.0637
   645.5000    124.3165      0.0000    691.6767     10.0673
   645.7500    126.0173      0.0000    693.2586     10.0095
   646.0000    129.1532      0.0000    698.4479      9.9023
   646.2500    133.6854      0.0000    708.5252      9.7440
   646.5000    139.8519      0.0000    723.1832      9.5123
   646.7500    147.3142      0.0000    739.4785      9.1809
   647.0000    154.8925      0.0000    753.2008      8.7602
   647.2500    161.1323      0.0000    761.8157      8.3382
   647.5000    165.0601      0.0000    766.0895      8.0513
   647.7500    166.6411      0.0000    768.8106      7.9635
   648.0000    166.5840      0.0000    772.1182      7.9887
   648.2500    165.4568      0.0000    776.0641      7.9834
   648.5000    162.9529      0.0000    779.5671      7.8947
   648.7500    158.2941      0.0000    782.1331      7.7700
   649.0000    151.3462      0.0000    784.0548      7.6612
   649.2500    142.9026      2.0000    784.9957      7.5779
   649.5000    133.7223      2.0000    782.9890      7.5192
   649.7500    123.7772      0.0000    775.3925      7.5167
   650.0000    112.9632      0.0000    761.3272      7.6454
   650.2500    102.3002      0.0000    743.6461      7.9673
   650.5000     93.7803      0.0000    728.4116      8.4358
   650.7500     88.8608      0.0000    721.7569      8.8851
   651.0000     87.6020      0.0000    726.3842      9.1668
   651.2500     89.5375      0.0000    739.5491      9.2718
   651.5000     94.7968      0.0000    753.4003      9.2865
   651.7500    103.6978      0.0000    758.7542      9.2769
   652.0000    115.4369      0.0000    751.1613      9.2556
   652.2500    127.6707      0.0000    734.0104      9.2250
   652.5000    137.3279      0.0000    715.2611      9.2026
   652.7500    141.7624      0.0000    701.2124      9.2121
   653.0000    139.7328      0.0000    693.4392      9.2697
   653.2500    132.1210      0.0000    690.3579      9.3794
   653.5000    121.8943      0.0000    690.3020      9.5272
   653.7500    112.7457      0.0000    693.2443      9.6802
   654.0000    107.0012      0.0000    700.6222      9.8009
   654.2500    104.4930      0.0000    713.5005      9.8734
   654.5000    103.4103      0.0000    730.0820      9.9127
   654.7500    102.1879      0.0000    745.2100      9.9444
   655.0000    100.7097      0.0000    753.5826      9.9809
   655.2500    100.0704      0.0000    753.8948     10.0160
   655.5000    101.3081      0.0000    749.3317     10.0317
   655.7500    104.1602      0.0000    744.0149     10.0128
   656.0000    106.9128      0.0000    739.1806      9.9663
   656.2500    107.5791      0.0000    732.8990      9.9264
   656.5000    105.4351      0.0000    723.6555      9.9306
   656.7500    101.6386      0.0000    713.5059      9.9937
   657.0000     98.3773      0.0000    706.6320     10.1064
   657.2500     97.1692      0.0000    705.1532     10.2457
   657.5000     97.8169      0.0000    707.2170     10.3858
   657.7500     98.9869      0.0000    709.4434     10.5088
   658.0000     99.5544      0.0000    711.3494     10.6138
   658.2500     99.2756      0.0000    717.5057     10.7091
   658.5000     98.7163      0.0000    734.4019     10.8006
   658.7500     99.0351      0.0000    763.6266     10.8964
   659.0000    101.5873      0.0000    797.9208     11.0165
   659.2500    107.2200      0.0000    825.7397     11.1769
   659.5000    115.6618      0.0000    840.4612     11.3600
   659.7500    125.4743      0.0000    843.6580     11.5215
   660.0000    134.6451      0.0000    840.0919     11.6380
   660.2500    141.4628      0.0000    833.0017     11.7398
   660.5000    145.1756      0.0000    824.1654     11.8833
   660.7500    146.1279      0.0000    814.8907     12.0889
   661.0000    145.2446      0.0000    805.7853     12.3077
   661.2500    143.1212      0.0000    797.2241     12.4548
   661.5000    139.7698      0.0000    790.5629     12.4776
   661.7500    135.5800      0.0000    787.9400     12.3800
   662.0000    132.0508      0.0000    790.3499     12.1841
   662.2500    130.6843      0.0000    796.2701     11.9069
   662.5000    131.0670      0.0000    802.2700     11.5863
   662.7500    130.7332      0.0000    804.6741     11.2888
   663.0000    127.4505      0.0000    800.7127     11.0597
   663.2500    121.5361      0.0000    789.4915     10.8820
   663.5000    115.7768      0.0000    773.4288     10.7009
   663.7500    113.2708      0.0000    758.2587     10.4789
   664.0000    115.4027      0.0000    749.4598     10.2224
   664.2500    121.4276      0.0000    747.9404      9.9702
   664.5000    129.5150      0.0000    750.4159      9.7651
