~Version Information
VERS.                      2.0: CWLS Log ASCII Standard - VERSION 2.0
WRAP.                       NO: One line per depth step
~Well Information Block
STRT.FT               240.0000: 
STOP.FT              1338.7000: 
STEP.FT                 0.1000: 
NULL.                -999.2500: 
COMP.          Pioneer Natural Resources: COMPANY
WELL.            Hamburg 43-35: WELL
FLD.           Purgatoire River: FIELD
LOC.           2444' FSL & 950' FEL--: LOCATION
PROV.                 Colorado: PROVINCE
CNTY.               Las Animas: COUNTRY
SRVC.                Patterson: SERVICE COMPANY
DATE.          Sun Dec 04 11:50:58 2005: LOG DATE
UWI.           05 071 08607 00: UNIQUE WELL ID
~Curve Information Block
DEPT.FT            0 000 00 00: Depth
DCAL.in                       : CDL Caliper
RHOB.g/cc                     : CDL Bulk Density
RHOC.g/cc                     : CDL Density Correction
DPOR.pu                       : CDL Density Porosity
NPOR.pu                       : Neutron Porosity
GR.GAPI                       : Gamma Ray
~Parameter Information Block
~A  Depth       DCAL        RHOB        RHOC        DPOR        NPOR         GR     
# ...
   595.2000      8.0778      2.4045     -0.0029     14.8805     22.9717    152.1388
   595.3000      8.0936      2.3956     -0.0218     15.4212     21.8162    152.1708
   595.4000      8.0936      2.4021      0.0044     15.0262     20.3339    151.7691
   595.5000      8.1114      2.4176      0.0156     14.0840     19.0397    146.7380
   595.6000      8.1114      2.4393      0.0376     12.7679     18.1729    137.8285
   595.7000      8.1114      2.4638      0.0437     11.2875     17.6457    132.8231
   595.8000      8.1155      2.4807      0.1019     10.2636     17.5209    134.6668
   595.9000      8.1155      2.4797      0.1284     10.3237     17.7125    140.1741
   596.0000      8.1082      2.4657      0.0647     11.1688     17.9183    147.8618
   596.1000      8.1082      2.4571      0.0552     11.6893     18.0963    154.0955
   596.2000      8.1082      2.4592      0.1123     11.5632     18.3815    155.3003
   596.3000      8.1032      2.4570      0.1146     11.6957     18.9044    153.6755
   596.4000      8.1032      2.4396      0.0860     12.7525     19.5721    151.6602
   596.5000      8.1070      2.4120      0.0611     14.4239     19.9469    149.7572
   596.6000      8.1070      2.3839      0.0648     16.1258     19.7152    148.1715
   596.7000      8.1070      2.3483      0.0842     18.2867     19.1670    145.9718
   596.8000      8.1237      2.2847      0.0131     22.1385     18.5883    141.2132
   596.9000      8.1237      2.1835      0.0070     28.2729     17.8683    134.8192
   597.0000      8.1414      2.0603     -0.0652     35.7371     16.9736    130.6418
   597.1000      8.1414      1.9488     -0.1068     42.4960     16.0974    127.0579
   597.2000      8.1414      1.8643     -0.0800     47.6196     15.1230    119.1934
   597.3000      8.1341      1.8036     -0.1449     51.2958     13.8699    112.1523
   597.4000      8.1341      1.7740     -0.1163     53.0887     12.6415    111.8610
   597.5000      8.1158      1.7843     -0.0928     52.4678     11.4540    114.7080
   597.6000      8.1158      1.8263     -0.0144     49.9208     10.0455    114.2116
   597.7000      8.1158      1.8840      0.0307     46.4271      8.6473    108.0249
   597.8000      8.1159      1.9578      0.0482     41.9514      7.5837    100.0965
   597.9000      8.1159      2.0562      0.1632     35.9888      6.8959     95.9153
   598.0000      8.1195      2.1677      0.2361     29.2319      6.6214     96.7939
   598.1000      8.1195      2.2748      0.2336     22.7394      6.8825     99.3826
   598.2000      8.1195      2.3690      0.2640     17.0333      7.6444    100.2480
   598.3000      8.0978      2.4413      0.2024     12.6462      8.7316     99.0535
   598.4000      8.0978      2.4859      0.1969      9.9442     10.0208     97.9454
   598.5000      8.0685      2.5058      0.1128      8.7424     11.3643     99.3756
   598.6000      8.0685      2.5124      0.0938      8.3395     12.5585    103.8467
   598.7000      8.0685      2.5134      0.1062      8.2811     13.5306    109.0753
   598.8000      8.0499      2.5079      0.0522      8.6137     14.3857    110.9780
   598.9000      8.0499      2.5011      0.0282      9.0236     15.2381    109.4596
   599.0000      8.0415      2.5031      0.0172      8.9015     15.9980    107.9187
   599.1000      8.0415      2.5118      0.0528      8.3729     16.5428    105.0883
   599.2000      8.0415      2.5157      0.0504      8.1376     16.8688    100.1086
   599.3000      8.0409      2.5072      0.0485      8.6543     16.9690     99.3851
   599.4000      8.0409      2.4919      0.0599      9.5792     17.0182    105.8247
   599.5000      8.0422      2.4905      0.0113      9.6653     17.2877    110.7464
   599.6000      8.0422      2.5128      0.0565      8.3161     17.8774    110.5089
   599.7000      8.0422      2.5462      0.0574      6.2906     18.7985    113.1143
   599.8000      8.0418      2.5772      0.0942      4.4121     20.1004    121.8079
   599.9000      8.0418      2.5946      0.0890      3.3568     21.6154    130.0900
   600.0000      8.0420      2.5939      0.0873      3.3998     22.9167    130.0953
   600.1000      8.0420      2.5904      0.0078      3.6104     23.8819    122.6709
   600.2000      8.0420      2.5960      0.0377      3.2698     24.8643    116.7249
   600.3000      8.0418      2.5932      0.0805      3.4437     26.0091    114.7465
   600.4000      8.0418      2.5714      0.0366      4.7646     26.8461    115.8211
   600.5000      8.0396      2.5510      0.0130      6.0020     27.0503    121.4217
   600.6000      8.0396      2.5440      0.0163      6.4259     26.9847    127.7734
   600.7000      8.0396      2.5404      0.0216      6.6394     26.9656    127.4462
   600.8000      8.0397      2.5398     -0.0535      6.6817     26.6994    121.2714
   600.9000      8.0397      2.5459      0.0454      6.3108     26.0442    118.5477
   601.0000      8.0417      2.5422      0.0450      6.5307     25.4039    122.4574
   601.1000      8.0417      2.5256     -0.0149      7.5424     25.1597    125.2319
   601.2000      8.0417      2.5136      0.0004      8.2681     25.1297    123.5139
   601.3000      8.0406      2.5108      0.0112      8.4341     24.6329    122.1006
   601.4000      8.0406      2.5097      0.0276      8.5056     23.5961    122.6323
   601.5000      8.0375      2.5023      0.0212      8.9505     22.6745    126.6552
   601.6000      8.0375      2.4921     -0.0046      9.5685     22.1368    136.9852
   601.7000      8.0375      2.4939     -0.0019      9.4633     21.8739    148.2481
   601.8000      8.0323      2.5127      0.0073      8.3196     21.9283    151.5396
   601.9000      8.0323      2.5397      0.0316      6.6846     22.3517    147.1266
   602.0000      8.0240      2.5625      0.0475      5.3010     22.8122    140.8757
   602.1000      8.0240      2.5752      0.0490      4.5337     22.4073    135.2560
   602.2000      8.0240      2.5823      0.0366      4.1004     21.0813    128.8533
   602.3000      8.0163      2.5875      0.0633      3.7890     19.9813    122.0903
   602.4000      8.0163      2.5912      0.0441      3.5664     19.6365    119.8216
   602.5000      8.0139      2.5993      0.0333      3.0729     19.7450    123.6171
   602.6000      8.0139      2.6079      0.0840      2.5500     19.8838    127.1279
   602.7000      8.0139      2.6046      0.0682      2.7533     19.7283    123.1133
   602.8000      8.0147      2.5971      0.0127      3.2076     19.4675    112.1878
   602.9000      8.0147      2.5994      0.0310      3.0687     19.6653    103.1432
   603.0000      8.0167      2.6078      0.0550      2.5601     20.3941    100.6272
   603.1000      8.0167      2.6108      0.0441      2.3755     21.1717    102.7010
   603.2000      8.0167      2.6055      0.0146      2.6985     21.7885    105.6029
   603.3000      8.0181      2.6018     -0.0013      2.9234     22.4265    103.1741
   603.4000      8.0181      2.6027      0.0397      2.8695     23.0419     96.9653
   603.5000      8.0176      2.5993      0.0208      3.0750     23.3926     95.0903
   603.6000      8.0176      2.6006      0.0267      2.9912     23.4425     97.5117
   603.7000      8.0176      2.6150      0.0580      2.1202     23.3372    101.4962
   603.8000      8.0154      2.6214      0.0698      1.7330     23.1121    106.8083
   603.9000      8.0154      2.6060      0.0537      2.6641     22.8193    110.3997
   604.0000      8.0113      2.5874      0.0399      3.7924     22.8193    110.1038
   604.1000      8.0113      2.5840      0.0611      4.0013     23.3485    107.1822
   604.2000      8.0113      2.5891      0.0792      3.6922     24.0818    104.9012
   604.3000      8.0074      2.5936      0.0148      3.4166     24.3394    105.4519
   604.4000      8.0074      2.5952      0.0874      3.3210     24.1883    107.3073
   604.5000      8.0081      2.5804      0.0789      4.2163     24.1755    109.5667
   604.6000      8.0081      2.5480      0.0104      6.1825     24.1657    113.4789
   604.7000      8.0081      2.5230     -0.0228      7.6948     24.2006    117.4033
