~Version Information
VERS.                      2.0: CWLS Log ASCII Standard - VERSION 2.0
WRAP.                       NO: One line per depth step
~Well Information Block
STRT.FT                -8.0000: 
STOP.FT              1661.0000: 
STEP.FT                 0.2500: 
NULL.                -999.2500: 
COMP.          Pioneer Natural Resources: COMPANY
WELL.          Rollerball 34-30: WELL
FLD.           Purgatorie River: FIELD
LOC.           893' FSL & 2408' FEL----: LOCATION
CNTY.               Las Animas: COUNTY
SRVC.          Patterson Wireline: SERVICE COMPANY
DATE.          Mon Feb 20 08:34:38 2006: LOG DATE
UWI.           05 071 08581 00: UNIQUE WELL ID
STAT.                       CO: STATE
~Curve Information Block
DEPT.FT            0 000 00 00: Depth
CCL.                          : Casing Collar Locator
TT3.usec                      : CBL 3' Travel Time
AMP3.mV                       : CBL 3' Amplitude
GR.GAPI                       : Gamma Ray
~Parameter Information Block
~A  Depth       CCL         TT3         AMP3         GR     
# ...
   528.0000      0.0000    759.4267      4.6152     91.3542
   528.2500      0.0000    758.3973      4.6365     90.4464
   528.5000      0.0000    759.3392      4.6592     88.2177
   528.7500      0.0000    761.5997      4.6787     84.3024
   529.0000      0.0000    763.8145      4.6920     79.4760
   529.2500      0.0000    764.9390      4.6952     75.2246
   529.5000      0.0000    764.4561      4.6829     72.9651
   529.7500      0.0000    761.9330      4.6563     73.4565
   530.0000      0.0000    756.9628      4.6272     76.4300
   530.2500      0.0000    749.8232      4.6107     80.4155
   530.5000      0.0000    742.0283      4.6126     83.2949
   530.7500      0.0000    735.9001      4.6246     83.6766
   531.0000      0.0000    733.4377      4.6326     81.7833
   531.2500      0.0000    735.4032      4.6280     78.7129
   531.5000      0.0000    740.9937      4.6116     75.1010
   531.7500      0.0000    748.0595      4.5901     70.9203
   532.0000      0.0000    753.9631      4.5699     66.1519
   532.2500      0.0000    756.8182      4.5568     61.1512
   532.5000      0.0000    756.2968      4.5573     56.6950
   532.7500      0.0000    753.5757      4.5780     54.0226
   533.0000      0.0000    750.6348      4.6186     54.4204
   533.2500      0.0000    749.2742      4.6661     58.2373
   533.5000      0.0000    750.2752      4.6991     64.3826
   533.7500      0.0000    753.1481      4.7006     71.0899
   534.0000      0.0000    756.6187      4.6691     77.0484
   534.2500      0.0000    759.5234      4.6166     81.6611
   534.5000      0.0000    761.4147      4.5594     84.7164
   534.7500      0.0000    762.4802      4.5091     86.2788
   535.0000      0.0000    763.0491      4.4699     86.5613
   535.2500      0.0000    763.2151      4.4387     85.6288
   535.5000      0.0000    762.7642      4.4094     83.6414
   535.7500      0.0000    761.4014      4.3790     81.4835
   536.0000      0.0000    759.2365      4.3502     80.5527
   536.2500      0.0000    757.1934      4.3306     81.6872
   536.5000      0.0000    756.6898      4.3275     84.5173
   536.7500      0.0000    758.6349      4.3436     87.8595
   537.0000      0.0000    762.9142      4.3759     90.5243
   537.2500      0.0000    769.0272      4.4171     91.8644
   537.5000      0.0000    776.7506      4.4576     91.7771
   537.7500      0.0000    785.6378      4.4886     90.3751
   538.0000      0.0000    794.0988      4.5062     87.7821
   538.2500      0.0000    799.7076      4.5142     84.2086
   538.5000      0.0000    800.9249      4.5215     80.0576
   538.7500      0.0000    798.6445      4.5365     75.9010
   539.0000      0.0000    795.8409      4.5623     72.2865
   539.2500      0.0000    795.2376      4.5942     69.5591
   539.5000      0.0000    796.9547      4.6228     67.9589
   539.7500      0.0000    798.4158      4.6403     67.7403
   540.0000      0.0000    796.5217      4.6461     68.9589
   540.2500      0.0000    789.8765      4.6457     71.2667
   540.5000      0.0000    779.2920      4.6456     74.3198
   540.7500      0.0000    766.7929      4.6472     78.3527
   541.0000      0.0000    754.5601      4.6489     83.8274
   541.2500      0.0000    744.4981      4.6519     90.3099
   541.5000      0.0000    737.7784      4.6632     96.0821
   541.7500      0.0000    734.0928      4.6885     99.3551
   542.0000      0.0000    731.7425      4.7270     99.8354
   542.2500      0.0000    729.0913      4.7718     98.7864
   542.5000      0.0000    725.9168      4.8132     97.4770
   542.7500      0.0000    723.2584      4.8432     95.8967
   543.0000      0.0000    722.4030      4.8594     93.1004
   543.2500      0.0000    724.2632      4.8676     88.6053
   543.5000      0.0000    729.1356      4.8766     83.2563
   543.7500      0.0000    736.2725      4.8914     78.7617
   544.0000      0.0000    743.5755      4.9106     76.4660
   544.2500      0.0000    748.2322      4.9312     76.5266
   544.5000      0.0000    748.2402      4.9527     78.1455
   544.7500      0.0000    743.6664      4.9770     80.4304
   545.0000      0.0000    736.5956      5.0054     83.0476
   545.2500      0.0000    729.7587      5.0370     86.1670
   545.5000      0.0000    724.9380      5.0685     89.9407
   545.7500      0.0000    722.3944      5.0979     94.1518
   546.0000      0.0000    721.4496      5.1247     98.1358
   546.2500      0.0000    721.3510      5.1503    100.8060
   546.5000      0.0000    721.7081      5.1776    101.0143
   546.7500      0.0000    722.5195      5.2108     98.2945
   547.0000      0.0000    723.9687      5.2530     93.3029
   547.2500      0.0000    725.9957      5.2984     87.5225
   547.5000      0.0000    727.8995      5.3312     82.5367
   547.7500      0.0000    728.6001      5.3366     79.3759
   548.0000      0.0000    727.6179      5.3161     78.1349
   548.2500      0.0000    725.7020      5.2875     78.1607
   548.5000      0.0000    724.2978      5.2687     78.8731
   548.7500      0.0000    724.4208      5.2637     80.3298
   549.0000      0.0000    725.9025      5.2651     82.7771
   549.2500      0.0000    727.3278      5.2657     85.8785
   549.5000      0.0000    726.8557      5.2682     88.6979
   549.7500      0.0000    723.7380      5.2845     90.3812
   550.0000      0.0000    719.2883      5.3258     90.7814
   550.2500      0.0000    716.0747      5.3901     90.5347
   550.5000      0.0000    715.8893      5.4595     90.4863
   550.7500      0.0000    718.4041      5.5155     90.9449
   551.0000      0.0000    721.7529      5.5549     91.5681
   551.2500      0.0000    724.5074      5.5880     91.9661
   551.5000      0.0000    727.0877      5.6219     92.2287
   551.7500      0.0000    731.0795      5.6494     92.8351
   552.0000      0.0000    737.1789      5.6548     94.1781
   552.2500      0.0000    743.9330      5.6293     96.0828
   552.5000      0.0000    748.4993      5.5814     97.6215
   552.7500      0.0000    748.6241      5.5316     97.6847
   553.0000      0.0000    744.1724      5.4986     96.0240
   553.2500      0.0000    737.1187      5.4894     93.4833
   553.5000      0.0000    730.1401      5.4986     91.1203
   553.7500      0.0000    724.8914      5.5151     89.5379
   554.0000      0.0000    721.1744      5.5286     89.0675
   554.2500      0.0000    717.2206      5.5315     89.9060
   554.5000      0.0000    710.6532      5.5159     91.8047
   554.7500      0.0000    700.1942      5.4697     94.1000
   555.0000      0.0000    687.7905      5.3795     96.2422
   555.2500      0.0000    679.1365      5.2397     98.0271
   555.5000      0.0000    680.5464      5.0610     99.5022
   555.7500      0.0000    694.0053      4.8722    101.1126
   556.0000      0.0000    715.3448      4.7158    103.5024
   556.2500      0.0000    738.0173      4.6294    106.3078
   556.5000      0.0000    759.1653      4.6219    107.6511
   556.7500      0.0000    781.5708      4.6727    105.9308
   557.0000     -2.0000    808.7065      4.7513    101.8152
   557.2500      0.0000    837.4730      4.8354     97.6151
   557.5000      0.0000    856.5396      4.9190     94.9821
   557.7500      0.0000    853.4225      5.0246     93.6430
   558.0000      0.0000    824.8821      5.2033     91.8199
   558.2500      0.0000    780.8611      5.4999     87.6193
   558.5000      0.0000    737.5942      5.8980     80.6449
   558.7500      0.0000    706.5548      6.3103     72.4768
   559.0000      0.0000    689.5736      6.6369     65.2910
   559.2500      0.0000    682.3124      6.8315     60.1722
   559.5000      0.0000    679.8495      6.9138     56.9746
   559.7500      0.0000    679.2596      6.9303     55.3141
   560.0000      0.0000    679.3444      6.9159     55.0722
   560.2500      0.0000    679.6913      6.8855     56.0922
   560.5000      0.0000    680.1293      6.8427     57.9860
   560.7500      0.0000    680.5358      6.7874     60.3962
   561.0000      0.0000    680.8210      6.7188     63.2615
   561.2500      0.0000    680.9470      6.6375     66.7419
