~Version Information
VERS.                      2.0: CWLS Log ASCII Standard - VERSION 2.0
WRAP.                       NO: One line per depth step
~Well Information Block
STRT.FT                -6.7500: 
STOP.FT              1121.2500: 
STEP.FT                 0.2500: 
NULL.                -999.2500: 
COMP.          Pioneer Natural Resources: COMPANY
WELL.              Draco 31-21: WELL
FLD.           Purgatorie River: FIELD
LOC.           491' FNL & 2446' FEL--: LOCATION
CNTY.               Las Animas: COUNTY
SRVC.          Patterson Wireline: SERVICE COMPANY
DATE.          Mon Feb 06 09:50:04 2006: LOG DATE
UWI.           05 071 08672 00: UNIQUE WELL ID
STAT.                       CO: STATE
~Curve Information Block
DEPT.FT            0 000 00 00: Depth
CCL.                          : Casing Collar Locator
TT3.usec                      : CBL 3' Travel Time
AMP3.mV                       : CBL 3' Amplitude
GR.GAPI                       : Gamma Ray
~Parameter Information Block
~A  Depth       CCL         TT3         AMP3         GR     
# ...
   964.7500      0.0000    705.5668      3.9661     58.3622
   965.0000      2.0000    713.7604      4.0725     56.4352
   965.2500      0.0000    726.7316      4.2119     54.2357
   965.5000      0.0000    739.5534      4.3559     54.0983
   965.7500      0.0000    743.1971      4.5083     57.1811
   966.0000      0.0000    733.7661      4.6808     62.8212
   966.2500      0.0000    715.5070      4.8606     69.3747
   966.5000      0.0000    696.6121      4.9970     75.2593
   966.7500      0.0000    683.1875      5.0438     79.2932
   967.0000      0.0000    676.4767      5.0183     80.7862
   967.2500      0.0000    674.2913      4.9924     79.7947
   967.5000      0.0000    673.9720      5.0212     77.1573
   967.7500      0.0000    673.9671      5.0989     74.0289
   968.0000      0.0000    673.7922      5.1801     71.1679
   968.2500      0.0000    673.4409      5.2263     68.4767
   968.5000      0.0000    673.0482      5.2296     65.3422
   968.7500      0.0000    672.7656      5.2056     61.6156
   969.0000      0.0000    672.6907      5.1755     58.0978
   969.2500      0.0000    672.7955      5.1549     55.8314
   969.5000      0.0000    672.9355      5.1518     55.1366
   969.7500      0.0000    672.9709      5.1657     55.6772
   970.0000      0.0000    672.8762      5.1863     57.2350
   970.2500      0.0000    672.7241      5.2015     59.8626
   970.5000      0.0000    672.5847      5.2046     63.2159
   970.7500      0.0000    672.4675      5.1932     66.3070
   971.0000      0.0000    672.3472      5.1616     68.2509
   971.2500      0.0000    672.2228      5.1007     68.9798
   971.5000      0.0000    672.1457      5.0031     69.1160
   971.7500      0.0000    672.1777      4.8632     69.4815
   972.0000      0.0000    672.2921      4.6710     70.6882
   972.2500      0.0000    672.3632      4.4127     72.7057
   972.5000      0.0000    672.3637      4.0860     74.6938
   972.7500      0.0000    672.6968      3.7147     75.5473
   973.0000      0.0000    674.3976      3.3422     74.6810
   973.2500      0.0000    678.9265      3.0091     72.1045
   973.5000      0.0000    687.4713      2.7373     67.8685
   973.7500      0.0000    699.9459      2.5326     61.9950
   974.0000      0.0000    714.1547      2.3914     55.2370
   974.2500      0.0000    725.9279      2.3026     49.5673
   974.5000      0.0000    731.0057      2.2511     47.3917
   974.7500      0.0000    727.8598      2.2251     50.1734
   975.0000      0.0000    718.7816      2.2261     57.8583
   975.2500      0.0000    707.8629      2.2702     69.1735
   975.5000      0.0000    698.0812      2.3824     81.8832
   975.7500      0.0000    690.3022      2.5843     92.9878
   976.0000      0.0000    684.1372      2.8841     99.7389
   976.2500      0.0000    678.9741      3.2704    101.2314
   976.5000      0.0000    674.2811      3.7080     99.0563
   976.7500      0.0000    669.4933      4.1407     96.1897
   977.0000      0.0000    664.1708      4.5095     95.0701
   977.2500      0.0000    658.6051      4.7815     96.4510
   977.5000      0.0000    654.0925      4.9618     99.4121
   977.7500      0.0000    652.2038      5.0798    102.0015
   978.0000      0.0000    653.5976      5.1669    102.2665
   978.2500      0.0000    657.5154      5.2439     99.4911
   978.5000      0.0000    662.5001      5.3214     94.7189
   978.7500      0.0000    667.7770      5.4025     89.9016
   979.0000      0.0000    673.9263      5.4841     86.4753
   979.2500      0.0000    681.7798      5.5591     84.8465
   979.5000      0.0000    690.3665      5.6209     85.2521
   979.7500      0.0000    696.4131      5.6685     88.6957
   980.0000      0.0000    696.7718      5.7075     96.3227
   980.2500      0.0000    691.4729      5.7446    107.5070
   980.5000      0.0000    683.7570      5.7810    119.1208
   980.7500      0.0000    677.1603      5.8112    127.4431
   981.0000      0.0000    673.1522      5.8314    130.8355
   981.2500      0.0000    671.3011      5.8452    130.4291
   981.5000      0.0000    670.6354      5.8604    128.5328
   981.7500      0.0000    670.4556      5.8796    126.5406
   982.0000      0.0000    670.3908      5.8977    124.0688
   982.2500      0.0000    670.2673      5.9106    119.7867
   982.5000      0.0000    670.0472      5.9212    112.8286
   982.7500      0.0000    669.7808      5.9357    103.4180
   983.0000      0.0000    669.5397      5.9560     92.7527
   983.2500      0.0000    669.4407      5.9773     82.7629
   983.5000      0.0000    669.8348      5.9933     75.4979
   983.7500      0.0000    671.5855      6.0035     71.8967
   984.0000      0.0000    676.0532      6.0156     71.0929
   984.2500      0.0000    684.2430      6.0407     71.2561
   984.5000      0.0000    695.1978      6.0819     71.0911
   984.7500      0.0000    705.1877      6.1258     70.3623
   985.0000      0.0000    709.4797      6.1492     69.2651
   985.2500      0.0000    705.8603      6.1351     67.7570
   985.5000      0.0000    696.4589      6.0832     65.5192
   985.7500      0.0000    685.8737      6.0050     62.3581
   986.0000      0.0000    677.7067      5.9142     58.7391
   986.2500      0.0000    672.9769      5.8237     55.9132
   986.5000      0.0000    671.1537      5.7472     55.0883
   986.7500      0.0000    671.9468      5.6957     56.2095
   987.0000      0.0000    676.0179      5.6661     57.8228
   987.2500      0.0000    684.0864      5.6343     58.4439
   987.5000      0.0000    695.0826      5.5639     58.0267
   987.7500      0.0000    705.2567      5.4247     57.8881
   988.0000      0.0000    710.0702      5.2038     59.3339
   988.2500      0.0000    707.8845      4.9067     62.6812
   988.5000      0.0000    701.6758      4.5516     67.4840
   988.7500      0.0000    696.7052      4.1659     73.0592
   989.0000      0.0000    696.7538      3.7850     78.4694
   989.2500      0.0000    702.6542      3.4518     82.4416
   989.5000      0.0000    712.9682      3.2035     83.9903
   989.7500      0.0000    724.2881      3.0543     83.3535
   990.0000      0.0000    731.4865      2.9900     82.2017
   990.2500      0.0000    730.2729      2.9843     82.6400
   990.5000      0.0000    720.7784      3.0186     85.6969
   990.7500      0.0000    707.6349      3.0904     90.7775
   991.0000      0.0000    695.8902      3.2084     96.6640
   991.2500      0.0000    687.6158      3.3835    102.6803
   991.5000      0.0000    682.4348      3.6180    108.5113
   991.7500      0.0000    679.6819      3.8975    113.2102
   992.0000      0.0000    678.9455      4.2000    115.0192
   992.2500      0.0000    679.2737      4.5124    112.7208
   992.5000      0.0000    679.0939      4.8310    107.4032
   992.7500      0.0000    677.3392      5.1464    102.4524
   993.0000      0.0000    674.4395      5.4387    100.9618
   993.2500      0.0000    671.7680      5.6920    102.9513
   993.5000      0.0000    669.9561      5.9060    105.5448
   993.7500      0.0000    668.2078      6.0906    105.8474
   994.0000      0.0000    665.5681      6.2511    103.3467
   994.2500      0.0000    662.3380      6.3780     99.6673
   994.5000      0.0000    659.8513      6.4566     96.4878
   994.7500      0.0000    659.3566      6.4918     93.9840
   995.0000      0.0000    661.4738      6.5182     91.3241
   995.2500      0.0000    666.1602      6.5733     88.2689
   995.5000      0.0000    672.2664      6.6636     85.7818
   995.7500      0.0000    677.0538      6.7671     85.0215
   996.0000      0.0000    676.7581      6.8718     86.0167
   996.2500      0.0000    668.4924      7.0005     87.5534
   996.5000      0.0000    652.2936      7.1962     88.3013
   996.7500      0.0000    631.1334      7.4834     87.8521
   997.0000      0.0000    607.5239      7.8517     86.5387
   997.2500      0.0000    579.8322      8.2740     84.5068
   997.5000      0.0000    544.3036      8.7310     81.4267
   997.7500      0.0000    501.7032      9.2070     77.1979
   998.0000      0.0000    459.0723      9.6710     72.5870
