~Version Information
VERS.                      2.0: CWLS Log ASCII Standard - VERSION 2.0
WRAP.                       NO: One line per depth step
~Well Information Block
STRT.FT               625.0000: 
STOP.FT              2053.7000: 
STEP.FT                 0.1000: 
NULL.                -999.2500: 
COMP.          Pioneer Natural Resources: COMPANY
WELL.            Zink 44-10 Tr: WELL
FLD.           Purgatoire River: FIELD
LOC.           486' FSL & 554' FEL--: LOCATION
PROV.                 Colorado: PROVINCE
CNTY.               Las Animas: COUNTRY
SRVC.                Patterson: SERVICE COMPANY
DATE.          Sun Jul 24 08:46:57 2005: LOG DATE
UWI.           05 071 08446 00: UNIQUE WELL ID
~Curve Information Block
DEPT.FT            0 000 00 00: Depth
DCAL.in                       : CDL Caliper
RHOB.g/cc                     : CDL Bulk Density
RHOC.g/cc                     : CDL Density Correction
DPOR.pu                       : CDL Density Porosity
NPOR.pu                       : Neutron Porosity
GR.GAPI                       : Gamma Ray
~Parameter Information Block
~A  Depth       DCAL        RHOB        RHOC        DPOR        NPOR         GR     
# ...
   721.0000      8.1291      2.6383      0.2699      0.7098     27.4512    123.4428
   721.1000      8.1291      2.6372      0.2498      0.7775     27.1444    121.1056
   721.2000      8.1291      2.6160      0.1843      2.0607     27.4869    115.4973
   721.3000      8.1578      2.6081      0.1345      2.5376     28.0617    108.4677
   721.4000      8.1578      2.6319      0.1491      1.0944     28.2263    105.5225
   721.5000      8.1619      2.6738      0.2055     -1.4408     27.9227    109.1740
   721.6000      8.1619      2.7048      0.1922     -3.3198     27.6351    114.2404
   721.7000      8.1619      2.7083      0.1513     -3.5360     27.7101    115.8326
   721.8000      8.1543      2.6940      0.1146     -2.6641     28.4061    113.5497
   721.9000      8.1543      2.6830      0.1136     -1.9999     29.7239    107.9130
   722.0000      8.1483      2.6772      0.1031     -1.6512     30.9331    101.9217
   722.1000      8.1483      2.6588      0.0845     -0.5336     31.4915    100.4388
   722.2000      8.1483      2.6257      0.0542      1.4698     31.5861    102.8135
   722.3000      8.1493      2.6002      0.0396      3.0174     31.4697    104.6551
   722.4000      8.1493      2.5965      0.0373      3.2429     31.3909    104.6572
   722.5000      8.1582      2.6096      0.0101      2.4456     31.4392    104.5346
   722.6000      8.1582      2.6191      0.0451      1.8709     31.3762    106.7983
   722.7000      8.1582      2.6054     -0.0134      2.7001     30.9861    110.0468
   722.8000      8.1753      2.5745      0.0064      4.5733     30.1117    112.3125
   722.9000      8.1753      2.5335      0.0238      7.0617     29.0362    117.0256
   723.0000      8.1948      2.4843     -0.0160     10.0401     28.2224    123.2682
   723.1000      8.1948      2.4530     -0.0702     11.9398     27.4954    123.9856
   723.2000      8.1948      2.4659     -0.0087     11.1593     26.6607    117.1560
   723.3000      8.2140      2.5098      0.0336      8.4981     26.0027    108.8483
   723.4000      8.2140      2.5486      0.0903      6.1435     25.5989    106.4787
   723.5000      8.2223      2.5681      0.0312      4.9618     25.4228    110.8358
   723.6000      8.2223      2.5749      0.0996      4.5528     25.3989    116.0160
   723.7000      8.2223      2.5639      0.1270      5.2202     25.2038    119.2100
   723.8000      8.2089      2.5392      0.0435      6.7169     24.6889    124.4091
   723.9000      8.2089      2.5221      0.0703      7.7508     23.9392    130.4632
   724.0000      8.1926      2.5149      0.0572      8.1908     23.2201    131.3143
   724.1000      8.1926      2.5043      0.0766      8.8279     22.8858    127.4142
   724.2000      8.1926      2.4809      0.1061     10.2510     22.9776    123.1744
   724.3000      8.1899      2.4464      0.0608     12.3386     23.2140    119.5372
   724.4000      8.1899      2.4193      0.0234     13.9842     23.4251    115.2337
   724.5000      8.2120      2.4182      0.0075     14.0508     23.6571    114.0259
   724.6000      8.2120      2.4402      0.0635     12.7135     23.7945    117.5907
   724.7000      8.2120      2.4603      0.1289     11.4951     23.5540    120.0189
   724.8000      8.2405      2.4612      0.1473     11.4432     23.1066    121.8756
   724.9000      8.2405      2.4581      0.0738     11.6330     22.7750    126.3407
   725.0000      8.2380      2.4759      0.0884     10.5492     22.5927    126.8174
   725.1000      8.2380      2.5054      0.1507      8.7659     22.5963    123.3157
   725.2000      8.2380      2.5107      0.1868      8.4445     22.7455    124.7034
   725.3000      8.2246      2.4868      0.1331      9.8938     22.9454    126.5224
   725.4000      8.2246      2.4677      0.1387     11.0477     23.2126    122.3726
   725.5000      8.2227      2.4728      0.1979     10.7400     23.3993    117.9684
   725.6000      8.2227      2.4902      0.1832      9.6870     23.3900    117.5930
   725.7000      8.2227      2.5055      0.2147      8.7604     23.2906    118.2079
   725.8000      8.2393      2.5065      0.1948      8.6988     23.0588    118.3348
   725.9000      8.2393      2.4795      0.1553     10.3346     22.8666    121.0643
   726.0000      8.2794      2.4273      0.0768     13.4997     23.0351    126.0093
   726.1000      8.2794      2.3815      0.0380     16.2714     23.4928    129.5415
   726.2000      8.2794      2.3798      0.0396     16.3752     24.1106    130.1538
   726.3000      8.3185      2.4350      0.0958     13.0332     24.8268    128.4377
   726.4000      8.3185      2.5246      0.2182      7.5994     25.2522    126.9861
   726.5000      8.2947      2.6009      0.2346      2.9764     25.1865    126.5845
   726.6000      8.2947      2.6229      0.2606      1.6418     24.9327    125.9586
   726.7000      8.2947      2.5892      0.2121      3.6829     24.7646    127.3390
   726.8000      8.2116      2.5339      0.1990      7.0378     24.6926    134.4205
   726.9000      8.2116      2.4992      0.1483      9.1389     24.5233    141.9659
   727.0000      8.1473      2.5113      0.1771      8.4090     24.3403    140.0679
   727.1000      8.1473      2.5522      0.2392      5.9271     24.5291    132.5974
   727.2000      8.1473      2.5786      0.2382      4.3269     25.0158    130.7219
   727.3000      8.1234      2.5759      0.1639      4.4922     25.2902    132.8064
   727.4000      8.1234      2.5643      0.1667      5.1923     25.2345    133.6912
   727.5000      8.1188      2.5670      0.1742      5.0280     25.0760    136.0405
   727.6000      8.1188      2.5880      0.2075      3.7556     24.7351    140.4383
   727.7000      8.1188      2.6172      0.2089      1.9888     24.4248    142.8935
   727.8000      8.1183      2.6492      0.2555      0.0472     24.8124    141.8271
   727.9000      8.1183      2.6834      0.2546     -2.0229     25.7132    137.8503
   728.0000      8.1177      2.7052      0.2677     -3.3442     26.3872    132.8723
   728.1000      8.1177      2.6928      0.1623     -2.5924     26.7375    128.5043
   728.2000      8.1177      2.6481      0.0872      0.1153     26.8562    124.1100
   728.3000      8.1198      2.5967      0.0357      3.2328     26.7910    121.7040
   728.4000      8.1198      2.5624      0.0245      5.3092     26.7165    123.9208
   728.5000      8.1270      2.5520      0.0086      5.9378     26.7661    127.5474
   728.6000      8.1270      2.5567      0.0160      5.6559     27.1154    128.4245
   728.7000      8.1270      2.5628      0.0467      5.2855     27.6616    127.6004
   728.8000      8.1330      2.5643      0.0287      5.1941     28.2239    127.2277
   728.9000      8.1330      2.5658      0.0208      5.1031     28.9530    130.0209
   729.0000      8.1281      2.5692      0.0347      4.8956     29.6667    136.2511
   729.1000      8.1281      2.5687      0.0494      4.9294     30.1891    138.9378
   729.2000      8.1281      2.5643      0.0328      5.1967     30.7580    135.8722
   729.3000      8.1161      2.5658      0.0272      5.1054     31.0266    132.0875
   729.4000      8.1161      2.5769      0.0459      4.4293     30.3814    127.4758
   729.5000      8.1095      2.5893      0.0586      3.6797     29.4865    123.4554
   729.6000      8.1095      2.5957      0.0599      3.2918     29.3027    124.9235
   729.7000      8.1095      2.5964      0.0741      3.2506     29.3654    131.5043
   729.8000      8.1106      2.5870      0.0765      3.8189     28.8407    138.5397
   729.9000      8.1106      2.5611      0.0279      5.3894     28.0568    142.0080
   730.0000      8.1156      2.5313     -0.0038      7.1932     27.7200    142.8261
   730.1000      8.1156      2.5238     -0.0119      7.6455     27.5908    142.8866
   730.2000      8.1156      2.5467      0.0214      6.2636     26.9418    138.7027
   730.3000      8.1189      2.5788      0.0053      4.3137     26.0714    133.0911
   730.4000      8.1189      2.5966      0.0769      3.2336     25.9301    131.9717
   730.5000      8.1195      2.6009      0.0154      2.9744     26.2486    131.8893
