~Version Information
VERS.                      2.0: CWLS Log ASCII Standard - VERSION 2.0
WRAP.                       NO: One line per depth step
~Well Information Block
STRT.FT               370.0000: 
STOP.FT              2831.7500: 
STEP.FT                 0.2500: 
NULL.                -999.2500: 
COMP.          Pioneer Natural Resources: COMPANY
WELL.          Black Cat 13-32: WELL
FLD.           Purgatoire River: FIELD
LOC.           1865' FSL & 1120' FWL--: LOCATION
PROV.                 Colorado: PROVINCE
CNTY.               Las Animas: COUNTRY
SRVC.                Patterson: SERVICE COMPANY
DATE.          Sun Jul 31 08:49:16 2005: LOG DATE
UWI.           05 071 08450 00: UNIQUE WELL ID
~Curve Information Block
DEPT.FT            0 000 00 00: Depth
DIR.Ohm-m                     : IEL Induction Resistivity
SN.Ohm-m                      : IEL Short Normal
SP.mV                         : IEL Spontaneous Potential
GR.GAPI                       : Gamma Ray
~Parameter Information Block
~A  Depth       DIR          SN          SP          GR     
# ...
  1877.5000     17.0661     20.9278    186.6957    119.9000
  1877.7500     17.3748     20.9648    186.2354    123.4178
  1878.0000     17.6744     20.8304    185.7358    130.2800
  1878.2500     17.9344     20.6435    185.2186    132.6955
  1878.5000     18.1361     20.5768    184.6960    130.7020
  1878.7500     18.2812     20.7895    184.1689    126.9599
  1879.0000     18.3878     21.3491    183.6274    122.0186
  1879.2500     18.4778     22.1941    183.0538    121.0229
  1879.5000     18.5646     23.1631    182.4294    123.7745
  1879.7500     18.6496     24.0736    181.7410    127.7139
  1880.0000     18.7299     24.8035    180.9881    134.2128
  1880.2500     18.8097     25.3311    180.1876    137.2336
  1880.5000     18.9061     25.7181    179.3744    137.7224
  1880.7500     19.0448     26.0615    178.5979    134.8961
  1881.0000     19.2471     26.4471    177.9149    126.2726
  1881.2500     19.5176     26.9250    177.3789    118.5106
  1881.5000     19.8385     27.5001    177.0301    106.5790
  1881.7500     20.1732     28.1284    176.8869    100.0946
  1882.0000     20.4779     28.7245    176.9410     93.8467
  1882.2500     20.7175     29.1956    177.1583     91.5040
  1882.5000     20.8769     29.4924    177.4837     89.0837
  1882.7500     20.9641     29.6382    177.8504     87.9538
  1883.0000     21.0046     29.7065    178.1902     88.7036
  1883.2500     21.0312     29.7625    178.4435     92.2913
  1883.5000     21.0739     29.8188    178.5666    102.9715
  1883.7500     21.1527     29.8414    178.5354    112.1446
  1884.0000     21.2765     29.7944    178.3460    124.1877
  1884.2500     21.4510     29.6934    178.0115    128.5780
  1884.5000     21.6936     29.6373    177.5572    128.6923
  1884.7500     22.0458     29.8046    177.0150    125.5910
  1885.0000     22.5715     30.4118    176.4179    118.1981
  1885.2500     23.3407     31.6440    175.7962    111.8656
  1885.5000     24.4053     33.5726    175.1746    101.2499
  1885.7500     25.7804     36.0975    174.5713     94.9614
  1886.0000     27.4341     38.9600    173.9979     89.6319
  1886.2500     29.2889     41.8390    173.4599     89.3352
  1886.5000     31.2290     44.4743    172.9577     91.9188
  1886.7500     33.1101     46.7335    172.4872     93.7525
  1887.0000     34.7727     48.6020    172.0399     94.1182
  1887.2500     36.0693     50.1374    171.6047     92.4993
  1887.5000     36.9105     51.4337    171.1689     88.6053
  1887.7500     37.3149     52.6015    170.7222     85.8610
  1888.0000     37.4174     53.7456    170.2596     81.8023
  1888.2500     37.4157     54.9306    169.7867     79.1520
  1888.5000     37.4886     56.1449    169.3223     76.2744
  1888.7500     37.7391     57.2835    168.9009     75.7855
  1889.0000     38.1807     58.1667    168.5713     76.7913
  1889.2500     38.7511     58.5921    168.3933     77.5578
  1889.5000     39.3306     58.3918    168.4309     77.5812
  1889.7500     39.7572     57.4672    168.7435     76.9586
  1890.0000     39.8437     55.8026    169.3771     75.7739
  1890.2500     39.4172     53.4743    170.3551     74.9410
  1890.5000     38.3768     50.6538    171.6725     73.4824
  1890.7500     36.7399     47.5734    173.2940     72.4438
  1891.0000     34.6388     44.4520    175.1563     71.3847
  1891.2500     32.2680     41.4297    177.1758     71.4436
  1891.5000     29.8231     38.5622    179.2594     73.1522
  1891.7500     27.4643     35.8582    181.3160     75.3528
  1892.0000     25.3045     33.3115    183.2674     80.1492
  1892.2500     23.4089     30.9114    185.0566     84.8165
  1892.5000     21.7998     28.6509    186.6512     95.7417
  1892.7500     20.4667     26.5413    188.0439    105.9706
  1893.0000     19.3822     24.6203    189.2486    122.9493
  1893.2500     18.5169     22.9390    190.2955    132.3682
  1893.5000     17.8468     21.5346    191.2236    139.9341
  1893.7500     17.3506     20.4097    192.0740    140.5458
  1894.0000     17.0000     19.5285    192.8827    137.3396
  1894.2500     16.7493     18.8325    193.6759    134.1585
  1894.5000     16.5376     18.2641    194.4657    129.7914
  1894.7500     16.3036     17.7891    195.2487    127.6703
  1895.0000     16.0070     17.4070    196.0071    125.5638
  1895.2500     15.6416     17.1442    196.7121    124.4257
  1895.5000     15.2310     17.0266    197.3283    122.8130
  1895.7500     14.8127     17.0466    197.8200    122.4495
  1896.0000     14.4225     17.1500    198.1569    124.8434
  1896.2500     14.0880     17.2595    198.3188    129.0834
  1896.5000     13.8296     17.3160    198.2994    139.4027
  1896.7500     13.6633     17.2993    198.1077    148.4640
  1897.0000     13.5999     17.2137    197.7682    163.4248
  1897.2500     13.6407     17.0623    197.3189    172.2178
  1897.5000     13.7744     16.8391    196.8083    179.3669
  1897.7500     13.9801     16.5478    196.2903    178.5534
  1898.0000     14.2355     16.2266    195.8181    169.5102
  1898.2500     14.5228     15.9574    195.4382    160.0132
  1898.5000     14.8249     15.8416    195.1843    143.8611
  1898.7500     15.1146     15.9520    195.0725    133.2789
  1899.0000     15.3457     16.2869    195.0997    119.9807
  1899.2500     15.4566     16.7528    195.2442    114.3771
  1899.5000     15.3890     17.1925    195.4699    112.8862
  1899.7500     15.1117     17.4474    195.7327    116.4394
  1900.0000     14.6380     17.4192    195.9876    125.9592
  1900.2500     14.0248     17.0989    196.1955    132.9206
  1900.5000     13.3537     16.5544    196.3291    142.0141
  1900.7500     12.7066     15.8917    196.3752    147.4031
  1901.0000     12.1464     15.2125    196.3361    155.7848
  1901.2500     11.7090     14.5795    196.2271    161.2191
  1901.5000     11.4039     13.9981    196.0747    166.5120
  1901.7500     11.2198     13.4219    195.9122    167.0415
  1902.0000     11.1308     12.7868    195.7763    164.1022
  1902.2500     11.1045     12.0633    195.7032    160.8071
  1902.5000     11.1117     11.2962    195.7248    154.6802
  1902.7500     11.1354     10.6055    195.8653    149.5057
  1903.0000     11.1733     10.1485    196.1385    139.9337
  1903.2500     11.2334     10.0607    196.5452    133.1149
  1903.5000     11.3218     10.3952    197.0732    124.7847
  1903.7500     11.4332     11.0825    197.6976    121.9712
  1904.0000     11.5469     11.9434    198.3833    122.8808
  1904.2500     11.6320     12.7580    199.0885    126.2682
  1904.5000     11.6582     13.3577    199.7680    132.9937
  1904.7500     11.6080     13.6824    200.3777    137.0478
  1905.0000     11.4848     13.7758    200.8782    141.1512
  1905.2500     11.3128     13.7369    201.2375    142.9134
  1905.5000     11.1295     13.6631    201.4339    145.9673
  1905.7500     10.9737     13.6178    201.4568    149.1796
  1906.0000     10.8749     13.6251    201.3071    155.4641
  1906.2500     10.8480     13.6803    200.9957    159.3847
  1906.5000     10.8934     13.7645    200.5425    162.5912
  1906.7500     11.0022     13.8567    199.9746    162.6001
  1907.0000     11.1631     13.9408    199.3243    160.7611
  1907.2500     11.3687     14.0097    198.6275    159.4624
  1907.5000     11.6164     14.0650    197.9221    158.6695
  1907.7500     11.9068     14.1178    197.2462    158.7740
  1908.0000     12.2395     14.1903    196.6354    157.8988
  1908.2500     12.6094     14.3141    196.1210    155.0271
  1908.5000     13.0043     14.5180    195.7271    146.1995
  1908.7500     13.4012     14.8035    195.4692    138.4880
  1909.0000     13.7627     15.1254    195.3530    127.9798
  1909.2500     14.0345     15.3971    195.3740    123.3224
  1909.5000     14.1517     15.5203    195.5191    120.3170
  1909.7500     14.0580     15.4222    195.7672    120.4459
  1910.0000     13.7327     15.0786    196.0916    122.9642
  1910.2500     13.2068     14.5179    196.4610    125.7213
  1910.5000     12.5535     13.8083    196.8421    130.3952
  1910.7500     11.8599     13.0336    197.2007    133.2612
