~Version Information
VERS.                      2.0: CWLS Log ASCII Standard - VERSION 2.0
WRAP.                       NO: One line per depth step
~Well Information Block
STRT.FT                -6.7500: 
STOP.FT              1466.2500: 
STEP.FT                 0.2500: 
NULL.                -999.2500: 
COMP.          Pioneer Natural Resources: COMPANY
WELL.          Pallet Ranch 34-15 Tr: WELL
FLD.           Purgatorie River: FIELD
LOC.           465' FSL & 2138' FEL--: LOCATION
PROV.                       CO: PROVINCE
CNTY.               Las Animas: COUNTRY
SRVC.          Patterson Wireline: SERVICE COMPANY
DATE.          Wed Jan 25 09:38:09 2006: LOG DATE
UWI.           05 071 08657 00: UNIQUE WELL ID
~Curve Information Block
DEPT.FT            0 000 00 00: Depth
CCL.                          : Casing Collar Locator
TT3.usec                      : CBL 3' Travel Time
AMP3.mV                       : CBL 3' Amplitude
GR.GAPI                       : Gamma Ray
~Parameter Information Block
~A  Depth       CCL         TT3         AMP3         GR     
# ...
  1232.7500      0.0000    678.1328     10.6169     98.3281
  1233.0000      0.0000    678.9647     10.2015     98.7288
  1233.2500      0.0000    678.2980      9.7408     98.0106
  1233.5000      0.0000    678.3371      9.2777     97.7221
  1233.7500      0.0000    679.8448      8.8517    100.2619
  1234.0000      0.0000    682.6094      8.4844    107.1090
  1234.2500      0.0000    685.3103      8.1792    117.6110
  1234.5000      0.0000    686.0494      7.9254    129.2701
  1234.7500      0.0000    684.7546      7.6908    139.4228
  1235.0000      0.0000    685.7088      7.4151    146.8608
  1235.2500      0.0000    696.4506      7.0420    151.6886
  1235.5000      0.0000    722.6428      6.5895    153.8248
  1235.7500      0.0000    763.3694      6.1821    152.5133
  1236.0000      0.0000    810.7396      5.9725    147.8246
  1236.2500      0.0000    853.2512      6.0156    141.9970
  1236.5000      0.0000    880.5195      6.2270    138.2198
  1236.7500     -2.0000    887.4030      6.4599    137.8187
  1237.0000      0.0000    875.4177      6.6099    139.1239
  1237.2500      0.0000    850.6838      6.6748    139.1790
  1237.5000      0.0000    820.3342      6.7500    136.1250
  1237.7500      0.0000    790.1125      6.9517    129.9819
  1238.0000      0.0000    763.7284      7.3074    122.0226
  1238.2500      0.0000    742.5209      7.7215    113.9778
  1238.5000      0.0000    725.4175      8.0689    107.4646
  1238.7500      0.0000    710.6182      8.3066    103.5842
  1239.0000      0.0000    697.8136      8.4773    102.8039
  1239.2500      0.0000    688.2869      8.6344    105.1099
  1239.5000      0.0000    683.0891      8.7904    110.1350
  1239.7500      0.0000    681.6747      8.9200    117.2938
  1240.0000      0.0000    682.0889      8.9855    125.9939
  1240.2500      0.0000    682.1593      8.9666    135.4245
  1240.5000      0.0000    680.8128      8.8821    144.0418
  1240.7500      0.0000    678.5355      8.7856    150.0085
  1241.0000      0.0000    676.5402      8.7342    152.7541
  1241.2500      0.0000    675.6053      8.7507    153.6754
  1241.5000      0.0000    675.6857      8.8131    154.7782
  1241.7500      0.0000    676.2798      8.8765    156.7978
  1242.0000      0.0000    676.9238      8.9081    158.9131
  1242.2500      0.0000    677.5098      8.9047    159.9092
  1242.5000      0.0000    678.4282      8.8841    158.9980
  1242.7500      0.0000    680.4235      8.8619    155.4787
  1243.0000      0.0000    683.7764      8.8374    148.5068
  1243.2500      0.0000    686.7769      8.8009    138.1868
  1243.5000      0.0000    684.5551      8.7479    126.7010
  1243.7500      0.0000    670.4747      8.6840    117.4546
  1244.0000      0.0000    641.6607      8.6183    112.8799
  1244.2500      0.0000    605.5914      8.5558    113.2221
  1244.5000      0.0000    579.4159      8.4952    117.0933
  1244.7500      0.0000    578.0167      8.4330    122.7631
  1245.0000      0.0000    601.2656      8.3667    129.0681
  1245.2500      0.0000    635.1389      8.2949    135.4859
  1245.5000      0.0000    664.8751      8.2135    141.7924
  1245.7500      0.0000    684.6641      8.1137    148.0093
  1246.0000      0.0000    696.4109      7.9898    154.5203
  1246.2500      0.0000    703.7858      7.8471    161.6619
  1246.5000      0.0000    708.8550      7.7048    168.9703
  1246.7500      0.0000    712.1965      7.5860    175.0190
  1247.0000      0.0000    714.0394      7.5049    178.0680
  1247.2500      0.0000    714.7831      7.4585    176.9476
  1247.5000      0.0000    714.8815      7.4333    171.8572
  1247.7500      0.0000    714.6588      7.4199    164.6296
  1248.0000      0.0000    714.3138      7.4174    157.7207
  1248.2500      0.0000    713.9668      7.4253    152.4859
  1248.5000      0.0000    713.6821      7.4372    148.7374
  1248.7500      0.0000    713.4900      7.4441    146.0840
  1249.0000      0.0000    713.3943      7.4432    145.0313
  1249.2500      0.0000    713.3669      7.4427    146.3551
  1249.5000      0.0000    713.3183      7.4596    149.9540
  1249.7500      0.0000    713.0718      7.5106    154.7779
  1250.0000      0.0000    712.3644      7.5997    159.4313
  1250.2500      0.0000    710.9302      7.7117    162.6560
  1250.5000      0.0000    708.7339      7.8182    163.8224
  1250.7500      0.0000    706.1316      7.8897    163.0596
  1251.0000      0.0000    703.5430      7.9055    160.5670
  1251.2500      0.0000    700.8690      7.8593    156.2717
  1251.5000      0.0000    697.7197      7.7620    150.6663
  1251.7500      0.0000    694.4662      7.6374    145.2094
  1252.0000      0.0000    692.4526      7.5103    141.1747
  1252.2500      0.0000    692.7492      7.3963    138.6574
  1252.5000      0.0000    695.0981      7.3023    137.2143
  1252.7500      0.0000    698.3051      7.2328    136.7686
  1253.0000      0.0000    701.1403      7.1925    137.4012
  1253.2500      0.0000    702.6057      7.1863    138.7604
  1253.5000      0.0000    701.7762      7.2195    140.0406
  1253.7500      0.0000    697.9938      7.2955    140.5395
  1254.0000      0.0000    691.5167      7.4074    140.2837
  1254.2500      0.0000    683.8455      7.5348    139.8983
  1254.5000      0.0000    677.2267      7.6513    139.4937
  1254.7500      0.0000    673.6553      7.7385    138.0709
  1255.0000      0.0000    673.6321      7.7911    134.7618
  1255.2500      0.0000    674.3937      7.8124    130.4227
  1255.5000      0.0000    669.4400      7.8072    127.1580
  1255.7500      0.0000    651.7759      7.7812    126.1631
  1256.0000      0.0000    618.9912      7.7451    126.5758
  1256.2500      0.0000    574.7205      7.7155    126.4630
  1256.5000      0.0000    525.5272      7.7042    124.4802
  1256.7500      0.0000    478.3329      7.7070    120.6235
  1257.0000      0.0000    440.4034      7.7043    116.0819
  1257.2500      0.0000    418.8668      7.6732    112.5766
  1257.5000      0.0000    419.0866      7.6012    111.1588
  1257.7500      0.0000    443.3962      7.4943    110.9750
  1258.0000      0.0000    489.2099      7.3767    109.3059
  1258.2500      0.0000    546.9700      7.2801    103.4087
  1258.5000      0.0000    602.3825      7.2267     92.8811
  1258.7500      0.0000    643.8309      7.2196     80.6073
  1259.0000      0.0000    668.4952      7.2477     71.3572
  1259.2500      0.0000    681.2099      7.2990     68.9091
  1259.5000      0.0000    688.3881      7.3654     73.8064
  1259.7500      0.0000    693.4688      7.4377     83.4511
  1260.0000      0.0000    696.8860      7.5009     94.2787
  1260.2500      0.0000    698.1416      7.5384    103.9717
  1260.5000      0.0000    696.9424      7.5389    111.8540
  1260.7500      0.0000    693.3893      7.5005    117.9556
  1261.0000      0.0000    688.2677      7.4300    122.6772
  1261.2500      0.0000    683.0579      7.3419    127.2167
  1261.5000      0.0000    679.1100      7.2570    133.0670
  1261.7500      0.0000    676.8945      7.1960    140.4042
  1262.0000      0.0000    676.1948      7.1692    147.4361
  1262.2500      0.0000    676.8514      7.1699    151.8598
  1262.5000      0.0000    679.1594      7.1799    152.8242
  1262.7500      0.0000    683.4781      7.1822    151.1749
  1263.0000      0.0000    689.3128      7.1719    148.1928
  1263.2500      0.0000    694.8282      7.1570    144.6411
  1263.5000      0.0000    697.7672      7.1513    140.6809
  1263.7500      0.0000    697.2606      7.1683    135.9706
  1264.0000      0.0000    694.5896      7.2185    129.9822
  1264.2500      0.0000    691.9745      7.3065    122.8414
  1264.5000      0.0000    690.8774      7.4280    115.7204
  1264.7500      0.0000    691.4681      7.5688    109.8071
  1265.0000      0.0000    692.8801      7.7104    104.8978
  1265.2500      0.0000    693.5313      7.8359     99.5181
  1265.5000      0.0000    692.0795      7.9326     92.5047
  1265.7500      0.0000    688.9011      7.9925     84.1929
  1266.0000      0.0000    686.3043      8.0139     76.1722
