~Version Information
VERS.                      2.0: CWLS Log ASCII Standard - VERSION 2.0
WRAP.                       NO: One line per depth step
~Well Information Block
STRT.FT               260.8000: 
STOP.FT              1942.0000: 
STEP.FT                 0.1000: 
NULL.                -999.2500: 
COMP.          XTO Energy Inc.: COMPANY
WELL.          Golden Eagle 19-11: WELL
FLD.           Purgatoire River: FIELD
LOC.           2351' FSL & 1926' FWL--: LOCATION
CNTY.               Las Animas: COUNTY
SRVC.                Patterson: SERVICE COMPANY
DATE.          Thu Mar 09 08:41:38 2006: LOG DATE
UWI.           05 071 08696 00: UNIQUE WELL ID
STAT.                 Colorado: STATE
~Curve Information Block
DEPT.FT            0 000 00 00: Depth
DCAL.in                       : CDL Caliper
RHOB.g/cc                     : CDL Bulk Density
RHOC.g/cc                     : CDL Density Correction
DPOR.pu                       : CDL Density Porosity
NPOR.pu                       : Neutron Porosity
GR.GAPI                       : Gamma Ray
~Parameter Information Block
~A  Depth       DCAL        RHOB        RHOC        DPOR        NPOR         GR     
# ...
   596.8000      8.0516      2.6007      0.1082      2.9890     20.3694    106.4456
   596.9000      8.0516      2.5981      0.0578      3.1438     20.7934    108.2652
   597.0000      8.0616      2.6042      0.0803      2.7746     21.0928    108.7100
   597.1000      8.0616      2.6184      0.1068      1.9155     21.4172    106.5380
   597.2000      8.0616      2.6156      0.1195      2.0867     22.1159    103.8696
   597.3000      8.0634      2.6061     -0.0054      2.6621     23.2184    101.2477
   597.4000      8.0634      2.6193      0.0361      1.8589     24.4081     94.8004
   597.5000      8.0614      2.6402      0.0608      0.5928     25.2320     87.0469
   597.6000      8.0614      2.6408     -0.0022      0.5561     25.7005     84.5102
   597.7000      8.0614      2.6258      0.0050      1.4637     26.3861     86.7914
   597.8000      8.0601      2.6117      0.0164      2.3210     27.2051     91.2329
   597.9000      8.0601      2.6087     -0.0122      2.5055     27.4982     96.9390
   598.0000      8.0603      2.6153      0.0158      2.1030     27.2693    101.3006
   598.1000      8.0603      2.6136      0.0394      2.2047     26.8486    104.0670
   598.2000      8.0603      2.5923      0.0321      3.4957     26.2724    107.9833
   598.3000      8.0588      2.5698     -0.0254      4.8594     25.6120    111.8407
   598.4000      8.0588      2.5655      0.0053      5.1240     25.0603    113.3236
   598.5000      8.0539      2.5691      0.0491      4.9041     24.7746    113.7396
   598.6000      8.0539      2.5696      0.0522      4.8751     24.8196    116.7864
   598.7000      8.0539      2.5733      0.0310      4.6486     24.9650    123.6110
   598.8000      8.0449      2.5793      0.0567      4.2867     24.8476    127.9138
   598.9000      8.0449      2.5816      0.0139      4.1456     24.5045    125.3739
   599.0000      8.0343      2.5861      0.0351      3.8706     24.3110    120.1184
   599.1000      8.0343      2.5843      0.1030      3.9820     24.1997    116.8248
   599.2000      8.0343      2.5580      0.0363      5.5764     23.9898    118.2910
   599.3000      8.0306      2.5272     -0.0197      7.4407     23.9335    124.6141
   599.4000      8.0306      2.5228      0.0181      7.7071     24.0879    132.0202
   599.5000      8.0381      2.5418     -0.0028      6.5574     24.0306    135.3138
   599.6000      8.0381      2.5631      0.0004      5.2690     23.6272    133.9869
   599.7000      8.0381      2.5646      0.0779      5.1781     23.0635    130.4266
   599.8000      8.0499      2.5469     -0.0307      6.2505     22.5155    125.0231
   599.9000      8.0499      2.5353     -0.0050      6.9544     22.0380    119.3517
   600.0000      8.0553      2.5414     -0.0160      6.5816     21.5372    115.8440
   600.1000      8.0553      2.5595      0.0076      5.4847     21.0968    114.9754
   600.2000      8.0553      2.5774      0.0135      4.4007     21.0524    114.2796
   600.3000      8.0563      2.5889     -0.0028      3.7014     21.3954    112.4530
   600.4000      8.0563      2.6000      0.0142      3.0311     21.8865    109.2270
   600.5000      8.0574      2.6122      0.0192      2.2904     22.5616    104.2148
   600.6000      8.0574      2.6161      0.0339      2.0534     23.3356     96.9151
   600.7000      8.0574      2.6084     -0.0101      2.5227     23.8103     89.8213
   600.8000      8.0547      2.5994      0.0078      3.0644     23.7417     87.4730
   600.9000      8.0547      2.5924     -0.0239      3.4922     23.2734     89.4939
   601.0000      8.0454      2.5836      0.0046      4.0248     22.8611     91.4933
   601.1000      8.0454      2.5763     -0.0025      4.4642     22.7117     92.7301
   601.2000      8.0454      2.5765     -0.0198      4.4536     22.8411     95.6914
   601.3000      8.0354      2.5857     -0.0275      3.8950     23.3940    100.7438
   601.4000      8.0354      2.6016     -0.0234      2.9305     23.9758    104.2749
   601.5000      8.0316      2.6132      0.0239      2.2305     24.1291    104.6317
   601.6000      8.0316      2.6070     -0.0113      2.6062     24.3036    103.1217
   601.7000      8.0316      2.5863      0.0020      3.8588     24.8258    101.0220
   601.8000      8.0326      2.5648     -0.0323      5.1631     24.9409     99.0616
   601.9000      8.0326      2.5494     -0.0173      6.0958     24.2976     97.1255
   602.0000      8.0360      2.5382     -0.0140      6.7733     23.7207     96.5213
   602.1000      8.0360      2.5305     -0.0027      7.2453     23.6016     98.7987
   602.2000      8.0360      2.5334     -0.0046      7.0652     23.6349    102.7312
   602.3000      8.0458      2.5534     -0.0246      5.8556     23.6439    107.8342
   602.4000      8.0458      2.5772      0.0485      4.4093     23.6041    114.6385
   602.5000      8.0638      2.5849      0.0569      3.9452     23.6327    119.5525
   602.6000      8.0638      2.5825      0.0283      4.0886     23.8169    118.6331
   602.7000      8.0638      2.5898      0.0629      3.6499     24.0688    115.1469
   602.8000      8.0820      2.6044      0.0763      2.7642     24.4294    116.1181
   602.9000      8.0820      2.6092      0.0697      2.4739     24.6447    121.6110
   603.0000      8.0957      2.5980      0.0702      3.1505     24.4907    125.0796
   603.1000      8.0957      2.5781      0.0618      4.3560     24.2948    123.4377
   603.2000      8.0957      2.5583      0.0942      5.5592     24.2301    118.3877
   603.3000      8.1072      2.5476      0.0202      6.2037     24.0618    114.1785
   603.4000      8.1072      2.5475      0.0795      6.2141     23.6023    117.8495
   603.5000      8.1140      2.5389      0.0575      6.7360     23.0016    128.0309
   603.6000      8.1140      2.5087      0.0628      8.5616     22.4523    135.0912
   603.7000      8.1140      2.4680      0.0165     11.0286     22.0597    135.3238
   603.8000      8.1155      2.4362      0.0103     12.9561     21.9168    132.7218
   603.9000      8.1155      2.4183     -0.0068     14.0398     21.9561    130.4783
   604.0000      8.1148      2.4101     -0.0135     14.5394     21.9286    129.9315
   604.1000      8.1148      2.4202     -0.0258     13.9292     21.8578    132.4086
   604.2000      8.1148      2.4549      0.0433     11.8216     22.0420    135.6784
   604.3000      8.1113      2.4927      0.1057      9.5321     22.5102    138.5281
   604.4000      8.1113      2.5084      0.0979      8.5814     22.9572    144.6940
   604.5000      8.1028      2.5041      0.0941      8.8449     23.2869    154.2269
   604.6000      8.1028      2.4939      0.1053      9.4583     23.5714    158.6530
   604.7000      8.1028      2.4890      0.0814      9.7548     23.7192    155.2043
   604.8000      8.0925      2.4949      0.0776      9.4024     23.6339    150.6212
   604.9000      8.0925      2.5070      0.0763      8.6652     23.3838    149.2040
   605.0000      8.0875      2.5151      0.0645      8.1764     23.0890    150.9043
   605.1000      8.0875      2.5179      0.0066      8.0059     22.8742    152.2273
   605.2000      8.0875      2.5235      0.0215      7.6649     22.8853    149.5967
   605.3000      8.0871      2.5318      0.0147      7.1649     23.1721    144.2709
   605.4000      8.0871      2.5383      0.0617      6.7670     23.4169    139.1544
   605.5000      8.0880      2.5512      0.0417      5.9849     23.3278    135.3185
   605.6000      8.0880      2.5800      0.0301      4.2431     23.0308    134.0466
   605.7000      8.0880      2.6149      0.0669      2.1253     22.8338    134.0589
   605.8000      8.0881      2.6419      0.0361      0.4901     22.9025    132.0895
   605.9000      8.0881      2.6544      0.0848     -0.2664     23.2137    130.0122
   606.0000      8.0877      2.6428      0.0700      0.4371     23.5656    132.4816
   606.1000      8.0877      2.6086      0.0509      2.5084     23.8283    138.0000
   606.2000      8.0877      2.5692      0.0264      4.8988     24.1137    140.5550
   606.3000      8.0871      2.5395     -0.0081      6.6980     24.3789    138.4594
