~Version Information
VERS.                      2.0: CWLS Log ASCII Standard - VERSION 2.0
WRAP.                       NO: One line per depth step
~Well Information Block
STRT.FT                 0.0000: 
STOP.FT              3428.7500: 
STEP.FT                 0.2500: 
NULL.                -999.2500: 
COMP.          Pioneer Natural Resources: COMPANY
WELL.          Cordillera 34-7: WELL
FLD.           Purgatorie River: FIELD
LOC.           598' FSL & 1770' FEL: LOCATION
PROV.                 Colorado: PROVINCE
CNTY.               Las Animas: COUNTRY
SRVC.                Patterson: SERVICE COMPANY
DATE.          Fri Nov 18 07:55:32 2005: LOG DATE
UWI.                          : UNIQUE WELL ID
~Curve Information Block
DEPT.FT            0 000 00 00: Depth
AMP3.mV                       : CBL 3' Amplitude
CCL.                          : Casing Collar Locator
GR.GAPI                       : Gamma Ray
TT3.usec                      : CBL 3' Travel Time
~Parameter Information Block
~A  Depth       AMP3        CCL          GR         TT3     
# ...
  2043.5000      4.9381      0.0000    137.3020    572.2740
  2043.7500      4.8738      0.0000    141.9887    572.3599
  2044.0000      4.7899      0.0000    144.1908    563.7342
  2044.2500      4.7041      0.0000    142.4569    545.0544
  2044.5000      4.6522      0.0000    137.1143    532.2268
  2044.7500      4.6568      0.0000    129.8447    544.9116
  2045.0000      4.6831      0.0000    122.8500    587.6660
  2045.2500      4.6340      0.0000    118.2167    640.0096
  2045.5000      4.4480      0.0000    117.3022    670.1526
  2045.7500      4.2493      0.0000    120.0455    668.2207
  2046.0000      4.2325      0.0000    124.7211    655.5060
  2046.2500      4.3077      0.0000    128.6692    659.2244
  2046.5000      4.2291      0.0000    129.8282    688.5077
  2046.7500      4.0327      0.0000    128.0099    727.0347
  2047.0000      3.9153      0.0000    124.9198    742.5997
  2047.2500      3.9292     -2.0000    122.9590    718.2150
  2047.5000      4.0212      0.0000    123.6044    675.7836
  2047.7500      4.1285      2.0000    126.3605    655.9944
  2048.0000      4.2027      0.0000    129.2690    674.9551
  2048.2500      4.2767      0.0000    130.7178    711.2231
  2048.5000      4.4958      0.0000    130.5143    732.5586
  2048.7500      4.8892      0.0000    129.0833    726.4030
  2049.0000      5.1340      0.0000    126.2979    707.9529
  2049.2500      4.9275      0.0000    121.6099    700.4199
  2049.5000      4.4377      0.0000    114.9731    708.2861
  2049.7500      3.9991      0.0000    107.2020    718.1979
  2050.0000      3.7167      0.0000     99.4603    719.9680
  2050.2500      3.5381      0.0000     92.5995    715.0001
  2050.5000      3.3936      0.0000     87.1245    709.2159
  2050.7500      3.2363      0.0000     83.6127    705.7761
  2051.0000      3.0767      0.0000     82.6198    704.1906
  2051.2500      2.9754      0.0000     84.0069    702.3537
  2051.5000      2.9785      0.0000     86.9956    697.5662
  2051.7500      3.0864      0.0000     91.2925    688.1765
  2052.0000      3.2676      0.0000     97.4626    676.3779
  2052.2500      3.4679      0.0000    105.4816    667.1296
  2052.5000      3.6443      0.0000    113.4486    663.5109
  2052.7500      3.8121      0.0000    118.8212    665.3497
  2053.0000      4.0128      0.0000    120.9240    670.2131
  2053.2500      4.2388      0.0000    121.3180    673.6559
  2053.5000      4.4424      0.0000    121.5150    671.3987
  2053.7500      4.6089      0.0000    121.2025    659.4754
  2054.0000      4.7569      0.0000    119.1693    633.1465
  2054.2500      4.8876      0.0000    115.2111    597.1901
  2054.5000      4.9961      0.0000    110.4226    572.1514
  2054.7500      5.0907      0.0000    106.1254    572.6248
  2055.0000      5.1717      0.0000    103.1692    584.2902
  2055.2500      5.2233      0.0000    101.8195    579.7225
  2055.5000      5.2288      0.0000    101.6547    554.2729
  2055.7500      5.1872      0.0000    101.7487    528.7396
  2056.0000      5.1175      0.0000    101.2477    521.7319
  2056.2500      5.0561      0.0000     99.7029    536.2089
  2056.5000      5.0370      0.0000     96.9797    565.1617
  2056.7500      5.0703      0.0000     93.2798    598.6326
  2057.0000      5.1473      0.0000     89.4381    627.1163
  2057.2500      5.2370      0.0000     86.9828    642.8477
  2057.5000      5.2729      0.0000     87.3981    642.3290
  2057.7500      5.1979      0.0000     90.9910    629.7394
  2058.0000      5.0331      0.0000     96.6032    617.1411
  2058.2500      4.8679      0.0000    102.6381    615.5959
  2058.5000      4.7772      0.0000    108.1928    626.8893
  2058.7500      4.7638      0.0000    113.0040    647.7183
  2059.0000      4.7786      0.0000    116.6718    667.9418
  2059.2500      4.7870      0.0000    118.5648    667.2525
  2059.5000      4.7968      0.0000    118.5931    638.1737
  2059.7500      4.8224      0.0000    117.6587    606.3921
  2060.0000      4.8648      0.0000    117.0170    604.5612
  2060.2500      4.9358      0.0000    117.1660    631.9689
  2060.5000      5.0495      0.0000    117.4332    662.6771
  2060.7500      5.1872      0.0000    116.7262    679.8943
  2061.0000      5.3082      0.0000    114.7106    681.4907
  2061.2500      5.3846      0.0000    112.1527    670.1531
  2061.5000      5.4092      0.0000    110.0863    649.9153
  2061.7500      5.3877      0.0000    108.9414    626.9234
  2062.0000      5.3259      0.0000    108.5602    611.1837
  2062.2500      5.2155      0.0000    108.6465    607.8632
  2062.5000      5.0523      0.0000    108.9230    609.5818
  2062.7500      4.8732      0.0000    109.2732    606.5532
  2063.0000      4.7420      0.0000    110.0533    594.2137
  2063.2500      4.6828      0.0000    111.8962    572.3321
  2063.5000      4.6528      0.0000    114.8271    547.6580
  2063.7500      4.5982      0.0000    117.9221    528.3886
  2064.0000      4.5227      0.0000    120.1374    512.5106
  2064.2500      4.4870      0.0000    121.1037    495.3683
  2064.5000      4.5491      0.0000    120.8785    482.6865
  2064.7500      4.7007      0.0000    119.3594    482.2996
  2065.0000      4.8660      0.0000    116.3789    493.2318
  2065.2500      4.9703      0.0000    112.2817    510.2689
  2065.5000      4.9998      0.0000    108.0865    528.7540
  2065.7500      4.9993      0.0000    104.8723    541.1674
  2066.0000      5.0168      0.0000    102.9213    540.8068
  2066.2500      5.0405      0.0000    101.4427    532.6400
  2066.5000      5.0099      0.0000     99.3038    532.3070
  2066.7500      4.9004      0.0000     96.2307    551.4015
  2067.0000      4.7678      0.0000     93.1687    583.9725
  2067.2500      4.6964      0.0000     91.2365    612.4816
  2067.5000      4.7213      0.0000     90.4785    627.3575
  2067.7500      4.8012      0.0000     90.0007    632.0550
  2068.0000      4.8479      0.0000     89.1799    633.3832
  2068.2500      4.7887      0.0000     88.3466    636.1947
  2068.5000      4.6273      0.0000     88.3390    643.3641
  2068.7500      4.4476      0.0000     89.7304    652.3375
  2069.0000      4.3448      0.0000     92.3955    654.2272
  2069.2500      4.3526      0.0000     95.4359    648.4344
  2069.5000      4.4351      0.0000     97.5284    650.9315
  2069.7500      4.5332      0.0000     97.7187    671.3824
  2070.0000      4.6048      0.0000     96.0468    698.5546
  2070.2500      4.6348      0.0000     93.2243    718.9249
  2070.5000      4.6279      0.0000     89.7861    729.2357
  2070.7500      4.6038      0.0000     85.8621    730.2263
  2071.0000      4.5895      0.0000     81.6255    721.2144
  2071.2500      4.5989      0.0000     77.4052    702.6994
  2071.5000      4.6084      0.0000     73.2328    681.7526
  2071.7500      4.5711      0.0000     68.7424    667.9189
  2072.0000      4.4753      0.0000     63.8320    663.1340
  2072.2500      4.3703      0.0000     59.2024    662.6954
  2072.5000      4.3165      0.0000     55.9953    662.9185
  2072.7500      4.3215      0.0000     54.9894    662.9094
  2073.0000      4.3372      0.0000     56.0622    662.0864
  2073.2500      4.3168      0.0000     58.1473    658.0897
  2073.5000      4.2759      0.0000     59.7557    647.4769
  2073.7500      4.2769      0.0000     59.9009    632.2351
  2074.0000      4.3413      0.0000     58.7596    623.4861
  2074.2500      4.4123      0.0000     57.4677    627.8959
  2074.5000      4.4187      0.0000     57.2948    636.5031
  2074.7500      4.3443      0.0000     59.0115    639.0490
  2075.0000      4.2315      0.0000     62.9479    636.5318
  2075.2500      4.1450      0.0000     69.3610    633.8481
  2075.5000      4.1269      0.0000     78.2639    632.5427
  2075.7500      4.1623      0.0000     88.7216    632.1048
  2076.0000      4.1912      0.0000     98.8404    632.1262
  2076.2500      4.1686      0.0000    107.0116    632.5093
  2076.5000      4.1085      0.0000    112.9475    633.1787
  2076.7500      4.0624      0.0000    117.1440    633.9551
