~Version Information
VERS.                      2.0: CWLS Log ASCII Standard - VERSION 2.0
WRAP.                       NO: One line per depth step
~Well Information Block
STRT.FT               570.0000: 
STOP.FT              1954.5000: 
STEP.FT                 0.1000: 
NULL.                -999.2500: 
COMP.          Petrogulf Corporation: COMPANY
WELL.            Montoya 7-14R: WELL
FLD.           Purgatorie River: FIELD
LOC.           628' FSL & 454' FWL: LOCATION
PROV.                 Colorado: PROVINCE
CNTY.               Las Animas: COUNTRY
SRVC.                Patterson: SERVICE COMPANY
DATE.          Mon Oct 10 07:31:15 2005: LOG DATE
UWI.                          : UNIQUE WELL ID
~Curve Information Block
DEPT.FT            0 000 00 00: Depth
DCAL.in                       : CDL Caliper
RHOB.g/cc                     : CDL Bulk Density
RHOC.g/cc                     : CDL Density Correction
DPOR.pu                       : CDL Density Porosity
GR.GAPI                       : Gamma Ray
NPOR.pu                       : Neutron Porosity
~Parameter Information Block
~A  Depth       DCAL        RHOB        RHOC        DPOR         GR         NPOR    
# ...
  1578.0000      7.9115      2.5609      0.1226      5.3980    146.1113     26.1799
  1578.1000      7.9115      2.5537      0.1064      5.8361    143.9370     25.9308
  1578.2000      7.9115      2.5457      0.0757      6.3222    138.3320     25.8603
  1578.3000      7.9149      2.5480      0.0810      6.1839    133.8027     25.9573
  1578.4000      7.9149      2.5509      0.0830      6.0081    131.7193     26.0664
  1578.5000      7.9145      2.5458      0.0511      6.3156    128.2704     26.0595
  1578.6000      7.9145      2.5377      0.0542      6.8077    124.3176     25.8507
  1578.7000      7.9145      2.5311      0.0664      7.2061    121.6852     25.4511
  1578.8000      7.9072      2.5248      0.0331      7.5850    118.3890     24.8960
  1578.9000      7.9072      2.5206      0.0138      7.8431    116.6144     24.4145
  1579.0000      7.9009      2.5199      0.0789      7.8863    119.5880     24.3081
  1579.1000      7.9009      2.5255      0.0365      7.5439    125.8193     24.5920
  1579.2000      7.9009      2.5439      0.0905      6.4285    130.2445     24.9509
  1579.3000      7.8602      2.5667      0.1069      5.0510    127.5842     25.1763
  1579.4000      7.8602      2.5809      0.0723      4.1849    118.7939     25.3740
  1579.5000      7.8427      2.5933      0.0689      3.4386    112.3828     25.5810
  1579.6000      7.8427      2.6161      0.0677      2.0554    114.9025     25.5628
  1579.7000      7.8427      2.6408      0.1241      0.5564    122.8625     25.2296
  1579.8000      7.8279      2.6406      0.1558      0.5696    127.9934     24.9665
  1579.9000      7.8279      2.6111      0.0835      2.3583    128.9839     25.0495
  1580.0000      7.8252      2.5797      0.0653      4.2609    130.2297     25.1773
  1580.1000      7.8252      2.5663      0.0561      5.0739    131.6646     25.0449
  1580.2000      7.8252      2.5630      0.1036      5.2736    132.1317     24.6829
  1580.3000      7.8190      2.5510      0.0516      6.0005    133.7579     24.1955
  1580.4000      7.8190      2.5244      0.0725      7.6105    137.5914     23.7363
  1580.5000      7.8161      2.4914      0.0461      9.6121    140.0466     23.5214
  1580.6000      7.8161      2.4688     -0.0044     10.9810    138.2064     23.7332
  1580.7000      7.8161      2.4713      0.0143     10.8274    136.7236     24.4677
  1580.8000      7.8009      2.4974      0.0227      9.2471    140.2491     25.3309
  1580.9000      7.8009      2.5380      0.0565      6.7886    144.3440     25.7679
  1581.0000      7.8000      2.5830      0.0849      4.0626    143.7062     25.7941
  1581.1000      7.8000      2.6162      0.1842      2.0463    139.3271     25.6209
  1581.2000      7.8000      2.6305      0.1115      1.1843    133.5605     25.3249
  1581.3000      7.7890      2.6383      0.1178      0.7100    128.1996     25.1501
  1581.4000      7.7890      2.6464      0.1141      0.2169    123.2561     25.2889
  1581.5000      7.8213      2.6427      0.1451      0.4435    118.7139     25.4991
  1581.6000      7.8213      2.6167      0.1026      2.0180    117.6283     25.3154
  1581.7000      7.8213      2.5888      0.0250      3.7119    120.1702     24.6739
  1581.8000      7.9022      2.5866     -0.0018      3.8407    123.0291     23.9015
  1581.9000      7.9022      2.5991      0.0748      3.0831    124.6249     23.1809
  1582.0000      7.8579      2.5975      0.0293      3.1806    125.7902     22.7436
  1582.1000      7.8579      2.5757      0.0283      4.5051    128.1448     22.6390
  1582.2000      7.8579      2.5433      0.0401      6.4652    131.1676     22.6886
  1582.3000      7.8345      2.5168     -0.0040      8.0715    133.7751     23.0434
  1582.4000      7.8345      2.5070      0.0404      8.6644    137.9800     23.8540
  1582.5000      7.9295      2.5102      0.0032      8.4722    143.3906     24.8269
  1582.6000      7.9295      2.5178      0.0399      8.0095    146.6685     25.5421
  1582.7000      7.9295      2.5178      0.0601      8.0104    148.4921     25.9351
  1582.8000      7.9243      2.5096      0.0069      8.5117    150.8323     26.2987
  1582.9000      7.9243      2.5083      0.0516      8.5895    154.3588     26.7856
  1583.0000      7.8551      2.5184      0.0917      7.9747    156.8174     27.0710
  1583.1000      7.8551      2.5369      0.0722      6.8553    154.7560     27.0338
  1583.2000      7.8551      2.5645      0.0706      5.1817    151.7903     27.0670
  1583.3000      7.8599      2.5889      0.1024      3.7023    153.8099     27.0597
  1583.4000      7.8599      2.5912      0.1354      3.5609    157.9718     26.4433
  1583.5000      7.8441      2.5761      0.0970      4.4811    158.7926     25.3473
  1583.6000      7.8441      2.5652      0.0967      5.1413    156.1357     24.4582
  1583.7000      7.8441      2.5630      0.1246      5.2724    153.6592     24.2924
  1583.8000      7.8726      2.5598      0.1330      5.4653    154.5664     24.8263
  1583.9000      7.8726      2.5591      0.0438      5.5098    157.2354     25.5156
  1584.0000      7.8065      2.5688      0.0898      4.9223    158.9378     26.1284
  1584.1000      7.8065      2.5795      0.1050      4.2743    160.4882     26.8723
  1584.2000      7.8065      2.5784      0.1414      4.3401    160.3761     27.4403
  1584.3000      7.7951      2.5644      0.1432      5.1868    156.6314     27.2203
  1584.4000      7.7951      2.5477      0.0947      6.1993    152.3802     26.3640
  1584.5000      7.7987      2.5403      0.0921      6.6508    149.6894     25.7688
  1584.6000      7.7987      2.5457      0.0952      6.3237    147.9645     25.9466
  1584.7000      7.7987      2.5631      0.1400      5.2679    146.8362     26.4627
  1584.8000      7.8230      2.5934      0.1206      3.4285    146.5159     26.5802
  1584.9000      7.8230      2.6361      0.1411      0.8418    145.5940     26.0486
  1585.0000      7.8867      2.6739      0.2088     -1.4489    140.6594     25.2569
  1585.1000      7.8867      2.6821      0.2045     -1.9442    133.8101     24.6961
  1585.2000      7.8867      2.6590      0.1636     -0.5427    128.5177     24.3562
  1585.3000      7.7748      2.6277      0.1252      1.3509    126.2375     23.8267
  1585.4000      7.7748      2.6119      0.0402      2.3069    125.5999     23.0878
  1585.5000      7.7709      2.6131      0.0954      2.2377    121.8854     22.6065
  1585.6000      7.7709      2.6150      0.0657      2.1230    114.1954     22.6151
  1585.7000      7.7709      2.6148      0.0590      2.1304    107.0279     22.9448
  1585.8000      7.7807      2.6202      0.0724      1.8075    103.4648     23.2757
  1585.9000      7.7807      2.6269      0.1107      1.4015    101.6835     23.2164
  1586.0000      7.8119      2.6297      0.0750      1.2310    100.2575     22.8432
  1586.1000      7.8119      2.6331      0.0947      1.0272     99.7996     22.5651
  1586.2000      7.8119      2.6382      0.0970      0.7147     99.1884     22.3253
  1586.3000      7.7705      2.6447      0.1022      0.3214     97.5009     22.0059
  1586.4000      7.7705      2.6529      0.1121     -0.1757     96.5025     21.7893
  1586.5000      7.7726      2.6528      0.1714     -0.1677     97.3324     21.7837
  1586.6000      7.7726      2.6392      0.1116      0.6544     98.7418     21.9028
  1586.7000      7.7726      2.6283      0.0904      1.3133     99.6119     21.8776
  1586.8000      7.7803      2.6290      0.0631      1.2718     99.0462     21.6128
  1586.9000      7.7803      2.6249      0.1042      1.5238     96.1242     21.2964
  1587.0000      7.8124      2.6075      0.0521      2.5774     90.8701     20.9847
  1587.1000      7.8124      2.5969      0.0378      3.2186     84.1904     20.7754
  1587.2000      7.8124      2.6102      0.0927      2.4131     81.0741     20.9235
  1587.3000      7.8073      2.6412      0.0941      0.5319     85.9118     21.1017
  1587.4000      7.8073      2.6723      0.0971     -1.3486     94.0161     20.8256
  1587.5000      7.8051      2.6828      0.1128     -1.9905     98.8976     20.3365
