~Version Information
VERS.                      2.0: CWLS Log ASCII Standard - VERSION 2.0
WRAP.                       NO: One line per depth step
~Well Information Block
STRT.FT               360.0000: 
STOP.FT              2475.0000: 
STEP.FT                 0.1000: 
NULL.                -999.2500: 
COMP.          Pioneer Natural Resources: COMPANY
WELL.          Hellzonfire 32-31: WELL
FLD.           Purgatoire River: FIELD
LOC.           1993' FNL & 2265' FEL: LOCATION
STAT.                 Colorado: State
CNTY.               Las Animas: COUNTY
CTRY. USA : Country
SECT. 31 : Section
TOWN. 32S : Township
RANG. 66W : Range
SRVC.                Patterson: SERVICE COMPANY
DATE.          Fri Sep 02 07:26:13 2005: LOG DATE
API.           05 071 08483 00: UNIQUE WELL ID
~Curve Information Block
DEPT.FT            0 000 00 00: Depth
DCAL.in                       : CDL Caliper
RHOB.g/cc                     : CDL Bulk Density
RHOC.g/cc                     : CDL Density Correction
DPOR.pu                       : CDL Density Porosity
GR.GAPI                       : Gamma Ray
NPOR.pu                       : Neutron Porosity
~Parameter Information Block
~A  Depth       DCAL        RHOB        RHOC        DPOR         GR         NPOR    
# ...
  2040.0000      8.3024      2.2167      0.1431     26.2625    121.8040     33.2458
  2040.1000      8.3024      2.2763      0.0973     22.6500    127.2225     33.1370
  2040.2000      8.3024      2.3435      0.1159     18.5758    129.1024     32.5449
  2040.3000      8.2966      2.3895      0.1167     15.7891    130.6907     31.7971
  2040.4000      8.2966      2.4061      0.1162     14.7831    136.4049     31.3636
  2040.5000      8.1886      2.4138      0.0853     14.3176    143.9291     30.6417
  2040.6000      8.1886      2.4377      0.1000     12.8677    149.0541     29.9274
  2040.7000      8.1886      2.4813      0.1103     10.2236    151.9131     30.1351
  2040.8000      8.1525      2.5248      0.1146      7.5884    153.0897     30.9560
  2040.9000      8.1525      2.5456      0.0999      6.3250    151.2370     31.4419
  2041.0000      8.1001      2.5388      0.0791      6.7370    142.9479     31.1017
  2041.1000      8.1001      2.5230      0.0694      7.6945    128.1878     30.3597
  2041.2000      8.1001      2.5251      0.0555      7.5725    116.5225     30.3347
  2041.3000      8.0929      2.5557      0.1305      5.7130    115.3175     30.9787
  2041.4000      8.0929      2.5918      0.1568      3.5287    121.2944     30.8137
  2041.5000      8.0988      2.5936      0.1756      3.4195    131.3680     29.4912
  2041.6000      8.0988      2.5502      0.0911      6.0497    145.0276     28.5334
  2041.7000      8.0988      2.4872      0.0367      9.8654    156.2693     28.8921
  2041.8000      8.1134      2.4276      0.0283     13.4795    157.6811     29.5287
  2041.9000      8.1134      2.3763      0.0142     16.5874    150.1474     28.8734
  2042.0000      8.1114      2.3505     -0.0959     18.1514    142.3743     27.4872
  2042.1000      8.1114      2.3673      0.0044     17.1340    139.5623     26.8155
  2042.2000      8.1114      2.4114      0.0530     14.4617    138.8835     27.1393
  2042.3000      8.0362      2.4626      0.0910     11.3580    134.8275     28.2941
  2042.4000      8.0362      2.5198      0.1436      7.8926    130.4822     29.8821
  2042.5000      8.0262      2.5786      0.3046      4.3297    131.6623     30.8070
  2042.6000      8.0262      2.6169      0.2856      2.0087    133.6158     30.8085
  2042.7000      8.0262      2.6199      0.2535      1.8222    132.1702     30.6980
  2042.8000      8.0052      2.5973      0.1839      3.1962    132.9779     30.9015
  2042.9000      8.0052      2.5715      0.0937      4.7605    138.4369     31.5072
  2043.0000      8.0031      2.5536      0.1245      5.8436    142.9308     31.9379
  2043.1000      8.0031      2.5380      0.1138      6.7864    145.3264     31.0487
  2043.2000      8.0031      2.5293      0.0269      7.3172    147.5814     29.2406
  2043.3000      8.0018      2.5366      0.0470      6.8747    147.2971     28.0457
  2043.4000      8.0018      2.5545      0.0892      5.7849    142.4969     27.7690
  2043.5000      7.9997      2.5719      0.0939      4.7358    137.0597     27.8010
  2043.6000      7.9997      2.5781      0.0942      4.3576    137.1302     27.8950
  2043.7000      7.9997      2.5743      0.0549      4.5877    140.2004     27.5264
  2043.8000      8.0096      2.5773      0.0765      4.4084    141.1736     26.6557
  2043.9000      8.0096      2.5974      0.1012      3.1892    139.9513     26.6621
  2044.0000      8.0152      2.6212      0.1190      1.7445    138.6549     27.9194
  2044.1000      8.0152      2.6238      0.1485      1.5871    143.0339     29.2320
  2044.2000      8.0152      2.5960      0.1355      3.2704    151.8711     29.6299
  2044.3000      7.9853      2.5578      0.0837      5.5901    153.7553     29.0232
  2044.4000      7.9853      2.5357     -0.0022      6.9292    148.9800     28.0089
  2044.5000      7.9286      2.5285      0.0607      7.3656    146.7736     27.6396
  2044.6000      7.9286      2.5193     -0.0078      7.9230    145.8174     28.5622
  2044.7000      7.9286      2.5152      0.0565      8.1671    142.5918     30.0443
  2044.8000      7.9303      2.5292      0.0635      7.3227    140.1356     30.5899
  2044.9000      7.9303      2.5516      0.0882      5.9619    143.5055     30.0029
  2045.0000      7.9261      2.5663      0.0885      5.0713    149.0549     29.2801
  2045.1000      7.9261      2.5688      0.1207      4.9221    145.0857     29.0006
  2045.2000      7.9261      2.5614      0.1053      5.3684    128.9788     29.0788
  2045.3000      7.9195      2.5474      0.1206      6.2211    112.3147     29.4025
  2045.4000      7.9195      2.5334      0.0249      7.0694    106.2899     29.5537
  2045.5000      7.8700      2.5218      0.0959      7.7700    110.7941     28.8562
  2045.6000      7.8700      2.5055      0.0948      8.7595    116.9987     27.4259
  2045.7000      7.8700      2.4976      0.0315      9.2354    114.6013     26.3354
  2045.8000      7.8640      2.5267      0.0454      7.4702    101.5814     25.8056
  2045.9000      7.8640      2.5943      0.0417      3.3772     87.7316     25.3132
  2046.0000      7.8641      2.6674      0.1129     -1.0547     80.7855     24.7049
  2046.1000      7.8641      2.7081      0.1974     -3.5225     80.5999     24.1440
  2046.2000      7.8641      2.7163      0.1658     -4.0203     83.7934     24.2415
  2046.3000      7.8782      2.7204      0.1568     -4.2659     87.1334     25.1916
  2046.4000      7.8782      2.7218      0.1677     -4.3508     88.0873     26.0844
  2046.5000      7.8823      2.7022      0.1416     -3.1637     88.6457     25.8006
  2046.6000      7.8823      2.6661      0.1060     -0.9761     93.3234     24.4138
  2046.7000      7.8823      2.6247      0.0342      1.5329     99.9694     23.0979
  2046.8000      7.8924      2.5774      0.0059      4.3980    103.5888     22.7201
  2046.9000      7.8924      2.5420     -0.0592      6.5469    102.3927     23.2583
  2047.0000      7.9532      2.5469      0.0026      6.2504     96.6157     23.9464
  2047.1000      7.9532      2.5851      0.0685      3.9361     87.0754     24.0190
  2047.2000      7.9532      2.6275      0.0925      1.3629     79.0346     23.4914
  2047.3000      7.9991      2.6648      0.0533     -0.8978     77.8288     23.0458
  2047.4000      7.9991      2.6953      0.1391     -2.7447     80.5619     23.2512
  2047.5000      7.9894      2.7011      0.1153     -3.0955     80.1653     23.9391
  2047.6000      7.9894      2.6732      0.1057     -1.4032     74.8325     24.5188
  2047.7000      7.9894      2.6277      0.0251      1.3524     71.2790     24.6762
  2047.8000      8.0312      2.5902     -0.0210      3.6231     74.3809     24.4147
  2047.9000      8.0312      2.5753     -0.0125      4.5259     79.5059     24.0604
  2048.0000      8.0712      2.5798      0.0115      4.2570     81.7602     23.7014
  2048.1000      8.0712      2.5999      0.0110      3.0387     79.9861     22.8154
  2048.2000      8.0712      2.6372      0.0350      0.7786     76.2330     21.7217
  2048.3000      8.0454      2.6778      0.0866     -1.6874     74.9132     21.1202
  2048.4000      8.0454      2.6961      0.1079     -2.7966     75.2705     20.8730
  2048.5000      7.9935      2.6906      0.0298     -2.4621     74.8184     20.8986
  2048.6000      7.9935      2.6775      0.0643     -1.6646     75.7448     21.2732
  2048.7000      7.9935      2.6552      0.0846     -0.3134     80.1632     21.5953
  2048.8000      7.9841      2.6206      0.0949      1.7840     87.2573     21.7940
  2048.9000      7.9841      2.5917      0.0287      3.5351     92.3423     22.3853
  2049.0000      7.9824      2.5810      0.0087      4.1846     91.0636     23.4290
  2049.1000      7.9824      2.5792     -0.0032      4.2900     84.3826     24.3660
  2049.2000      7.9824      2.5766      0.0627      4.4462     76.3741     24.8101
  2049.3000      8.0005      2.5697      0.1052      4.8666     70.3077     24.8736
  2049.4000      8.0005      2.5697      0.0449      4.8643     67.6872     24.8548
  2049.5000      8.0398      2.5998      0.0128      3.0402     69.6080     24.8788
