~Version Information
VERS.                      2.0: CWLS Log ASCII Standard - VERSION 2.0
WRAP.                       NO: One line per depth step
~Well Information Block
STRT.FT                -6.7500: 
STOP.FT              2034.2500: 
STEP.FT                 0.2500: 
NULL.                -999.2500: 
COMP.          Evergreen Operating Corp.: COMPANY
WELL.           Big Pine 32-15: WELL
FLD.           Purgatorie River: FIELD
LOC.           2590 FNL & 1442 FEL--: LOCATION
STAT.                       CO: State
CNTY.               Las Animas: COUNTY
CTRY. USA : Country
SECT. 15 : Section
TOWN. 33S : township
RANG. 67W : Range
SRVC.          Patterson Wireline, Inc.: SERVICE COMPANY
DATE.          Mon Mar 24 12:45:01 2003: LOG DATE
API.           05 071 07772 00: UNIQUE WELL ID
~Curve Information Block
DEPT.FT            0 000 00 00: Depth
HVOLTA.V                      : Head Voltage Apparent
CCL.                          : Casing Collar Locator
TT3.usec                      : CBL 3' Travel Time
AMP3.mV                       : CBL 3' Amplitude
GR.GAPI                       : Gamma Ray
~Parameter Information Block
~A  Depth      HVOLTA       CCL         TT3         AMP3         GR     
# ...
  1057.2500    121.3461      0.0000    685.0217      4.6694    156.5901
  1057.5000    121.4539      0.0000    695.7926      5.0223    150.4559
  1057.7500    121.4236      0.0000    690.9310      4.9850    146.6107
  1058.0000    121.3399      0.0000    687.3603      4.4573    146.1614
  1058.2500    121.3399      0.0000    691.3927      3.7094    149.3276
  1058.5000    121.5081      0.0000    701.7383      3.1299    155.0657
  1058.7500    121.3186      0.0000    710.4443      2.8561    161.2453
  1059.0000    121.3110      0.0000    706.2300      2.7819    165.8252
  1059.2500    121.4511      0.0000    685.2031      2.8187    168.1745
  1059.5000    121.2884      0.0000    657.8950      2.9809    169.1023
  1059.7500    121.3412      0.0000    642.5400      3.2917    169.6918
  1060.0000    121.3667      0.0000    649.9305      3.7271    170.3761
  1060.2500    121.5328      0.0000    675.4496      4.1865    170.7715
  1060.5000    121.3660      0.0000    704.6726      4.4397    169.8167
  1060.7500    121.3412      0.0000    725.7748      4.2582    166.3336
  1061.0000    121.2266      0.0000    736.6919      3.7110    160.0948
  1061.2500    121.4161      0.0000    740.3073      3.1535    152.5261
  1061.5000    121.4779      0.0000    736.3699      2.8631    146.1999
  1061.7500    121.4236      0.0000    722.3965      2.8908    143.2837
  1062.0000    121.2856      0.0000    699.1807      3.2326    144.1308
  1062.2500    121.3145      0.0000    670.3618      3.8707    147.1809
  1062.5000    121.4511      0.0000    642.7109      4.6145    150.3742
  1062.7500    121.3385      0.0000    628.8492      5.1548    152.8847
  1063.0000    121.3103      0.0000    632.6803      5.3408    155.4385
  1063.2500    121.4429      0.0000    636.7271      5.2283    158.8453
  1063.5000    121.4250      0.0000    627.3873      4.9116    162.4085
  1063.7500    121.4442      0.0000    618.9173      4.4612    164.1859
  1064.0000    121.3921      0.0000    630.3474      3.9591    162.8447
  1064.2500    121.3976      0.0000    657.5833      3.5078    158.9119
  1064.5000    121.4003      0.0000    686.4714      3.2217    154.2274
  1064.7500    121.2300      0.0000    709.9484      3.1437    150.8242
  1065.0000    121.2589      0.0000    724.4124      3.1317    150.4276
  1065.2500    121.3138      0.0000    729.8547      3.0240    153.8564
  1065.5000    121.5005      0.0000    731.2115      2.9046    159.9189
  1065.7500    121.3152      0.0000    731.8113      3.0128    165.4848
  1066.0000    121.3131      0.0000    729.3863      3.4672    167.7121
  1066.2500    121.4539      0.0000    719.7455      4.1411    166.2811
  1066.5000    121.5054      0.0000    705.1236      4.7642    163.0952
  1066.7500    121.4525      0.0000    694.5999      5.1521    160.0689
  1067.0000    121.3406      0.0000    693.6221      5.3118    157.8219
  1067.2500    121.3715      0.0000    698.8985      5.3501    156.2492
  1067.5000    121.5081      0.0000    704.1583      5.3288    155.2273
  1067.7500    121.5363      0.0000    706.5377      5.2008    154.4219
  1068.0000    121.4223      0.0000    706.8478      4.8529    153.2565
  1068.2500    121.4442      0.0000    706.6076      4.2335    151.6858
  1068.5000    121.4779      0.0000    706.5099      3.4914    150.5512
  1068.7500    121.5074      0.0000    706.5938      2.9040    150.7876
  1069.0000    121.4532      0.0000    706.7849      2.6242    152.6215
  1069.2500    121.3927      0.0000    707.3929      2.6209    155.7292
  1069.5000    121.4820      0.0000    709.4636      2.8261    159.7118
  1069.7500    121.3721      0.0000    714.7266      3.1861    164.0636
  1070.0000    121.4257      0.0000    724.0912      3.5611    168.1562
  1070.2500    121.4552      0.0000    735.1861      3.6962    172.0748
  1070.5000    121.4806      0.0000    743.1512      3.4585    177.1619
  1070.7500    121.4532      0.0000    744.8676      3.0279    184.3100
  1071.0000    121.2815      0.0000    741.3633      2.6684    191.4563
  1071.2500    121.4717      0.0000    737.2251      2.4768    194.1468
  1071.5000    121.4250      0.0000    737.0671      2.4425    189.2146
  1071.7500    121.3962      0.0000    740.4669      2.5370    177.0266
  1072.0000    121.3687      0.0000    742.5184      2.6819    160.0588
  1072.2500    121.4477      0.0000    740.4014      2.7619    140.8898
  1072.5000    121.3680      0.0000    736.9146      2.7373    122.2177
  1072.7500    121.2849      0.0000    736.5430      2.6823    107.2142
  1073.0000    121.2952      0.0000    739.4965      2.6869     98.5207
  1073.2500    121.3976      0.0000    742.0092      2.7795     96.9868
  1073.5000    121.5314      0.0000    742.0656      2.9382    101.2996
  1073.7500    121.3921      0.0000    741.7168      3.1340    108.4312
  1074.0000    121.4751      0.0000    743.1780      3.3454    114.9736
  1074.2500    121.3708      0.0000    745.4415      3.5015    119.0360
  1074.5000    121.5095      0.0000    745.6323      3.4923    121.0037
  1074.7500    121.5349      0.0000    740.9376      3.3421    122.3473
  1075.0000    121.5397      0.0000    730.3564      3.2362    124.0459
  1075.2500    121.4216      0.0000    718.3924      3.2847    126.0774
  1075.5000    121.4491      0.0000    712.4672      3.4205    127.6955
  1075.7500    121.5095      0.0000    711.4188      3.5265    127.9129
  1076.0000    121.4511      0.0000    706.8876      3.5139    126.2374
  1076.2500    121.3955      0.0000    701.2312      3.3041    123.2563
  1076.5000    121.5898      0.0000    707.0828      2.8793    120.1656
  1076.7500    121.6125      0.0000    724.9508      2.3816    117.5963
  1077.0000    121.4209      0.0000    738.4926      2.0571    115.4648
  1077.2500    121.3145      0.0000    737.3599      2.0559    114.0220
  1077.5000    121.4236     -5.0000    732.1994      2.3220    114.2356
  1077.7500    121.4525     -5.0000    739.1906      2.6975    116.8995
  1078.0000    121.3660      0.0000    759.7450      3.1230    121.9748
  1078.2500    121.2273      0.0000    782.7390      3.7304    128.9720
  1078.5000    121.2128      0.0000    796.4374      4.7384    137.4589
  1078.7500    121.5905      0.0000    794.7535      6.1974    147.1137
  1079.0000    121.5060      0.0000    781.1210      7.7759    157.4303
  1079.2500    121.5260      0.0000    764.6980      8.8913    167.3293
  1079.5000    121.3083      0.0000    752.3440      9.2032    175.1771
  1079.7500    121.4765      0.0000    746.6623      8.8740    179.4882
  1080.0000    121.4497      0.0000    746.6555      8.2450    179.7738
  1080.2500    121.4491      0.0000    748.4503      7.5025    176.9649
  1080.5000    121.4511      0.0000    748.4075      6.7389    173.2006
  1080.7500    121.5294      0.0000    746.2029      6.0996    170.9038
  1081.0000    121.3941      0.0000    744.5106      5.7269    171.4921
  1081.2500    121.3028      0.0000    745.2252      5.5958    174.4060
  1081.5000    121.4223      0.0000    746.7656      5.5200    177.0227
  1081.7500    121.4497      0.0000    746.5305      5.3146    175.8001
  1082.0000    121.2911      0.0000    744.5533      4.8937    168.4342
  1082.2500    121.3660      0.0000    743.4239      4.3251    155.6631
  1082.5000    121.5273      0.0000    744.8275      3.8572    141.2452
  1082.7500    121.5301      0.0000    747.4786      3.7318    130.1515
  1083.0000    121.5054      0.0000    749.4149      3.8673    126.2296
  1083.2500    121.3152      0.0000    750.1826      3.9276    130.6292
  1083.5000    121.5088      0.0000    750.1952      3.7657    141.7983
  1083.7500    121.4223      0.0000    749.6880      3.4811    156.9825
  1084.0000    121.4827      0.0000    747.9802      3.1866    173.7552
  1084.2500    121.2348      0.0000    742.6761      3.0900    189.9375
  1084.5000    121.3412      0.0000    729.8316      3.4515    202.6881
  1084.7500    121.4786      0.0000    705.2529      4.1857    209.2601
  1085.0000    121.5884      0.0000    668.3462      4.8738    209.1537
