~Version Information
VERS.                      2.0: CWLS Log ASCII Standard - VERSION 2.0
WRAP.                       NO: One line per depth step
~Well Information Block
STRT.FT               310.0000: 
STOP.FT               815.0000: 
STEP.FT                 0.2500: 
NULL.                -999.2500: 
COMP.          Pioneer Natural Resources: COMPANY
WELL.           Weissach 32-32: WELL
FLD.           Purgatorie River: FIELD
LOC.           2193' FNL & 2256' FEL: LOCATION
STAT.                 Colorado: State
CNTY.               Las Animas: COUNTY
CTRY. USA : Country
SECT. 32 : Section
TOWN. 33S : Township
RANG. 65W : Range
SRVC.                Patterson: SERVICE COMPANY
DATE.          Mon Sep 26 09:20:51 2005: LOG DATE
API. 05-071-08523                         : UNIQUE WELL ID
~Curve Information Block
DEPT.FT            0 000 00 00: Depth
SN.Ohm-m                      : IEL Short Normal
SP.mV                         : IEL Spontaneous Potential
DIR.Ohm-m                     : IEL Induction Resistivity
GR.GAPI                       : Gamma Ray
~Parameter Information Block
~A  Depth        SN          SP         DIR          GR     
# ...
   544.5000     13.7158    158.7108     12.6804    119.1198
   544.7500     13.5973    159.4612     12.3064    114.2310
   545.0000     13.4151    159.5737     12.0784    113.4751
   545.2500     13.6957    160.3426     11.9957    117.1253
   545.5000     13.6762    160.7382     12.7545    121.7589
   545.7500     13.7282    161.3326     15.9461     97.6012
   546.0000     13.9526    162.1653     12.4164     83.5713
   546.2500     14.1417    162.9686     13.0436     88.0912
   546.5000     14.3914    163.5253     15.9779     95.7246
   546.7500     14.7507    163.3811     13.0551     98.7691
   547.0000     15.5363    163.3197     12.7591    114.9059
   547.2500     15.0258    162.5717     12.8158     97.1232
   547.5000     14.7953    162.2454     13.4573     90.3712
   547.7500     13.7324    162.0437     16.2281     91.3602
   548.0000     12.7467    162.0534     13.0783     94.0380
   548.2500     11.9436    161.3510     13.0506     91.9424
   548.5000     12.2023    161.3535     13.3191     81.6512
   548.7500     13.0403    161.6976     13.9942     81.1514
   549.0000     15.1915    162.3237     14.4349     77.2379
   549.2500     16.7086    162.1689     16.4942     61.1596
   549.5000     18.3347    162.7305     23.6914     57.5472
   549.7500     19.6658    163.7491     18.6349     56.1736
   550.0000     20.1406    164.7683     26.1455     60.0609
   550.2500     21.4427    165.2931     27.5421     60.8156
   550.5000     23.6535    166.1837     18.3744     71.9602
   550.7500     24.8355    167.1907     17.5775     65.7819
   551.0000     26.7652    168.1513     17.6661     58.5796
   551.2500     27.4652    169.1228     17.8624     60.8158
   551.5000     27.8174    169.5516     17.9492     57.9894
   551.7500     27.9091    169.5394     18.4381     51.5782
   552.0000     27.5374    170.2731     18.5579     45.3246
   552.2500     25.3252    171.1473     18.9635     55.6295
   552.5000     24.0883    170.5883     19.6651     45.1768
   552.7500     23.8104    170.6570     19.6933     44.6083
   553.0000     21.7502    170.7193     20.4446     54.4338
   553.2500     21.3956    171.0855     22.2067     53.9454
   553.5000     21.4466    171.4774     26.8306     72.8969
   553.7500     21.5603    170.3494     20.7874     86.0141
   554.0000     22.4078    169.9162     17.3280     78.6259
   554.2500     21.2194    169.7533     17.1981     88.8054
   554.5000     20.6727    169.7172     18.9639     87.6398
   554.7500     20.5613    169.7576     16.6481     97.5951
   555.0000     20.3620    170.1121     17.5348     89.0321
   555.2500     20.4261    170.4453     20.1995     84.5693
   555.5000     20.7805    170.6150     20.7595     82.4151
   555.7500     21.0254    170.9650     19.2962     71.2601
   556.0000     20.0346    170.8593     21.8860     58.0681
   556.2500     19.2668    169.5259     24.1416     55.8497
   556.5000     17.6834    168.6663     17.5632     84.8544
   556.7500     16.1864    167.6457     16.5497     85.2562
   557.0000     16.0618    166.6266     16.7164     74.4738
   557.2500     16.8752    165.5301     18.1025     72.3295
   557.5000     18.3846    164.4490     17.2477     64.1338
   557.7500     19.2771    163.4761     18.0545     71.3965
   558.0000     19.4553    162.8404     19.9103     87.4351
   558.2500     19.7181    162.0776     18.3209     89.9574
   558.5000     19.9195    161.4256     22.7592     89.5869
   558.7500     20.1131    160.9301     21.4117    107.7329
   559.0000     20.4170    160.8075     24.9438    103.0406
   559.2500     20.4333    160.5345     18.1697     94.1133
   559.5000     20.4174    160.4397     16.1046    101.7190
   559.7500     21.3680    160.0233     16.2483     98.0245
   560.0000     20.3649    160.1579     16.3066    100.2182
   560.2500     19.9922    160.7224     17.8620     87.8502
   560.5000     19.9476    160.6742     23.4832     96.3229
   560.7500     19.9097    161.2430     17.3194     94.9550
   561.0000     19.4984    161.6117     17.8628     67.6248
   561.2500     19.3287    161.7529     17.4586     74.7184
   561.5000     19.9323    162.2077     17.6583     87.8384
   561.7500     20.1682    162.0384     17.9238     97.5525
   562.0000     21.0061    161.4048     18.6917     91.4386
   562.2500     22.5852    161.1108     18.4285     97.7253
   562.5000     22.5314    160.9887     18.0250    100.1366
   562.7500     22.5241    161.0306     18.3152    110.8562
   563.0000     23.3316    161.3070     18.7475     90.8412
   563.2500     24.5068    160.9545     19.0948     86.5810
   563.5000     25.7034    161.3040     20.1859     86.3239
   563.7500     26.0374    161.4472     19.8666     76.4059
   564.0000     26.0340    161.3209     20.2114     72.2971
   564.2500     26.1959    162.2535     20.4350     65.6546
   564.5000     25.4571    163.2319     20.6526     57.5918
   564.7500     24.8705    163.5988     22.3132     61.2191
   565.0000     24.0118    164.0131     28.3563     76.7829
   565.2500     23.5426    164.1026     29.1154     72.3519
   565.5000     23.7568    164.2449     22.3721     66.4426
   565.7500     25.5406    164.3211     22.5617     67.8146
   566.0000     25.4667    164.4832     24.8260     71.2848
   566.2500     25.8365    164.5468     22.9272     81.9319
   566.5000     26.5100    164.1860     22.7124    102.3125
   566.7500     27.5763    164.1472     24.4718     87.7042
   567.0000     27.6076    163.6883     22.4352     92.2156
   567.2500     28.1591    163.6460     22.2816     74.4019
   567.5000     28.3793    163.7505     22.8420     73.0558
   567.7500     29.2680    163.9079     23.8262     78.2246
   568.0000     29.9852    164.1097     26.8183     92.5422
   568.2500     30.4568    164.3870     34.6434     91.2598
   568.5000     31.4677    164.6428     26.1157     78.7591
   568.7500     32.0241    164.9259     26.2818     58.2603
   569.0000     32.5964    165.1315     27.0368     48.2746
   569.2500     33.1939    165.5494     28.7995     53.9041
   569.5000     33.5273    165.9986     26.1299     53.9440
   569.7500     33.8414    166.5594     26.5843     60.2912
   570.0000     34.3552    166.8785     26.5009     63.2253
   570.2500     34.5016    166.8833     26.6471     58.5818
   570.5000     34.4267    166.9719     27.4167     68.6223
   570.7500     34.8242    167.1651     27.8565     61.7636
   571.0000     35.4737    166.4583     27.5492     53.2533
   571.2500     35.6686    165.3907     27.7260     60.4151
   571.5000     35.6224    164.9807     30.5205     66.2658
   571.7500     35.2730    164.5731     43.9102     62.2811
   572.0000     35.2458    163.4232     42.7386     57.2248
   572.2500     35.9723    162.7942     32.4625     44.0231
   572.5000     35.9401    162.4033     28.3102     59.3370
   572.7500     35.9243    161.2146     28.4374     55.4491
   573.0000     35.8888    160.3641     27.2273     70.2450
   573.2500     35.5022    159.8836     26.5353     61.8458
   573.5000     35.4012    159.8180     27.3845     63.0465
   573.7500     35.1317    160.1507     31.8448     54.2840
   574.0000     34.8376    160.2485     24.9895     57.3381
   574.2500     34.7078    159.8906     25.2893     71.3707
   574.5000     35.1255    159.9355     34.2018     51.2328
   574.7500     32.6600    160.0589     25.1568     52.1085
   575.0000     31.0687    160.2635     30.5176     60.8039
   575.2500     29.6110    159.7964     23.9095     59.0591
   575.5000     28.0504    159.5344     26.1163     64.0107
   575.7500     26.3616    159.2548     22.2818     65.1291
   576.0000     25.5410    159.1854     22.9436     53.6887
   576.2500     25.1557    159.3330     25.5344     49.6761
   576.5000     24.8389    159.3302     21.1789     76.2590
   576.7500     24.7116    159.6250     22.5501     95.6976
   577.0000     24.6612    160.1900     23.6074     84.0659
   577.2500     24.7888    160.8705     19.4245    107.9827
   577.5000     25.3116    161.6852     21.6521     90.2704
   577.7500     26.7500    162.3885     24.1271     86.8809
