~Version Information
VERS.                      2.0: CWLS Log ASCII Standard - VERSION 2.0
WRAP.                       NO: One line per depth step
~Well Information Block
STRT.FT               322.3000: 
STOP.FT              1375.0000: 
STEP.FT                 0.1000: 
NULL.                -999.2500: 
COMP.          Pioneer Natural Resources: COMPANY
WELL.          Buffet 41-36 Tr: WELL
FLD.           Purgatoire River: FIELD
LOC.           119' FNL & 271' FEL: LOCATION
PROV.                 Colorado: PROVINCE
CNTY.               Las Animas: COUNTRY
SRVC.                Patterson: SERVICE COMPANY
DATE.          Thu Dec 29 07:13:13 2005: LOG DATE
UWI.           05 071 08627 00: UNIQUE WELL ID
~Curve Information Block
DEPT.FT            0 000 00 00: Depth
DCAL.in                       : CDL Caliper
RHOB.g/cc                     : CDL Bulk Density
RHOC.g/cc                     : CDL Density Correction
DPOR.pu                       : CDL Density Porosity
GR.GAPI                       : Gamma Ray
~Parameter Information Block
~A  Depth       DCAL        RHOB        RHOC        DPOR         GR     
# ...
  1095.1000      7.9820      2.5652      0.0466      5.1413     61.5361
  1095.2000      7.9820      2.5664      0.0226      5.0644     62.0697
  1095.3000      7.9823      2.5639      0.0184      5.2165     55.6997
  1095.4000      7.9823      2.5571      0.0373      5.6330     51.2833
  1095.5000      7.9832      2.5501     -0.0240      6.0536     53.3331
  1095.6000      7.9832      2.5441      0.0185      6.4154     57.3774
  1095.7000      7.9832      2.5334      0.0074      7.0696     60.2700
  1095.8000      7.9842      2.5299     -0.0261      7.2782     62.3626
  1095.9000      7.9842      2.5491      0.0276      6.1142     63.3806
  1096.0000      7.9845      2.5774      0.0468      4.4012     62.6751
  1096.1000      7.9845      2.6008      0.0190      2.9825     60.2460
  1096.2000      7.9845      2.6158      0.0960      2.0725     57.0457
  1096.3000      7.9838      2.6126      0.0686      2.2692     55.7285
  1096.4000      7.9838      2.5983      0.0326      3.1306     56.3556
  1096.5000      7.9838      2.5936      0.0279      3.4177     55.7011
  1096.6000      7.9838      2.6020      0.0349      2.9093     55.2316
  1096.7000      7.9838      2.6118      0.0691      2.3171     57.6662
  1096.8000      7.9835      2.6122      0.0601      2.2918     58.6957
  1096.9000      7.9835      2.6011      0.0487      2.9621     56.6249
  1097.0000      7.9830      2.5830      0.0342      4.0613     56.0079
  1097.1000      7.9830      2.5697      0.0263      4.8655     56.7450
  1097.2000      7.9830      2.5715      0.0082      4.7584     55.8912
  1097.3000      7.9838      2.5775      0.0559      4.3913     54.4113
  1097.4000      7.9838      2.5733      0.0005      4.6459     54.3225
  1097.5000      7.9847      2.5675      0.0297      4.9996     58.2987
  1097.6000      7.9847      2.5672      0.0682      5.0188     64.4342
  1097.7000      7.9847      2.5697      0.0405      4.8691     64.5752
  1097.8000      7.9837      2.5849      0.0498      3.9425     59.8923
  1097.9000      7.9837      2.6217      0.0697      1.7182     58.7974
  1098.0000      7.9823      2.6629      0.1452     -0.7826     61.9851
  1098.1000      7.9823      2.6897      0.0969     -2.4082     63.4058
  1098.2000      7.9823      2.7118      0.0958     -3.7472     60.3605
  1098.3000      7.9818      2.7436      0.1173     -5.6753     57.1959
  1098.4000      7.9818      2.7752      0.1458     -7.5856     58.8255
  1098.5000      7.9819      2.7825      0.1603     -8.0322     62.0136
  1098.6000      7.9819      2.7560      0.1238     -6.4222     61.2794
  1098.7000      7.9819      2.7124      0.0338     -3.7794     60.1085
  1098.8000      7.9820      2.6722     -0.0159     -1.3431     62.6201
  1098.9000      7.9820      2.6323     -0.0269      1.0710     65.2789
  1099.0000      7.9835      2.5929     -0.0924      3.4630     63.1614
  1099.1000      7.9835      2.5734     -0.0264      4.6394     57.6222
  1099.2000      7.9835      2.5790     -0.0010      4.3016     54.7136
  1099.3000      7.9855      2.5958      0.0311      3.2839     58.4891
  1099.4000      7.9855      2.6059      0.0882      2.6745     65.0824
  1099.5000      7.9859      2.5979      0.0592      3.1553     67.9836
  1099.6000      7.9859      2.5821      0.0526      4.1160     67.8413
  1099.7000      7.9859      2.5701      0.0386      4.8435     68.7597
  1099.8000      7.9856      2.5558      0.0502      5.7096     70.4643
  1099.9000      7.9856      2.5370     -0.0156      6.8484     71.1905
  1100.0000      7.9855      2.5258      0.0314      7.5298     71.5656
  1100.1000      7.9855      2.5352     -0.0277      6.9602     69.8818
  1100.2000      7.9855      2.5647      0.0361      5.1686     65.4928
  1100.3000      7.9847      2.5892      0.0420      3.6835     63.5615
  1100.4000      7.9847      2.5899      0.0234      3.6395     65.6048
  1100.5000      7.9839      2.5735      0.0304      4.6336     68.5430
  1100.6000      7.9839      2.5533      0.0143      5.8589     71.4478
  1100.7000      7.9839      2.5479     -0.0493      6.1881     73.8876
  1100.8000      7.9844      2.5640      0.0242      5.2144     73.8192
  1100.9000      7.9844      2.5754      0.0672      4.5185     70.0087
  1101.0000      7.9853      2.5636      0.0449      5.2382     64.3152
  1101.1000      7.9853      2.5415      0.0078      6.5781     60.2203
  1101.2000      7.9853      2.5264      0.0022      7.4920     59.5605
  1101.3000      7.9845      2.5208      0.0279      7.8317     61.9884
  1101.4000      7.9845      2.5224     -0.0025      7.7359     67.8273
  1101.5000      7.9832      2.5340     -0.0057      7.0304     73.4925
  1101.6000      7.9832      2.5501      0.0368      6.0532     73.2922
  1101.7000      7.9832      2.5564      0.0136      5.6706     69.3944
  1101.8000      7.9824      2.5506      0.0177      6.0224     67.1459
  1101.9000      7.9824      2.5426      0.0142      6.5086     66.8570
  1102.0000      7.9811      2.5372      0.0057      6.8340     67.2125
  1102.1000      7.9811      2.5336      0.0223      7.0526     68.9805
  1102.2000      7.9811      2.5355     -0.0180      6.9369     71.4245
  1102.3000      7.9789      2.5382      0.0623      6.7775     71.8983
  1102.4000      7.9789      2.5309      0.0036      7.2208     71.6902
  1102.5000      7.9774      2.5209      0.0286      7.8234     74.1438
  1102.6000      7.9774      2.5174      0.0278      8.0391     78.4606
  1102.7000      7.9774      2.5222      0.0187      7.7429     83.2754
  1102.8000      7.9775      2.5375      0.0301      6.8180     87.8017
  1102.9000      7.9775      2.5524      0.0777      5.9159     91.0357
  1103.0000      7.9780      2.5551      0.0722      5.7522     92.2396
  1103.1000      7.9780      2.5526      0.0175      5.9032     90.4703
  1103.2000      7.9780      2.5500      0.0570      6.0622     87.7463
  1103.3000      7.9764      2.5394      0.0619      6.7038     88.9987
  1103.4000      7.9764      2.5271      0.0221      7.4514     93.7098
  1103.5000      7.9734      2.5328      0.0409      7.1023     98.3759
  1103.6000      7.9734      2.5601      0.0542      5.4467    101.9433
  1103.7000      7.9734      2.5985      0.0452      3.1227    104.7575
  1103.8000      7.9688      2.6343      0.0621      0.9513    108.7199
  1103.9000      7.9688      2.6493      0.0969      0.0434    111.7884
  1104.0000      7.9638      2.6439      0.0430      0.3720    109.5763
  1104.1000      7.9638      2.6447      0.0572      0.3196    106.1262
  1104.2000      7.9638      2.6590      0.1148     -0.5443    106.7589
  1104.3000      7.9614      2.6708      0.0893     -1.2589    109.3158
  1104.4000      7.9614      2.6729      0.0816     -1.3901    111.5215
  1104.5000      7.9614      2.6652      0.0610     -0.9227    113.0976
  1104.6000      7.9614      2.6577      0.0081     -0.4661    111.4350
  1104.7000      7.9614      2.6671      0.0107     -1.0358    105.6168
  1104.8000      7.9648      2.6884      0.0543     -2.3291    100.5342
  1104.9000      7.9648      2.6933      0.0915     -2.6271     98.8057
  1105.0000      7.9729      2.6704      0.0658     -1.2393     99.6687
  1105.1000      7.9729      2.6435      0.0156      0.3949    103.8197
  1105.2000      7.9729      2.6276      0.0439      1.3563    109.3116
  1105.3000      7.9816      2.6061      0.0378      2.6619    113.1420
  1105.4000      7.9816      2.5771     -0.0034      4.4162    113.8089
  1105.5000      7.9859      2.5700     -0.0469      4.8509    110.9809
  1105.6000      7.9859      2.5909      0.0373      3.5817    109.4553
  1105.7000      7.9859      2.6123      0.0329      2.2878    111.1514
  1105.8000      7.9869      2.6122      0.0580      2.2937    111.3604
  1105.9000      7.9869      2.5881      0.0093      3.7545    109.3680
  1106.0000      7.9866      2.5637     -0.0486      5.2295    107.3605
  1106.1000      7.9866      2.5668     -0.0274      5.0429    104.0308
  1106.2000      7.9866      2.5876      0.0320      3.7816    100.1321
