~Version Information
VERS.                      2.0: CWLS Log ASCII Standard - VERSION 2.0
WRAP.                       NO: One line per depth step
~Well Information Block
STRT.FT               686.2000: 
STOP.FT              1252.7000: 
STEP.FT                 0.1000: 
NULL.                -999.2500: 
COMP.          Pioneer Natural Resources: COMPANY
WELL.          Rock Island 44-24 Tr: WELL
FLD.           Purgatoire River: FIELD
LOC.           814' FSL & 761' FEL--: LOCATION
CNTY.               Las Animas: COUNTY
SRVC.                Patterson: SERVICE COMPANY
DATE.          Thu Apr 20 08:34:45 2006: LOG DATE
UWI.           05 071 08680 00: UNIQUE WELL ID
STAT.                 Colorado: STATE
~Curve Information Block
DEPT.FT            0 000 00 00: Depth
DCAL.in                       : CDL Caliper
RHOB.g/cc                     : CDL Bulk Density
RHOC.g/cc                     : CDL Density Correction
DPOR.pu                       : CDL Density Porosity
GR.GAPI                       : Gamma Ray
~Parameter Information Block
~A  Depth       DCAL        RHOB        RHOC        DPOR         GR     
# ...
   977.4000      8.3796      1.2352     -0.1698     85.7434     91.7842
   977.5000      8.4200      1.1925     -0.1082     88.3355     78.7379
   977.6000      8.4200      1.2318      0.0416     85.9513     67.2612
   977.7000      8.4200      1.3455      0.1814     79.0591     61.2608
   977.8000      8.4255      1.5084      0.2791     69.1888     60.0607
   977.9000      8.4255      1.6944      0.3825     57.9151     62.1690
   978.0000      8.3951      1.8798      0.4601     46.6776     65.7422
   978.1000      8.3951      2.0431      0.5225     36.7842     67.9126
   978.2000      8.3951      2.1775      0.5048     28.6368     69.6715
   978.3000      8.3574      2.3022      0.5010     21.0799     73.3301
   978.4000      8.3574      2.4296      0.5229     13.3595     78.2237
   978.5000      8.2550      2.5348      0.4685      6.9796     82.8140
   978.6000      8.2550      2.5902      0.3659      3.6236     85.6565
   978.7000      8.2550      2.6088      0.2126      2.4958     85.1765
   978.8000      8.0849      2.6282      0.1741      1.3214     82.1166
   978.9000      8.0849      2.6627      0.1692     -0.7695     81.2729
   979.0000      7.9829      2.6908      0.1795     -2.4750     85.5753
   979.1000      7.9829      2.6914      0.0976     -2.5117     90.9139
   979.2000      7.9829      2.6777      0.0429     -1.6779     96.4139
   979.3000      7.9611      2.6688      0.0878     -1.1387    103.4493
   979.4000      7.9611      2.6612      0.0424     -0.6808    107.9464
   979.5000      7.9597      2.6495      0.0661      0.0322    107.6003
   979.6000      7.9597      2.6366      0.0450      0.8120    107.4987
   979.7000      7.9597      2.6271      0.0635      1.3855    110.6934
   979.8000      7.9613      2.6199      0.0303      1.8235    112.8242
   979.9000      7.9613      2.6077      0.0420      2.5647    111.6732
   980.0000      7.9623      2.5882     -0.0067      3.7475    110.2632
   980.1000      7.9623      2.5684      0.0643      4.9430    111.4321
   980.2000      7.9623      2.5565     -0.0024      5.6652    114.9842
   980.3000      7.9629      2.5552      0.0346      5.7480    119.6667
   980.4000      7.9629      2.5525      0.0792      5.9068    124.5167
   980.5000      7.9620      2.5470     -0.0039      6.2422    127.7469
   980.6000      7.9620      2.5509      0.0328      6.0038    129.4626
   980.7000      7.9620      2.5601      0.0209      5.4461    132.8109
   980.8000      7.9620      2.5591      0.0542      5.5075    135.9489
   980.9000      7.9620      2.5431      0.0144      6.4772    133.8567
   981.0000      7.9652      2.5270      0.0024      7.4549    130.2471
   981.1000      7.9652      2.5236     -0.0029      7.6587    131.1271
   981.2000      7.9652      2.5249      0.0458      7.5815    133.3518
   981.3000      7.9678      2.5205      0.0555      7.8497    133.5646
   981.4000      7.9678      2.5201      0.0299      7.8729    135.8952
   981.5000      7.9684      2.5315      0.0612      7.1799    138.8460
   981.6000      7.9684      2.5400      0.0786      6.6677    135.8600
   981.7000      7.9684      2.5349      0.0392      6.9754    130.5004
   981.8000      7.9667      2.5205      0.0585      7.8485    129.1732
   981.9000      7.9667      2.5032      0.0316      8.8957    129.1902
   982.0000      7.9602      2.4906      0.0626      9.6636    126.9201
   982.1000      7.9602      2.4890      0.0393      9.7570    126.0765
   982.2000      7.9602      2.4982      0.0807      9.1971    127.1135
   982.3000      7.9507      2.5132      0.0647      8.2889    126.7926
   982.4000      7.9507      2.5343      0.0966      7.0144    126.2566
   982.5000      7.9413      2.5556      0.1368      5.7228    126.8841
   982.6000      7.9413      2.5677      0.1112      4.9893    126.6987
   982.7000      7.9413      2.5769      0.0713      4.4278    126.9771
   982.8000      7.9359      2.5948      0.0627      3.3440    131.6236
   982.9000      7.9359      2.6125      0.1219      2.2719    135.3773
   983.0000      7.9347      2.6133      0.0927      2.2242    132.3533
   983.1000      7.9347      2.5973      0.0885      3.1952    127.1756
   983.2000      7.9347      2.5704      0.0383      4.8219    124.8073
   983.3000      7.9354      2.5459      0.0290      6.3117    123.5660
   983.4000      7.9354      2.5432     -0.0113      6.4703    118.5942
   983.5000      7.9399      2.5593      0.0658      5.4956    111.3728
   983.6000      7.9399      2.5714      0.0431      4.7666    108.9901
   983.7000      7.9399      2.5736      0.0527      4.6318    112.2944
   983.8000      7.9484      2.5721      0.0553      4.7226    116.9894
   983.9000      7.9484      2.5742      0.0383      4.5927    122.9318
   984.0000      7.9521      2.5861      0.0677      3.8757    130.4657
   984.1000      7.9521      2.5966      0.0935      3.2374    135.1937
   984.2000      7.9521      2.5899      0.0586      3.6440    132.4539
   984.3000      7.9482      2.5728      0.0143      4.6765    123.8986
   984.4000      7.9482      2.5604      0.0439      5.4313    118.7409
   984.5000      7.9395      2.5510      0.0481      6.0013    123.9940
   984.6000      7.9395      2.5422      0.0136      6.5354    132.9422
   984.7000      7.9395      2.5421     -0.0020      6.5398    132.6950
   984.8000      7.9299      2.5489      0.0621      6.1257    122.1991
   984.9000      7.9299      2.5457      0.0693      6.3233    112.8512
   985.0000      7.9210      2.5307      0.0043      7.2316    111.6513
   985.1000      7.9210      2.5222      0.0107      7.7437    114.2471
   985.2000      7.9210      2.5316      0.0074      7.1731    115.2200
   985.3000      7.9105      2.5560      0.0473      5.6965    114.1626
   985.4000      7.9105      2.5798      0.0792      4.2571    112.0401
   985.5000      7.9007      2.5927      0.0776      3.4736    110.0653
   985.6000      7.9007      2.6042      0.0700      2.7784    108.6936
   985.7000      7.9007      2.6196      0.0755      1.8436    104.6301
   985.8000      7.8957      2.6355      0.0644      0.8760     95.8984
   985.9000      7.8957      2.6607      0.0813     -0.6476     85.3330
   986.0000      7.8964      2.7044      0.0891     -3.2995     75.7578
   986.1000      7.8964      2.7548      0.1202     -6.3531     68.5721
   986.2000      7.8964      2.7833      0.1404     -8.0772     63.8408
   986.3000      7.9003      2.7777      0.0706     -7.7406     61.1645
   986.4000      7.9003      2.7469      0.1205     -5.8731     61.3420
   986.5000      7.9060      2.6925      0.0847     -2.5759     62.9108
   986.6000      7.9060      2.6316     -0.0335      1.1141     62.1407
   986.7000      7.9060      2.5976     -0.0048      3.1734     58.4596
   986.8000      7.9188      2.5981      0.0189      3.1439     56.5747
   986.9000      7.9188      2.6196      0.0313      1.8415     60.8971
   987.0000      7.9391      2.6417      0.0961      0.5035     69.9670
   987.1000      7.9391      2.6457      0.0564      0.2581     80.0043
   987.2000      7.9391      2.6378     -0.0046      0.7403     86.9338
   987.3000      7.9548      2.6318      0.0700      1.1054     88.2754
   987.4000      7.9548      2.6286      0.0444      1.2948     88.4327
   987.5000      7.9595      2.6335      0.0168      0.9981     93.5505
   987.6000      7.9595      2.6424      0.0756      0.4589    100.0936
   987.7000      7.9595      2.6353      0.0910      0.8921    102.8511
   987.8000      7.9580      2.6154      0.0500      2.0998    106.5454
   987.9000      7.9580      2.6054      0.0681      2.7005    115.7572
   988.0000      7.9564      2.6108      0.0575      2.3732    125.7449
   988.1000      7.9564      2.6246      0.0583      1.5415    129.7461
   988.2000      7.9564      2.6373      0.0585      0.7701    122.7262
   988.3000      7.9570      2.6413      0.0424      0.5271    107.5717
   988.4000      7.9570      2.6412      0.0576      0.5350     97.5626
   988.5000      7.9574      2.6428      0.0431      0.4394     97.5432
