~Version Information
VERS.                      2.0: CWLS Log ASCII Standard - VERSION 2.0
WRAP.                       NO: One line per depth step
~Well Information Block
STRT.FT                -7.2500: 
STOP.FT              1334.7500: 
STEP.FT                 0.2500: 
NULL.                -999.2500: 
COMP.          Pioneer Natural Resources: COMPANY
WELL.          Buffet 41-36 Tr: WELL
FLD.           Purgatorie River: FIELD
LOC.           119' FNL & 271' FEL--: LOCATION
PROV.                       CO: PROVINCE
CNTY.               Las Animas: COUNTRY
SRVC.          Patterson Wireline: SERVICE COMPANY
DATE.          Tue Jan 03 09:43:31 2006: LOG DATE
UWI.           05 071 08627 00: UNIQUE WELL ID
~Curve Information Block
DEPT.FT            0 000 00 00: Depth
CCL.                          : Casing Collar Locator
TT3.usec                      : CBL 3' Travel Time
AMP3.mV                       : CBL 3' Amplitude
GR.GAPI                       : Gamma Ray
~Parameter Information Block
~A  Depth       CCL         TT3         AMP3         GR     
# ...
   327.7500      0.0000    800.8082      8.9399     75.4300
   328.0000      0.0000    772.6391      8.8973     80.1932
   328.2500      0.0000    747.5079      8.8522     88.5726
   328.5000      0.0000    726.5406      8.8147     97.5961
   328.7500      0.0000    710.4214      8.7815    103.3690
   329.0000      0.0000    699.6822      8.7352    104.1669
   329.2500      0.0000    693.7521      8.6609    101.3370
   329.5000      0.0000    691.0317      8.5563     97.2888
   329.7500      0.0000    689.9119      8.4271     93.3249
   330.0000      0.0000    689.4310      8.2865     89.6827
   330.2500      0.0000    689.2405      8.1575     86.9222
   330.5000      0.0000    689.3224      8.0651     86.2622
   330.7500      0.0000    689.7209      8.0183     88.3188
   331.0000      0.0000    690.5517      8.0011     92.1117
   331.2500      0.0000    692.3280      7.9773     96.0785
   331.5000      0.0000    696.3577      7.9108     99.8951
   331.7500      0.0000    704.2749      7.7912    104.3978
   332.0000      0.0000    715.9537      7.6439    109.5681
   332.2500      0.0000    727.4156      7.5107    113.5823
   332.5000      0.0000    732.3891      7.4193    114.5477
   332.7500      0.0000    727.6790      7.3731    112.4443
   333.0000      0.0000    716.3755      7.3602    108.6493
   333.2500      0.0000    704.7192      7.3620    104.1944
   333.5000      0.0000    696.7701      7.3556     99.2453
   333.7500      0.0000    692.8041      7.3219     93.8345
   334.0000      0.0000    691.2758      7.2584     88.4616
   334.2500      0.0000    690.7903      7.1834     83.9108
   334.5000      0.0000    690.5997      7.1204     80.5944
   334.7500      0.0000    690.3795      7.0795     78.1908
   335.0000      0.0000    690.0522      7.0595     76.0759
   335.2500      0.0000    689.6982      7.0628     74.1689
   335.5000      0.0000    689.4737      7.0983     73.2585
   335.7500      0.0000    689.4719      7.1615     74.3555
   336.0000      0.0000    689.6398      7.2216     77.5800
   336.2500      0.0000    689.8120      7.2379     81.7265
   336.5000      0.0000    689.8364      7.1915     85.0493
   336.7500      0.0000    689.6760      7.1025     86.4662
   337.0000      0.0000    689.3923      7.0187     86.1868
   337.2500      0.0000    689.0537      6.9859     85.4600
   337.5000      0.0000    688.6840      7.0218     85.7026
   337.7500      0.0000    688.2837      7.1147     87.5566
   338.0000      0.0000    687.8674      7.2384     90.4635
   338.2500      0.0000    687.4806      7.3673     92.9372
   338.5000      0.0000    687.1952      7.4805     93.3850
   338.7500      0.0000    687.0939      7.5620     91.2071
   339.0000      0.0000    687.2842      7.6010     87.4190
   339.2500      0.0000    688.0018      7.5926     83.9925
   339.5000      0.0000    689.8244      7.5416     82.3830
   339.7500      0.0000    693.7704      7.4672     82.6292
   340.0000      0.0000    700.7846      7.4035     83.5130
   340.2500      0.0000    710.4135      7.3908     83.3552
   340.5000      0.0000    719.7637      7.4482     81.0923
   340.7500      0.0000    724.6134      7.5474     77.2202
   341.0000      0.0000    722.6781      7.6247     73.7861
   341.2500      0.0000    716.0261      7.6329     72.9809
   341.5000      0.0000    709.7535      7.5786     75.3503
   341.7500      0.0000    707.8292      7.5043     79.4469
   342.0000      0.0000    710.0190      7.4445     83.2560
   342.2500      0.0000    712.7684      7.4080     85.7465
   342.5000      0.0000    713.2263      7.3907     87.1338
   342.7500      0.0000    712.4077      7.3927     88.1015
   343.0000      0.0000    714.0756      7.4202     88.8450
   343.2500      0.0000    720.6114      7.4701     88.8004
   343.5000      0.0000    730.6274      7.5190     87.4669
   343.7500      0.0000    740.6874      7.5336     85.4513
   344.0000      0.0000    748.4852      7.4989     84.2929
   344.2500      0.0000    753.8401      7.4283     85.1855
   344.5000      0.0000    757.4682      7.3459     88.0068
   344.7500      0.0000    759.8809      7.2670     91.6104
   345.0000      0.0000    761.4059      7.1965     94.9117
   345.2500      0.0000    762.6246      7.1362     97.4909
   345.5000      0.0000    764.5974      7.0887     99.2067
   345.7500      0.0000    768.8076      7.0567     99.7512
   346.0000      0.0000    776.6428      7.0415     99.0456
   346.2500      0.0000    788.2400      7.0441     97.8881
   346.5000      0.0000    801.4348      7.0672     97.6570
   346.7500      0.0000    811.9826      7.1152     99.0804
   347.0000      0.0000    815.1570      7.1893    101.4228
   347.2500      0.0000    807.9459      7.2838    103.2344
   347.5000      0.0000    791.2065      7.3857    103.9735
   347.7500      0.0000    770.5510      7.4770    104.4730
   348.0000      0.0000    753.8317      7.5400    105.6544
   348.2500      0.0000    745.8182      7.5676    107.4059
   348.5000      0.0000    744.7791      7.5732    109.0743
   348.7500      0.0000    744.9143      7.5877    110.4425
   349.0000      0.0000    742.7274      7.6413    111.6551
   349.2500      0.0000    741.1613      7.7462    112.4566
   349.5000      0.0000    747.7667      7.8913    112.0156
   349.7500      0.0000    768.5600      8.0484    109.5317
   350.0000      0.0000    801.7411      8.1847    104.9548
   350.2500      0.0000    836.2291      8.2825     99.3424
   350.5000      0.0000    858.8854      8.3514     94.5987
   350.7500      0.0000    865.2415      8.4198     92.4301
   351.0000      0.0000    860.6955      8.5100     93.0746
   351.2500      0.0000    850.1490      8.6221     94.9616
   351.5000      0.0000    831.7635      8.7379     95.9331
   351.7500      0.0000    804.4254      8.8406     95.1573
   352.0000      0.0000    776.1030      8.9290     93.8431
   352.2500      0.0000    758.8210      9.0112     93.7873
   352.5000      0.0000    756.4631      9.0859     95.2978
   352.7500      0.0000    761.4225      9.1350     97.0199
   353.0000      0.0000    763.5519      9.1417     97.8132
   353.2500      0.0000    759.7595      9.1134     98.2056
   353.5000      0.0000    753.9063      9.0778     99.6782
   353.7500      0.0000    750.3479      9.0526    102.8009
   354.0000      0.0000    750.2162      9.0230    106.3450
   354.2500      0.0000    751.6473      8.9546    108.1661
   354.5000      0.0000    750.8842      8.8287    107.0012
   354.7500      0.0000    744.9860      8.6631    103.6335
   355.0000      0.0000    735.5889      8.4972    100.3163
   355.2500      0.0000    728.8066      8.3606     98.8970
   355.5000      0.0000    730.5056      8.2605     99.5298
   355.7500      0.0000    741.9332      8.1922    101.3399
   356.0000      0.0000    758.8544      8.1524    103.8606
   356.2500      0.0000    773.9736      8.1412    107.0616
   356.5000      0.0000    781.6174      8.1562    110.1227
   356.7500      0.0000    781.3852      8.1904    111.1740
   357.0000      0.0000    776.9301      8.2342    108.7309
   357.2500      0.0000    771.7524      8.2793    103.1198
   357.5000      0.0000    767.2175      8.3198     96.2770
   357.7500      0.0000    763.4088      8.3499     90.3772
   358.0000      0.0000    759.8235      8.3662     86.7720
   358.2500      0.0000    755.4068      8.3787     85.8182
   358.5000      0.0000    749.1093      8.4171     87.0567
   358.7500      0.0000    740.6900      8.5120     89.3234
   359.0000      0.0000    730.8309      8.6446     91.0771
   359.2500      0.0000    720.5107      8.7150     91.2881
   359.5000      0.0000    710.1918      8.5909     90.3041
   359.7500      0.0000    700.1643      8.2260     89.5184
   360.0000      0.0000    692.4148      7.7255     89.8677
   360.2500      0.0000    691.6013      7.2754     90.9744
   360.5000      0.0000    702.3963      7.0102     91.9953
   360.7500      0.0000    724.4603      6.9501     92.7187
   361.0000      0.0000    750.2175      7.0317     93.3475
