~Version Information
VERS.                      2.0: CWLS Log ASCII Standard - VERSION 2.0
WRAP.                       NO: One line per depth step
~Well Information Block
STRT.FT                -8.2500: 
STOP.FT              1653.2500: 
STEP.FT                 0.2500: 
NULL.                -999.2500: 
COMP.          Pioneer Natural Resources: COMPANY
WELL.            Relay 12-7 Tr: WELL
FLD.           Purgatorie River: FIELD
LOC.           2025' FNL & 790' FWL--: LOCATION
PROV.                       CO: PROVINCE
CNTY.               Las Animas: COUNTRY
SRVC.          Patterson Wireline: SERVICE COMPANY
DATE.          Tue Jan 24 10:25:08 2006: LOG DATE
UWI.           05 071 08603 00: UNIQUE WELL ID
~Curve Information Block
DEPT.FT            0 000 00 00: Depth
CCL.                          : Casing Collar Locator
TT3.usec                      : CBL 3' Travel Time
AMP3.mV                       : CBL 3' Amplitude
GR.GAPI                       : Gamma Ray
~Parameter Information Block
~A  Depth       CCL         TT3         AMP3         GR     
# ...
   427.2500      0.0000    385.3016      6.8460     96.8604
   427.5000      0.0000    385.3907      6.8616    101.0183
   427.7500      0.0000    385.3542      6.8910    106.2607
   428.0000      0.0000    385.3737      6.9410    112.2050
   428.2500      0.0000    385.9719      7.0121    118.0045
   428.5000      0.0000    388.6712      7.0930    122.1232
   428.7500      0.0000    397.0493      7.1633    123.3308
   429.0000      0.0000    416.9658      7.2051    121.7620
   429.2500      0.0000    453.7850      7.2138    118.6783
   429.5000      0.0000    506.7317      7.1986    115.5211
   429.7500      0.0000    565.6518      7.1730    113.3092
   430.0000      0.0000    615.6601      7.1470    112.4665
   430.2500      0.0000    646.6475      7.1249    112.8624
   430.5000      0.0000    658.4505      7.1088    114.0268
   430.7500      0.0000    657.9669      7.1018    115.3754
   431.0000      0.0000    652.9929      7.1091    116.4083
   431.2500      0.0000    648.3458      7.1335    116.9399
   431.5000      0.0000    645.5084      7.1691    117.0300
   431.7500      0.0000    644.1154      7.2017    116.5094
   432.0000      0.0000    643.4193      7.2178    114.9539
   432.2500      0.0000    642.9651      7.2142    112.4551
   432.5000      0.0000    642.6525      7.1972    109.8736
   432.7500      0.0000    642.7006      7.1734    107.7988
   433.0000      0.0000    643.6829      7.1439    105.7406
   433.2500      0.0000    646.4802      7.1053    102.9589
   433.5000      0.0000    651.8519      7.0546     99.7110
   433.7500      0.0000    659.6617      6.9941     97.0268
   434.0000      0.0000    668.4833      6.9307     95.4763
   434.2500      0.0000    676.2872      6.8731     94.8742
   434.5000      0.0000    681.7250      6.8267     95.2688
   434.7500      0.0000    684.7310      6.7925     97.5439
   435.0000      0.0000    686.0398      6.7673    102.5388
   435.2500      0.0000    686.3782      6.7431    109.7160
   435.5000      0.0000    686.0148      6.7036    117.2161
   435.7500      0.0000    684.6371      6.6261    123.2915
   436.0000      0.0000    681.4139      6.5015    127.2481
   436.2500      0.0000    675.5658      6.3588    129.0007
   436.5000      0.0000    667.5293      6.2532    128.5295
   436.7500      0.0000    659.7570      6.2071    126.2188
   437.0000      0.0000    655.5272      6.1791    123.1628
   437.2500      0.0000    656.1556      6.1178    120.4845
   437.5000      0.0000    659.9399      6.0261    118.4217
   437.7500      0.0000    664.8455      5.9453    116.3361
   438.0000      0.0000    671.3967      5.8971    113.6267
   438.2500     -2.0000    681.0445      5.8711    110.4847
   438.5000      2.0000    692.1309      5.8512    107.6357
   438.7500      0.0000    699.6824      5.8449    105.4443
   439.0000      0.0000    699.7886      5.8918    103.4375
   439.2500      0.0000    693.3383      6.0319    100.7370
   439.5000      0.0000    685.2927      6.2454     97.0224
   439.7500      0.0000    680.7515      6.4436     93.0665
   440.0000      0.0000    681.7059      6.5519     90.1586
   440.2500      0.0000    686.7664      6.5798     88.8737
   440.5000      0.0000    692.9072      6.5841     88.5682
   440.7500      0.0000    697.3026      6.5949     88.1923
   441.0000      0.0000    698.4720      6.6068     87.3760
   441.2500      0.0000    696.7401      6.6108     86.6111
   441.5000      0.0000    693.6951      6.6060     86.5889
   441.7500      0.0000    690.9128      6.5912     87.4786
   442.0000      0.0000    689.0644      6.5613     88.6739
   442.2500      0.0000    688.0008      6.5140     89.1337
   442.5000      0.0000    687.3260      6.4552     88.0576
   442.7500      0.0000    686.7751      6.3948     85.4359
   443.0000      0.0000    686.2590      6.3404     82.1503
   443.2500      0.0000    685.7755      6.2954     79.4719
   443.5000      0.0000    685.3416      6.2609     78.0860
   443.7500      0.0000    684.9710      6.2361     77.5158
   444.0000      0.0000    684.6685      6.2175     76.7319
   444.2500      0.0000    684.4286      6.2003     75.2378
   444.5000      0.0000    684.2451      6.1800     73.3233
   444.7500      0.0000    684.1160      6.1536     71.5639
   445.0000      0.0000    684.0364      6.1218     70.4643
   445.2500      0.0000    683.9907      6.0894     70.4473
   445.5000      0.0000    683.9601      6.0635     71.8509
   445.7500      0.0000    683.9329      6.0489     74.7091
   446.0000      0.0000    683.9065      6.0465     78.2363
   446.2500      0.0000    683.8787      6.0544     80.8807
   446.5000      0.0000    683.8456      6.0687     81.7182
   446.7500      0.0000    683.8120      6.0838     81.9459
   447.0000      0.0000    683.8004      6.0964     84.1637
   447.2500      0.0000    683.8405      6.1101     89.6294
   447.5000      0.0000    683.9379      6.1354     96.5251
   447.7500      0.0000    684.0578      6.1838    101.2317
   448.0000      0.0000    684.1506      6.2606    101.0533
   448.2500      0.0000    684.1925      6.3596     95.7971
   448.5000      0.0000    684.1992      6.4630     87.5705
   448.7500      0.0000    684.2021      6.5462     79.5760
   449.0000      0.0000    684.2104      6.5867     74.5343
   449.2500      0.0000    684.1603      6.5720     73.4368
   449.5000      0.0000    683.8352      6.5043     75.5227
   449.7500      0.0000    682.7438      6.4030     79.4115
   450.0000      0.0000    680.0842      6.3005     84.0682
   450.2500      0.0000    675.0826      6.2325     88.6029
   450.5000      0.0000    667.7402      6.2230     91.5391
   450.7500      0.0000    659.3484      6.2733     91.1844
   451.0000      0.0000    652.0486      6.3612     87.1205
   451.2500      0.0000    647.7699      6.4532     80.9632
   451.5000      0.0000    647.5703      6.5202     75.3877
   451.7500      0.0000    651.5663      6.5435     72.4642
   452.0000      0.0000    658.8455      6.5148     72.5603
   452.2500      0.0000    667.4384      6.4389     74.1928
   452.5000      0.0000    675.0393      6.3374     74.9367
   452.7500      0.0000    680.2273      6.2467     73.1654
   453.0000      0.0000    683.0032      6.2037     69.3936
   453.2500      0.0000    684.2264      6.2270     65.8679
   453.5000      0.0000    684.7603      6.3080     64.7185
   453.7500      0.0000    685.0839      6.4182     66.5262
   454.0000      0.0000    685.3608      6.5270     70.5610
   454.2500      0.0000    685.6125      6.6165     76.0250
   454.5000      0.0000    685.8235      6.6842     82.7269
   454.7500      0.0000    685.9882      6.7355     90.7276
   455.0000      0.0000    686.1272      6.7768     99.7826
   455.2500      0.0000    686.2843      6.8139    109.1554
   455.5000      0.0000    686.5089      6.8540    117.6579
   455.7500      0.0000    686.8431      6.9069    123.9196
   456.0000      0.0000    687.3731      6.9797    127.0929
   456.2500      0.0000    688.4045      7.0698    127.5358
   456.5000      0.0000    690.7568      7.1636    126.6369
   456.7500      0.0000    695.8644      7.2428    125.7620
   457.0000      0.0000    705.1443      7.2930    125.3364
   457.2500      0.0000    718.6601      7.3094    124.9970
   457.5000      0.0000    734.3151      7.2967    124.5793
   457.7500      0.0000    748.7894      7.2646    124.5780
   458.0000      0.0000    759.3519      7.2212    125.3973
   458.2500      0.0000    764.8464      7.1709    126.6131
   458.5000      0.0000    765.9235      7.1175    127.4469
   458.7500      0.0000    765.2450      7.0680    127.6346
   459.0000      0.0000    766.5789      7.0316    127.3394
   459.2500      0.0000    772.2386      7.0127    126.5400
   459.5000      0.0000    781.3567      7.0066    125.0675
   459.7500      0.0000    791.0247      7.0019    123.2814
   460.0000      0.0000    798.7109      6.9869    122.4230
   460.2500      0.0000    803.5056      6.9565    123.9029
   460.5000      0.0000    805.8474      6.9132    127.9733
