~Version Information
 VERS.                                  2.0 : CWLS LAS VERSION
 WRAP.                                   NO : WRAPING MODE
 SWARE .                 MController 2.5.0N : SOFTWARE VERSION
~Well Information
 WELL.                         Andrew 23-15 : WELL
 COMP.    Pioneer Natural Resources USA Inc : COMPANY
 FLD.                      Purgatoire River : FIELD
 LOC.               NE/SW Sec 15 T32S  R65W : LOCATION
 DATE.                             08/12/05 : DATE(S) LOGGED
 SRVC.       BLANCO Geological Services LLC : SERVICE COMPANY
 STAT.                                   CO : STATE
 CNTY.                           Las Animas : COUNTY
 CTRY.                                  USA : COUNTRY
 API.                       05 071 08460 00 : API NUMBER
 STRT.FT                             447.00 : START DEPTH
 STOP.FT                            1521.00 : STOP DEPTH
 STEP.FT                               1.00 : DEPTH INCREMENT
 NULL.                                -9999 : NULL VALUE
~Curve information
 DEPTH.FT                                   :
 ROP.MIN/FT                                 :
 GAS.UNITS                                  :
~ASCII Log data
# ...
      1047.0         0.53          0.1 
      1048.0         0.48          0.1 
      1049.0         0.33          0.2 
      1050.0         0.30          0.3 
      1051.0         0.47          0.4 
      1052.0         0.40          0.5 
      1053.0         0.40          0.4 
      1054.0         0.37          0.3 
      1055.0         0.50          0.6 
      1056.0         0.45          0.5 
      1057.0         0.53          0.5 
      1058.0         0.40          0.2 
      1059.0         0.70          0.6 
      1060.0         0.53          0.6 
      1061.0         0.43          0.7 
      1062.0         0.65          0.6 
      1063.0         0.40          0.4 
      1064.0         0.53          0.7 
      1065.0         0.70          5.3 
      1066.0         0.63          6.7 
      1067.0         0.57          2.6 
      1068.0         0.35          0.5 
      1069.0         0.63          0.3 
      1070.0         0.37          0.5 
      1071.0         0.77          0.3 
      1072.0         9.85       1504.2 
      1073.0         0.37          0.1 
      1074.0         0.27          0.1 
      1075.0         0.47          0.1 
      1076.0         0.37          0.2 
      1077.0         0.48          0.3 
      1078.0         0.30          0.3 
      1079.0         0.60          0.3 
      1080.0         0.30          0.8 
      1081.0         0.47          0.6 
      1082.0         0.43          0.6 
      1083.0         0.47          0.7 
      1084.0         0.48          0.6 
      1085.0         0.47          0.5 
      1086.0         0.40          0.6 
      1087.0         0.37          0.6 
      1088.0         0.93          0.6 
      1089.0         0.43          0.3 
      1090.0         0.68          0.5 
      1091.0         0.43          0.6 
      1092.0         0.57          0.3 
      1093.0         0.77          0.2 
      1094.0         0.70          0.4 
      1095.0         0.63          0.3 
      1096.0         0.42          0.3 
      1097.0         0.43          0.3 
      1098.0         0.60          0.3 
      1099.0         0.67          0.3 
      1100.0         0.80          0.3 
      1101.0         0.72          0.4 
      1102.0         3.68       1152.9 
      1103.0         0.73        440.0 
      1104.0         0.33         42.9 
      1105.0         0.73         21.8 
      1106.0         0.63          7.5 
      1107.0         0.35          0.3 
      1108.0         0.53          4.3 
      1109.0         0.20          9.6 
      1110.0         0.60         15.6 
      1111.0         0.47         14.6 
      1112.0         0.53         10.6 
      1113.0         0.20          6.7 
      1114.0         0.50          4.9 
      1115.0         0.38          2.7 
      1116.0         0.57          1.2 
      1117.0         0.53          0.2 
      1118.0         0.70          0.5 
      1119.0         0.57         -1.2 
      1120.0         0.40         -1.4 
      1121.0         0.55         -1.1 
      1122.0         0.50         -1.1 
      1123.0         0.40         -1.1 
      1124.0         0.50         -1.5 
      1125.0         0.50         -1.7 
      1126.0         0.30         -1.6 
      1127.0         0.50         -1.5 
      1128.0         0.20         -1.7 
      1129.0         0.62          6.3 
      1130.0         0.20         11.2 
      1131.0         0.40         21.0 
      1132.0        15.68       1299.5 
      1133.0         0.67          3.9 
      1134.0         0.20         10.8 
      1135.0         0.70         23.2 
      1136.0         0.63         21.7 
      1137.0         0.43         12.3 
      1138.0         0.58         16.1 
      1139.0         0.70         16.9 
      1140.0         0.27         10.6 
      1141.0         0.47          6.3 
      1142.0         0.47          1.0 
      1143.0         0.47          0.8 
      1144.0         0.30         -1.3 
      1145.0         0.55         -1.3 
      1146.0         0.47         -1.0 
      1147.0         0.40         -1.2 
      1148.0         0.57          0.8 
      1149.0         0.50          0.8 
      1150.0         0.50          0.8 
      1151.0         0.40          0.7 
      1152.0         0.20          0.9 
      1153.0         0.32          0.8 
      1154.0         0.40         -1.1 
      1155.0         0.60         -1.0 
      1156.0         0.40          0.7 
      1157.0         0.50          4.3 
      1158.0         0.40          9.4 
      1159.0         0.20         18.4 
      1160.0         0.30         23.4 
      1161.0         0.30         27.2 
      1162.0         3.40       1041.7 
      1163.0         0.27         10.4 
      1164.0         0.27          5.5 
      1165.0         0.53          1.8 
      1166.0         0.47          0.1 
      1167.0         0.57          0.7 
      1168.0         0.33          0.7 
      1169.0         0.77          0.8 
      1170.0         0.28         -1.0 
      1171.0         0.60          0.9 
      1172.0         0.40          2.8 
      1173.0         0.30          2.4 
      1174.0         0.40          1.2 
      1175.0         0.40          0.2 
      1176.0         0.80          0.2 
      1177.0         0.55          0.7 
      1178.0         0.20          1.6 
      1179.0         0.63          5.2 
      1180.0         0.30          5.3 
      1181.0         0.60          3.6 
      1182.0         0.40          0.1 
      1183.0         0.67          0.4 
      1184.0         0.68         10.4 
      1185.0         0.47         11.1 
      1186.0         0.77          6.2 
      1187.0         0.70          0.5 
      1188.0         0.80          2.7 
      1189.0         0.32          3.5 
      1190.0         0.73         14.3 
      1191.0         0.70         18.3 
      1192.0        15.82        409.6 
      1193.0         0.63         12.5 
      1194.0         1.07         21.4 
      1195.0         0.75         16.1 
      1196.0         0.97          9.2 
      1197.0         0.63         13.2 
      1198.0         0.70         10.8 
      1199.0         0.53          5.7 
      1200.0         0.78          4.0 
      1201.0         0.97         15.9 
      1202.0         0.73         22.4 
      1203.0         1.00         12.6 
      1204.0         0.92          3.6 
      1205.0         0.80          3.0 
      1206.0         0.77          6.4 
      1207.0         0.80          8.3 
      1208.0         0.65          6.4 
      1209.0         0.77          3.4 
      1210.0         0.43          0.9 
      1211.0         0.70          0.1 
      1212.0         0.90          0.1 
      1213.0         0.82          0.3 
      1214.0         0.60          2.0 
      1215.0         0.80          3.3 
      1216.0         0.60          2.8 
      1217.0         0.75          1.4 
      1218.0         0.60          1.3 
      1219.0         0.90          1.8 
      1220.0         0.80          8.1 
      1221.0         1.12          8.2 
      1222.0         8.00        934.7 
      1223.0         1.03         30.2 
      1224.0         0.37         16.1 
      1225.0         0.45         12.3 
      1226.0         0.47          7.9 
      1227.0         0.43          5.1 
      1228.0         0.43          2.8 
      1229.0         0.30          1.3 
      1230.0         0.73          0.5 
      1231.0         0.67          0.2 
      1232.0         0.45          0.6 
      1233.0         0.47          0.4 
      1234.0         0.67          0.3 
      1235.0         0.40          0.9 
      1236.0         0.50          0.1 
      1237.0         0.60          0.4 
      1238.0         0.42          0.3 
      1239.0         0.40          0.1 
      1240.0         0.70          0.0 
      1241.0         0.73          0.1 
      1242.0         0.43          0.1 
      1243.0         0.30          0.3 
      1244.0         0.50          0.7 
      1245.0         0.52          0.8 
      1246.0         0.43          1.2 
