~Version Information
VERS.                      2.0: CWLS Log ASCII Standard - VERSION 2.0
WRAP.                       NO: One line per depth step
~Well Information Block
STRT.FT               350.0000: 
STOP.FT              2803.2000: 
STEP.FT                 0.1000: 
NULL.                -999.2500: 
COMP.          Pioneer Natural Resources: COMPANY
WELL.          Grey Goose 33-30: WELL
FLD.           Purgatoire River: FIELD
LOC.           2136' FSL & 2065' FEL--: LOCATION
STAT.                 Colorado: State
CNTY.               Las Animas: COUNTY
CTRY. USA : Country
SECT. 30 : Section
TOWN. 32S : Township
RANG. 67W : Range
SRVC.                Patterson: SERVICE COMPANY
DATE.          Fri Nov 04 09:27:53 2005: LOG DATE
API.           05 071 08546 00: UNIQUE WELL ID
~Curve Information Block
DEPT.FT            0 000 00 00: Depth
DCAL.in                       : CDL Caliper
DPOR.pu                       : CDL Density Porosity
NPOR.pu                       : Neutron Porosity
RHOB.g/cc                     : CDL Bulk Density
RHOC.g/cc                     : CDL Density Correction
GR.GAPI                       : Gamma Ray
~Parameter Information Block
~A  Depth       DCAL        DPOR        NPOR        RHOB        RHOC         GR     
# ...
   839.6000      8.0336      2.0629     23.8511      2.6160      0.1526    121.0031
   839.7000      8.0336      1.5696     24.6512      2.6241      0.1139    123.7044
   839.8000      8.0354      0.7051     25.3136      2.6384      0.1324    116.1708
   839.9000      8.0354     -0.4059     25.7428      2.6567      0.1550    112.4000
   840.0000      8.0360     -0.7981     25.8565      2.6632      0.1377    115.6034
   840.1000      8.0360     -0.2689     25.8041      2.6544      0.0974    118.4758
   840.2000      8.0360     -0.1460     26.0131      2.6524      0.0264    118.9366
   840.3000      8.0345     -1.0361     26.2249      2.6671      0.1191    118.8563
   840.4000      8.0345     -1.1972     25.8908      2.6698      0.1228    117.9011
   840.5000      8.0290      0.1844     25.4187      2.6470      0.0148    113.1187
   840.6000      8.0290      1.9728     25.2933      2.6174      0.0280    104.7800
   840.7000      8.0290      3.7130     25.2147      2.5887      0.0189     99.1327
   840.8000      8.0251      5.2065     25.0304      2.5641     -0.0119    100.7716
   840.9000      8.0251      5.4575     24.9424      2.5600     -0.0054    106.2978
   841.0000      8.0292      4.5185     24.8185      2.5754      0.0415    111.2810
   841.1000      8.0292      3.6659     24.3590      2.5895      0.0483    113.4393
   841.2000      8.0292      3.3967     23.6681      2.5940      0.0588    113.2022
   841.3000      8.0354      3.4806     22.9170      2.5926      0.0710    113.7983
   841.4000      8.0354      3.9552     22.1945      2.5847      0.0581    114.8178
   841.5000      8.0386      4.8741     21.7652      2.5696      0.0229    112.3961
   841.6000      8.0386      5.6282     21.6084      2.5571      0.0212    106.6081
   841.7000      8.0386      5.3738     21.4138      2.5613      0.0451    100.9077
   841.8000      8.0389      4.3846     21.1001      2.5777      0.0896     96.3225
   841.9000      8.0389      4.2236     20.6729      2.5803      0.1031     92.2508
   842.0000      8.0369      5.6871     19.9577      2.5562      0.0580     88.6535
   842.1000      8.0369      7.5092     18.8345      2.5261      0.0370     85.9514
   842.2000      8.0369      8.0514     17.7618      2.5172      0.0282     85.5020
   842.3000      8.0340      7.0387     17.4040      2.5339      0.0373     87.1043
   842.4000      8.0340      5.4964     17.4772      2.5593      0.0465     88.9661
   842.5000      8.0340      4.8581     17.1788      2.5698      0.0721     88.2643
   842.6000      8.0340      5.5357     16.4892      2.5587      0.0852     82.8983
   842.7000      8.0340      6.4589     16.0814      2.5434      0.0065     77.5464
   842.8000      8.0360      6.6737     16.0624      2.5399      0.0279     77.4130
   842.9000      8.0360      6.5737     16.0260      2.5415      0.0452     78.5287
   843.0000      8.0399      6.8087     15.8336      2.5377      0.0426     75.1047
   843.1000      8.0399      6.8563     15.5792      2.5369      0.0169     70.1237
   843.2000      8.0399      6.1333     15.5737      2.5488      0.0593     68.2666
   843.3000      8.0497      5.5010     16.0214      2.5592      0.0846     67.8646
   843.4000      8.0497      5.4580     16.6305      2.5599      0.0480     67.4026
   843.5000      8.0619      5.1295     17.0357      2.5654      0.0100     68.3587
   843.6000      8.0619      4.7087     17.3582      2.5723      0.0685     68.5022
   843.7000      8.0619      5.5262     17.9758      2.5588      0.0540     65.7623
   843.8000      8.0674      7.2087     18.7548      2.5311      0.0033     62.5885
   843.9000      8.0674      7.9183     19.4957      2.5193     -0.0160     61.1773
   844.0000      8.0743      6.6591     20.3474      2.5401     -0.0115     62.3418
   844.1000      8.0743      4.0307     21.2436      2.5835      0.0420     64.4099
   844.2000      8.0743      2.1903     22.2558      2.6139      0.0963     66.1975
   844.3000      8.0851      3.5999     23.3845      2.5906      0.0927     68.7814
   844.4000      8.0851      9.2344     24.0989      2.4976      0.0459     72.3463
   844.5000      8.0892     18.2958     24.1395      2.3481     -0.0202     78.6119
   844.6000      8.0892     28.7847     23.7501      2.1751     -0.1187     88.8792
   844.7000      8.0892     38.8050     23.1916      2.0097     -0.1274     99.7861
   844.8000      8.0897     47.6622     22.5275      1.8636     -0.1921    106.6873
   844.9000      8.0897     54.9898     21.5987      1.7427     -0.2491    109.8370
   845.0000      8.1023     61.4182     20.4202      1.6366     -0.2415    113.3219
   845.1000      8.1023     68.7445     19.2529      1.5157     -0.2063    120.0756
   845.2000      8.1023     75.1885     18.2157      1.4094     -0.2343    128.8056
   845.3000      8.1493     73.9452     17.3547      1.4299     -0.2273    134.9126
   845.4000      8.1493     60.8667     16.8463      1.6457      0.0347    136.3523
   845.5000      8.2458     41.0819     16.8269      1.9721      0.5577    136.7301
   845.6000      8.2458     25.2400     17.2576      2.2335      0.7138    137.9346
   845.7000      8.2458     19.4483     17.7964      2.3291      0.7081    138.6241
   845.8000      8.4234     20.9933     18.2430      2.3036      0.4587    140.2514
   845.9000      8.4234     23.2063     18.9873      2.2671      0.3637    143.3150
   846.0000      8.7328     22.4775     20.3228      2.2791      0.3609    145.0513
   846.1000      8.7328     20.1116     21.7160      2.3182      0.3871    144.4845
   846.2000      8.7328     18.9944     22.7548      2.3366      0.3228    141.7610
   846.3000      9.0534     19.8605     23.6310      2.3223      0.2776    137.8474
   846.4000      9.0534     21.9072     24.3142      2.2885      0.2821    134.2431
   846.5000      9.1330     25.1838     24.4800      2.2345      0.2865    134.1012
   846.6000      9.1330     29.6478     24.0011      2.1608      0.2329    138.1743
   846.7000      9.1330     34.1146     23.2489      2.0871      0.2000    140.2718
   846.8000      8.8394     37.9830     22.5231      2.0233      0.1501    136.6243
   846.9000      8.8394     41.9276     21.6161      1.9582      0.1085    132.6673
   847.0000      8.3781     46.2008     20.4226      1.8877      0.0264    133.3424
   847.1000      8.3781     49.8052     19.3183      1.8282      0.0006    134.5522
   847.2000      8.3781     51.9213     18.7851      1.7933      0.0308    134.4545
   847.3000      8.1099     53.0988     18.6433      1.7739      0.0221    134.9978
   847.4000      8.1099     54.5881     18.1202      1.7493      0.0136    135.5710
   847.5000      8.0494     56.9172     17.0317      1.7109     -0.0462    135.0122
   847.6000      8.0494     59.6260     15.6918      1.6662     -0.0479    131.1568
   847.7000      8.0494     62.1721     14.3457      1.6242     -0.0673    125.2118
   847.8000      8.0492     64.1403     13.2644      1.5917     -0.0197    121.5111
   847.9000      8.0492     65.0533     12.4728      1.5766     -0.0398    118.9685
   848.0000      8.0519     64.7089     11.9602      1.5823      0.0464    115.8617
   848.1000      8.0519     63.3547     11.7612      1.6046      0.0517    112.9746
   848.2000      8.0519     60.7203     11.6118      1.6481      0.0154    109.8824
   848.3000      8.0501     56.1715     11.3717      1.7232      0.0478    109.5444
   848.4000      8.0501     49.9477     11.2780      1.8259      0.1131    114.1795
   848.5000      8.0505     43.1104     11.5223      1.9387      0.1652    117.1153
   848.6000      8.0505     36.6810     12.0259      2.0448      0.2183    113.0317
   848.7000      8.0505     30.9264     12.6552      2.1397      0.2079    108.3836
   848.8000      8.0541     25.7176     13.4459      2.2257      0.2494    111.9023
   848.9000      8.0541     21.4441     14.4422      2.2962      0.1984    122.7866
   849.0000      8.0577     18.9015     15.5351      2.3381      0.2373    133.4092
   849.1000      8.0577     19.0419     16.6320      2.3358      0.1675    138.3744
