~Version Information
VERS.                      2.0: CWLS Log ASCII Standard - VERSION 2.0
WRAP.                       NO: One line per depth step
~Well Information Block
STRT.FT               845.0000: 
STOP.FT              2103.2000: 
STEP.FT                 0.1000: 
NULL.                -999.2500: 
COMP.          Petrogulf Corporation: COMPANY
WELL.               YWAM 7-32R: WELL
FLD.           Purgatorie River: FIELD
LOC.           2355' FNL & 2376' FEL: LOCATION
PROV.                 Colorado: PROVINCE
CNTY.               Las Animas: COUNTRY
SRVC.                Patterson: SERVICE COMPANY
DATE.          Thu Sep 29 23:12:08 2005: LOG DATE
UWI.                          : UNIQUE WELL ID
~Curve Information Block
DEPT.FT            0 000 00 00: Depth
SP.mV                         : DIL Spontaneous Potential
RILD.Ohm-m                    : DIL Deep Resistivity
RILM.Ohm-m                    : DIL Medium Resistivity
RLL3.Ohm-m                    : DIL Shallow Resistivity
GR.GAPI                       : Gamma Ray
~Parameter Information Block
~A  Depth        SP         RILD        RILM        RLL3         GR     
# ...
  1841.8000    212.3172     15.8653     17.2279     14.9215    119.4649
  1841.9000    212.3172     15.8653     17.2279     14.9215    118.4647
  1842.0000    213.2436     15.4363     16.4249     14.0912    117.6007
  1842.1000    213.2436     15.4363     16.4249     14.0912    116.9179
  1842.2000    213.2436     15.4363     16.4249     14.0912    116.4238
  1842.3000    213.8822     15.0393     15.8080     13.8622    116.0911
  1842.4000    213.8822     15.0393     15.8080     13.8622    115.8527
  1842.5000    214.3259     14.6685     15.3477     13.9834    115.6217
  1842.6000    214.3259     14.6685     15.3477     13.9834    115.3041
  1842.7000    214.3259     14.6685     15.3477     13.9834    114.8125
  1842.8000    214.6648     14.3262     15.0158     14.2668    114.0901
  1842.9000    214.6648     14.3262     15.0158     14.2668    113.1166
  1843.0000    214.9722     14.0199     14.7871     14.5767    111.9127
  1843.1000    214.9722     14.0199     14.7871     14.5767    110.5416
  1843.2000    214.9722     14.0199     14.7871     14.5767    109.0965
  1843.3000    215.2984     13.7586     14.6397     14.8369    107.6888
  1843.4000    215.2984     13.7586     14.6397     14.8369    106.4355
  1843.5000    215.6709     13.5467     14.5531     15.0603    105.4454
  1843.6000    215.6709     13.5467     14.5531     15.0603    104.8116
  1843.7000    215.6709     13.5467     14.5531     15.0603    104.6002
  1843.8000    216.0975     13.3811     14.5074     15.3580    104.8513
  1843.9000    216.0975     13.3811     14.5074     15.3580    105.5747
  1844.0000    216.5716     13.2512     14.4811     15.8892    106.7486
  1844.1000    216.5716     13.2512     14.4811     15.8892    108.3249
  1844.2000    216.5716     13.2512     14.4811     15.8892    110.2339
  1844.3000    217.0818     13.1430     14.4515     16.7357    112.3867
  1844.4000    217.0818     13.1430     14.4515     16.7357    114.6839
  1844.5000    217.6219     13.0447     14.3965     17.7478    117.0241
  1844.6000    217.6219     13.0447     14.3965     17.7478    119.3148
  1844.7000    217.6219     13.0447     14.3965     17.7478    121.4768
  1844.8000    218.1949     12.9491     14.2977     18.5042    123.4482
  1844.9000    218.1949     12.9491     14.2977     18.5042    125.1905
  1845.0000    218.8038     12.8513     14.1440     18.5198    126.6842
  1845.1000    218.8038     12.8513     14.1440     18.5198    127.9273
  1845.2000    218.8038     12.8513     14.1440     18.5198    128.9321
  1845.3000    219.4350     12.7456     13.9335     17.6066    129.7121
  1845.4000    219.4350     12.7456     13.9335     17.6066    130.2870
  1845.5000    220.0475     12.6229     13.6726     16.0552    130.6752
  1845.6000    220.0475     12.6229     13.6726     16.0552    130.8940
  1845.7000    220.0475     12.6229     13.6726     16.0552    130.9601
  1845.8000    220.5748     12.4741     13.3727     14.4380    130.8953
  1845.9000    220.5748     12.4741     13.3727     14.4380    130.7280
  1846.0000    220.9399     12.2941     13.0468     13.2226    130.4949
  1846.1000    220.9399     12.2941     13.0468     13.2226    130.2435
  1846.2000    220.9399     12.2941     13.0468     13.2226    130.0296
  1846.3000    221.0736     12.0857     12.7067     12.5412    129.9135
  1846.4000    221.0736     12.0857     12.7067     12.5412    129.9484
  1846.5000    220.9338     11.8572     12.3614     12.2330    130.1821
  1846.6000    220.9338     11.8572     12.3614     12.2330    130.6418
  1846.7000    220.9338     11.8572     12.3614     12.2330    131.3377
  1846.8000    220.5195     11.6195     12.0183     12.0346    132.2564
  1846.9000    220.5195     11.6195     12.0183     12.0346    133.3647
  1847.0000    219.8739     11.3810     11.6840     11.7558    134.6079
  1847.1000    219.8739     11.3810     11.6840     11.7558    135.9162
  1847.2000    219.8739     11.3810     11.6840     11.7558    137.2058
  1847.3000    219.0700     11.1464     11.3652     11.3573    138.3846
  1847.4000    219.0700     11.1464     11.3652     11.3573    139.3672
  1847.5000    218.1857     10.9181     11.0685     10.9200    140.0751
  1847.6000    218.1857     10.9181     11.0685     10.9200    140.4552
  1847.7000    218.1857     10.9181     11.0685     10.9200    140.4842
  1847.8000    217.2827     10.6974     10.8000     10.5548    140.1761
  1847.9000    217.2827     10.6974     10.8000     10.5548    139.5784
  1848.0000    216.3979     10.4849     10.5636     10.3294    138.7742
  1848.1000    216.3979     10.4849     10.5636     10.3294    137.8590
  1848.2000    216.3979     10.4849     10.5636     10.3294    136.9420
  1848.3000    215.5490     10.2813     10.3605     10.2498    136.1252
  1848.4000    215.5490     10.2813     10.3605     10.2498    135.4999
  1848.5000    214.7462     10.0873     10.1881     10.2839    135.1442
  1848.6000    214.7462     10.0873     10.1881     10.2839    135.1157
  1848.7000    214.7462     10.0873     10.1881     10.2839    135.4534
  1848.8000    214.0017      9.9048     10.0412     10.3888    136.1759
  1848.9000    214.0017      9.9048     10.0412     10.3888    137.2818
  1849.0000    213.3353      9.7369      9.9129     10.5246    138.7373
  1849.1000    213.3353      9.7369      9.9129     10.5246    140.4809
  1849.2000    213.3353      9.7369      9.9129     10.5246    142.4146
  1849.3000    212.7715      9.5874      9.7961     10.6573    144.4126
  1849.4000    212.7715      9.5874      9.7961     10.6573    146.3286
  1849.5000    212.3308      9.4593      9.6853     10.7563    148.0060
  1849.6000    212.3308      9.4593      9.6853     10.7563    149.3021
  1849.7000    212.3308      9.4593      9.6853     10.7563    150.0968
  1849.8000    212.0154      9.3536      9.5776     10.7868    150.3159
  1849.9000    212.0154      9.3536      9.5776     10.7868    149.9299
  1850.0000    211.7997      9.2691      9.4726     10.7095    148.9635
  1850.1000    211.7997      9.2691      9.4726     10.7095    147.4883
  1850.2000    211.7997      9.2691      9.4726     10.7095    145.6141
  1850.3000    211.6285      9.2035      9.3727     10.5014    143.4732
  1850.4000    211.6285      9.2035      9.3727     10.5014    141.2129
  1850.5000    211.4260      9.1536      9.2813     10.1876    138.9829
  1850.6000    211.4260      9.1536      9.2813     10.1876    136.9233
  1850.7000    211.4260      9.1536      9.2813     10.1876    135.1609
  1850.8000    211.1157      9.1165      9.2023      9.8470    133.7980
  1850.9000    211.1157      9.1165      9.2023      9.8470    132.9135
  1851.0000    210.6472      9.0888      9.1387      9.5754    132.5552
  1851.1000    210.6472      9.0888      9.1387      9.5754    132.7392
  1851.2000    210.6472      9.0888      9.1387      9.5754    133.4515
  1851.3000    210.0171      9.0663      9.0921      9.4309    134.6522
  1851.4000    210.0171      9.0663      9.0921      9.4309    136.2751
  1851.5000    209.2669      9.0436      9.0627      9.4098    138.2376
  1851.6000    209.2669      9.0436      9.0627      9.4098    140.4455
  1851.7000    209.2669      9.0436      9.0627      9.4098    142.7899
  1851.8000    208.4598      9.0150      9.0484      9.4681    145.1562
  1851.9000    208.4598      9.0150      9.0484      9.4681    147.4252
  1852.0000    207.6509      8.9764      9.0456      9.5606    149.4787
  1852.1000    207.6509      8.9764      9.0456      9.5606    151.2038
  1852.2000    207.6509      8.9764      9.0456      9.5606    152.5128
  1852.3000    206.8698      8.9255      9.0488      9.6665    153.3404
  1852.4000    206.8698      8.9255      9.0488      9.6665    153.6666
  1852.5000    206.1215      8.8622      9.0509      9.7908    153.5127
  1852.6000    206.1215      8.8622      9.0509      9.7908    152.9398
  1852.7000    206.1215      8.8622      9.0509      9.7908    152.0460
  1852.8000    205.3976      8.7880      9.0433      9.9554    150.9413
  1852.9000    205.3976      8.7880      9.0433      9.9554    149.7408
