~Version Information
VERS.                      2.0: CWLS Log ASCII Standard - VERSION 2.0
WRAP.                       NO: One line per depth step
~Well Information Block
STRT.FT               570.0000: 
STOP.FT              2090.5000: 
STEP.FT                 0.1000: 
NULL.                -999.2500: 
COMP.          XTO Energy Inc.: COMPANY
WELL.          Golden Eagle 19-10: WELL
FLD.           Purgatoire River: FIELD
LOC.           2684' FSL & 1825' FEL: LOCATION
CNTY.               Las Animas: COUNTY
SRVC.                Patterson: SERVICE COMPANY
DATE.          Mon Mar 06 07:05:15 2006: LOG DATE
UWI.           05 071 08697 00: UNIQUE WELL ID
STAT.                 Colorado: STATE
~Curve Information Block
DEPT.FT            0 000 00 00: Depth
DCAL.in                       : CDL Caliper
RHOB.g/cc                     : CDL Bulk Density
RHOC.g/cc                     : CDL Density Correction
DPOR.pu                       : CDL Density Porosity
GR.GAPI                       : Gamma Ray
NPOR.pu                       : Neutron Porosity
~Parameter Information Block
~A  Depth       DCAL        RHOB        RHOC        DPOR         GR         NPOR    
# ...
  1875.6000      7.8622      2.4804      0.0224     10.2799     66.1204     22.2924
  1875.7000      7.8622      2.4900      0.0543      9.6997     65.9838     22.2993
  1875.8000      7.8587      2.4977      0.0708      9.2299     65.5300     21.8368
  1875.9000      7.8587      2.4894      0.0899      9.7338     63.3376     20.7976
  1876.0000      7.8566      2.4717      0.0309     10.8088     62.7161     20.0919
  1876.1000      7.8566      2.4615      0.0230     11.4240     65.6046     20.3733
  1876.2000      7.8566      2.4633      0.0456     11.3177     66.6436     21.2654
  1876.3000      7.8553      2.4675      0.0430     11.0583     63.0088     22.0340
  1876.4000      7.8553      2.4677      0.0356     11.0482     59.6561     22.1292
  1876.5000      7.8527      2.4683      0.0147     11.0093     59.7676     21.5617
  1876.6000      7.8527      2.4747      0.0380     10.6250     61.2510     20.7072
  1876.7000      7.8527      2.4784      0.0935     10.3982     63.0439     20.1663
  1876.8000      7.8510      2.4770      0.0195     10.4848     64.7734     20.7763
  1876.9000      7.8510      2.4842      0.0340     10.0503     66.4765     22.3808
  1877.0000      7.8519      2.5031      0.0429      8.9054     68.7219     23.3695
  1877.1000      7.8519      2.5221      0.0772      7.7541     69.3587     22.9637
  1877.2000      7.8519      2.5261      0.0760      7.5102     68.7317     22.1353
  1877.3000      7.8541      2.5108      0.0170      8.4334     69.5831     21.8471
  1877.4000      7.8541      2.4900      0.0192      9.6993     69.1394     22.3417
  1877.5000      7.8554      2.4763      0.0294     10.5252     63.0440     23.2087
  1877.6000      7.8554      2.4696      0.0548     10.9334     55.0193     23.5241
  1877.7000      7.8554      2.4649      0.0339     11.2167     52.8553     23.0014
  1877.8000      7.8543      2.4636      0.0299     11.2949     57.3022     22.4403
  1877.9000      7.8543      2.4663      0.0080     11.1314     62.8170     22.2601
  1878.0000      7.8520      2.4686      0.0398     10.9954     66.2389     22.4322
  1878.1000      7.8520      2.4686      0.0408     10.9910     66.9600     22.9692
  1878.2000      7.8520      2.4687      0.0381     10.9853     64.9808     23.4663
  1878.3000      7.8501      2.4686      0.0342     10.9948     63.3297     23.7441
  1878.4000      7.8501      2.4686      0.0210     10.9937     65.1041     24.0727
  1878.5000      7.8493      2.4736      0.0136     10.6938     69.6241     24.3117
  1878.6000      7.8493      2.4859      0.0378      9.9455     74.1662     24.3599
  1878.7000      7.8493      2.4978      0.0621      9.2223     77.8662     24.4786
  1878.8000      7.8499      2.5005      0.0465      9.0624     79.3148     24.5233
  1878.9000      7.8499      2.4961      0.0569      9.3248     76.7718     24.3805
  1879.0000      7.8530      2.4931      0.0370      9.5063     73.0572     24.4796
  1879.1000      7.8530      2.4931      0.0372      9.5061     71.3716     24.5883
  1879.2000      7.8530      2.4882      0.0523      9.8075     72.5928     24.1385
  1879.3000      7.8585      2.4760      0.0365     10.5456     73.5968     23.5189
  1879.4000      7.8585      2.4676      0.0259     11.0566     69.9682     23.4644
  1879.5000      7.8594      2.4664      0.0600     11.1293     64.2311     23.8393
  1879.6000      7.8594      2.4603      0.0520     11.4997     62.2244     23.8416
  1879.7000      7.8594      2.4489     -0.0034     12.1852     64.5216     23.1632
  1879.8000      7.8549      2.4467      0.0168     12.3226     69.1417     22.4549
  1879.9000      7.8549      2.4552      0.0181     11.8076     75.7777     22.5338
  1880.0000      7.8514      2.4611      0.0742     11.4464     82.8431     23.4986
  1880.1000      7.8514      2.4552      0.0528     11.8049     88.0147     24.4992
  1880.2000      7.8514      2.4432      0.0161     12.5318     88.6449     24.5010
  1880.3000      7.8512      2.4332      0.0229     13.1376     82.6687     23.7070
  1880.4000      7.8512      2.4278      0.0157     13.4653     75.4883     23.4159
  1880.5000      7.8519      2.4310     -0.0097     13.2739     74.5301     23.8079
  1880.6000      7.8519      2.4453      0.0213     12.4069     76.9654     23.9942
  1880.7000      7.8519      2.4682      0.0425     11.0180     75.5349     23.7386
  1880.8000      7.8503      2.4893      0.0558      9.7383     71.9404     23.2095
  1880.9000      7.8503      2.4978      0.0758      9.2262     70.1658     22.6784
  1881.0000      7.8457      2.4979      0.0755      9.2162     68.8484     23.0599
  1881.1000      7.8457      2.4983      0.0624      9.1945     68.2717     24.3611
  1881.2000      7.8457      2.4936      0.0493      9.4768     68.1358     24.7252
  1881.3000      7.8408      2.4799      0.0264     10.3062     67.0267     23.5795
  1881.4000      7.8408      2.4674      0.0149     11.0649     68.9560     22.5584
  1881.5000      7.8399      2.4646      0.0343     11.2340     76.0864     22.5448
  1881.6000      7.8399      2.4671      0.0396     11.0825     81.8838     22.7456
  1881.7000      7.8399      2.4656      0.0493     11.1760     81.4453     22.5873
  1881.8000      7.8455      2.4597      0.0298     11.5344     77.3638     22.7340
  1881.9000      7.8455      2.4583      0.0003     11.6198     73.0352     23.4262
  1882.0000      7.8504      2.4633      0.0505     11.3153     69.7086     24.0862
  1882.1000      7.8504      2.4662      0.0335     11.1377     69.0419     24.3338
  1882.2000      7.8504      2.4621      0.0577     11.3909     71.5257     24.3051
  1882.3000      7.8517      2.4482      0.0363     12.2322     74.9701     24.0837
  1882.4000      7.8517      2.4295     -0.0187     13.3660     77.2180     23.5634
  1882.5000      7.8535      2.4226      0.0072     13.7828     75.3458     23.1641
  1882.6000      7.8535      2.4308      0.0472     13.2847     70.4786     23.3889
  1882.7000      7.8535      2.4428      0.0199     12.5561     66.2210     23.9958
  1882.8000      7.8568      2.4538      0.0152     11.8907     64.3991     24.4259
  1882.9000      7.8568      2.4596      0.0590     11.5371     66.3973     24.1568
  1883.0000      7.8564      2.4556      0.0351     11.7806     71.7820     23.3178
  1883.1000      7.8564      2.4480      0.0198     12.2443     76.1987     22.8336
  1883.2000      7.8564      2.4478      0.0332     12.2530     74.5123     22.6696
  1883.3000      7.8508      2.4592      0.0231     11.5647     69.5811     22.2852
  1883.4000      7.8508      2.4761      0.0540     10.5369     68.3787     21.9125
  1883.5000      7.8450      2.4928      0.0287      9.5260     71.3226     22.2999
  1883.6000      7.8450      2.5079      0.0835      8.6102     75.9994     23.3476
  1883.7000      7.8450      2.5171      0.0711      8.0562     80.5736     24.0896
  1883.8000      7.8438      2.5182      0.0735      7.9892     81.9971     24.0696
  1883.9000      7.8438      2.5143      0.1006      8.2264     80.1222     23.6352
  1884.0000      7.8475      2.5078      0.0518      8.6200     76.8232     23.5085
  1884.1000      7.8475      2.4978      0.0988      9.2267     71.2382     23.7294
  1884.2000      7.8475      2.4879      0.0416      9.8230     65.4526     24.0110
  1884.3000      7.8521      2.4898      0.0443      9.7117     63.9631     24.2909
  1884.4000      7.8521      2.4964      0.0667      9.3104     63.8639     24.0765
  1884.5000      7.8554      2.4915      0.0459      9.6053     62.3825     23.2773
  1884.6000      7.8554      2.4820      0.0516     10.1843     64.5595     22.7985
  1884.7000      7.8554      2.4804      0.0792     10.2795     72.4243     22.9666
  1884.8000      7.8600      2.4836      0.0700     10.0841     80.8421     23.2518
  1884.9000      7.8600      2.4865      0.0612      9.9065     81.9625     23.6219
  1885.0000      7.8654      2.4930      0.0584      9.5163     73.1793     24.4051
  1885.1000      7.8654      2.5037      0.1025      8.8693     64.0041     25.1463
