~Version Information
VERS.                      2.0: CWLS Log ASCII Standard - VERSION 2.0
WRAP.                       NO: One line per depth step
~Well Information Block
STRT.FT               428.8000: 
STOP.FT               951.7000: 
STEP.FT                 0.1000: 
NULL.                -999.2500: 
COMP.          Pioneer Natural Resources: COMPANY
WELL.          Sculpin 32-30 Tr: WELL
FLD.           Purgatoire River: FIELD
LOC.           1600' FNL & 1857' FEL--: LOCATION
CNTY.               Las Animas: COUNTY
SRVC.                Patterson: SERVICE COMPANY
DATE.          Wed Jul 19 09:12:32 2006: LOG DATE
UWI.           05 071 08706 00: UNIQUE WELL ID
STAT.                 Colorado: STATE
~Curve Information Block
DEPT.FT            0 000 00 00: Depth
DCAL.in                       : CDL Caliper
RHOB.g/cc                     : CDL Bulk Density
RHOC.g/cc                     : CDL Density Correction
DPOR.pu                       : CDL Density Porosity
GR.GAPI                       : Gamma Ray
~Parameter Information Block
~A  Depth       DCAL        RHOB        RHOC        DPOR         GR     
# ...
   473.6000      8.0810      2.4100     -0.1984     14.5437     62.6544
   473.7000      8.0810      2.4219     -0.2005     13.8224     61.9657
   473.8000      8.0806      2.4520     -0.1600     12.0017     63.6397
   473.9000      8.0806      2.4720     -0.1275     10.7895     65.1345
   474.0000      8.0771      2.4793     -0.1834     10.3457     63.6861
   474.1000      8.0771      2.4870     -0.1526      9.8789     61.5163
   474.2000      8.0771      2.4842     -0.1517     10.0457     62.5968
   474.3000      8.0732      2.4558     -0.1857     11.7700     64.4064
   474.4000      8.0732      2.4144     -0.2359     14.2776     63.2132
   474.5000      8.0728      2.3866     -0.2055     15.9613     61.9159
   474.6000      8.0728      2.3873     -0.2030     15.9222     63.1224
   474.7000      8.0728      2.3987     -0.1197     15.2308     65.6171
   474.8000      8.0739      2.3848     -0.1959     16.0735     67.9320
   474.9000      8.0739      2.3445     -0.2137     18.5164     70.3924
   475.0000      8.0759      2.3064     -0.2421     20.8268     74.1305
   475.1000      8.0759      2.2825     -0.2814     22.2713     78.4038
   475.2000      8.0759      2.2564     -0.2455     23.8568     80.9730
   475.3000      8.0806      2.2148     -0.2796     26.3780     80.4944
   475.4000      8.0806      2.1674     -0.2875     29.2473     78.1917
   475.5000      8.0847      2.1270     -0.3222     31.6950     76.6041
   475.6000      8.0847      2.1056     -0.2983     32.9910     76.0999
   475.7000      8.0847      2.1191     -0.2858     32.1745     75.0743
   475.8000      8.0866      2.1664     -0.2424     29.3089     73.8770
   475.9000      8.0866      2.2153     -0.1281     26.3431     74.9684
   476.0000      8.0872      2.2310     -0.1134     25.3970     78.7827
   476.1000      8.0872      2.2149     -0.1258     26.3695     82.6498
   476.2000      8.0872      2.1988     -0.1048     27.3438     84.1736
   476.3000      8.0904      2.2025     -0.0093     27.1210     84.8640
   476.4000      8.0904      2.2269      0.0211     25.6404     84.9252
   476.5000      8.1007      2.2695      0.2011     23.0617     82.2022
   476.6000      8.1007      2.3181      0.2163     20.1173     77.9756
   476.7000      8.1007      2.3537      0.3084     17.9599     75.6868
   476.8000      8.1152      2.3643      0.2559     17.3139     79.0248
   476.9000      8.1152      2.3610      0.2208     17.5134     87.3239
   477.0000      8.3203      2.3581      0.2356     17.6912     92.3506
   477.1000      8.3203      2.3543      0.2393     17.9227     91.3803
   477.2000      8.3203      2.3524      0.2064     18.0343     90.4385
   477.3000      8.3227      2.3576      0.2449     17.7182     90.9775
   477.4000      8.3227      2.3630      0.2470     17.3941     88.4126
   477.5000      8.3236      2.3666      0.2281     17.1744     81.5536
   477.6000      8.3236      2.3733      0.2421     16.7670     75.6642
   477.7000      8.3236      2.3764      0.2793     16.5808     73.7691
   477.8000      8.3289      2.3682      0.2457     17.0813     75.4039
   477.9000      8.3289      2.3564      0.2117     17.7915     78.6482
   478.0000      8.3371      2.3464      0.2421     18.4011     80.6853
   478.1000      8.3371      2.3371      0.1909     18.9653     80.1069
   478.2000      8.3371      2.3399      0.1730     18.7928     80.4689
   478.3000      8.3453      2.3572      0.1971     17.7436     83.9908
   478.4000      8.3453      2.3696      0.2339     16.9966     84.2585
   478.5000      8.3480      2.3633      0.2253     17.3784     81.8907
   478.6000      8.3480      2.3470      0.2091     18.3638     83.5404
   478.7000      8.3480      2.3350      0.2052     19.0881     86.9639
   478.8000      8.3402      2.3272      0.2272     19.5641     87.7423
   478.9000      8.3402      2.3136      0.2430     20.3851     86.7222
   479.0000      8.3301      2.2917      0.2053     21.7130     85.4365
   479.1000      8.3301      2.2641      0.2163     23.3877     85.0157
   479.2000      8.3301      2.2236      0.1903     25.8441     86.3425
   479.3000      8.3234      2.1616      0.1662     29.6028     87.9152
   479.4000      8.3234      2.0857      0.1207     34.1983     89.4208
   479.5000      8.3160      2.0104      0.1014     38.7660     90.9562
   479.6000      8.3160      1.9341      0.0579     43.3869     93.8227
   479.7000      8.3160      1.8283      0.0895     49.8009     99.8566
   479.8000      8.3084      1.6576      0.0691     60.1483    106.9229
   479.9000      8.3084      1.4577     -0.0055     72.2612    112.6546
   480.0000      8.3070      1.3672     -0.0563     77.7458    116.6413
   480.1000      8.3070      1.5033      0.1553     69.4945    116.4924
   480.2000      8.3070      1.8250      0.5165     49.9982    110.9893
   480.3000      8.3221      2.1768      0.7242     28.6789    105.8788
   480.4000      8.3221      2.4319      0.8017     13.2162    106.2324
   480.5000      8.3446      2.5511      0.8385      5.9959    111.1140
   480.6000      8.3446      2.5524      0.7779      5.9146    115.2187
   480.7000      8.3446      2.4808      0.5937     10.2526    115.3121
   480.8000      8.3158      2.3816      0.5056     16.2643    116.0533
   480.9000      8.3158      2.2724      0.3533     22.8825    119.9972
   481.0000      8.2235      2.1477      0.1928     30.4397    121.4187
   481.1000      8.2235      2.0113      0.0094     38.7097    118.8578
   481.2000      8.2235      1.8941     -0.1019     45.8109    116.9387
   481.3000      8.1552      1.8238     -0.0925     50.0700    114.5394
   481.4000      8.1552      1.7954     -0.0459     51.7968    108.1915
   481.5000      8.1331      1.7998     -0.0680     51.5301    101.9076
   481.6000      8.1331      1.8498      0.0204     48.4947     98.7320
   481.7000      8.1331      1.9538      0.1272     42.1963     94.0797
   481.8000      8.1244      2.0953      0.2564     33.6200     88.6500
   481.9000      8.1244      2.2448      0.3227     24.5547     88.0939
   482.0000      8.1182      2.3773      0.3505     16.5246     91.5622
   482.1000      8.1182      2.4868      0.2882      9.8924     97.2303
   482.2000      8.1182      2.5774      0.2611      4.3992    105.4249
   482.3000      8.1147      2.6357      0.2463      0.8642    111.8913
   482.4000      8.1147      2.6515      0.1407     -0.0902    112.7175
   482.5000      8.1134      2.6492      0.0994      0.0492    110.9351
   482.6000      8.1134      2.6521      0.1238     -0.1291    108.6186
   482.7000      8.1134      2.6570      0.0593     -0.4250    105.8068
   482.8000      8.1136      2.6696     -0.0006     -1.1857    105.5480
   482.9000      8.1136      2.6951      0.1137     -2.7361    104.7782
   483.0000      8.1133      2.7096      0.0754     -3.6134    100.6925
   483.1000      8.1133      2.6924      0.0612     -2.5699    100.5548
   483.2000      8.1133      2.6485      0.0375      0.0892    107.2110
   483.3000      8.1107      2.6066     -0.0487      2.6283    114.7075
   483.4000      8.1107      2.5974     -0.0400      3.1891    117.1611
   483.5000      8.1097      2.6135      0.0166      2.2100    113.9543
   483.6000      8.1097      2.6261     -0.0109      1.4485    110.1586
   483.7000      8.1097      2.6199      0.0200      1.8260    108.7198
   483.8000      8.1117      2.5879      0.0083      3.7629    109.3607
   483.9000      8.1117      2.5440     -0.0363      6.4244    110.9813
   484.0000      8.1134      2.5223     -0.0230      7.7382    112.6760
   484.1000      8.1134      2.5367      0.0048      6.8694    115.4146
   484.2000      8.1134      2.5688      0.0577      4.9210    117.3101
   484.3000      8.1138      2.5978      0.0345      3.1635    115.5006
   484.4000      8.1138      2.6150      0.0563      2.1218    112.0706
   484.5000      8.1132      2.6197      0.0733      1.8352    111.3264
   484.6000      8.1132      2.6232      0.0569      1.6231    114.6099
   484.7000      8.1132      2.6416      0.0597      0.5114    118.0059
