~Version Information
 VERS.                                  2.0 : CWLS LAS VERSION
 WRAP.                                   NO : WRAPING MODE
 SWARE .                 MController 2.5.0J : SOFTWARE VERSION
~Well Information
 WELL.                        Montoya 7-14R : WELL
 COMP.                Petrogulf Corporation : COMPANY
 FLD.                      Purgatoire River : FIELD
 LOC.                 SW/SW Sec 7 T33S R67W : LOCATION
 DATE.                            10/7-8/05 : DATE(S) LOGGED
 SRVC.       BLANCO Geological Services LLC : SERVICE COMPANY
 STAT.                                   CO : STATE
 CNTY.                           Las Animas : COUNTY
 CTRY.                                  USA : COUNTRY
 API.                       05-071-08554-00 : API NUMBER
 STRT.FT                             769.00 : START DEPTH
 STOP.FT                            1960.00 : STOP DEPTH
 STEP.FT                               1.00 : DEPTH INCREMENT
 NULL.                                -9999 : NULL VALUE
~Curve information
 DEPTH.FT                                   :
 ROP.MIN/FT                                 :
 GAS.UNITS                                  :
~ASCII Log data
# ...
      1569.0         0.23        687.0 
      1570.0         0.27        686.3 
      1571.0         0.30        685.1 
      1572.0         0.38        684.1 
      1573.0         0.43        682.8 
      1574.0         0.23        681.9 
      1575.0         0.40        681.9 
      1576.0         0.27        678.7 
      1577.0         0.20        679.0 
      1578.0         0.27        679.0 
      1579.0         0.30        678.1 
      1580.0         0.30        679.0 
      1581.0         0.30        679.7 
      1582.0         0.27        679.0 
      1583.0         0.25        680.0 
      1584.0         0.23        677.1 
      1585.0         0.43        678.4 
      1586.0         0.47        681.6 
      1587.0         0.43        682.2 
      1588.0         0.30        680.0 
      1589.0         0.33        681.6 
      1590.0         0.27        681.3 
      1591.0         0.28        681.3 
      1592.0         2.63        724.4 
      1593.0         0.45        720.0 
      1594.0         0.50        712.4 
      1595.0         0.33        706.0 
      1596.0         0.53        702.2 
      1597.0         0.60        698.7 
      1598.0         0.47        694.6 
      1599.0         0.42        693.0 
      1600.0         0.30        693.3 
      1601.0         0.27        695.5 
      1602.0         0.27        694.0 
      1603.0         0.23        693.0 
      1604.0         0.23        693.3 
      1605.0         0.27        694.6 
      1606.0         0.23        696.5 
      1607.0         0.20        696.5 
      1608.0         0.17        697.8 
      1609.0         0.20        698.1 
      1610.0         0.30        699.7 
      1611.0         0.17        700.0 
      1612.0         0.28        698.1 
      1613.0         0.37        697.4 
      1614.0         0.40        697.4 
      1615.0         0.37        696.5 
      1616.0         0.20        696.8 
      1617.0         0.23        698.1 
      1618.0         0.23        696.2 
      1619.0         0.23        697.8 
      1620.0         0.20        697.1 
      1621.0         0.27        695.5 
      1622.0         2.52        733.0 
      1623.0         0.23        722.8 
      1624.0         0.43        722.2 
      1625.0         0.40        717.8 
      1626.0         0.35        712.0 
      1627.0         0.37        712.4 
      1628.0         0.30        711.7 
      1629.0         0.30        712.0 
      1630.0         0.30        711.4 
      1631.0         0.30        709.2 
      1632.0         0.23        706.0 
      1633.0         0.23        704.4 
      1634.0         0.27        703.5 
      1635.0         0.30        703.2 
      1636.0         0.43        702.8 
      1637.0         0.68        705.1 
      1638.0         0.57        705.7 
      1639.0         0.33        707.0 
      1640.0         0.33        705.4 
      1641.0         0.33        704.1 
      1642.0         0.23        705.4 
      1643.0         0.20        707.9 
      1644.0         0.27        707.9 
      1645.0         0.23        707.6 
      1646.0         0.27        709.2 
      1647.0         0.28        709.2 
      1648.0         0.30        709.2 
      1649.0         0.43        709.5 
      1650.0         0.60        709.8 
      1651.0         0.57        709.8 
      1652.0         2.82        734.9 
      1653.0         0.33        735.2 
      1654.0         0.40        734.3 
      1655.0         0.47        730.8 
      1656.0         0.52        727.3 
      1657.0         0.30        732.0 
      1658.0         0.40        733.3 
      1659.0         0.43        729.2 
      1660.0         0.30        728.9 
      1661.0         0.30        729.2 
      1662.0         0.27        728.9 
      1663.0         0.27        729.8 
      1664.0         0.23        727.0 
      1665.0         0.30        725.7 
      1666.0         0.30        725.7 
      1667.0         0.25        725.1 
      1668.0         0.23        722.2 
      1669.0         0.23        722.5 
      1670.0         0.23        724.4 
      1671.0         0.23        725.1 
      1672.0         0.23        725.1 
      1673.0         0.27        723.2 
      1674.0         0.23        721.9 
      1675.0         0.27        721.6 
      1676.0         0.30        724.1 
      1677.0         0.23        723.8 
      1678.0         0.20        723.8 
      1679.0         0.17        724.7 
      1680.0         0.28        724.7 
      1681.0         0.30        722.5 
      1682.0         2.50        777.7 
      1683.0         0.33        752.3 
      1684.0         0.28        748.5 
      1685.0         0.27        742.5 
      1686.0         0.30        738.7 
      1687.0         0.30        734.3 
      1688.0         0.47        735.8 
      1689.0         0.40        733.9 
      1690.0         0.33        732.7 
      1691.0         0.37        733.3 
      1692.0         0.30        734.3 
      1693.0         0.35        738.7 
      1694.0         0.27        737.4 
      1695.0         0.30        736.5 
      1696.0         0.27        733.6 
      1697.0         0.30        738.4 
      1698.0         0.37        739.7 
      1699.0         0.43        743.1 
      1700.0         0.27        744.4 
      1701.0         0.37        745.4 
      1702.0         0.27        745.4 
      1703.0         0.20        743.5 
      1704.0         0.28        742.5 
      1705.0         0.27        741.2 
      1706.0         0.27        740.6 
      1707.0         0.33        741.9 
      1708.0         0.30        742.5 
      1709.0         0.33        741.6 
      1710.0         0.30        738.7 
      1711.0         0.27        734.3 
      1712.0         2.98        804.7 
      1713.0         0.37        766.0 
      1714.0         0.33        764.4 
      1715.0         0.35        758.1 
      1716.0         0.40        754.6 
      1717.0         0.37        754.9 
      1718.0         0.40        753.9 
      1719.0         0.33        750.8 
      1720.0         0.37        749.8 
      1721.0         0.33        748.2 
      1722.0         0.37        748.5 
      1723.0         0.35        747.3 
      1724.0         0.23        747.6 
      1725.0         0.27        749.2 
      1726.0         0.30        751.7 
      1727.0         0.27        751.1 
      1728.0         0.23        752.0 
      1729.0         0.27        752.3 
      1730.0         0.27        749.8 
      1731.0         0.30        748.2 
      1732.0         0.40        750.8 
      1733.0         0.20        750.8 
      1734.0         0.20        751.4 
      1735.0         0.25        753.0 
      1736.0         0.17        751.4 
      1737.0         0.23        752.0 
      1738.0         0.20        751.4 
      1739.0         0.20        751.7 
      1740.0         0.20        746.6 
      1741.0         0.27        742.5 
      1742.0         2.35        814.9 
      1743.0         0.27        780.9 
      1744.0         0.47        777.1 
      1745.0         0.60        769.2 
      1746.0         0.33        762.8 
      1747.0         0.30        760.3 
      1748.0         0.30        760.3 
      1749.0         0.47        766.3 
      1750.0         0.28        767.9 
      1751.0         0.27        767.3 
      1752.0         0.23        766.0 
      1753.0         0.27        767.3 
      1754.0         0.27        770.4 
      1755.0         0.10        767.3 
      1756.0         0.33        767.6 
      1757.0         0.70        768.5 
      1758.0         0.43        767.3 
      1759.0         0.52        765.7 
      1760.0         0.27        766.0 
      1761.0         0.23        764.4 
      1762.0         0.30        764.7 
      1763.0         0.20        765.7 
      1764.0         0.30        766.0 
      1765.0         0.23        764.4 
      1766.0         0.27        764.1 
      1767.0         0.30        763.8 
      1768.0         0.33        761.6 
