~Version Information
VERS.                      2.0: CWLS Log ASCII Standard - VERSION 2.0
WRAP.                       NO: One line per depth step
~Well Information Block
STRT.FT               550.0000: 
STOP.FT              1498.5000: 
STEP.FT                 0.1000: 
NULL.                -999.2500: 
COMP.          Pioneer Natural Resources: COMPANY
WELL.          Surtees 23-34 Tr: WELL
FLD.           Purgatoire River: FIELD
LOC.           1559' FSL & 1997' FWL: LOCATION
PROV.                 Colorado: PROVINCE
CNTY.               Las Animas: COUNTRY
SRVC.                Patterson: SERVICE COMPANY
DATE.          Wed Jul 27 09:35:51 2005: LOG DATE
UWI.           05 071 08449 00: UNIQUE WELL ID
~Curve Information Block
DEPT.FT            0 000 00 00: Depth
DCAL.in                       : CDL Caliper
RHOB.g/cc                     : CDL Bulk Density
RHOC.g/cc                     : CDL Density Correction
DPOR.pu                       : CDL Density Porosity
GR.GAPI                       : Gamma Ray
NPOR.pu                       : Neutron Porosity
~Parameter Information Block
~A  Depth       DCAL        RHOB        RHOC        DPOR         GR         NPOR    
# ...
  1231.6000      7.9883      2.6452      0.1036      0.2934     99.5491     21.8340
  1231.7000      7.9883      2.6571      0.0979     -0.4332    103.2768     21.0942
  1231.8000      7.9657      2.6739      0.1123     -1.4498    102.4737     20.5197
  1231.9000      7.9657      2.6945      0.1113     -2.6994    101.0956     20.7642
  1232.0000      7.9660      2.7209      0.1373     -4.2980    101.1475     21.6399
  1232.1000      7.9660      2.7435      0.1781     -5.6647    101.4210     22.4287
  1232.2000      7.9660      2.7487      0.1521     -5.9841    101.3350     22.9884
  1232.3000      7.9794      2.7346      0.1410     -5.1283    100.8290     23.2540
  1232.4000      7.9794      2.7195      0.0399     -4.2111     98.6442     22.7042
  1232.5000      7.9870      2.7208      0.1411     -4.2929     98.0581     21.8740
  1232.6000      7.9870      2.7253      0.1296     -4.5610    101.3128     21.8719
  1232.7000      7.9870      2.7158      0.1086     -3.9850    103.4791     22.0798
  1232.8000      8.0052      2.6940      0.0613     -2.6683    101.7250     21.7477
  1232.9000      8.0052      2.6721      0.0730     -1.3387     96.3625     21.7506
  1233.0000      7.9955      2.6606      0.0268     -0.6420     90.6042     22.3927
  1233.1000      7.9955      2.6556      0.0751     -0.3366     87.9038     22.8166
  1233.2000      7.9955      2.6385      0.0640      0.6984     87.7554     22.6609
  1233.3000      7.9857      2.6087      0.0046      2.5019     90.6461     22.5885
  1233.4000      7.9857      2.5898      0.0325      3.6483     96.6577     23.1188
  1233.5000      8.0050      2.5986     -0.0054      3.1129    101.8303     23.7499
  1233.6000      8.0050      2.6337      0.0348      0.9882    105.3919     23.6955
  1233.7000      8.0050      2.6747      0.1047     -1.4959    111.0312     23.1134
  1233.8000      8.0029      2.7053      0.0975     -3.3522    119.7250     22.5784
  1233.9000      8.0029      2.7284      0.1295     -4.7502    125.8918     22.3549
  1234.0000      8.0064      2.7427      0.1477     -5.6197    123.5918     22.3839
  1234.1000      8.0064      2.7384      0.1588     -5.3578    115.5468     22.6631
  1234.2000      8.0064      2.7181      0.0878     -4.1275    107.7615     23.5194
  1234.3000      8.0022      2.6943      0.1231     -2.6841    102.9828     24.8479
  1234.4000      8.0022      2.6703      0.0954     -1.2308    101.9105     25.9406
  1234.5000      7.9940      2.6549      0.0862     -0.2977    103.6665     26.0937
  1234.6000      7.9940      2.6606      0.0845     -0.6426    105.5954     25.1989
  1234.7000      7.9940      2.6769      0.0923     -1.6315    106.8016     24.0944
  1234.8000      7.9926      2.6814      0.1106     -1.9010    106.8495     23.4700
  1234.9000      7.9926      2.6709      0.0523     -1.2646    104.2375     23.3472
  1235.0000      8.0048      2.6609      0.0417     -0.6631    100.7778     23.5987
  1235.1000      8.0048      2.6609      0.0515     -0.6632     98.7739     24.0525
  1235.2000      8.0048      2.6644      0.0592     -0.8710     95.9666     23.9523
  1235.3000      8.0131      2.6616      0.0701     -0.7002     93.2225     23.0452
  1235.4000      8.0131      2.6586      0.0447     -0.5227     95.6713     22.0379
  1235.5000      7.9976      2.6680      0.0792     -1.0882     99.6479     20.8910
  1235.6000      7.9976      2.6839      0.1802     -2.0526     97.4976     19.7372
  1235.7000      7.9976      2.6946      0.0950     -2.7033     89.7113     19.8165
  1235.8000      7.9881      2.7061      0.0714     -3.4008     80.7391     21.1753
  1235.9000      7.9881      2.7268      0.0687     -4.6535     76.0926     22.3494
  1236.0000      8.0018      2.7443      0.0886     -5.7181     75.7134     22.5973
  1236.1000      8.0018      2.7405      0.0777     -5.4864     73.5473     22.5175
  1236.2000      8.0018      2.7132      0.0912     -3.8280     71.3321     22.5337
  1236.3000      8.0033      2.6757      0.0604     -1.5570     72.2305     22.6911
  1236.4000      8.0033      2.6477      0.0347      0.1413     73.3529     23.1626
  1236.5000      8.0041      2.6376      0.0687      0.7514     75.5001     23.7503
  1236.6000      8.0041      2.6428      0.0205      0.4375     81.2010     23.6933
  1236.7000      8.0041      2.6534      0.0989     -0.2059     89.4892     22.6441
  1236.8000      7.9862      2.6509      0.0630     -0.0535     99.1223     21.3064
  1236.9000      7.9862      2.6374      0.0912      0.7656    108.3883     20.5229
  1237.0000      7.9768      2.6268      0.0931      1.4077    113.3075     20.6102
  1237.1000      7.9768      2.6234      0.0775      1.6148    111.2615     21.5053
  1237.2000      7.9768      2.6265      0.1295      1.4214    104.7303     23.0224
  1237.3000      7.9738      2.6278      0.0941      1.3476     99.2745     24.3327
  1237.4000      7.9738      2.6243      0.0667      1.5555     96.8821     24.1062
  1237.5000      7.9627      2.6266      0.0687      1.4202     94.3723     22.8050
  1237.6000      7.9627      2.6366      0.1024      0.8136     89.9621     22.2775
  1237.7000      7.9627      2.6415      0.1516      0.5180     85.2487     22.4764
  1237.8000      7.9935      2.6320      0.0489      1.0908     83.8759     22.5114
  1237.9000      7.9935      2.6202      0.0637      1.8065     87.5709     22.3885
  1238.0000      8.0023      2.6136      0.0822      2.2087     93.1003     22.1860
  1238.1000      8.0023      2.6008      0.0816      2.9844     97.8850     21.6971
  1238.2000      8.0023      2.5810      0.0442      4.1796     99.7692     21.2019
  1238.3000      8.0080      2.5627      0.0707      5.2880     96.6885     21.2888
  1238.4000      8.0080      2.5424      0.0603      6.5212     92.3308     21.8045
  1238.5000      8.0098      2.5287     -0.0571      7.3493     89.0520     22.7393
  1238.6000      8.0098      2.5476     -0.0183      6.2049     85.5359     23.8247
  1238.7000      8.0098      2.5926      0.0437      3.4763     83.3246     24.1689
  1238.8000      8.0175      2.6230      0.0912      1.6369     82.9705     24.0242
  1238.9000      8.0175      2.6200      0.0547      1.8183     83.7930     23.8024
  1239.0000      8.0160      2.6059      0.0547      2.6743     87.8098     23.2219
  1239.1000      8.0160      2.6064      0.0761      2.6446     93.4570     22.9499
  1239.2000      8.0160      2.6183      0.1050      1.9219     94.7051     23.7698
  1239.3000      8.0110      2.6201      0.1164      1.8102     90.7610     24.6073
  1239.4000      8.0110      2.6019      0.1159      2.9131     88.8173     24.5447
  1239.5000      8.0131      2.5796      0.0047      4.2675     91.2990     24.3010
  1239.6000      8.0131      2.5719      0.0474      4.7312     92.4753     23.9746
  1239.7000      8.0131      2.5718      0.0764      4.7409     91.3974     22.9987
  1239.8000      8.0098      2.5699      0.0693      4.8523     92.3002     22.2845
  1239.9000      8.0098      2.5672      0.0939      5.0165     94.7817     23.2758
  1240.0000      7.9749      2.5654      0.0706      5.1254     95.6816     25.3878
  1240.1000      7.9749      2.5766      0.0933      4.4500     93.1284     26.6419
  1240.2000      7.9749      2.5997      0.1393      3.0505     87.8928     26.4078
  1240.3000      7.9383      2.6115      0.1440      2.3310     82.7661     25.3574
  1240.4000      7.9383      2.6026      0.1221      2.8719     79.9950     24.6621
  1240.5000      7.9403      2.5834      0.1223      4.0379     81.1033     25.1405
  1240.6000      7.9403      2.5575      0.1423      5.6057     82.7140     25.6533
  1240.7000      7.9403      2.5285      0.0710      7.3656     80.8169     24.7596
  1240.8000      7.9496      2.5136      0.0221      8.2679     76.6450     23.5866
  1240.9000      7.9496      2.5134      0.0171      8.2788     71.3019     23.6098
  1241.0000      7.9965      2.5109      0.0395      8.4288     67.5885     24.9239
  1241.1000      7.9965      2.5035      0.0652      8.8805     66.6337     26.4354
