~Version Information
VERS.                      2.0: CWLS Log ASCII Standard - VERSION 2.0
WRAP.                       NO: One line per depth step
~Well Information Block
STRT.FT                 6.0000: 
STOP.FT              1577.7500: 
STEP.FT                 0.2500: 
NULL.                -999.2500: 
COMP.          Pioneer Natural Resources: COMPANY
WELL.           Kermit 32-7 Tr: WELL
FLD.           Purgatoire River: FIELD
LOC.           2009' FNL & 2196' FEL: LOCATION
PROV.                 Colorado: PROVINCE
CNTY.               Las Animas: COUNTRY
SRVC.                Patterson: SERVICE COMPANY
DATE.          Wed Jan 18 14:19:39 2006: LOG DATE
UWI.           05 071 08664 00: UNIQUE WELL ID
~Curve Information Block
DEPT.FT            0 000 00 00: Depth
GR.GAPI                       : Gamma Ray
CCL.                          : Casing Collar Locator
TT3.usec                      : CBL 3' Travel Time
AMP3.mV                       : CBL 3' Amplitude
~Parameter Information Block
~A  Depth        GR         CCL         TT3         AMP3    
# ...
  1245.5000     56.9309      0.0000    722.3785      6.2101
  1245.7500     55.8667      0.0000    734.7301      6.4193
  1246.0000     56.9416      0.0000    746.2320      6.7721
  1246.2500     61.3880      0.0000    756.6816      7.2851
  1246.5000     69.8588      0.0000    764.0422      8.0219
  1246.7500     81.7139      0.0000    765.6463      9.0558
  1247.0000     94.9412      0.0000    760.5984     10.4139
  1247.2500    107.1763      0.0000    749.9481     12.0337
  1247.5000    116.9469      0.0000    735.7141     13.7516
  1247.7500    123.7673      0.0000    720.9311     15.3266
  1248.0000    127.4555      0.0000    709.7117     16.4959
  1248.2500    128.1301      0.0000    705.8423     17.0532
  1248.5000    126.7081      0.0000    710.9588     16.9258
  1248.7500    124.5345      0.0000    723.5787     16.2019
  1249.0000    122.4419      0.0000    739.3970     15.0839
  1249.2500    120.7582      0.0000    753.1779     13.7977
  1249.5000    120.0920      0.0000    761.4310     12.5236
  1249.7500    121.2347      0.0000    763.9535     11.3742
  1250.0000    124.0985      0.0000    763.3724     10.3969
  1250.2500    127.4237      0.0000    763.2769      9.5897
  1250.5000    129.8925      0.0000    765.9294      8.9293
  1250.7500    131.2536      0.0000    770.9799      8.3965
  1251.0000    132.2509      0.0000    776.0565      7.9790
  1251.2500    133.6414      0.0000    778.3405      7.6599
  1251.5000    135.4358      0.0000    776.0750      7.4159
  1251.7500    137.1157      0.0000    769.8083      7.2268
  1252.0000    138.2496      0.0000    762.4228      7.0811
  1252.2500    138.4022      0.0000    757.0588      6.9730
  1252.5000    136.7310      0.0000    754.8018      6.8980
  1252.7500    132.5453      0.0000    754.6174      6.8530
  1253.0000    126.4045      0.0000    754.9758      6.8367
  1253.2500    120.1624      0.0000    754.8694      6.8460
  1253.5000    115.8643      0.0000    753.6349      6.8675
  1253.7500    114.6673      0.0000    750.7370      6.8702
  1254.0000    116.4827      0.0000    746.2839      6.8098
  1254.2500    120.3239      0.0000    741.6655      6.6426
  1254.5000    125.1362      0.0000    738.8953      6.3531
  1254.7500    130.4066      0.0000    738.8895      5.9773
  1255.0000    135.7744      0.0000    740.9815      5.5834
  1255.2500    139.9999      0.0000    744.4789      5.2092
  1255.5000    140.8490      0.0000    749.4692      4.8459
  1255.7500    136.7439      0.0000    755.2247      4.5059
  1256.0000    128.6857      0.0000    759.0768      4.2599
  1256.2500    120.0873      0.0000    758.5106      4.1675
  1256.5000    114.3548      0.0000    754.5171      4.2041
  1256.7500    112.7360      0.0000    751.9117      4.2894
  1257.0000    114.4003      3.0000    755.7341      4.3625
  1257.2500    117.8547      0.0000    767.2100      4.4284
  1257.5000    121.6285      0.0000    782.9047      4.5620
  1257.7500    123.9867      0.0000    796.9052      4.8747
  1258.0000    123.1680      0.0000    803.9094      5.4382
  1258.2500    118.4680      0.0000    801.8565      6.2146
  1258.5000    110.8487      0.0000    792.6000      7.0679
  1258.7500    102.3374      0.0000    780.0247      7.8449
  1259.0000     94.8701      0.0000    767.6218      8.4439
  1259.2500     89.3456      0.0000    757.2148      8.8318
  1259.5000     85.3647      0.0000    748.3325      9.0327
  1259.7500     81.9469      0.0000    738.3669      9.1023
  1260.0000     78.6731      0.0000    724.4059      9.0978
  1260.2500     76.0001      0.0000    706.2867      9.0581
  1260.5000     74.4088      0.0000    688.4213      9.0058
  1260.7500     73.6994      0.0000    677.6866      8.9601
  1261.0000     73.2564      0.0000    678.2371      8.9398
  1261.2500     72.5581      0.0000    687.9449      8.9529
  1261.5000     71.2600      0.0000    699.9727      8.9849
  1261.7500     69.2506      0.0000    707.5859      9.0083
  1262.0000     66.8697      0.0000    707.9399      9.0058
  1262.2500     64.7873      0.0000    702.6686      8.9817
  1262.5000     63.5327      0.0000    695.9388      8.9511
  1262.7500     63.2945      0.0000    691.2812      8.9276
  1263.0000     63.9771      0.0000    688.4811      8.9220
  1263.2500     65.0572      0.0000    682.3398      8.9443
  1263.5000     65.6280      0.0000    664.9448      9.0001
  1263.7500     65.1463      0.0000    630.9719      9.0853
  1264.0000     64.1825      0.0000    582.7200      9.1875
  1264.2500     64.0674      0.0000    530.3802      9.2893
  1264.5000     65.5749      0.0000    486.0705      9.3715
  1264.7500     67.9894      0.0000    456.4986      9.4196
  1265.0000     69.4717      0.0000    440.7982      9.4328
  1265.2500     68.4184      0.0000    434.1085      9.4244
  1265.5000     64.6720      0.0000    432.2001      9.4111
  1265.7500     59.5790      0.0000    433.7954      9.4041
  1266.0000     54.9451      0.0000    440.8446      9.4117
  1266.2500     52.0003      0.0000    457.5255      9.4433
  1266.5000     51.1595      0.0000    487.5215      9.5038
  1266.7500     52.2825      0.0000    529.9993      9.5841
  1267.0000     54.9220      0.0000    577.4691      9.6615
  1267.2500     58.5189      0.0000    618.6556      9.7124
  1267.5000     62.5006      0.0000    644.8167      9.7246
  1267.7500     66.1741      0.0000    654.2265      9.6991
  1268.0000     68.6300      0.0000    651.6578      9.6406
  1268.2500     69.0584      0.0000    644.2745      9.5512
  1268.5000     67.4022      0.0000    637.4753      9.4347
  1268.7500     64.6795      0.0000    633.2767      9.3056
  1269.0000     62.4029      0.0000    631.2858      9.1877
  1269.2500     61.4573      0.0000    630.4567      9.0989
  1269.5000     61.5905      0.0000    630.1603      9.0409
  1269.7500     62.1458      0.0000    630.4636      9.0047
  1270.0000     63.0363      0.0000    632.1861      8.9851
  1270.2500     64.5561      0.0000    636.7665      8.9832
  1270.5000     66.3663      0.0000    645.4029      8.9974
  1270.7500     67.3386      0.0000    657.4882      9.0158
  1271.0000     66.6664      0.0000    669.9109      9.0250
  1271.2500     64.7188      0.0000    678.8579      9.0221
  1271.5000     62.5634      0.0000    682.7967      9.0109
  1271.7500     61.0463      0.0000    683.3041      8.9863
  1272.0000     60.5826      0.0000    683.2628      8.9319
  1272.2500     61.5128      0.0000    685.2701      8.8367
  1272.5000     64.2241      0.0000    691.1884      8.7133
  1272.7500     68.8214      0.0000    700.8702      8.5953
  1273.0000     74.8950      0.0000    710.7966      8.5178
  1273.2500     81.9012      0.0000    716.1212      8.4989
  1273.5000     89.7977      0.0000    715.1787      8.5349
  1273.7500     98.9608      0.0000    710.7756      8.6044
  1274.0000    109.2612      0.0000    706.5805      8.6752
  1274.2500    119.3857      0.0000    703.9948      8.7141
  1274.5000    127.3558      0.0000    703.3610      8.6995
  1274.7500    131.9172      0.0000    705.9595      8.6240
  1275.0000    133.4910      0.0000    712.5644      8.4923
  1275.2500    133.7292      0.0000    720.9114      8.3240
  1275.5000    134.1491      0.0000    726.6243      8.1599
  1275.7500    135.2377      0.0000    726.9502      8.0491
  1276.0000    136.6146      0.0000    722.9384      8.0178
  1276.2500    137.6521      0.0000    718.3290      8.0496
  1276.5000    137.9359      0.0000    717.0219      8.0975
  1276.7500    137.5180      0.0000    720.7257      8.1137
  1277.0000    136.8667      0.0000    727.4358      8.0756
  1277.2500    136.4303      0.0000    732.0147      7.9936
  1277.5000    136.1822      0.0000    729.0896      7.9000
  1277.7500    135.6601      0.0000    715.7419      7.8269
  1278.0000    134.4334      0.0000    691.4132      7.7905
  1278.2500    132.5209      0.0000    655.9884      7.7955
  1278.5000    130.4509      0.0000    609.5781      7.8471
  1278.7500    128.8883      0.0000    555.1832      7.9512
