~Version Information
VERS.                      2.0: CWLS Log ASCII Standard - VERSION 2.0
WRAP.                       NO: One line per depth step
~Well Information Block
STRT.FT               694.2000: 
STOP.FT              1498.5000: 
STEP.FT                 0.1000: 
NULL.                -999.2500: 
COMP.          Pioneer Natural Resources: COMPANY
WELL.          Pallet Ranch 34-25 Tr: WELL
FLD.           Purgatoire River: FIELD
LOC.           465' FSL & 2138' FEL: LOCATION
PROV.                 Colorado: PROVINCE
CNTY.               Las Animas: COUNTRY
SRVC.                Patterson: SERVICE COMPANY
DATE.          Thu Jan 19 06:39:54 2006: LOG DATE
UWI.           05 071 08657 00: UNIQUE WELL ID
~Curve Information Block
DEPT.FT            0 000 00 00: Depth
DCAL.in                       : CDL Caliper
RHOB.g/cc                     : CDL Bulk Density
RHOC.g/cc                     : CDL Density Correction
DPOR.pu                       : CDL Density Porosity
GR.GAPI                       : Gamma Ray
~Parameter Information Block
~A  Depth       DCAL        RHOB        RHOC        DPOR         GR     
# ...
  1489.4000      7.7394      2.5789      0.1095      4.3066   -999.2500
  1489.5000      7.7118      2.5946      0.1101      3.3553   -999.2500
  1489.6000      7.7118      2.6034      0.1381      2.8252   -999.2500
  1489.7000      7.7118      2.5932      0.1136      3.4426   -999.2500
  1489.8000      7.7510      2.5687      0.0756      4.9257   -999.2500
  1489.9000      7.7510      2.5386      0.0566      6.7500   -999.2500
  1490.0000      7.7992      2.5156      0.0153      8.1439   -999.2500
  1490.1000      7.7992      2.5108      0.0660      8.4392   -999.2500
  1490.2000      7.7992      2.5120      0.0424      8.3642   -999.2500
  1490.3000      7.8133      2.5021      0.0267      8.9617   -999.2500
  1490.4000      7.8133      2.4830      0.0317     10.1212   -999.2500
  1490.5000      7.8149      2.4606      0.0175     11.4769   -999.2500
  1490.6000      7.8149      2.4407     -0.0346     12.6868   -999.2500
  1490.7000      7.8149      2.4356      0.0116     12.9933   -999.2500
  1490.8000      7.8159      2.4514     -0.0106     12.0358   -999.2500
  1490.9000      7.8159      2.4783      0.0135     10.4056   -999.2500
  1491.0000      7.8267      2.4980      0.0872      9.2092   -999.2500
  1491.1000      7.8267      2.5056      0.0565      8.7490   -999.2500
  1491.2000      7.8267      2.5138      0.0377      8.2539   -999.2500
  1491.3000      7.8348      2.5204      0.0554      7.8524   -999.2500
  1491.4000      7.8348      2.5142      0.0836      8.2320   -999.2500
  1491.5000      7.8475      2.5038      0.0385      8.8590   -999.2500
  1491.6000      7.8475      2.5053      0.0514      8.7689   -999.2500
  1491.7000      7.8475      2.5176      0.0913      8.0246   -999.2500
  1491.8000      7.8276      2.5331      0.0802      7.0825   -999.2500
  1491.9000      7.8276      2.5512      0.0166      5.9895   -999.2500
  1492.0000      7.7797      2.5618      0.0845      5.3450   -999.2500
  1492.1000      7.7797      2.5536      0.0492      5.8413   -999.2500
  1492.2000      7.7797      2.5419      0.0362      6.5520   -999.2500
  1492.3000      7.7571      2.5402      0.0775      6.6575   -999.2500
  1492.4000      7.7571      2.5351      0.0917      6.9658   -999.2500
  1492.5000      7.7888      2.5212      0.0004      7.8085   -999.2500
  1492.6000      7.7888      2.5135      0.0311      8.2728   -999.2500
  1492.7000      7.7888      2.5192      0.0279      7.9259   -999.2500
  1492.8000      7.8083      2.5341      0.0367      7.0229   -999.2500
  1492.9000      7.8083      2.5478      0.1113      6.1944   -999.2500
  1493.0000      7.8168      2.5521      0.0501      5.9349   -999.2500
  1493.1000      7.8168      2.5494      0.0745      6.0965   -999.2500
  1493.2000      7.8168      2.5484     -0.0119      6.1562   -999.2500
  1493.3000      7.8164      2.5547      0.0678      5.7741   -999.2500
  1493.4000      7.8164      2.5576      0.0944      5.6002   -999.2500
  1493.5000      7.8108      2.5491      0.0261      6.1134   -999.2500
  1493.6000      7.8108      2.5391      0.0540      6.7185   -999.2500
  1493.7000      7.8108      2.5325      0.0359      7.1231   -999.2500
  1493.8000      7.7941      2.5274     -0.0067      7.4287   -999.2500
  1493.9000      7.7941      2.5324     -0.0029      7.1270   -999.2500
  1494.0000      7.8050      2.5521      0.0557      5.9362   -999.2500
  1494.1000      7.8050      2.5683      0.0711      4.9496   -999.2500
  1494.2000      7.8050      2.5691      0.0587      4.9004   -999.2500
  1494.3000      7.8251      2.5717      0.0309      4.7442   -999.2500
  1494.4000      7.8251      2.5834      0.0790      4.0379   -999.2500
  1494.5000      7.8421      2.5812      0.0887      4.1688   -999.2500
  1494.6000      7.8421      2.5541      0.0709      5.8123   -999.2500
  1494.7000      7.8421      2.5250      0.0222      7.5731   -999.2500
  1494.8000      7.8038      2.5350      0.0209      6.9686   -999.2500
  1494.9000      7.8038      2.6237      0.0095      1.5911   -999.2500
  1495.0000      7.8003      2.6682      0.0461     -1.1046   -999.2500
  1495.1000      7.8003      2.2410      0.4614     24.7861   -999.2500
  1495.2000      7.8003      1.2746     -0.0300     83.3556   -999.2500
  1495.3000      7.8069      0.4324     -0.0300    134.3977   -999.2500
  1495.4000      7.8069      0.0821   -999.2500    155.6288   -999.2500
  1495.5000      7.4274      0.0085   -999.2500    160.0930   -999.2500
  1495.6000      7.4274      0.0005   -999.2500    160.5782   -999.2500
  1495.7000      7.4274      0.0000   -999.2500    160.6061   -999.2500
  1495.8000      4.6659      0.0000   -999.2500    160.6061   -999.2500
  1495.9000      4.6659   -999.2500   -999.2500   -999.2500   -999.2500
  1496.0000      4.2923   -999.2500   -999.2500   -999.2500   -999.2500
  1496.1000      4.2923   -999.2500   -999.2500   -999.2500   -999.2500
  1496.2000      4.2923   -999.2500   -999.2500   -999.2500   -999.2500
  1496.3000   -999.2500   -999.2500   -999.2500   -999.2500   -999.2500
  1496.4000   -999.2500   -999.2500   -999.2500   -999.2500   -999.2500
  1496.5000   -999.2500   -999.2500   -999.2500   -999.2500   -999.2500
  1496.6000   -999.2500   -999.2500   -999.2500   -999.2500   -999.2500
  1496.7000   -999.2500   -999.2500   -999.2500   -999.2500   -999.2500
  1496.8000   -999.2500   -999.2500   -999.2500   -999.2500   -999.2500
  1496.9000   -999.2500   -999.2500   -999.2500   -999.2500   -999.2500
  1497.0000   -999.2500   -999.2500   -999.2500   -999.2500   -999.2500
  1497.1000   -999.2500   -999.2500   -999.2500   -999.2500   -999.2500
  1497.2000   -999.2500   -999.2500   -999.2500   -999.2500   -999.2500
  1497.3000   -999.2500   -999.2500   -999.2500   -999.2500   -999.2500
  1497.4000   -999.2500   -999.2500   -999.2500   -999.2500   -999.2500
  1497.5000   -999.2500   -999.2500   -999.2500   -999.2500   -999.2500
  1497.6000   -999.2500   -999.2500   -999.2500   -999.2500   -999.2500
  1497.7000   -999.2500   -999.2500   -999.2500   -999.2500   -999.2500
  1497.8000   -999.2500   -999.2500   -999.2500   -999.2500   -999.2500
  1497.9000   -999.2500   -999.2500   -999.2500   -999.2500   -999.2500
  1498.0000   -999.2500   -999.2500   -999.2500   -999.2500   -999.2500
  1498.1000   -999.2500   -999.2500   -999.2500   -999.2500   -999.2500
  1498.2000   -999.2500   -999.2500   -999.2500   -999.2500   -999.2500
  1498.3000   -999.2500   -999.2500   -999.2500   -999.2500   -999.2500
  1498.4000   -999.2500   -999.2500   -999.2500   -999.2500   -999.2500
  1498.5000   -999.2500   -999.2500   -999.2500   -999.2500   -999.2500
