~Version Information
VERS.                      2.0: CWLS Log ASCII Standard - VERSION 2.0
WRAP.                       NO: One line per depth step
~Well Information Block
STRT.FT               660.0000: 
STOP.FT              2488.5000: 
STEP.FT                 0.1000: 
NULL.                -999.2500: 
COMP.          Petrogulf Corporation: COMPANY
WELL.          Montoya 18-11V-B: WELL
FLD.           Purgatorie River: FIELD
LOC.           848' FNL & 619' FWL: LOCATION
PROV.                 Colorado: PROVINCE
CNTY.               Las Animas: COUNTRY
SRVC.                Patterson: SERVICE COMPANY
DATE.          Wed Oct 05 07:28:13 2005: LOG DATE
UWI.                          : UNIQUE WELL ID
~Curve Information Block
DEPT.FT            0 000 00 00: Depth
DCAL.in                       : CDL Caliper
RHOB.g/cc                     : CDL Bulk Density
RHOC.g/cc                     : CDL Density Correction
DPOR.pu                       : CDL Density Porosity
GR.GAPI                       : Gamma Ray
NPOR.pu                       : Neutron Porosity
~Parameter Information Block
~A  Depth       DCAL        RHOB        RHOC        DPOR         GR         NPOR    
   660.0000     17.8798      0.2948     -0.3937    142.7387    162.9821     40.4214
   660.1000     17.8798      0.3011     -0.4377    142.3561    167.6277     40.2038
   660.2000     17.8798      0.2990     -0.4290    142.4826    171.5012     39.9565
   660.3000     17.8806      0.2984     -0.4399    142.5231    171.3463     39.9876
   660.4000     17.8806      0.2987     -0.4014    142.5005    172.3123     40.3810
   660.5000     17.8836      0.2943     -0.4362    142.7696    177.1353     40.7551
   660.6000     17.8836      0.2852     -0.4374    143.3191    180.3208     40.7026
   660.7000     17.8836      0.2760     -0.4512    143.8816    180.5103     40.2924
   660.8000     17.8820      0.2725     -0.4782    144.0885    180.8841     39.9810
   660.9000     17.8820      0.2767     -0.4331    143.8389    180.9543     39.9573
   661.0000     17.8751      0.2833     -0.4469    143.4364    179.8461     39.9542
   661.1000     17.8751      0.2890     -0.4434    143.0895    177.2509     39.8836
   661.2000     17.8751      0.2873     -0.3948    143.1947    173.4769     39.8617
   661.3000     17.8784      0.2760     -0.4666    143.8815    171.8207     39.7625
   661.4000     17.8784      0.2699     -0.4890    144.2455    173.3810     39.5798
   661.5000     17.8799      0.2761     -0.4395    143.8738    173.3456     39.4470
   661.6000     17.8799      0.2811     -0.4294    143.5720    171.0432     39.2899
   661.7000     17.8799      0.2767     -0.4560    143.8336    174.0336     39.2603
   661.8000     17.8791      0.2690     -0.4700    144.3044    183.7172     39.4858
   661.9000     17.8791      0.2646     -0.4685    144.5685    192.4124     39.6357
   662.0000     17.8800      0.2664     -0.4731    144.4623    195.7765     39.5624
   662.1000     17.8800      0.2730     -0.4628    144.0579    196.1523     39.5125
   662.2000     17.8800      0.2777     -0.4260    143.7783    197.2266     39.7023
   662.3000     17.8800      0.2747     -0.4592    143.9566    199.6638     40.0074
   662.4000     17.8800      0.2667     -0.4468    144.4415    201.7619     40.0579
   662.5000     17.8783      0.2609     -0.4877    144.7924    203.4307     39.8335
   662.6000     17.8783      0.2630     -0.4582    144.6690    203.6425     39.7689
   662.7000     17.8783      0.2691     -0.4556    144.2971    201.7083     40.0258
   662.8000     17.8740      0.2708     -0.4263    144.1946    201.4925     40.3332
   662.9000     17.8740      0.2682     -0.4798    144.3519    202.4874     40.4636
   663.0000     17.8800      0.2694     -0.4676    144.2810    199.0011     40.4145
   663.1000     17.8800      0.2731     -0.4350    144.0560    193.7077     40.2668
   663.2000     17.8800      0.2710     -0.4636    144.1801    194.0537     40.0550
   663.3000     17.8765      0.2624     -0.4642    144.7022    198.5822     39.8603
   663.4000     17.8765      0.2559     -0.5080    145.0977    200.7702     39.8560
   663.5000     17.8747      0.2594     -0.4891    144.8848    199.0285     40.0717
   663.6000     17.8747      0.2696     -0.4541    144.2656    196.5641     40.4035
   663.7000     17.8747      0.2819     -0.4738    143.5236    197.2891     40.7280
   663.8000     17.8804      0.2957     -0.4126    142.6859    200.1325     41.0240
   663.9000     17.8804      0.3105     -0.4441    141.7860    201.0389     41.3550
   664.0000     17.8791      0.3271     -0.3925    140.7788    198.8763     41.6166
   664.1000     17.8791      0.3390     -0.3552    140.0597    196.1586     41.7561
   664.2000     17.8791      0.3380     -0.3987    140.1240    194.7217     41.8198
   664.3000     17.8784      0.3238     -0.3701    140.9801    194.8829     41.6780
   664.4000     17.8784      0.3004     -0.4379    142.3992    196.0241     41.4081
   664.5000     17.8748      0.2778     -0.4451    143.7700    196.7563     41.4163
   664.6000     17.8748      0.2680     -0.5002    144.3643    196.8145     41.7693
   664.7000     17.8748      0.2693     -0.4245    144.2820    198.0527     42.0379
   664.8000     17.8705      0.2668     -0.4421    144.4348    200.5370     41.9525
   664.9000     17.8705      0.2600     -0.4899    144.8481    201.2932     41.6901
   665.0000     17.8727      0.2606     -0.4725    144.8145    199.0745     41.6036
   665.1000     17.8727      0.2639     -0.4330    144.6115    197.8431     41.7891
   665.2000     17.8727      0.2564     -0.4603    145.0666    201.5881     42.0080
   665.3000     17.8777      0.2388     -0.4872    146.1334    206.3431     42.1252
   665.4000     17.8777      0.2231     -0.5096    147.0845    205.2648     42.3106
   665.5000     17.8753      0.2180     -0.5125    147.3937    198.1994     42.6771
   665.6000     17.8753      0.2243     -0.4929    147.0118    188.0973     42.9628
   665.7000     17.8753      0.2386     -0.4955    146.1446    179.5065     42.9711
   665.8000     17.8745      0.2500     -0.4417    145.4531    176.9023     42.8747
   665.9000     17.8745      0.2420     -0.4345    145.9406    177.9328     42.9234
   666.0000     17.8722      0.2219     -0.5583    147.1553    177.8737     43.1858
   666.1000     17.8722      0.2176     -0.5335    147.4162    175.8266     43.5064
   666.2000     17.8722      0.2308     -0.4471    146.6205    172.1691     43.6941
   666.3000     17.8773      0.2453     -0.4981    145.7404    166.2226     43.7133
   666.4000     17.8773      0.2576     -0.4500    144.9954    159.6716     43.5858
   666.5000     17.8738      0.2616     -0.4161    144.7537    154.4657     43.4925
   666.6000     17.8738      0.2536     -0.4814    145.2341    149.2083     43.6418
   666.7000     17.8738      0.2508     -0.5058    145.4064    142.4218     43.8336
   666.8000     17.8779      0.2655     -0.4654    144.5176    133.3503     43.7507
   666.9000     17.8779      0.2828     -0.3870    143.4662    122.1000     43.4607
   667.0000     17.8696      0.2854     -0.4325    143.3063    112.1419     43.2042
   667.1000     17.8696      0.2790     -0.4452    143.6945    107.0189     43.0326
   667.2000     17.8696      0.2747     -0.4402    143.9585    106.8617     42.9226
   667.3000     17.8759      0.2720     -0.4406    144.1225    110.1429     42.8408
   667.4000     17.8759      0.2673     -0.4509    144.4054    116.1420     42.8176
   667.5000     17.8735      0.2608     -0.4452    144.8022    124.5137     42.9399
   667.6000     17.8735      0.2553     -0.4577    145.1317    134.7144     43.0866
   667.7000     17.8735      0.2543     -0.4638    145.1944    147.6120     43.0705
   667.8000     17.8782      0.2555     -0.4533    145.1194    163.9922     42.9557
   667.9000     17.8782      0.2515     -0.4546    145.3662    181.9536     42.8598
   668.0000     17.8786      0.2398     -0.4706    146.0744    198.5699     42.7922
   668.1000     17.8786      0.2300     -0.5154    146.6682    208.9449     42.8707
   668.2000     17.8786      0.2326     -0.4837    146.5095    206.9034     43.2425
   668.3000     17.8767      0.2457     -0.4882    145.7177    193.4069     43.7023
   668.4000     17.8767      0.2564     -0.4309    145.0683    176.8470     43.9928
   668.5000     17.8773      0.2562     -0.4691    145.0817    162.6300     44.1409
   668.6000     17.8773      0.2528     -0.4766    145.2870    149.6924     44.1753
   668.7000     17.8773      0.2553     -0.4679    145.1356    136.6086     44.0746
   668.8000     17.8757      0.2575     -0.4268    145.0006    122.9781     43.9426
   668.9000     17.8757      0.2523     -0.4552    145.3153    109.7673     43.8285
   669.0000     17.8705      0.2490     -0.4938    145.5162    100.5155     43.6974
   669.1000     17.8705      0.2542     -0.4372    145.1984     97.8897     43.5391
   669.2000     17.8705      0.2573     -0.4499    145.0129     99.3929     43.2654
   669.3000     17.8713      0.2516     -0.4561    145.3567    101.1364     42.9365
   669.4000     17.8713      0.2414     -0.4719    145.9734    102.6484     42.7251
   669.5000     17.8746      0.2307     -0.4644    146.6214    103.4286     42.7034
