~Version Information
VERS.                      2.0: CWLS Log ASCII Standard - VERSION 2.0
WRAP.                       NO: One line per depth step
~Well Information Block
STRT.FT                -8.0000: 
STOP.FT              2135.0000: 
STEP.FT                 0.2500: 
NULL.                -999.2500: 
COMP.          Pioneer Natural Resources: COMPANY
WELL.             AMX 13-13 Tr: WELL
FLD.           Purgatorie River: FIELD
LOC.           2401' FSL & 895' FWL--: LOCATION
PROV.                       CO: PROVINCE
CNTY.               Las Animas: COUNTRY
SRVC.          Patterson Wireline: SERVICE COMPANY
DATE.          Thu Jan 05 10:37:28 2006: LOG DATE
UWI.           05 071 08631 00: UNIQUE WELL ID
~Curve Information Block
DEPT.FT            0 000 00 00: Depth
CCL.                          : Casing Collar Locator
TT3.usec                      : CBL 3' Travel Time
AMP3.mV                       : CBL 3' Amplitude
GR.GAPI                       : Gamma Ray
~Parameter Information Block
~A  Depth       CCL         TT3         AMP3         GR     
# ...
  1968.5000      0.0000    607.6501      2.9648    128.1758
  1968.7500      0.0000    615.2604      2.9584    129.0164
  1969.0000      0.0000    627.2510      2.9409    128.2049
  1969.2500      0.0000    638.8854      2.9147    128.0941
  1969.5000      0.0000    648.0427      2.8840    130.6412
  1969.7500      0.0000    653.5193      2.8502    135.4661
  1970.0000      0.0000    654.4636      2.8134    140.6512
  1970.2500      0.0000    651.6196      2.7769    144.3742
  1970.5000      0.0000    647.5499      2.7493    145.4632
  1970.7500      0.0000    645.0432      2.7388    143.7354
  1971.0000      0.0000    645.7611      2.7461    140.6993
  1971.2500      0.0000    650.0792      2.7676    138.8552
  1971.5000      0.0000    657.2693      2.8031    139.2375
  1971.7500      0.0000    665.5435      2.8560    140.1700
  1972.0000      0.0000    672.6352      2.9224    139.0640
  1972.2500      0.0000    676.8704      2.9833    135.0432
  1972.5000      0.0000    677.7619      3.0149    129.7276
  1972.7500      0.0000    675.8524      3.0053    125.9031
  1973.0000      0.0000    672.2202      2.9593    125.2363
  1973.2500      0.0000    667.7211      2.8846    126.9191
  1973.5000      0.0000    662.2726      2.7763    128.6667
  1973.7500      0.0000    655.2151      2.6212    128.8314
  1974.0000      0.0000    646.6848      2.4172    127.2153
  1974.2500      0.0000    638.1769      2.1855    124.3717
  1974.5000      0.0000    631.4899      1.9604    120.7640
  1974.7500      0.0000    627.5792      1.7688    116.4779
  1975.0000      0.0000    626.5623      1.6186    111.5840
  1975.2500      0.0000    628.1675      1.5049    106.7450
  1975.5000      0.0000    631.6337      1.4202    103.0449
  1975.7500      0.0000    635.3973      1.3574    100.8433
  1976.0000      0.0000    637.5143      1.3086     99.1250
  1976.2500      0.0000    636.8685      1.2645     96.5943
  1976.5000      0.0000    634.1481      1.2183     93.3825
  1976.7500      0.0000    631.5221      1.1686     91.0272
  1977.0000      0.0000    631.0036      1.1182     90.6431
  1977.2500      0.0000    632.8917      1.0726     91.7028
  1977.5000      0.0000    635.8221      1.0393     92.9323
  1977.7500      0.0000    638.2044      1.0262     93.9058
  1978.0000      0.0000    639.3763      1.0331     95.2182
  1978.2500      0.0000    639.5856      1.0486     97.1707
  1978.5000      0.0000    639.3784      1.0581     98.8569
  1978.7500      0.0000    639.1748      1.0559     98.8709
  1979.0000      0.0000    639.1640      1.0476     96.7084
  1979.2500      0.0000    639.3431      1.0415     93.1934
  1979.5000      0.0000    639.6071      1.0417     89.6632
  1979.7500      0.0000    639.8464      1.0488     87.0513
  1980.0000      0.0000    640.0048      1.0618     85.8509
  1980.2500      0.0000    640.0768      1.0759     86.4649
  1980.5000      0.0000    640.0715      1.0811     88.9252
  1980.7500      0.0000    639.9917      1.0667     92.2853
  1981.0000      0.0000    639.8443      1.0312     94.9641
  1981.2500      0.0000    639.6625      0.9872     95.9452
  1981.5000      0.0000    639.5156      0.9542     95.3936
  1981.7500      0.0000    639.5046      0.9470     94.2003
  1982.0000      0.0000    639.7395      0.9691     93.3642
  1982.2500      0.0000    640.2626      1.0142     93.6226
  1982.5000      0.0000    640.8712      1.0731     95.1666
  1982.7500      0.0000    640.9622      1.1400     97.6058
  1983.0000      0.0000    639.7293      1.2149    100.2866
  1983.2500      0.0000    636.8297      1.3001    102.6770
  1983.5000      0.0000    632.9545      1.3960    104.5585
  1983.7500      0.0000    629.5465      1.4991    105.8315
  1984.0000      0.0000    627.8120      1.6053    106.1288
  1984.2500      0.0000    628.0521      1.7126    104.9101
  1984.5000      0.0000    629.8283      1.8234    102.0877
  1984.7500      0.0000    632.5011      1.9389     98.2209
  1985.0000      0.0000    635.4703      2.0521     93.9952
  1985.2500      0.0000    638.0068      2.1522     89.8909
  1985.5000      0.0000    639.2081      2.2409     86.3518
  1985.7500      0.0000    638.5619      2.3393     83.6872
  1986.0000      0.0000    636.6967      2.4667     81.6496
  1986.2500      0.0000    635.0704      2.6126     79.4907
  1986.5000      0.0000    634.6694      2.7447     76.5528
  1986.7500      0.0000    635.5884      2.8452     72.6752
  1987.0000      0.0000    638.3039      2.9281     68.2822
  1987.2500      2.0000    644.5307      3.0124     64.3419
  1987.5000      0.0000    655.6027      3.0912     61.9742
  1987.7500      0.0000    670.0473      3.1344     61.7371
  1988.0000      0.0000    683.6146      3.1222     63.3759
  1988.2500      0.0000    691.7654      3.0653     66.4990
  1988.5000      0.0000    691.9233      2.9866     71.3652
  1988.7500      0.0000    684.1938      2.8839     78.6495
  1989.0000      0.0000    671.1125      2.7315     88.4668
  1989.2500      0.0000    656.7649      2.5283    100.0449
  1989.5000      0.0000    645.1350      2.3266    112.5168
  1989.7500      0.0000    638.4743      2.1957    125.5791
  1990.0000      0.0000    636.8700      2.1645    138.8414
  1990.2500      0.0000    638.8090      2.2094    150.9515
  1990.5000      0.0000    641.9000      2.2838    160.2865
  1990.7500      0.0000    643.7365      2.3466    166.3530
  1991.0000      0.0000    643.0989      2.3767    169.5456
  1991.2500      0.0000    640.5695      2.3761    169.7860
  1991.5000      0.0000    637.7809      2.3618    166.7122
  1991.7500      0.0000    636.1888      2.3501    161.2946
  1992.0000      0.0000    636.4779      2.3465    155.9754
  1992.2500      0.0000    638.4111      2.3478    152.6462
  1992.5000      0.0000    640.7563      2.3495    151.1286
  1992.7500      0.0000    641.8232      2.3509    150.1570
  1993.0000      0.0000    640.7357      2.3570    149.3369
  1993.2500      0.0000    638.1851      2.3732    149.3246
  1993.5000      0.0000    635.7513      2.3987    150.2848
  1993.7500      0.0000    634.7488      2.4266    151.1729
  1994.0000      0.0000    635.7584      2.4524    150.6752
  1994.2500      0.0000    638.6084      2.4785    147.9901
  1994.5000      0.0000    642.3271      2.5122    142.4892
  1994.7500      0.0000    645.3101      2.5601    133.6269
  1995.0000      0.0000    645.6462      2.6236    121.9185
  1995.2500      0.0000    640.7137      2.6945    109.6861
  1995.5000      0.0000    626.6039      2.7569    100.1959
  1995.7500      0.0000    599.7484      2.7957     95.7197
  1996.0000      0.0000    561.0458      2.8087     96.2861
  1996.2500      0.0000    518.3687      2.8091    100.1259
  1996.5000      0.0000    483.7546      2.8162    105.0971
  1996.7500      0.0000    466.9490      2.8421    109.8247
  1997.0000      0.0000    470.5688      2.8847    113.9090
  1997.2500      0.0000    489.9453      2.9316    117.3479
  1997.5000      0.0000    516.5200      2.9680    119.7188
  1997.7500      0.0000    541.0990      2.9854    119.8880
  1998.0000      0.0000    554.6643      2.9822    116.7780
  1998.2500      0.0000    549.4461      2.9600    110.8327
  1998.5000      0.0000    523.4760      2.9193    104.7012
  1998.7500      0.0000    484.3600      2.8619    101.8201
  1999.0000      0.0000    445.4990      2.7957    103.7274
  1999.2500      0.0000    417.1623      2.7340    108.9302
  1999.5000      0.0000    401.5881      2.6885    114.5895
  1999.7500      0.0000    395.3070      2.6620    118.8278
  2000.0000      0.0000    393.8845      2.6484    121.1717
  2000.2500      0.0000    394.4374      2.6380    121.6557
  2000.5000      0.0000    395.7487      2.6240    120.6539
  2000.7500      0.0000    397.4748      2.6042    119.5702
  2001.0000      0.0000    399.6224      2.5756    120.4421
  2001.2500      0.0000    402.5971      2.5354    123.9911
  2001.5000      0.0000    407.6784      2.4882    128.5081
  2001.7500      0.0000    416.6705      2.4500    131.3038
