~Version Information
VERS.                      2.0: CWLS Log ASCII Standard - VERSION 2.0
WRAP.                       NO: One line per depth step
~Well Information Block
STRT.FT               660.0000: 
STOP.FT              2491.0000: 
STEP.FT                 0.2500: 
NULL.                -999.2500: 
COMP.          Petrogulf Corporation: COMPANY
WELL.          Montoya 18-11V-B: WELL
FLD.           Purgatorie River: FIELD
LOC.           848' FNL & 619' FWL: LOCATION
PROV.                 Colorado: PROVINCE
CNTY.               Las Animas: COUNTRY
SRVC.                Patterson: SERVICE COMPANY
DATE.          Wed Oct 05 04:34:17 2005: LOG DATE
UWI.                          : UNIQUE WELL ID
~Curve Information Block
DEPT.FT            0 000 00 00: Depth
SP.mV                         : DIL Spontaneous Potential
RILD.Ohm-m                    : DIL Deep Resistivity
RILM.Ohm-m                    : DIL Medium Resistivity
RLL3.Ohm-m                    : DIL Shallow Resistivity
GR.GAPI                       : Gamma Ray
~Parameter Information Block
~A  Depth        SP         RILD        RILM        RLL3         GR     
# ...
  1136.0000   2000.0000     19.1832     20.0873   2000.0000    116.2977
  1136.2500   2000.0000     18.7139     19.4096   2000.0000    120.9642
  1136.5000   2000.0000     18.2759     18.7974   2000.0000    127.4213
  1136.7500   2000.0000     17.8586     18.2407   2000.0000    130.6374
  1137.0000   2000.0000     17.4597     17.7289   2000.0000    134.1136
  1137.2500   2000.0000     17.0861     17.2542   2000.0000    136.1329
  1137.5000   2000.0000     16.7490     16.8130   2000.0000    139.4389
  1137.7500   2000.0000     16.4588     16.4069   2000.0000    141.6766
  1138.0000   2000.0000     16.2230     16.0417   2000.0000    143.7755
  1138.2500   2000.0000     16.0486     15.7261   2000.0000    143.4926
  1138.5000   2000.0000     15.9442     15.4703   2000.0000    140.4317
  1138.7500   2000.0000     15.9212     15.2857   2000.0000    137.5567
  1139.0000   2000.0000     15.9913     15.1838   2000.0000    133.9718
  1139.2500   2000.0000     16.1634     15.1776   2000.0000    132.6779
  1139.5000   2000.0000     16.4411     15.2812   2000.0000    132.4469
  1139.7500   2000.0000     16.8211     15.5114   2000.0000    133.3462
  1140.0000   2000.0000     17.2943     15.8874   2000.0000    136.2361
  1140.2500   2000.0000     17.8495     16.4308   2000.0000    138.9018
  1140.5000   2000.0000     18.4786     17.1652   2000.0000    142.3872
  1140.7500   2000.0000     19.1815     18.1141   2000.0000    142.9609
  1141.0000   2000.0000     19.9663     19.2993   2000.0000    139.4228
  1141.2500   2000.0000     20.8463     20.7380   2000.0000    134.0356
  1141.5000   2000.0000     21.8382     22.4402   2000.0000    122.5000
  1141.7500   2000.0000     22.9646     24.4087   2000.0000    113.3536
  1142.0000   2000.0000     24.2580     26.6403   2000.0000     98.9218
  1142.2500   2000.0000     25.7615     29.1313   2000.0000     89.7725
  1142.5000   2000.0000     27.5245     31.8846   2000.0000     78.4551
  1142.7500   2000.0000     29.5937     34.9173   2000.0000     73.2859
  1143.0000   2000.0000     32.0015     38.2640   2000.0000     69.4590
  1143.2500   2000.0000     34.7509     41.9757   2000.0000     69.1803
  1143.5000   2000.0000     37.7978     46.1121   2000.0000     71.2246
  1143.7500   2000.0000     41.0324     50.7288   2000.0000     73.6272
  1144.0000   2000.0000     44.2716     55.8572   2000.0000     77.2073
  1144.2500   2000.0000     47.2817     61.4774   2000.0000     78.2018
  1144.5000   2000.0000     49.8377     67.4810   2000.0000     75.3744
  1144.7500   2000.0000     51.7913     73.6305   2000.0000     70.1869
  1145.0000   2000.0000     53.0930     79.5260   2000.0000     58.9800
  1145.2500   2000.0000     53.7556     84.6097   2000.0000     51.0448
  1145.5000   2000.0000     53.8059     88.2403   2000.0000     41.3654
  1145.7500   2000.0000     53.2827     89.8510   2000.0000     37.1051
  1146.0000   2000.0000     52.2814     89.1477   2000.0000     33.2585
  1146.2500   2000.0000     50.9855     86.2520   2000.0000     31.4379
  1146.5000   2000.0000     49.6376     81.6862   2000.0000     28.6739
  1146.7500   2000.0000     48.4585     76.2020   2000.0000     26.6844
  1147.0000   2000.0000     47.5680     70.5496   2000.0000     23.9233
  1147.2500   2000.0000     46.9428     65.3078   2000.0000     22.7149
  1147.5000   2000.0000     46.4200     60.8188   2000.0000     22.9270
  1147.7500   2000.0000     45.7447     57.2052   2000.0000     25.0124
  1148.0000   2000.0000     44.6557     54.4151   2000.0000     31.4420
  1148.2500   2000.0000     42.9884     52.2621   2000.0000     37.5038
  1148.5000   2000.0000     40.7435     50.4576   2000.0000     47.3134
  1148.7500   2000.0000     38.0797     48.6505   2000.0000     52.7683
  1149.0000   2000.0000     35.2413     46.5021   2000.0000     56.9651
  1149.2500   2000.0000     32.4714     43.7950   2000.0000     56.4978
  1149.5000   2000.0000     29.9546     40.5232   2000.0000     51.7138
  1149.7500   2000.0000     27.7979     36.8897   2000.0000     47.2751
  1150.0000   2000.0000     26.0349     33.2028   2000.0000     42.3095
  1150.2500   2000.0000     24.6434     29.7464   2000.0000     42.2249
  1150.5000   2000.0000     23.5653     26.7038   2000.0000     49.1959
  1150.7500   2000.0000     22.7248     24.1509   2000.0000     58.5788
  1151.0000   2000.0000     22.0443     22.0857   2000.0000     77.6459
  1151.2500   2000.0000     21.4565     20.4644   2000.0000     91.7763
  1151.5000   2000.0000     20.9125     19.2271   2000.0000    111.7337
  1151.7500   2000.0000     20.3850     18.3134   2000.0000    122.6823
  1152.0000   2000.0000     19.8649     17.6691   2000.0000    134.3520
  1152.2500   2000.0000     19.3567     17.2477   2000.0000    139.0078
  1152.5000   2000.0000     18.8729     17.0104   2000.0000    141.8094
  1152.7500   2000.0000     18.4292     16.9233   2000.0000    141.2460
  1153.0000   2000.0000     18.0410     16.9549   2000.0000    137.9613
  1153.2500   2000.0000     17.7185     17.0734   2000.0000    135.1513
  1153.5000   2000.0000     17.4653     17.2449   2000.0000    131.1915
  1153.7500   2000.0000     17.2773     17.4325   2000.0000    128.8155
  1154.0000   2000.0000     17.1452     17.5991   2000.0000    125.4565
  1154.2500   2000.0000     17.0568     17.7118   2000.0000    123.4277
  1154.5000   2000.0000     16.9980     17.7472   2000.0000    121.1457
  1154.7500   2000.0000     16.9512     17.6961   2000.0000    120.4159
  1155.0000   2000.0000     16.8931     17.5633   2000.0000    120.8438
  1155.2500   2000.0000     16.7964     17.3627   2000.0000    122.1759
  1155.5000   2000.0000     16.6355     17.1108   2000.0000    125.3907
  1155.7500   2000.0000     16.3952     16.8197   2000.0000    127.9424
  1156.0000   2000.0000     16.0750     16.4940   2000.0000    131.5887
  1156.2500   2000.0000     15.6895     16.1331   2000.0000    133.3254
  1156.5000   2000.0000     15.2646     15.7353   2000.0000    133.4406
  1156.7500   2000.0000     14.8332     15.3038   2000.0000    131.0053
  1157.0000   2000.0000     14.4293     14.8503   2000.0000    123.4532
  1157.2500   2000.0000     14.0824     14.3946   2000.0000    116.9869
  1157.5000   2000.0000     13.8125     13.9613   2000.0000    108.7836
  1157.7500   2000.0000     13.6301     13.5753   2000.0000    106.5012
  1158.0000   2000.0000     13.5372     13.2575   2000.0000    109.6277
  1158.2500   2000.0000     13.5305     13.0230   2000.0000    115.2751
  1158.5000   2000.0000     13.6038     12.8815   2000.0000    125.5171
  1158.7500   2000.0000     13.7498     12.8383   2000.0000    131.7450
  1159.0000   2000.0000     13.9626     12.8968   2000.0000    140.0887
  1159.2500   2000.0000     14.2406     13.0610   2000.0000    146.2497
  1159.5000   2000.0000     14.5886     13.3369   2000.0000    157.3834
  1159.7500   2000.0000     15.0182     13.7345   2000.0000    164.7406
  1160.0000   2000.0000     15.5466     14.2682   2000.0000    171.9666
  1160.2500   2000.0000     16.1940     14.9570   2000.0000    173.1872
  1160.5000   2000.0000     16.9796     15.8240   2000.0000    170.4863
  1160.7500   2000.0000     17.9179     16.8957   2000.0000    166.4579
  1161.0000   2000.0000     19.0144     18.2008   2000.0000    157.5078
  1161.2500   2000.0000     20.2657     19.7694   2000.0000    150.0094
  1161.5000   2000.0000     21.6657     21.6321   2000.0000    138.6239
  1161.7500   2000.0000     23.2149     23.8187   2000.0000    132.3908
  1162.0000   2000.0000     24.9247     26.3578   2000.0000    125.8816
  1162.2500   2000.0000     26.8085     29.2731   2000.0000    122.8136
  1162.5000   2000.0000     28.8583     32.5776   2000.0000    118.6460
  1162.7500   2000.0000     31.0150     36.2573   2000.0000    115.7339
  1163.0000   2000.0000     33.1479     40.2428   2000.0000    111.1094
  1163.2500   2000.0000     35.0613     44.3665   2000.0000    107.8222
  1163.5000   2000.0000     36.5412     48.3193   2000.0000    102.2650
  1163.7500   2000.0000     37.4287     51.6430   2000.0000     98.0457
