~Version Information
 VERS.                                  2.0 : CWLS LAS VERSION
 WRAP.                                   NO : WRAPING MODE
 SWARE .                 MController 2.5.0N : SOFTWARE VERSION
~Well Information
 WELL.                      Pioneer 34-27TR : WELL
 COMP.  Pioneer Natural Resources USA, Inc. : COMPANY
 FLD.                      Purgatoire River : FIELD
 LOC.               SW/SE Sec 27 T32S  R67W : LOCATION
 DATE.                            10/5-6/05 : DATE(S) LOGGED
 SRVC.       BLANCO Geological Services LLC : SERVICE COMPANY
 STAT.                                   CO : STATE
 CNTY.                           Las Animas : COUNTY
 CTRY.                                  USA : COUNTRY
 API.                       05-071-08548-00 : API NUMBER
 STRT.FT                             486.00 : START DEPTH
 STOP.FT                            1560.00 : STOP DEPTH
 STEP.FT                               1.00 : DEPTH INCREMENT
 NULL.                                -9999 : NULL VALUE
~Curve information
 DEPTH.FT                                   :
 ROP.MIN/FT                                 :
 GAS.UNITS                                  :
~ASCII Log data
# ...
       886.0         0.13         20.2 
       887.0         0.13         21.9 
       888.0         0.13         22.7 
       889.0         0.20         23.5 
       890.0         0.23         25.9 
       891.0         0.23         29.9 
       892.0         0.27         35.8 
       893.0         0.23         40.6 
       894.0         0.28         43.4 
       895.0         0.23         45.2 
       896.0         1.57         45.4 
       897.0         0.60         16.6 
       898.0         0.53         27.6 
       899.0         0.38         35.4 
       900.0         0.30         39.6 
       901.0         0.30         42.8 
       902.0         0.23         44.6 
       903.0         0.27         45.1 
       904.0         0.37         45.0 
       905.0         0.37         42.0 
       906.0         0.40         37.2 
       907.0         0.37         35.2 
       908.0         0.17         34.7 
       909.0         0.13         35.2 
       910.0         0.18         35.4 
       911.0         0.27         35.2 
       912.0         0.23         35.5 
       913.0         0.17         35.8 
       914.0         0.20         36.9 
       915.0         0.17         38.3 
       916.0         0.17         39.0 
       917.0         0.17         40.7 
       918.0         0.17         41.3 
       919.0         0.13         41.9 
       920.0         0.13         41.6 
       921.0         0.20         40.1 
       922.0         0.17         38.7 
       923.0         0.13         37.9 
       924.0         0.17         37.9 
       925.0         0.23         38.5 
       926.0         2.25         41.1 
       927.0         0.33          5.6 
       928.0         0.20          7.5 
       929.0         0.20         12.8 
       930.0         0.27         19.9 
       931.0         0.20         25.5 
       932.0         0.30         32.5 
       933.0         0.25         38.3 
       934.0         0.20         40.1 
       935.0         0.27         40.1 
       936.0         0.23         38.8 
       937.0         0.37         37.0 
       938.0         0.30         34.6 
       939.0         0.23         32.5 
       940.0         0.20         32.9 
       941.0         0.13         33.5 
       942.0         0.17         34.5 
       943.0         0.20         35.3 
       944.0         0.20         35.5 
       945.0         0.20         35.6 
       946.0         0.22         36.2 
       947.0         0.23         36.7 
       948.0         0.20         37.2 
       949.0         0.17         37.3 
       950.0         0.20         37.6 
       951.0         0.20         37.5 
       952.0         0.27         37.6 
       953.0         0.33         35.8 
       954.0         0.20         30.7 
       955.0         0.17         28.9 
       956.0         1.55         27.5 
       957.0         0.37          4.5 
       958.0         0.30          2.4 
       959.0         0.27          4.2 
       960.0         0.30          9.1 
       961.0         0.27         13.7 
       962.0         0.43         19.0 
       963.0         0.37         19.9 
       964.0         0.37         19.5 
       965.0         0.32         17.8 
       966.0         0.27         16.2 
       967.0         0.23         15.0 
       968.0         0.17         15.3 
       969.0         0.20         15.9 
       970.0         0.20         16.6 
       971.0         0.17         17.4 
       972.0         0.13         18.3 
       973.0         0.20         18.8 
       974.0         0.23         18.8 
       975.0         0.23         18.4 
       976.0         0.17         18.7 
       977.0         0.17         19.0 
       978.0         0.27         18.6 
       979.0         0.17         18.6 
       980.0         0.20         18.7 
       981.0         0.25         18.6 
       982.0         0.30         19.0 
       983.0         0.23         18.9 
       984.0         0.20         18.5 
       985.0         0.23         19.5 
       986.0         2.08         19.6 
       987.0         0.23          0.7 
       988.0         0.17          0.9 
       989.0         0.23          4.4 
       990.0         0.30          8.4 
       991.0         0.23         13.1 
       992.0         0.23         15.8 
       993.0         0.33         17.3 
       994.0         0.33         17.1 
       995.0         0.37         15.0 
       996.0         0.27         12.6 
       997.0         0.38         10.6 
       998.0         0.27          9.2 
       999.0         0.27          8.6 
      1000.0         0.20          8.2 
      1001.0         0.20          8.1 
      1002.0         0.30          9.2 
      1003.0         0.23          9.5 
      1004.0         0.27          9.4 
      1005.0         0.20          9.5 
      1006.0         0.33          9.9 
      1007.0         0.30         10.5 
      1008.0         0.30         10.7 
      1009.0         0.23         11.2 
      1010.0         0.28         12.4 
      1011.0         0.23         12.9 
      1012.0         0.23         14.4 
      1013.0         0.17         15.4 
      1014.0         0.17         16.6 
      1015.0         0.23         16.9 
      1016.0         1.33         16.0 
      1017.0         0.30          3.4 
      1018.0         0.32          2.3 
      1019.0         0.27          2.0 
      1020.0         0.27          4.0 
      1021.0         0.23          8.4 
      1022.0         0.27         12.8 
      1023.0         0.37         15.5 
      1024.0         0.43         16.4 
      1025.0         0.67         16.3 
      1026.0         0.27         13.2 
      1027.0         0.23         13.9 
      1028.0         0.25         15.3 
      1029.0         0.23         15.6 
      1030.0         0.23         16.1 
      1031.0         0.23         17.5 
      1032.0         0.17         18.1 
      1033.0         0.20         19.3 
      1034.0         0.23         20.7 
      1035.0         0.27         20.7 
      1036.0         0.27         19.8 
      1037.0         0.20         18.8 
      1038.0         0.23         19.1 
      1039.0         0.20         20.4 
      1040.0         0.23         21.4 
      1041.0         0.28         23.8 
      1042.0         0.20         26.4 
      1043.0         0.23         28.5 
      1044.0         0.23         31.3 
      1045.0         0.27         35.5 
      1046.0         1.30         35.7 
      1047.0         0.50          7.1 
      1048.0         0.68          4.1 
      1049.0         0.47          5.7 
      1050.0         0.33          9.6 
      1051.0         0.33         13.5 
      1052.0         0.27         18.7 
      1053.0         0.57         21.3 
      1054.0         0.53         18.3 
      1055.0         0.55         12.2 
      1056.0         0.63          8.7 
      1057.0         0.33          5.8 
      1058.0         0.33          4.7 
      1059.0         0.40          4.4 
      1060.0         0.80          4.5 
      1061.0         0.72          3.0 
      1062.0         0.40          1.7 
      1063.0         0.37          1.3 
      1064.0         0.60          1.5 
      1065.0         0.73          1.4 
      1066.0         0.73          1.2 
      1067.0         0.38          1.1 
      1068.0         0.57          0.8 
      1069.0         0.37          0.9 
      1070.0         0.37          1.2 
      1071.0         0.33          3.1 
      1072.0         0.33          5.5 
      1073.0         0.30          7.9 
      1074.0         0.30         10.3 
      1075.0         0.33         12.0 
      1076.0         2.12         14.6 
      1077.0         0.53          2.5 
      1078.0         0.37          1.9 
      1079.0         0.45          1.1 
      1080.0         0.33          1.7 
      1081.0         0.33          2.7 
      1082.0         0.27          5.4 
      1083.0         0.33          9.3 
      1084.0         0.37         10.2 
      1085.0         0.47          8.9 
