~Version Information
VERS.                      2.0: CWLS Log ASCII Standard - VERSION 2.0
WRAP.                       NO: One line per depth step
~Well Information Block
STRT.FT               400.0000: 
STOP.FT              1804.7000: 
STEP.FT                 0.1000: 
NULL.                -999.2500: 
COMP.          Pioneer Natural Resources: COMPANY
WELL.           Lynch 43-30 Tr: WELL
FLD.           Purgatoire River: FIELD
LOC.           1431' FSL & 296' FEL--: LOCATION
PROV.                 Colorado: PROVINCE
CNTY.               Las Animas: COUNTRY
SRVC.                Patterson: SERVICE COMPANY
DATE.          Thu Jul 28 10:43:37 2005: LOG DATE
UWI.           05 071 08447 00: UNIQUE WELL ID
~Curve Information Block
DEPT.FT            0 000 00 00: Depth
DCAL.in                       : CDL Caliper
RHOB.g/cc                     : CDL Bulk Density
RHOC.g/cc                     : CDL Density Correction
DPOR.pu                       : CDL Density Porosity
NPOR.pu                       : Neutron Porosity
GR.GAPI                       : Gamma Ray
~Parameter Information Block
~A  Depth       DCAL        RHOB        RHOC        DPOR        NPOR         GR     
# ...
  1772.8000      7.8654      2.5450      0.0727      6.3620     19.9392      1.4004
  1772.9000      7.8654      2.5443      0.0572      6.4071     19.6616      0.1394
  1773.0000      7.8672      2.5332      0.0684      7.0791     19.8547      0.0073
  1773.1000      7.8672      2.5193      0.0573      7.9211     20.2923      0.0000
  1773.2000      7.8672      2.5098      0.0607      8.4949     20.6038   -999.2500
  1773.3000      7.8657      2.5061      0.0659      8.7215     20.6666   -999.2500
  1773.4000      7.8657      2.5013      0.0694      9.0115     20.8115   -999.2500
  1773.5000      7.8632      2.4882      0.0726      9.8059     21.1642   -999.2500
  1773.6000      7.8632      2.4684      0.0572     11.0032     21.4556   -999.2500
  1773.7000      7.8632      2.4529      0.0593     11.9479     21.4887   -999.2500
  1773.8000      7.8605      2.4513      0.0514     12.0402     21.2592   -999.2500
  1773.9000      7.8605      2.4630      0.0659     11.3361     20.8069   -999.2500
  1774.0000      7.8580      2.4714      0.0824     10.8233     20.1020   -999.2500
  1774.1000      7.8580      2.4665      0.0638     11.1240     19.6581   -999.2500
  1774.2000      7.8580      2.4591      0.0567     11.5685     20.1239   -999.2500
  1774.3000      7.8561      2.4562      0.0713     11.7448     21.2624   -999.2500
  1774.4000      7.8561      2.4529      0.0574     11.9482     22.2740   -999.2500
  1774.5000      7.8550      2.4517      0.0543     12.0199     22.8122   -999.2500
  1774.6000      7.8550      2.4548      0.0623     11.8331     22.9927   -999.2500
  1774.7000      7.8550      2.4538      0.0620     11.8899     22.9436   -999.2500
  1774.8000      7.8562      2.4439      0.0562     12.4917     22.7542   -999.2500
  1774.9000      7.8562      2.4309      0.0442     13.2786     22.6133   -999.2500
  1775.0000      7.8565      2.4213      0.0502     13.8631     22.4385   -999.2500
  1775.1000      7.8565      2.4152      0.0407     14.2287     21.8975   -999.2500
  1775.2000      7.8565      2.4125      0.0472     14.3953     21.3786   -999.2500
  1775.3000      7.8538      2.4145      0.0398     14.2704     21.5991   -999.2500
  1775.4000      7.8538      2.4228      0.0494     13.7691     22.2755   -999.2500
  1775.5000      7.8512      2.4344      0.0519     13.0689     22.5518   -999.2500
  1775.6000      7.8512      2.4440      0.0581     12.4871     22.1840   -999.2500
  1775.7000      7.8512      2.4491      0.0574     12.1772     21.7571   -999.2500
  1775.8000      7.8501      2.4528      0.0577     11.9507     21.8434   -999.2500
  1775.9000      7.8501      2.4623      0.0532     11.3763     22.0140   -999.2500
  1776.0000      7.8504      2.4765      0.0690     10.5139     21.6132   -999.2500
  1776.1000      7.8504      2.4805      0.0783     10.2711     20.9520   -999.2500
  1776.2000      7.8504      2.4681      0.0591     11.0229     20.7184   -999.2500
  1776.3000      7.8520      2.4555      0.0502     11.7899     20.8570   -999.2500
  1776.4000      7.8520      2.4535      0.0532     11.9106     21.0007   -999.2500
  1776.5000      7.8557      2.4481      0.0769     12.2354     21.0087   -999.2500
  1776.6000      7.8557      2.4331      0.0366     13.1470     20.7213   -999.2500
  1776.7000      7.8557      2.4316      0.0373     13.2365     20.3315   -999.2500
  1776.8000      7.8652      2.4526      0.0630     11.9614     20.3570   -999.2500
  1776.9000      7.8652      2.4750      0.0699     10.6057     20.7828   -999.2500
  1777.0000      7.8748      2.4844      0.0699     10.0378     21.0984   -999.2500
  1777.1000      7.8748      2.4867      0.0629      9.8975     20.9219   -999.2500
  1777.2000      7.8748      2.4901      0.0688      9.6932     20.7277   -999.2500
  1777.3000      7.8772      2.4938      0.0735      9.4697     21.1650   -999.2500
  1777.4000      7.8772      2.4981      0.0599      9.2063     21.8780   -999.2500
  1777.5000      7.8758      2.5035      0.0793      8.8818     22.2777   -999.2500
  1777.6000      7.8758      2.5005      0.0710      9.0585     22.2499   -999.2500
  1777.7000      7.8758      2.4841      0.0714     10.0569     22.0166   -999.2500
  1777.8000      7.8761      2.4650      0.0429     11.2106     22.1213   -999.2500
  1777.9000      7.8761      2.4594      0.0583     11.5541     24.1443   -999.2500
  1778.0000      7.8769      2.4698      0.0439     10.9209     30.8448   -999.2500
  1778.1000      7.8769      2.4825      0.0831     10.1492     41.1062   -999.2500
  1778.2000      7.8769      2.4826      0.0550     10.1455     48.4877   -999.2500
  1778.3000      7.8780      2.4750      0.0614     10.6087     51.1707   -999.2500
  1778.4000      7.8780      2.4697      0.0540     10.9300     51.6994   -999.2500
  1778.5000      7.8799      2.4662      0.0622     11.1367     51.7556   -999.2500
  1778.6000      7.8799      2.4617      0.0535     11.4145     51.7587   -999.2500
  1778.7000      7.8799      2.4584      0.0544     11.6094   -999.2500   -999.2500
  1778.8000      7.8801      2.4614      0.0528     11.4284   -999.2500   -999.2500
  1778.9000      7.8801      2.4719      0.0573     10.7925   -999.2500   -999.2500
  1779.0000      7.8813      2.4856      0.0683      9.9652   -999.2500   -999.2500
  1779.1000      7.8813      2.4963      0.0635      9.3144   -999.2500   -999.2500
  1779.2000      7.8813      2.4981      0.0777      9.2067   -999.2500   -999.2500
  1779.3000      7.8823      2.4865      0.0649      9.9095   -999.2500   -999.2500
  1779.4000      7.8823      2.4700      0.0543     10.9093   -999.2500   -999.2500
  1779.5000      7.8815      2.4627      0.0474     11.3509   -999.2500   -999.2500
  1779.6000      7.8815      2.4619      0.0661     11.3974   -999.2500   -999.2500
  1779.7000      7.8815      2.4528      0.0563     11.9517   -999.2500   -999.2500
  1779.8000      7.8805      2.4350      0.0453     13.0316   -999.2500   -999.2500
  1779.9000      7.8805      2.4232      0.0374     13.7450   -999.2500   -999.2500
  1780.0000      7.8806      2.4262      0.0421     13.5642   -999.2500   -999.2500
  1780.1000      7.8806      2.4382      0.0540     12.8343   -999.2500   -999.2500
  1780.2000      7.8806      2.4513      0.0511     12.0397   -999.2500   -999.2500
  1780.3000      7.8814      2.4646      0.0580     11.2371   -999.2500   -999.2500
  1780.4000      7.8814      2.4769      0.0659     10.4889   -999.2500   -999.2500
  1780.5000      7.8819      2.4869      0.0632      9.8852   -999.2500   -999.2500
  1780.6000      7.8819      2.4956      0.0677      9.3593   -999.2500   -999.2500
  1780.7000      7.8819      2.4999      0.0752      9.0987   -999.2500   -999.2500
  1780.8000      7.8816      2.4949      0.0667      9.3986   -999.2500   -999.2500
  1780.9000      7.8816      2.4831      0.0660     10.1173   -999.2500   -999.2500
  1781.0000      7.8799      2.4746      0.0512     10.6318   -999.2500   -999.2500
  1781.1000      7.8799      2.4805      0.0547     10.2713   -999.2500   -999.2500
  1781.2000      7.8799      2.5004      0.0710      9.0674   -999.2500   -999.2500
  1781.3000      7.8794      2.5254      0.0666      7.5505   -999.2500   -999.2500
  1781.4000      7.8794      2.5432      0.0917      6.4718   -999.2500   -999.2500
  1781.5000      7.8818      2.5374      0.0885      6.8213   -999.2500   -999.2500
  1781.6000      7.8818      2.5111      0.0619      8.4171   -999.2500   -999.2500
  1781.7000      7.8818      2.4899      0.0511      9.7024   -999.2500   -999.2500
  1781.8000      7.8835      2.4892      0.0585      9.7449   -999.2500   -999.2500
  1781.9000      7.8835      2.5020      0.0644      8.9704   -999.2500   -999.2500
  1782.0000      7.8824      2.5137      0.0711      8.2611   -999.2500   -999.2500
  1782.1000      7.8824      2.5141      0.0767      8.2378   -999.2500   -999.2500
  1782.2000      7.8824      2.5076      0.0566      8.6329   -999.2500   -999.2500
  1782.3000      7.8813      2.5103      0.0620      8.4644   -999.2500   -999.2500
