~Version Information
VERS.                      2.0: CWLS Log ASCII Standard - VERSION 2.0
WRAP.                       NO: One line per depth step
~Well Information Block
STRT.FT               370.0000: 
STOP.FT              1259.0000: 
STEP.FT                 0.1000: 
NULL.                -999.2500: 
COMP.          Pioneer Natural Resources: COMPANY
WELL.           Tennis 7-12 Tr: WELL
FLD.           Purgatoire River: FIELD
LOC.           1794' FNL & 1563' FEL: LOCATION
PROV.                 Colorado: PROVINCE
CNTY.               Las Animas: COUNTRY
SRVC.                Patterson: SERVICE COMPANY
DATE.          Tue Dec 20 13:35:40 2005: LOG DATE
UWI.           05 071 08635 00: UNIQUE WELL ID
~Curve Information Block
DEPT.FT            0 000 00 00: Depth
DCAL.in                       : CDL Caliper
RHOB.g/cc                     : CDL Bulk Density
RHOC.g/cc                     : CDL Density Correction
DPOR.pu                       : CDL Density Porosity
GR.GAPI                       : Gamma Ray
~Parameter Information Block
~A  Depth       DCAL        RHOB        RHOC        DPOR         GR     
# ...
  1064.4000      7.8773      2.4546      0.0109     11.8419    135.3333
  1064.5000      7.8826      2.4385      0.0200     12.8183    136.5661
  1064.6000      7.8826      2.4220      0.0187     13.8157    134.8328
  1064.7000      7.8826      2.4066      0.0065     14.7531    130.7910
  1064.8000      7.8831      2.3889      0.0347     15.8214    124.5153
  1064.9000      7.8831      2.3594      0.0268     17.6146    117.0930
  1065.0000      7.8940      2.3031      0.0159     21.0240    112.7871
  1065.1000      7.8940      2.2138     -0.0214     26.4376    113.5637
  1065.2000      7.8940      2.1024     -0.0307     33.1890    116.4973
  1065.3000      7.9306      1.9844     -0.0680     40.3417    114.2349
  1065.4000      7.9306      1.8667     -0.0782     47.4745    106.0977
  1065.5000      7.9860      1.7469     -0.0937     54.7345     99.7188
  1065.6000      7.9860      1.6289     -0.0968     61.8872     96.9553
  1065.7000      7.9860      1.5371     -0.1143     67.4489     93.6561
  1065.8000      8.0352      1.4914     -0.0560     70.2180     86.8140
  1065.9000      8.0352      1.4833     -0.0416     70.7093     77.0190
  1066.0000      8.0589      1.4926      0.0918     70.1436     68.3059
  1066.1000      8.0589      1.5028      0.0806     69.5244     62.5688
  1066.2000      8.0589      1.5052      0.1280     69.3832     56.4980
  1066.3000      8.0658      1.4955      0.1490     69.9674     48.1815
  1066.4000      8.0658      1.4744      0.1160     71.2478     42.3911
  1066.5000      8.0724      1.4412      0.1432     73.2607     42.4901
  1066.6000      8.0724      1.3952      0.0507     76.0514     43.8069
  1066.7000      8.0724      1.3482      0.0238     78.8988     41.3991
  1066.8000      8.0849      1.3142     -0.0226     80.9552     37.7770
  1066.9000      8.0849      1.2965     -0.0063     82.0312     37.2146
  1067.0000      8.0968      1.2905     -0.0028     82.3965     38.6018
  1067.1000      8.0968      1.2958     -0.0060     82.0738     40.6504
  1067.2000      8.0968      1.3162      0.0590     80.8386     44.8595
  1067.3000      8.1008      1.3536      0.0529     78.5674     50.6604
  1067.4000      8.1008      1.4088      0.0558     75.2251     56.5600
  1067.5000      8.0847      1.4725      0.1098     71.3657     64.1842
  1067.6000      8.0847      1.5333      0.1182     67.6785     74.2086
  1067.7000      8.0847      1.5917      0.1138     64.1419     82.2598
  1067.8000      8.0174      1.6461      0.1790     60.8450     85.5929
  1067.9000      8.0174      1.6904      0.1661     58.1554     86.7655
  1068.0000      7.9077      1.7248      0.1335     56.0751     90.2221
  1068.1000      7.9077      1.7350      0.1936     55.4553     95.2421
  1068.2000      7.9077      1.7012      0.1587     57.5035     97.7016
  1068.3000      7.8318      1.6514     -0.0516     60.5207     98.4573
  1068.4000      7.8318      1.6406     -0.0025     61.1729     99.5743
  1068.5000      7.8080      1.6823      0.0022     58.6494    103.7644
  1068.6000      7.8080      1.7549      0.0251     54.2495    111.7791
  1068.7000      7.8080      1.8402      0.0688     49.0802    116.4164
  1068.8000      7.7991      1.9335      0.0948     43.4228    112.8501
  1068.9000      7.7991      2.0323      0.1473     37.4360    105.6996
  1069.0000      7.9601      2.1398      0.1790     30.9228    101.9540
  1069.1000      7.9601      2.2629      0.3008     23.4622    103.7596
  1069.2000      7.9601      2.3812      0.3471     16.2935    108.9451
  1069.3000      7.9101      2.4607      0.3099     11.4713    115.8030
  1069.4000      7.9101      2.4971      0.1863      9.2677    123.6945
  1069.5000      7.8785      2.5138      0.0925      8.2523    132.6840
  1069.6000      7.8785      2.5345      0.1002      7.0024    138.9292
  1069.7000      7.8785      2.5650      0.0702      5.1527    139.1360
  1069.8000      7.8714      2.5945      0.0600      3.3615    139.2144
  1069.9000      7.8714      2.6071      0.1002      2.6016    141.6450
  1070.0000      7.8710      2.6003      0.0284      3.0136    141.4001
  1070.1000      7.8710      2.5875      0.0823      3.7851    138.6939
  1070.2000      7.8710      2.5796      0.0441      4.2676    135.6692
  1070.3000      7.8707      2.5807     -0.0028      4.2001    133.1683
  1070.4000      7.8707      2.5810      0.0686      4.1810    130.8554
  1070.5000      7.8702      2.5652     -0.0014      5.1384    130.4056
  1070.6000      7.8702      2.5393      0.0204      6.7069    134.4425
  1070.7000      7.8702      2.5198     -0.0180      7.8918    139.1294
  1070.8000      7.8697      2.5199     -0.0317      7.8841    139.3686
  1070.9000      7.8697      2.5440     -0.0064      6.4272    135.2092
  1071.0000      7.8697      2.5819      0.0262      4.1248    129.9861
  1071.1000      7.8697      2.6255      0.0253      1.4842    124.6031
  1071.2000      7.8697      2.6672      0.0877     -1.0440    117.6826
  1071.3000      7.8696      2.6889      0.0900     -2.3547    111.5354
  1071.4000      7.8696      2.6860      0.0842     -2.1841    108.9403
  1071.5000      7.8692      2.6727      0.0921     -1.3755    108.3185
  1071.6000      7.8692      2.6611      0.0369     -0.6713    108.0823
  1071.7000      7.8692      2.6628      0.0308     -0.7766    110.7550
  1071.8000      7.8688      2.6780      0.0369     -1.6983    118.3788
  1071.9000      7.8688      2.6859      0.0594     -2.1742    127.2932
  1072.0000      7.8689      2.6688      0.0592     -1.1406    131.1576
  1072.1000      7.8689      2.6382      0.0151      0.7133    129.2378
  1072.2000      7.8689      2.6157      0.0188      2.0791    129.1642
  1072.3000      7.8691      2.6085      0.0206      2.5126    135.0085
  1072.4000      7.8691      2.6166     -0.0024      2.0257    139.3649
  1072.5000      7.8692      2.6343      0.0302      0.9508    138.0039
  1072.6000      7.8692      2.6519      0.0045     -0.1147    136.5445
  1072.7000      7.8692      2.6687      0.0003     -1.1335    137.1105
  1072.8000      7.8692      2.6813      0.0707     -1.8955    134.1620
  1072.9000      7.8692      2.6764      0.0956     -1.5978    128.3360
  1073.0000      7.8694      2.6567      0.0496     -0.4072    126.1220
  1073.1000      7.8694      2.6347      0.0623      0.9275    128.7755
  1073.2000      7.8694      2.6092      0.0523      2.4724    132.3573
  1073.3000      7.8699      2.5858     -0.0031      3.8930    136.7089
  1073.4000      7.8699      2.5741      0.0424      4.6004    144.8727
  1073.5000      7.8703      2.5675      0.0637      4.9989    150.8377
  1073.6000      7.8703      2.5647      0.0297      5.1694    147.9283
  1073.7000      7.8703      2.5683      0.0615      4.9516    140.6134
  1073.8000      7.8699      2.5589      0.0814      5.5213    134.0617
  1073.9000      7.8699      2.5201      0.0469      7.8705    130.5920
  1074.0000      7.8686      2.4661      0.0416     11.1425    130.7718
  1074.1000      7.8686      2.4195     -0.0004     13.9682    130.3574
  1074.2000      7.8686      2.3892      0.0124     15.8038    127.8193
  1074.3000      7.8643      2.3692      0.0066     17.0152    126.2492
  1074.4000      7.8643      2.3532     -0.0264     17.9878    124.3697
  1074.5000      7.8467      2.3451     -0.0187     18.4772    117.5550
  1074.6000      7.8467      2.3503      0.0002     18.1651    108.7218
  1074.7000      7.8467      2.3637      0.0559     17.3487    105.7832
  1074.8000      7.8136      2.3800      0.0843     16.3655    111.6800
  1074.9000      7.8136      2.4095      0.1052     14.5773    120.7632
  1075.0000      7.7828      2.4558      0.2852     11.7685    123.3980
  1075.1000      7.7828      2.4999      0.3048      9.0950    117.9088
  1075.2000      7.7828      2.5326      0.3164      7.1149    113.3069
  1075.3000      7.7713      2.5616      0.2936      5.3578    112.7657
  1075.4000      7.7713      2.5949      0.3165      3.3390    111.8915
  1075.5000      7.7872      2.6344      0.2672      0.9443    111.7731
