~Version Information
 VERS.                                  2.0 : CWLS LAS VERSION
 WRAP.                                   NO : WRAPING MODE
 SWARE .                 MController 2.5.0N : SOFTWARE VERSION
~Well Information
 WELL.                        Hamburg 43-35 : WELL
 COMP.    Pioneer Natural Resouces USA Inc. : COMPANY
 FLD.                      Purgatoire River : FIELD
 LOC.            NE/SE Sec 35 , T34S, R65W  : LOCATION
 DATE.                             12/02/05 : DATE(S) LOGGED
 SRVC.       BLANCO Geological Services LLC : SERVICE COMPANY
 STAT.                                   CO : STATE
 CNTY.                           Las Animas : COUNTY
 CTRY.                                  USA : COUNTRY
 API.                       05-071-08607-00 : API NUMBER
 STRT.FT                             188.00 : START DEPTH
 STOP.FT                            1330.00 : STOP DEPTH
 STEP.FT                               1.00 : DEPTH INCREMENT
 NULL.                                -9999 : NULL VALUE
~Curve information
 DEPTH.FT                                   :
 ROP.MIN/FT                                 :
 GAS.UNITS                                  :
~ASCII Log data
# ...
       388.0         0.37         18.5 
       389.0         0.33         18.8 
       390.0         0.33         18.3 
       391.0         0.23         18.5 
       392.0         0.20         16.9 
       393.0         0.27         17.6 
       394.0         0.23         16.3 
       395.0         0.20         17.8 
       396.0         0.20         17.5 
       397.0         0.22         17.5 
       398.0         0.20         16.9 
       399.0         0.30         16.8 
       400.0         0.27         16.7 
       401.0         0.20         17.4 
       402.0         0.23         17.5 
       403.0         0.20         17.2 
       404.0         0.30         17.9 
       405.0         0.27         17.4 
       406.0         0.27         17.0 
       407.0         0.27         17.0 
       408.0         0.23         17.0 
       409.0         0.27         16.6 
       410.0         0.23         17.6 
       411.0         4.13         24.3 
       412.0         0.37         17.4 
       413.0         0.47         17.7 
       414.0         0.47         31.2 
       415.0         0.37         36.1 
       416.0         0.27         37.2 
       417.0         0.30         35.1 
       418.0         0.23         32.9 
       419.0         0.25         33.7 
       420.0         0.20         35.2 
       421.0         0.20         37.4 
       422.0         0.23         36.3 
       423.0         0.27         32.7 
       424.0         0.27         32.3 
       425.0         0.23         33.6 
       426.0         0.27         33.0 
       427.0         0.23         33.1 
       428.0         0.30         30.2 
       429.0         0.27         31.9 
       430.0         0.20         34.6 
       431.0         0.23         40.8 
       432.0         0.35         39.6 
       433.0         0.40         43.8 
       434.0         0.33         42.2 
       435.0         0.37         42.9 
       436.0         0.30         49.3 
       437.0         0.27         51.2 
       438.0         0.23         44.8 
       439.0         0.63         43.1 
       440.0         0.73         32.2 
       441.0         2.98        258.3 
       442.0         0.88         41.3 
       443.0         0.60         41.9 
       444.0         0.37         40.1 
       445.0         0.30         36.0 
       446.0         0.30         36.9 
       447.0         0.30         43.5 
       448.0         0.27         34.9 
       449.0         0.30         39.3 
       450.0         0.30         40.3 
       451.0         0.25         36.9 
       452.0         0.33         35.3 
       453.0         0.27         32.3 
       454.0         0.27         31.4 
       455.0         0.27         60.3 
       456.0         0.23         92.5 
       457.0         0.27        103.5 
       458.0         0.23        127.5 
       459.0         0.27        119.5 
       460.0         0.23        129.1 
       461.0         0.20        161.8 
       462.0         0.17        161.8 
       463.0         0.17        146.6 
       464.0         0.20        141.5 
       465.0         0.22        113.3 
       466.0         0.23        118.4 
       467.0         0.20        100.4 
       468.0         0.20         52.8 
       469.0         0.30         35.2 
       470.0         0.20         33.0 
       471.0         3.88       1462.6 
       472.0         0.50        170.8 
       473.0         0.43        192.7 
       474.0         0.43        189.6 
       475.0         0.28        162.9 
       476.0         0.30        169.3 
       477.0         0.30        155.8 
       478.0         0.40        169.7 
       479.0         0.30        180.3 
       480.0         0.27        135.3 
       481.0         0.27        104.1 
       482.0         0.23        113.5 
       483.0         0.27        117.2 
       484.0         0.30        128.0 
       485.0         0.33        157.9 
       486.0         0.23        197.3 
       487.0         0.28        146.0 
       488.0         0.27        132.4 
       489.0         0.27         76.2 
       490.0         0.23        107.3 
       491.0         0.23        271.0 
       492.0         0.30        286.3 
       493.0         0.30        233.4 
       494.0         0.23        187.0 
       495.0         0.23        180.4 
       496.0         0.23        154.1 
       497.0         0.37        152.2 
       498.0         0.33        135.8 
       499.0         0.32         55.9 
       500.0         0.47         48.6 
       501.0         3.92       1960.8 
       502.0         0.43        504.2 
       503.0         0.20        504.2 
       504.0         0.20        480.0 
       505.0         0.27        448.1 
       506.0         0.23        456.2 
       507.0         0.23        501.0 
       508.0         0.23        510.3 
       509.0         0.30        541.9 
       510.0         0.28        536.7 
       511.0         0.23        488.4 
       512.0         0.23        489.0 
       513.0         0.17        489.4 
       514.0         0.20        489.0 
       515.0         0.13        489.0 
       516.0         0.23        505.1 
       517.0         0.23        528.3 
       518.0         0.30        526.7 
       519.0         0.30        519.6 
       520.0         0.30        518.7 
       521.0         0.23        465.5 
       522.0         0.20        456.2 
       523.0         0.20        440.0 
       524.0         0.25        442.9 
       525.0         0.27        440.0 
       526.0         0.40        141.4 
       527.0         0.27        122.3 
       528.0         0.30         71.1 
       529.0         0.23         48.5 
       530.0         1.03       1855.1 
       531.0         3.28        749.1 
       532.0         0.80        440.0 
       533.0         0.48        194.7 
       534.0         0.47        183.4 
       535.0         0.40        206.4 
       536.0         0.40        174.6 
       537.0         0.33        158.7 
       538.0         0.37        160.7 
       539.0         0.43        161.6 
       540.0         0.33        178.1 
       541.0         0.32        163.5 
       542.0         0.30        173.1 
       543.0         0.30        169.4 
       544.0         0.33        193.3 
       545.0         0.33        207.5 
       546.0         0.30        150.7 
       547.0         0.40        115.0 
       548.0         0.33        145.7 
       549.0         0.30        163.4 
       550.0         0.30        205.8 
       551.0         0.23        204.5 
       552.0         0.22        181.1 
       553.0         0.20        121.9 
       554.0         0.20        101.6 
       555.0         0.20        101.6 
       556.0         0.20        128.5 
       557.0         0.23         90.2 
       558.0         0.23         57.0 
       559.0         0.23         46.5 
       560.0         0.40         44.4 
       561.0         3.62       2148.4 
       562.0         1.32        556.7 
       563.0         0.37        145.3 
       564.0         0.40        179.5 
       565.0         0.67        206.7 
       566.0         0.43        364.3 
       567.0         0.23        303.4 
       568.0         0.27        261.1 
       569.0         0.23        240.5 
       570.0         0.23        231.3 
       571.0         0.20        236.4 
       572.0         0.38        234.0 
       573.0         0.33        166.2 
       574.0         0.37        154.4 
       575.0         0.40        166.5 
       576.0         0.33        182.1 
       577.0         0.27        180.3 
       578.0         0.30        185.7 
       579.0         0.30        184.5 
       580.0         0.27        191.3 
       581.0         0.37        169.2 
       582.0         0.35        170.7 
       583.0         0.33        173.1 
       584.0         0.40        166.4 
       585.0         0.33        154.0 
       586.0         0.30        110.7 
       587.0         0.27        118.4 
