~Version Information
VERS.                      2.0: CWLS Log ASCII Standard - VERSION 2.0
WRAP.                       NO: One line per depth step
~Well Information Block
STRT.FT               -16.0000: 
STOP.FT              2827.7500: 
STEP.FT                 0.2500: 
NULL.                -999.2500: 
COMP.          Pioneer Natural Resources: COMPANY
WELL.          Touchstone 11-32: WELL
FLD.           Purgatorie River: FIELD
LOC.           853' FNL & 407' FWL--: LOCATION
CNTY.               Las Animas: COUNTY
SRVC.          Patterson Wireline: SERVICE COMPANY
DATE.          Wed Mar 15 10:09:19 2006: LOG DATE
UWI.           05 071 08564 00: UNIQUE WELL ID
STAT.                       CO: STATE
~Curve Information Block
DEPT.FT            0 000 00 00: Depth
CCL.                          : Casing Collar Locator
TT3.usec                      : CBL 3' Travel Time
AMP3.mV                       : CBL 3' Amplitude
GR.GAPI                       : Gamma Ray
~Parameter Information Block
~A  Depth       CCL         TT3         AMP3         GR     
# ...
  2228.5000      0.0000    634.1414      8.8653    162.2162
  2228.7500      0.0000    610.5817      8.8263    162.2130
  2229.0000      0.0000    602.4794      8.7376    161.5754
  2229.2500      0.0000    606.7393      8.5991    160.4323
  2229.5000      0.0000    608.2720      8.4321    158.1475
  2229.7500      0.0000    593.2451      8.2707    153.4759
  2230.0000      0.0000    561.3882      8.1474    146.1812
  2230.2500      0.0000    526.7044      8.0836    138.0654
  2230.5000      0.0000    508.3287      8.0895    132.1450
  2230.7500      0.0000    518.9293      8.1621    130.8103
  2231.0000      0.0000    557.1164      8.2787    134.3832
  2231.2500      0.0000    608.3933      8.3949    140.7514
  2231.5000      0.0000    654.7756      8.4645    146.3772
  2231.7500      0.0000    685.7426      8.4753    148.5128
  2232.0000      0.0000    701.5066      8.4667    146.9871
  2232.2500      0.0000    708.1183      8.4956    143.8320
  2232.5000      0.0000    711.3337      8.5771    141.2714
  2232.7500      0.0000    713.9734      8.6628    140.2109
  2233.0000      0.0000    716.2249      8.6834    140.1338
  2233.2500      0.0000    717.0670      8.6056    139.7530
  2233.5000      0.0000    715.8933      8.4433    137.8760
  2233.7500      0.0000    713.3052      8.2261    134.2111
  2234.0000      0.0000    710.4688      7.9716    129.5958
  2234.2500      0.0000    707.9929      7.6891    125.4254
  2234.5000      0.0000    705.6475      7.4043    122.7368
  2234.7500      0.0000    703.0071      7.1689    121.4886
  2235.0000      0.0000    699.7559      7.0359    120.4723
  2235.2500      0.0000    694.6768      7.0195    118.1751
  2235.5000      0.0000    684.3090      7.0824    113.9719
  2235.7500      0.0000    663.9202      7.1655    108.4200
  2236.0000      0.0000    632.3099      7.2286    102.5101
  2236.2500      0.0000    597.4184      7.2629     97.0702
  2236.5000      0.0000    575.3384      7.2726     92.8554
  2236.7500      0.0000    579.1313      7.2500     90.5688
  2237.0000      0.0000    606.7252      7.1692     90.2897
  2237.2500      0.0000    642.1589      7.0084     91.1163
  2237.5000      0.0000    669.4033      6.7896     91.9026
  2237.7500      0.0000    682.8655      6.5891     92.5819
  2238.0000      0.0000    685.2907      6.4829     94.4912
  2238.2500      0.0000    679.4409      6.4772     99.1176
  2238.5000      0.0000    663.9334      6.5198    106.5463
  2238.7500      0.0000    636.1445      6.5693    115.1202
  2239.0000      0.0000    598.2977      6.6183    122.3512
  2239.2500      2.0000    560.1317      6.6608    126.2301
  2239.5000     -2.0000    533.5499      6.6771    126.1698
  2239.7500      0.0000    523.6911      6.6579    123.0256
  2240.0000      0.0000    527.1718      6.6246    118.3786
  2240.2500      0.0000    538.2201      6.6286    114.1041
  2240.5000      0.0000    551.2455      6.7196    112.2280
  2240.7500      0.0000    557.1898      6.8939    114.1742
  2241.0000      0.0000    545.6505      7.0763    119.7707
  2241.2500      0.0000    515.3035      7.1836    127.2755
  2241.5000      0.0000    477.6503      7.1992    134.2906
  2241.7500      0.0000    447.1763      7.1667    138.6099
  2242.0000      0.0000    430.4081      7.1238    138.8557
  2242.2500      0.0000    425.0309      7.0703    135.1305
  2242.5000      0.0000    425.5896      6.9901    129.1755
  2242.7500      0.0000    427.8047      6.8798    123.5672
  2243.0000      0.0000    429.5631      6.7554    120.3241
  2243.2500      0.0000    430.4071      6.6429    119.7843
  2243.5000      0.0000    431.0138      6.5668    120.5069
  2243.7500      0.0000    433.1646      6.5417    120.4254
  2244.0000      0.0000    440.1377      6.5706    118.5181
  2244.2500      0.0000    456.3562      6.6460    115.4147
  2244.5000      0.0000    484.6582      6.7533    112.2136
  2244.7500      0.0000    521.6731      6.8729    108.9526
  2245.0000      0.0000    556.0134      6.9835    104.5974
  2245.2500      0.0000    573.9678      7.0652     98.4839
  2245.5000      0.0000    570.3958      7.1022     91.5212
  2245.7500      0.0000    555.2137      7.0816     85.9117
  2246.0000      0.0000    547.6980      6.9934     83.6212
  2246.2500      0.0000    561.8224      6.8388     84.9164
  2246.5000      0.0000    595.8745      6.6399     88.1777
  2246.7500      0.0000    636.1315      6.4370     91.1848
  2247.0000      0.0000    669.1978      6.2694     92.8860
  2247.2500      0.0000    689.9083      6.1566     94.1854
  2247.5000      0.0000    700.1961      6.1012     96.9976
  2247.7500      0.0000    704.3084      6.1072    102.3962
  2248.0000      0.0000    705.7350      6.1866    109.4690
  2248.2500      0.0000    706.5249      6.3402    115.6309
  2248.5000      0.0000    707.6776      6.5369    118.1190
  2248.7500      0.0000    709.5652      6.7188    115.8776
  2249.0000      0.0000    711.9983      6.8302    110.5419
  2249.2500      0.0000    714.1200      6.8457    105.5754
  2249.5000      0.0000    714.7846      6.7854    104.1827
  2249.7500      0.0000    713.3018      6.7053    107.4641
  2250.0000      0.0000    709.4421      6.6689    113.9262
  2250.2500      0.0000    702.0275      6.7210    120.7278
  2250.5000      0.0000    687.6296      6.8820    125.9054
  2250.7500      0.0000    661.9406      7.1531    129.6714
  2251.0000      0.0000    624.0278      7.5177    133.4467
  2251.2500      0.0000    579.7405      7.9446    137.7175
  2251.5000      0.0000    540.0610      8.3987    141.2104
  2251.7500      0.0000    515.6281      8.8527    142.1492
  2252.0000      0.0000    512.7405      9.2930    140.0935
  2252.2500      0.0000    532.5292      9.7158    136.6878
  2252.5000      0.0000    570.3209     10.1195    134.7784
  2252.7500      0.0000    614.8184     10.4982    136.4792
  2253.0000      0.0000    650.2100     10.8459    141.5813
  2253.2500      0.0000    661.4974     11.1631    147.6179
  2253.5000      0.0000    640.2679     11.4552    151.4721
  2253.7500      0.0000    589.3068     11.7205    151.2155
  2254.0000      0.0000    523.4006     11.9428    147.1983
  2254.2500      0.0000    462.5832     12.0972    141.9401
  2254.5000      0.0000    421.2330     12.1639    138.4640
  2254.7500      0.0000    403.1221     12.1369    137.9527
  2255.0000      0.0000    405.3417     12.0225    139.1469
  2255.2500      0.0000    423.7868     11.8330    140.3753
  2255.5000      0.0000    454.6021     11.5852    141.5645
  2255.7500      0.0000    493.5964     11.3060    143.3637
  2256.0000      0.0000    536.1563     11.0307    144.8261
  2256.2500      0.0000    576.9532     10.7923    143.5582
  2256.5000      0.0000    610.4252     10.6083    138.5689
  2256.7500      0.0000    633.8968     10.4771    131.7690
  2257.0000      0.0000    649.7632     10.3812    126.1213
  2257.2500      0.0000    662.3475     10.2921    123.3214
  2257.5000      0.0000    672.8824     10.1804    123.4824
  2257.7500      0.0000    679.1506     10.0282    125.7129
  2258.0000      0.0000    679.4807      9.8386    128.4056
  2258.2500      0.0000    675.4033      9.6331    129.9443
  2258.5000      0.0000    670.1787      9.4386    129.7364
  2258.7500      0.0000    665.7773      9.2723    128.3831
  2259.0000      0.0000    661.4838      9.1365    127.0802
  2259.2500      0.0000    655.0144      9.0239    127.0304
  2259.5000      0.0000    644.8100      8.9259    128.8629
  2259.7500      0.0000    631.2867      8.8341    132.3380
  2260.0000      0.0000    616.1176      8.7411    137.0739
  2260.2500      0.0000    600.8633      8.6429    143.5361
  2260.5000      0.0000    586.5841      8.5414    152.3699
  2260.7500      0.0000    574.5880      8.4411    162.4015
  2261.0000      0.0000    567.5289      8.3440    170.3856
  2261.2500      0.0000    569.4362      8.2489    173.6729
  2261.5000      0.0000    583.5814      8.1540    172.4229
  2261.7500      0.0000    609.0920      8.0577    168.4420
