~Version Information
VERS.                      2.0: CWLS Log ASCII Standard - VERSION 2.0
WRAP.                       NO: One line per depth step
~Well Information Block
STRT.FT               595.0000: 
STOP.FT              1693.0000: 
STEP.FT                 0.1000: 
NULL.                -999.2500: 
COMP.          Pioneer Natural Resources: COMPANY
WELL.          Rollerball 34-30: WELL
FLD.           Purgatoire River: FIELD
LOC.           893' FSL & 2408' FEL: LOCATION
CNTY.               Las Animas: COUNTY
SRVC.                Patterson: SERVICE COMPANY
DATE.          Tue Feb 14 15:43:01 2006: LOG DATE
UWI.           05 071 08581 00: UNIQUE WELL ID
STAT.                 Colorado: STATE
~Curve Information Block
DEPT.FT            0 000 00 00: Depth
DCAL.in                       : CDL Caliper
RHOB.g/cc                     : CDL Bulk Density
RHOC.g/cc                     : CDL Density Correction
DPOR.pu                       : CDL Density Porosity
GR.GAPI                       : Gamma Ray
NPOR.pu                       : Neutron Porosity
~Parameter Information Block
~A  Depth       DCAL        RHOB        RHOC        DPOR         GR         NPOR    
# ...
   815.8000      8.0092      2.5662      0.0484      5.0794    126.9125     26.5661
   815.9000      8.0092      2.5591      0.0721      5.5091    128.9730     27.1715
   816.0000      8.0122      2.5589      0.0785      5.5222    130.9192     26.9492
   816.1000      8.0122      2.5669      0.0434      5.0384    131.3447     26.6029
   816.2000      8.0122      2.5886      0.0427      3.7206    130.0517     26.2938
   816.3000      8.0181      2.6064      0.0958      2.6433    125.3722     25.7817
   816.4000      8.0181      2.5928      0.0385      3.4677    119.0580     25.5115
   816.5000      8.0200      2.5589      0.0087      5.5190    115.7888     25.8614
   816.6000      8.0200      2.5395     -0.0089      6.6957    117.0816     26.6694
   816.7000      8.0200      2.5500     -0.0098      6.0635    121.6794     27.2863
   816.8000      8.0134      2.5802      0.0464      4.2306    128.2838     27.1529
   816.9000      8.0134      2.6076      0.0688      2.5723    131.7956     26.6350
   817.0000      8.0166      2.6153      0.0332      2.1016    127.2580     26.3973
   817.1000      8.0166      2.6002      0.0714      3.0173    120.2529     26.8723
   817.2000      8.0166      2.5698      0.0395      4.8623    119.1299     27.7684
   817.3000      8.0153      2.5449     -0.0282      6.3710    123.0130     28.1803
   817.4000      8.0153      2.5418      0.0214      6.5572    127.3628     27.7603
   817.5000      8.0263      2.5484      0.0505      6.1553    132.4450     27.2410
   817.6000      8.0263      2.5496      0.0073      6.0855    138.1504     27.7438
   817.7000      8.0263      2.5472      0.0225      6.2333    139.1934     29.5586
   817.8000      8.0165      2.5419      0.0066      6.5541    136.2491     31.7556
   817.9000      8.0165      2.5338     -0.0089      7.0394    136.1528     33.4632
   818.0000      8.0104      2.5319     -0.0178      7.1547    138.3520     34.5605
   818.1000      8.0104      2.5458      0.0114      6.3126    137.2961     35.0455
   818.2000      8.0104      2.5732      0.0230      4.6522    131.4080     34.7554
   818.3000      8.0111      2.6079     -0.0072      2.5506    123.6010     33.9556
   818.4000      8.0111      2.6480      0.0439      0.1241    118.8449     33.2680
   818.5000      8.0073      2.6864      0.0630     -2.2055    116.6375     32.8570
   818.6000      8.0073      2.7070      0.0793     -3.4565    111.5244     32.4157
   818.7000      8.0073      2.7008      0.0324     -3.0786    103.9275     31.5783
   818.8000      8.0021      2.6913      0.0186     -2.5059     97.8477     30.2123
   818.9000      8.0021      2.7062      0.0026     -3.4062     93.0123     28.6007
   819.0000      7.9983      2.7275      0.0516     -4.6976     89.2703     27.3596
   819.1000      7.9983      2.7164      0.0335     -4.0246     89.6230     26.6474
   819.2000      7.9983      2.6769     -0.0579     -1.6282     93.7196     26.1663
   819.3000      7.9986      2.6402     -0.0496      0.5944     99.5138     25.8538
   819.4000      7.9986      2.6165      0.0068      2.0288    106.1933     25.6076
   819.5000      7.9941      2.6059      0.0366      2.6736    112.6925     25.3655
   819.6000      7.9941      2.6050      0.1065      2.7288    119.2406     25.2635
   819.7000      7.9941      2.5949      0.1388      3.3421    126.0292     25.3023
   819.8000      7.9995      2.5688      0.1217      4.9229    131.7930     25.3427
   819.9000      7.9995      2.5464      0.0767      6.2775    136.8476     25.6781
   820.0000      8.0000      2.5444      0.0787      6.3994    141.4397     26.7703
   820.1000      8.0000      2.5573      0.0938      5.6153    143.3831     27.9765
   820.2000      8.0000      2.5676      0.0900      4.9932    142.1706     28.5869
   820.3000      8.0007      2.5669      0.0914      5.0384    142.1822     29.0694
   820.4000      8.0007      2.5655      0.0808      5.1200    145.7431     29.5877
   820.5000      8.0028      2.5740      0.1101      4.6071    148.8159     29.7733
   820.6000      8.0028      2.5844      0.1317      3.9787    145.8687     29.6432
   820.7000      8.0028      2.5859      0.1024      3.8842    138.3416     29.3511
   820.8000      7.9998      2.5871      0.0489      3.8133    132.8346     28.7416
   820.9000      7.9998      2.6011      0.0772      2.9662    130.5433     27.7425
   821.0000      7.9949      2.6271      0.0847      1.3897    128.2579     26.5998
   821.1000      7.9949      2.6557      0.1020     -0.3477    123.7742     25.8601
   821.2000      7.9949      2.6658      0.1871     -0.9558    119.7157     25.8018
   821.3000      7.9736      2.6427      0.1013      0.4396    118.5202     25.7457
   821.4000      7.9736      2.6008      0.0495      2.9824    118.6525     24.9574
   821.5000      7.9794      2.5574      0.0094      5.6109    119.8289     23.9260
   821.6000      7.9794      2.5241      0.0117      7.6289    122.9533     23.6694
   821.7000      7.9794      2.5104      0.0091      8.4629    128.4123     24.2049
   821.8000      8.0110      2.5159     -0.0129      8.1288    134.3460     24.8131
   821.9000      8.0110      2.5292      0.0183      7.3213    138.9149     25.4177
   822.0000      8.0151      2.5397      0.0231      6.6861    142.3674     26.4238
   822.1000      8.0151      2.5542      0.0636      5.8078    143.0612     27.7570
   822.2000      8.0151      2.5845      0.0965      3.9685    141.1056     29.0063
   822.3000      8.0021      2.6269      0.1258      1.3980    139.5564     29.7951
   822.4000      8.0021      2.6671      0.1778     -1.0367    138.6170     30.0719
   822.5000      7.9932      2.6957      0.2037     -2.7697    139.3895     30.3798
   822.6000      7.9932      2.7172      0.1797     -4.0720    143.4833     31.0833
   822.7000      7.9932      2.7342      0.1832     -5.1048    146.8025     31.4314
   822.8000      7.9957      2.7364      0.1459     -5.2365    145.5795     30.6761
   822.9000      7.9957      2.7274      0.1344     -4.6931    141.6582     29.6878
   823.0000      8.0022      2.7303      0.1067     -4.8690    139.0152     29.6227
   823.1000      8.0022      2.7457      0.1463     -5.8001    137.3765     30.4160
   823.2000      8.0022      2.7448      0.1386     -5.7480    135.6613     31.2421
   823.3000      8.0211      2.7209      0.1072     -4.2990    135.3267     31.5474
   823.4000      8.0211      2.6932      0.1165     -2.6189    135.7976     31.3500
   823.5000      8.0153      2.6700      0.1432     -1.2138    136.1755     30.9625
   823.6000      8.0153      2.6554      0.0943     -0.3302    136.5569     30.6042
   823.7000      8.0153      2.6541      0.1081     -0.2508    136.0321     30.1386
   823.8000      8.0113      2.6525      0.1340     -0.1539    133.8185     29.1958
   823.9000      8.0113      2.6413      0.0889      0.5291    128.0224     27.7933
   824.0000      8.0062      2.6390      0.0701      0.6653    117.8027     26.4307
   824.1000      8.0062      2.6628      0.1221     -0.7757    108.2289     25.6119
   824.2000      8.0062      2.6976      0.1850     -2.8824    105.5057     25.4586
   824.3000      7.9955      2.7163      0.1831     -4.0189    113.1991     25.8082
   824.4000      7.9955      2.7132      0.1743     -3.8306    125.2292     26.0725
   824.5000      7.9916      2.6976      0.1812     -2.8878    130.1239     25.6229
   824.6000      7.9916      2.6818      0.1038     -1.9253    127.9678     24.9774
   824.7000      7.9916      2.6744      0.1529     -1.4773    125.5253     24.9394
   824.8000      7.9915      2.6673      0.1550     -1.0462    124.7820     25.3869
   824.9000      7.9915      2.6454      0.1055      0.2804    123.3432     26.2218
   825.0000      7.9942      2.6053      0.1242      2.7063    121.2376     26.8816
   825.1000      7.9942      2.5646      0.0499      5.1771    121.8316     26.3132
   825.2000      7.9942      2.5465      0.0481      6.2719    125.2344     25.2663
   825.3000      8.0045      2.5497      0.0673      6.0816    129.7790     25.0586
