~Version Information
VERS.                      2.0: CWLS Log ASCII Standard - VERSION 2.0
WRAP.                       NO: One line per depth step
~Well Information Block
STRT.FT               694.2000: 
STOP.FT              1498.5000: 
STEP.FT                 0.1000: 
NULL.                -999.2500: 
COMP.          Pioneer Natural Resources: COMPANY
WELL.          Pallet Ranch 34-25 Tr: WELL
FLD.           Purgatoire River: FIELD
LOC.           465' FSL & 2138' FEL: LOCATION
PROV.                 Colorado: PROVINCE
CNTY.               Las Animas: COUNTRY
SRVC.                Patterson: SERVICE COMPANY
DATE.          Thu Jan 19 06:39:54 2006: LOG DATE
UWI.           05 071 08657 00: UNIQUE WELL ID
~Curve Information Block
DEPT.FT            0 000 00 00: Depth
DCAL.in                       : CDL Caliper
RHOB.g/cc                     : CDL Bulk Density
RHOC.g/cc                     : CDL Density Correction
DPOR.pu                       : CDL Density Porosity
GR.GAPI                       : Gamma Ray
~Parameter Information Block
~A  Depth       DCAL        RHOB        RHOC        DPOR         GR     
# ...
  1019.0000      7.9034      2.6849      0.1162     -2.1161     45.2874
  1019.1000      7.9034      2.6577      0.0772     -0.4681     48.9107
  1019.2000      7.9034      2.6030      0.0002      2.8481     53.6475
  1019.3000      7.9022      2.5527     -0.0840      5.8993     54.8075
  1019.4000      7.9022      2.5408     -0.0606      6.6153     53.7298
  1019.5000      7.9050      2.5630      0.0140      5.2728     54.2464
  1019.6000      7.9050      2.5863     -0.0139      3.8612     54.5659
  1019.7000      7.9050      2.5896      0.0364      3.6609     52.6868
  1019.8000      7.9080      2.5792     -0.0285      4.2920     51.3784
  1019.9000      7.9080      2.5719      0.0406      4.7308     52.5562
  1020.0000      7.9105      2.5725      0.0054      4.6954     53.4744
  1020.1000      7.9105      2.5745      0.0689      4.5760     51.7936
  1020.2000      7.9105      2.5708      0.0426      4.7971     49.1960
  1020.3000      7.9050      2.5685     -0.0108      4.9396     48.5496
  1020.4000      7.9050      2.5681      0.0660      4.9611     50.1198
  1020.5000      7.9062      2.5558      0.0563      5.7070     51.7771
  1020.6000      7.9062      2.5389      0.0088      6.7315     53.2655
  1020.7000      7.9062      2.5328      0.0744      7.1045     55.0959
  1020.8000      7.9092      2.5345      0.0784      7.0019     56.3640
  1020.9000      7.9092      2.5377      0.0771      6.8071     56.6271
  1021.0000      7.9147      2.5349      0.0838      6.9738     57.2878
  1021.1000      7.9147      2.5182      0.0491      7.9892     60.3059
  1021.2000      7.9147      2.4935      0.0459      9.4878     65.6170
  1021.3000      7.9239      2.4737      0.0143     10.6824     70.1773
  1021.4000      7.9239      2.4644      0.0311     11.2512     68.2656
  1021.5000      7.9204      2.4677     -0.0222     11.0468     63.4910
  1021.6000      7.9204      2.4881      0.0200      9.8121     64.6964
  1021.7000      7.9204      2.5185      0.0535      7.9717     68.0883
  1021.8000      7.9259      2.5385      0.0607      6.7599     67.5048
  1021.9000      7.9259      2.5334      0.0760      7.0665     65.3922
  1022.0000      7.9410      2.5081      0.0342      8.6010     65.2427
  1022.1000      7.9410      2.4813      0.0124     10.2242     67.7513
  1022.2000      7.9410      2.4704     -0.0643     10.8876     70.4432
  1022.3000      7.9507      2.4744     -0.0147     10.6418     71.0290
  1022.4000      7.9507      2.4774     -0.0136     10.4584     70.7845
  1022.5000      7.9437      2.4783     -0.0197     10.4073     69.9798
  1022.6000      7.9437      2.4888      0.0138      9.7679     66.9210
  1022.7000      7.9437      2.5029      0.0508      8.9142     63.2944
  1022.8000      7.9340      2.5088      0.0128      8.5573     62.6957
  1022.9000      7.9340      2.5102      0.0295      8.4743     63.1691
  1023.0000      7.9337      2.5100      0.0682      8.4863     59.9940
  1023.1000      7.9337      2.5081     -0.0331      8.5982     54.3297
  1023.2000      7.9337      2.5014      0.1041      9.0074     51.5400
  1023.3000      7.9559      2.4818     -0.0022     10.1948     50.3036
  1023.4000      7.9559      2.4627     -0.0206     11.3494     48.1639
  1023.5000      7.9563      2.4602      0.0011     11.5016     48.1945
  1023.6000      7.9563      2.4703     -0.0282     10.8935     53.3648
  1023.7000      7.9563      2.4867     -0.0002      9.8953     62.1681
  1023.8000      7.9416      2.5050      0.0549      8.7900     69.9793
  1023.9000      7.9416      2.5221      0.0131      7.7510     74.1204
  1024.0000      7.9288      2.5408      0.0617      6.6198     74.6189
  1024.1000      7.9288      2.5588      0.0827      5.5244     72.7461
  1024.2000      7.9288      2.5734      0.0829      4.6452     70.4797
  1024.3000      7.9383      2.5820      0.0724      4.1233     66.8622
  1024.4000      7.9383      2.5840      0.0849      3.9995     60.4162
  1024.5000      7.9302      2.5897      0.0741      3.6521     55.6327
  1024.6000      7.9302      2.6010      0.1001      2.9713     58.3787
  1024.7000      7.9302      2.5939      0.0759      3.3990     67.0919
  1024.8000      7.9424      2.5586      0.0402      5.5377     74.3780
  1024.9000      7.9424      2.5275      0.0281      7.4221     74.4135
  1025.0000      7.9517      2.5242      0.0650      7.6216     69.7563
  1025.1000      7.9517      2.5323      0.0359      7.1305     66.5454
  1025.2000      7.9517      2.5357      0.0406      6.9275     65.1609
  1025.3000      7.9389      2.5391      0.0617      6.7229     62.3183
  1025.4000      7.9389      2.5533      0.0645      5.8593     58.9654
  1025.5000      7.9463      2.5771      0.1164      4.4200     58.0468
  1025.6000      7.9463      2.5894      0.1658      3.6731     57.3187
  1025.7000      7.9463      2.5745      0.0917      4.5774     54.6546
  1025.8000      7.9644      2.5427      0.0837      6.5008     53.0216
  1025.9000      7.9644      2.5145      0.0478      8.2144     53.9319
  1026.0000      7.9448      2.5020      0.0209      8.9676     56.9337
  1026.1000      7.9448      2.4964      0.0649      9.3109     61.9171
  1026.2000      7.9448      2.4839      0.0404     10.0645     64.3549
  1026.3000      7.9494      2.4752      0.0157     10.5923     60.9485
  1026.4000      7.9494      2.4853     -0.0031      9.9839     57.2571
  1026.5000      7.9705      2.5099      0.0482      8.4901     56.8825
  1026.6000      7.9705      2.5362      0.0684      6.8988     57.0611
  1026.7000      7.9705      2.5568      0.0431      5.6499     57.9542
  1026.8000      7.9447      2.5627      0.0964      5.2900     60.0211
  1026.9000      7.9447      2.5522      0.0367      5.9267     59.0810
  1027.0000      7.9353      2.5512      0.0558      5.9853     54.8646
  1027.1000      7.9353      2.5748      0.1073      4.5573     53.6963
  1027.2000      7.9353      2.6053      0.0963      2.7092     57.8356
  1027.3000      7.9314      2.6272      0.0695      1.3838     62.4123
  1027.4000      7.9314      2.6361      0.1074      0.8405     64.7751
  1027.5000      7.9242      2.6258      0.1258      1.4643     67.9404
  1027.6000      7.9242      2.5940      0.0749      3.3915     70.3216
  1027.7000      7.9242      2.5609     -0.0014      5.4018     69.9573
  1027.8000      7.9242      2.5516      0.0454      5.9659     70.5789
  1027.9000      7.9242      2.5631      0.0293      5.2660     73.1378
  1028.0000      7.9190      2.5851      0.0425      3.9332     74.0980
  1028.1000      7.9190      2.6095      0.1074      2.4572     72.8837
  1028.2000      7.9190      2.6177      0.0716      1.9570     71.4581
  1028.3000      7.9241      2.6012      0.0963      2.9560     72.3226
  1028.4000      7.9241      2.5715      0.0732      4.7603     76.2436
  1028.5000      7.9235      2.5420      0.0563      6.5475     78.8738
  1028.6000      7.9235      2.5171      0.0580      8.0543     77.9319
  1028.7000      7.9235      2.5038      0.0137      8.8603     74.8971
  1028.8000      7.9087      2.5033      0.0497      8.8899     70.7382
  1028.9000      7.9087      2.4999      0.0337      9.0943     67.5586
  1029.0000      7.9182      2.4954     -0.0469      9.3672     66.4824
  1029.1000      7.9182      2.5060      0.0085      8.7253     68.8330
  1029.2000      7.9182      2.5181      0.0779      7.9917     75.2653
  1029.3000      7.9257      2.5174      0.0263      8.0384     79.6166
  1029.4000      7.9257      2.5239     -0.0082      7.6452     76.7060
  1029.5000      7.9369      2.5482      0.0897      6.1727     70.4694
  1029.6000      7.9369      2.5696      0.1014      4.8733     66.5170
  1029.7000      7.9369      2.5777      0.0889      4.3807     65.3001
  1029.8000      7.9315      2.5864      0.0770      3.8536     65.1941
  1029.9000      7.9315      2.6044      0.1121      2.7629     65.0497
  1030.0000      7.9236      2.6201      0.1627      1.8147     63.9983
  1030.1000      7.9236      2.6207      0.0898      1.7746     63.1704
