~Version Information
VERS.                      2.0: CWLS Log ASCII Standard - VERSION 2.0
WRAP.                       NO: One line per depth step
~Well Information Block
STRT.FT                 0.0000: 
STOP.FT               968.2500: 
STEP.FT                 0.2500: 
NULL.                -999.2500: 
COMP.          Pioneer Natural Resources: COMPANY
WELL.              Atlas 32-18: WELL
FLD.           Purgatorie River: FIELD
LOC.           1892' FNL & 1456' FEL: LOCATION
PROV.                 Colorado: PROVINCE
CNTY.               Las Animas: COUNTRY
SRVC.                Patterson: SERVICE COMPANY
DATE.          Fri Dec 02 11:37:22 2005: LOG DATE
UWI.                          : UNIQUE WELL ID
~Curve Information Block
DEPT.FT            0 000 00 00: Depth
CCL.                          : Casing Collar Locator
TT3.usec                      : CBL 3' Travel Time
AMP3.mV                       : CBL 3' Amplitude
GR.GAPI                       : Gamma Ray
~Parameter Information Block
~A  Depth       CCL         TT3         AMP3         GR     
# ...
   368.5000      0.0000    724.0612     10.8583     97.4853
   368.7500      0.0000    725.2068     10.8033     97.2340
   369.0000      0.0000    725.6569     10.7636     98.9967
   369.2500      0.0000    725.9689     10.7329    103.1681
   369.5000      0.0000    726.1961     10.7148    109.5021
   369.7500      0.0000    726.2415     10.7170    116.3884
   370.0000      0.0000    726.1124     10.7177    121.8273
   370.2500      0.0000    725.9276     10.6786    124.6044
   370.5000      0.0000    725.7714     10.5969    124.2063
   370.7500      0.0000    725.6735     10.5039    120.4128
   371.0000      0.0000    725.6606     10.4216    113.6977
   371.2500      0.0000    725.7159     10.3447    105.6227
   371.5000      0.0000    725.7742     10.2593     98.1832
   371.7500      0.0000    725.8034     10.1675     92.7514
   372.0000      0.0000    725.8060     10.0808     89.8796
   372.2500      0.0000    725.8059     10.0070     89.6852
   372.5000      0.0000    725.8922      9.9579     91.7604
   372.7500      0.0000    726.0909      9.9417     94.9162
   373.0000      0.0000    726.2025      9.9547     97.7923
   373.2500      0.0000    726.0655      9.9930     99.8293
   373.5000      0.0000    725.8153     10.0497    101.2810
   373.7500      0.0000    725.4673     10.1102    102.3516
   374.0000      0.0000    723.8668     10.1614    102.7482
   374.2500      0.0000    717.0613     10.1877    102.2664
   374.5000      0.0000    699.4785     10.1698    101.5623
   374.7500      0.0000    674.6404     10.1033    102.0611
   375.0000      0.0000    661.9734     10.0114    104.9733
   375.2500      0.0000    674.7181      9.9457    110.3264
   375.5000      0.0000    699.5184      9.9524    116.9201
   375.7500      0.0000    716.9936     10.0126    123.3279
   376.0000      0.0000    723.7277     10.0540    129.0430
   376.2500      0.0000    725.2867     10.0379    134.5250
   376.5000      0.0000    725.4452      9.9986    140.1875
   376.7500      0.0000    725.0739      9.9888    145.6873
   377.0000      0.0000    723.6988     10.0163    150.3332
   377.2500      0.0000    720.4790     10.0439    153.6065
   377.5000      0.0000    716.0602     10.0409    154.7349
   377.7500      0.0000    713.5533     10.0306    152.2489
   378.0000      0.0000    714.5078     10.0606    144.9588
   378.2500      0.0000    715.6885     10.1257    133.6180
   378.5000      0.0000    714.4479     10.1801    121.1538
   378.7500      0.0000    713.5982     10.2094    110.8840
   379.0000      0.0000    716.3345     10.2306    104.3274
   379.2500      0.0000    720.9014     10.2460    100.6366
   379.5000      0.0000    724.1089     10.2375     97.9473
   379.7500      0.0000    725.4540     10.1962     95.0170
   380.0000      0.0000    725.9139     10.1321     91.6625
   380.2500      0.0000    726.0705     10.0540     88.2718
   380.5000      0.0000    726.0593      9.9767     85.3898
   380.7500      0.0000    725.9499      9.9336     83.5215
   381.0000      0.0000    725.8182      9.9441     82.8441
   381.2500      0.0000    725.7063      9.9876     83.0437
   381.5000      0.0000    725.6249     10.0248     83.5749
   381.7500      0.0000    725.5696     10.0308     84.0863
   382.0000      0.0000    725.5281     10.0050     84.6608
   382.2500      0.0000    725.4840      9.9710     85.6767
   382.5000      0.0000    725.4242      9.9657     87.1806
   382.7500      0.0000    725.3450     10.0012     88.4297
   383.0000      0.0000    725.2481     10.0528     88.4987
   383.2500      0.0000    725.1377     10.1089     87.2927
   383.5000      0.0000    725.0269     10.1855     85.5850
   383.7500      0.0000    724.9255     10.2822     84.1951
   384.0000      0.0000    724.8281     10.3664     83.4995
   384.2500      0.0000    724.7454     10.4057     83.7190
   384.5000      0.0000    724.7294     10.3911     85.3270
   384.7500      0.0000    724.8527     10.3324     88.9018
   385.0000      0.0000    725.1442     10.2595     94.3711
   385.2500      0.0000    725.4991     10.2231    100.3739
   385.5000      0.0000    725.6807     10.2543    104.5731
   385.7500      0.0000    725.3839     10.3238    104.9639
   386.0000      0.0000    724.0400     10.3714    101.2270
   386.2500      0.0000    720.8105     10.3677     95.0294
   386.5000      0.0000    716.1055     10.3196     88.9584
   386.7500      0.0000    712.3633     10.2351     84.9340
   387.0000      0.0000    710.2169     10.1343     83.4299
   387.2500      0.0000    707.0174     10.0635     83.9064
   387.5000      0.0000    703.4277     10.0474     85.6487
   387.7500      0.0000    704.5949     10.0624     88.1688
   388.0000      0.0000    711.5024     10.0784     91.1023
   388.2500      0.0000    719.0582     10.0814     94.0041
   388.5000      0.0000    723.3751     10.0592     96.4265
   388.7500      0.0000    724.7844     10.0181     98.2525
   389.0000      0.0000    724.7617      9.9916     99.4622
   389.2500      0.0000    723.5419      9.9994     99.2176
   389.5000      0.0000    720.4172     10.0259     95.9675
   389.7500      0.0000    716.0340     10.0392     89.4196
   390.0000      0.0000    713.7369     10.0166     81.9182
   390.2500      0.0000    715.8081      9.9617     76.8735
   390.5000      0.0000    719.8038      9.8987     75.9202
   390.7500      0.0000    721.6938      9.8486     78.2324
   391.0000      0.0000    719.8274      9.8172     82.4197
   391.2500      0.0000    715.6732      9.7959     88.2472
   391.5000      0.0000    713.0206      9.7659     96.1056
   391.7500      0.0000    713.5176      9.7116    105.2370
   392.0000      0.0000    713.2524      9.6400    113.2850
   392.2500      0.0000    708.2657      9.5789    118.0608
   392.5000      0.0000    701.0483      9.5544    119.4831
   392.7500      0.0000    696.4322      9.5774    119.4378
   393.0000      0.0000    693.7378      9.6373    119.8027
   393.2500      0.0000    689.4552      9.7028    120.9300
   393.5000      0.0000    684.1398      9.7562    122.0882
   393.7500      0.0000    680.5111      9.8138    122.8821
   394.0000      0.0000    679.1480      9.9013    123.7057
   394.2500      0.0000    679.0609     10.0260    124.9232
   394.5000      0.0000    679.5417     10.1776    126.1262
   394.7500      0.0000    681.1115     10.3410    126.5111
   395.0000      0.0000    685.8263     10.4929    125.7683
   395.2500      0.0000    695.1696     10.6061    124.0804
   395.5000      0.0000    706.2065     10.6814    121.2903
   395.7500      0.0000    712.8180     10.7444    116.7586
   396.0000      0.0000    713.1762     10.8097    110.1869
   396.2500      0.0000    712.4174     10.8673    102.1113
   396.5000      0.0000    715.2188     10.8893     93.6342
   396.7500      0.0000    720.0662     10.8623     86.1178
   397.0000      0.0000    723.5898     10.8072     80.8136
   397.2500      0.0000    725.2396     10.7508     78.3066
   397.5000      0.0000    725.9503     10.7058     78.4608
   397.7500      0.0000    726.1744     10.6819     80.9231
   398.0000      0.0000    726.0221     10.6978     85.1936
   398.2500      0.0000    725.7255     10.7643     90.2179
   398.5000      0.0000    725.5134     10.8492     94.7593
   398.7500      0.0000    725.4142     10.8967     98.6764
   399.0000      0.0000    725.3354     10.8861    103.2509
   399.2500      0.0000    725.2083     10.8344    109.6219
   399.5000      0.0000    725.0410     10.7552    117.1947
   399.7500      0.0000    724.8504     10.6552    124.1107
   400.0000      0.0000    724.4515     10.5581    129.0350
   400.2500      0.0000    723.1811     10.4939    132.1437
   400.5000      0.0000    720.1376     10.4614    134.5838
   400.7500      0.0000    715.9745     10.4249    137.2419
   401.0000      0.0000    714.0382     10.3577    139.8612
   401.2500      0.0000    716.5955     10.2661    141.2925
   401.5000      0.0000    721.2263     10.1738    140.6209
   401.7500      0.0000    724.0438     10.0881    137.8420
