~Version Information
VERS.                      2.0: CWLS Log ASCII Standard - VERSION 2.0
WRAP.                       NO: One line per depth step
~Well Information Block
STRT.FT               245.0000: 
STOP.FT              1102.5000: 
STEP.FT                 0.1000: 
NULL.                -999.2500: 
COMP.          Pioneer Natural Resources: COMPANY
WELL.           Pavilion 44-25: WELL
FLD.           Purgatoire River: FIELD
LOC.           719' FSL & 650' FEL: LOCATION
PROV.                 Colorado: PROVINCE
CNTY.               Las Animas: COUNTRY
SRVC.                Patterson: SERVICE COMPANY
DATE.          Wed Dec 14 09:57:07 2005: LOG DATE
UWI.           05 071 08624 00: UNIQUE WELL ID
~Curve Information Block
DEPT.FT            0 000 00 00: Depth
DCAL.in                       : CDL Caliper
RHOB.g/cc                     : CDL Bulk Density
RHOC.g/cc                     : CDL Density Correction
DPOR.pu                       : CDL Density Porosity
GR.GAPI                       : Gamma Ray
NPOR.pu                       : Neutron Porosity
~Parameter Information Block
~A  Depth       DCAL        RHOB        RHOC        DPOR         GR         NPOR    
   245.0000      8.1725      1.3517     -0.8038     78.6834     46.0648     24.3557
   245.1000      8.1725      1.3403     -0.8005     79.3787     45.0590     24.5544
   245.2000      8.1725      1.3389     -0.8658     79.4623     39.6131     24.6095
   245.3000      8.1740      1.3634     -0.8714     77.9762     38.4920     24.3941
   245.4000      8.1740      1.4115     -0.7901     75.0616     38.9651     23.7826
   245.5000      8.1779      1.4473     -0.6946     72.8919     39.9993     23.2850
   245.6000      8.1779      1.4491     -0.7407     72.7796     37.1694     23.6161
   245.7000      8.1779      1.4253     -0.7076     74.2229     30.7583     24.7193
   245.8000      8.1736      1.3864     -0.8009     76.5812     25.8201     25.6829
   245.9000      8.1736      1.3469     -0.8228     78.9748     26.1252     25.8507
   246.0000      8.1716      1.3209     -0.8287     80.5512     31.8594     25.5072
   246.1000      8.1716      1.3092     -0.8288     81.2615     39.2574     25.0306
   246.2000      8.1716      1.3061     -0.8202     81.4515     37.6821     24.5180
   246.3000      8.1714      1.3128     -0.8800     81.0420     37.7408     24.4104
   246.4000      8.1714      1.3379     -0.8682     79.5226     38.8346     25.3398
   246.5000      8.1734      1.3797     -0.8297     76.9857     44.0659     26.9424
   246.6000      8.1734      1.4252     -0.8344     74.2325     49.4510     27.5591
   246.7000      8.1734      1.4681     -0.8217     71.6307     50.0647     26.5338
   246.8000      8.1723      1.5057     -0.7428     69.3496     49.0192     25.0663
   246.9000      8.1723      1.5213     -0.7331     68.4042     52.3009     24.1947
   247.0000      8.1713      1.5062     -0.7555     69.3186     57.8062     24.1107
   247.1000      8.1713      1.4779     -0.7559     71.0351     59.4065     24.3729
   247.2000      8.1713      1.4592     -0.7564     72.1687     57.0955     24.6797
   247.3000      8.1716      1.4626     -0.8435     71.9630     55.5753     25.3574
   247.4000      8.1716      1.4846     -0.7523     70.6285     56.9991     26.0885
   247.5000      8.1705      1.5104     -0.7578     69.0660     58.0558     25.9754
   247.6000      8.1705      1.5329     -0.7350     67.7028     55.1642     25.2299
   247.7000      8.1705      1.5502     -0.7642     66.6516     50.6988     24.7238
   247.8000      8.1717      1.5565     -0.6918     66.2734     49.4466     24.5585
   247.9000      8.1717      1.5525     -0.7486     66.5171     52.5815     24.0679
   248.0000      8.1764      1.5606     -0.8007     66.0264     56.5093     23.1738
   248.1000      8.1764      1.6090     -0.7602     63.0900     57.6519     22.7671
   248.2000      8.1764      1.6995     -0.6647     57.6075     57.4254     23.0457
   248.3000      8.1710      1.8031     -0.5898     51.3288     59.5392     23.2076
   248.4000      8.1710      1.8968     -0.5885     45.6505     63.7688     22.7572
   248.5000      8.1700      1.9876     -0.5794     40.1471     66.1279     22.0698
   248.6000      8.1700      2.0804     -0.5222     34.5185     63.8144     21.9767
   248.7000      8.1700      2.1497     -0.4871     30.3226     58.7413     22.5739
   248.8000      8.1709      2.1771     -0.5347     28.6603     53.9087     22.7849
   248.9000      8.1709      2.1906     -0.5946     27.8415     50.0339     21.8011
   249.0000      8.1706      2.2270     -0.5295     25.6343     48.4477     20.4852
   249.1000      8.1706      2.2777     -0.4637     22.5640     50.2972     19.9948
   249.2000      8.1706      2.3124     -0.4738     20.4623     53.4638     20.2010
   249.3000      8.1695      2.3207     -0.3970     19.9598     55.2563     20.5726
   249.4000      8.1695      2.3055     -0.4395     20.8805     55.9863     20.9590
   249.5000      8.1686      2.2824     -0.4731     22.2772     57.9178     21.2546
   249.6000      8.1686      2.2780     -0.5153     22.5479     60.2313     21.3274
   249.7000      8.1686      2.3041     -0.4944     20.9649     59.6736     21.0983
   249.8000      8.1677      2.3384     -0.4165     18.8821     58.1716     20.6108
   249.9000      8.1677      2.3491     -0.4316     18.2374     60.5491     19.9709
   250.0000      8.1680      2.3296     -0.4451     19.4174     64.8202     19.2599
   250.1000      8.1680      2.2878     -0.4052     21.9507     66.3482     18.6760
   250.2000      8.1680      2.2391     -0.5176     24.9030     65.2092     18.5638
   250.3000      8.1658      2.2110     -0.4962     26.6043     63.6857     19.0459
   250.4000      8.1658      2.2077     -0.4917     26.8038     63.1950     19.8733
   250.5000      8.1778      2.2108     -0.4291     26.6203     64.1915     20.6103
   250.6000      8.1778      2.2183     -0.4639     26.1648     67.1745     21.1212
   250.7000      8.1778      2.2408     -0.4095     24.7988     71.5108     21.4852
   250.8000      8.1715      2.2740     -0.4279     22.7883     74.2874     21.9249
   250.9000      8.1715      2.2973     -0.3192     21.3767     71.6658     22.5567
   251.0000      8.1709      2.3077     -0.4288     20.7435     65.6647     22.8973
   251.1000      8.1709      2.3324     -0.4194     19.2496     61.8319     22.8426
   251.2000      8.1709      2.3753     -0.3884     16.6478     62.3866     22.8926
   251.3000      8.1702      2.4069     -0.3733     14.7332     66.6043     22.7191
   251.4000      8.1702      2.4126     -0.4646     14.3865     70.5242     21.7897
   251.5000      8.1692      2.4074     -0.4183     14.7056     70.6793     20.7437
   251.6000      8.1692      2.4051     -0.4810     14.8412     68.9436     20.4673
   251.7000      8.1692      2.4082     -0.4505     14.6543     67.6578     20.8545
   251.8000      8.1688      2.4096     -0.4659     14.5677     66.5643     21.1774
   251.9000      8.1688      2.4050     -0.4891     14.8471     67.1122     21.2874
   252.0000      8.1697      2.3959     -0.5223     15.3993     71.0963     21.3959
   252.1000      8.1697      2.3799     -0.4865     16.3677     76.4358     21.3733
   252.2000      8.1697      2.3573     -0.4773     17.7370     79.2408     21.1132
   252.3000      8.1699      2.3361     -0.4752     19.0262     78.2843     20.9948
   252.4000      8.1699      2.3238     -0.4814     19.7689     76.1608     21.1071
   252.5000      8.1700      2.3271     -0.4691     19.5706     76.5834     20.8675
   252.6000      8.1700      2.3426     -0.4510     18.6315     78.7484     20.4175
   252.7000      8.1700      2.3490     -0.4648     18.2409     78.5549     20.5302
   252.8000      8.1690      2.3336     -0.4768     19.1731     75.6733     21.0515
   252.9000      8.1690      2.3193     -0.5255     20.0425     72.9244     21.5174
   253.0000      8.1723      2.3302     -0.4984     19.3803     73.0356     21.9236
   253.1000      8.1723      2.3591     -0.4847     17.6330     76.3993     22.0346
   253.2000      8.1723      2.3922     -0.4613     15.6232     80.1881     21.7663
   253.3000      8.1707      2.4184     -0.4315     14.0351     81.3247     21.2495
   253.4000      8.1707      2.4210     -0.4318     13.8772     80.1264     20.6316
   253.5000      8.1684      2.3941     -0.4616     15.5100     79.3959     20.3487
   253.6000      8.1684      2.3556     -0.4647     17.8421     79.6058     20.7151
   253.7000      8.1684      2.3363     -0.4927     19.0151     81.8791     21.6099
   253.8000      8.1675      2.3454     -0.4668     18.4628     85.9696     22.3734
   253.9000      8.1675      2.3625     -0.4645     17.4223     85.8689     22.4618
   254.0000      8.1696      2.3752     -0.4768     16.6531     81.4330     21.9967
   254.1000      8.1696      2.3867     -0.4491     15.9584     81.3929     21.1770
   254.2000      8.1696      2.3880     -0.4068     15.8773     87.5610     20.2344
   254.3000      8.1702      2.3657     -0.5091     17.2329     92.8662     19.4682
   254.4000      8.1702      2.3225     -0.4657     19.8463     92.9748     46.0161
   254.5000      8.1702      2.2714     -0.5144     22.9453     90.0143     45.1586
