~Version Information
VERS.                      2.0: CWLS Log ASCII Standard - VERSION 2.0
WRAP.                       NO: One line per depth step
~Well Information Block
STRT.FT               310.0000: 
STOP.FT              2298.0000: 
STEP.FT                 0.2500: 
NULL.                -999.2500: 
COMP.          Pioneer Natural Resources: COMPANY
WELL.               Relay 12-7: WELL
FLD.           Purgatoire River: FIELD
LOC.           1999' FNL & 848' FWL: LOCATION
PROV.                 Colorado: PROVINCE
CNTY.               Las Animas: COUNTRY
SRVC.                Patterson: SERVICE COMPANY
DATE.          Fri Dec 16 17:39:57 2005: LOG DATE
UWI.           05 071 08453 00: UNIQUE WELL ID
~Curve Information Block
DEPT.FT            0 000 00 00: Depth
SN.Ohm-m                      : IEL Short Normal
SP.mV                         : IEL Spontaneous Potential
DIR.Ohm-m                     : IEL Induction Resistivity
GR.GAPI                       : Gamma Ray
~Parameter Information Block
~A  Depth        SN          SP         DIR          GR     
# ...
   812.5000   2000.0000   2000.0000     15.3295    145.5510
   812.7500   2000.0000   2000.0000     15.5176    144.3024
   813.0000   2000.0000   2000.0000     15.7796    143.1620
   813.2500   2000.0000   2000.0000     16.1464    142.8311
   813.5000   2000.0000   2000.0000     16.6321    142.5223
   813.7500   2000.0000   2000.0000     17.2226    141.7802
   814.0000   2000.0000   2000.0000     17.8786    138.4465
   814.2500   2000.0000   2000.0000     18.5513    134.3926
   814.5000   2000.0000   2000.0000     19.2016    126.4514
   814.7500   2000.0000   2000.0000     19.8144    120.8972
   815.0000   2000.0000   2000.0000     20.4050    113.4504
   815.2500   2000.0000   2000.0000     21.0186    109.4383
   815.5000   2000.0000   2000.0000     21.7236    105.4829
   815.7500   2000.0000   2000.0000     22.6024    104.7783
   816.0000   2000.0000   2000.0000     23.7411    107.2166
   816.2500   2000.0000   2000.0000     25.2156    110.7895
   816.5000   2000.0000   2000.0000     27.0676    117.0081
   816.7500   2000.0000   2000.0000     29.2708    120.1625
   817.0000   2000.0000   2000.0000     31.7066    121.2842
   817.2500   2000.0000   2000.0000     34.1776    119.0971
   817.5000   2000.0000   2000.0000     36.4625    111.7538
   817.7500   2000.0000   2000.0000     38.3702    104.9964
   818.0000   2000.0000   2000.0000     39.7635     94.4831
   818.2500   2000.0000   2000.0000     40.5943     88.7537
   818.5000   2000.0000   2000.0000     40.9840     83.3936
   818.7500   2000.0000   2000.0000     41.2721     81.6422
   819.0000   2000.0000   2000.0000     41.9376     80.4398
   819.2500   2000.0000   2000.0000     43.4325     80.1771
   819.5000   2000.0000   2000.0000     46.0237     80.4674
   819.7500   2000.0000   2000.0000     49.6718     80.8624
   820.0000   2000.0000   2000.0000     53.9317     80.7243
   820.2500   2000.0000   2000.0000     57.9655     79.5500
   820.5000   2000.0000   2000.0000     60.8076     75.8448
   820.7500   2000.0000   2000.0000     61.8102     72.3550
   821.0000   2000.0000   2000.0000     60.8965     66.7214
   821.2500   2000.0000   2000.0000     58.4176     63.7417
   821.5000   2000.0000   2000.0000     54.8445     62.5667
   821.7500   2000.0000   2000.0000     50.5969     64.7715
   822.0000   2000.0000   2000.0000     46.0326     71.7565
   822.2500   2000.0000   2000.0000     41.4617     77.0973
   822.5000   2000.0000   2000.0000     37.1332     82.5478
   822.7500   2000.0000   2000.0000     33.2046     83.2322
   823.0000   2000.0000   2000.0000     29.7381     80.3219
   823.2500   2000.0000   2000.0000     26.7257     77.3915
   823.5000   2000.0000   2000.0000     24.1278     75.2424
   823.7500   2000.0000   2000.0000     21.9021     77.0326
   824.0000   2000.0000   2000.0000     20.0118     85.3590
   824.2500   2000.0000   2000.0000     18.4220     93.8570
   824.5000   2000.0000   2000.0000     17.0936    108.5354
   824.7500   2000.0000   2000.0000     15.9847    118.1334
   825.0000   2000.0000   2000.0000     15.0533    130.1813
   825.2500   2000.0000   2000.0000     14.2626    135.8392
   825.5000   2000.0000   2000.0000     13.5862    140.4559
   825.7500   2000.0000   2000.0000     13.0120    141.5041
   826.0000   2000.0000   2000.0000     12.5410    141.6139
   826.2500   2000.0000   2000.0000     12.1809    141.2994
   826.5000   2000.0000   2000.0000     11.9398    139.9136
   826.7500   2000.0000   2000.0000     11.8243    137.7879
   827.0000   2000.0000   2000.0000     11.8403    132.5554
   827.2500   2000.0000   2000.0000     11.9945    128.3541
   827.5000   2000.0000   2000.0000     12.2926    122.5669
   827.7500   2000.0000   2000.0000     12.7363    119.4351
   828.0000   2000.0000   2000.0000     13.3206    114.8458
   828.2500   2000.0000   2000.0000     14.0322    110.6979
   828.5000   2000.0000   2000.0000     14.8507    101.2615
   828.7500   2000.0000   2000.0000     15.7503     92.7935
   829.0000   2000.0000   2000.0000     16.7048     78.8076
   829.2500   2000.0000   2000.0000     17.6953     70.7566
   829.5000   2000.0000   2000.0000     18.7168     64.5388
   829.7500   2000.0000   2000.0000     19.7785     65.7826
   830.0000   2000.0000   2000.0000     20.8932     75.5233
   830.2500   2000.0000   2000.0000     22.0602     85.5476
   830.5000   2000.0000   2000.0000     23.2525    101.5838
   830.7500   2000.0000   2000.0000     24.4110    110.6926
   831.0000   2000.0000   2000.0000     25.4513    119.8594
   831.2500   2000.0000   2000.0000     26.2798    122.8244
   831.5000   2000.0000   2000.0000     26.8232    123.5541
   831.7500   2000.0000   2000.0000     27.0594    122.5198
   832.0000   2000.0000   2000.0000     27.0299    120.4410
   832.2500   2000.0000   2000.0000     26.8203    119.4151
   832.5000   2000.0000   2000.0000     26.5212    118.5133
   832.7500   2000.0000   2000.0000     26.1971    117.8921
   833.0000   2000.0000   2000.0000     25.8761    116.3926
   833.2500   2000.0000   2000.0000     25.5522    115.2129
   833.5000   2000.0000   2000.0000     25.1953    113.9338
   833.7500   2000.0000   2000.0000     24.7670    113.6272
   834.0000   2000.0000   2000.0000     24.2438    113.7484
   834.2500   2000.0000   2000.0000     23.6326    113.9474
   834.5000   2000.0000   2000.0000     22.9633    114.1850
   834.7500   2000.0000   2000.0000     22.2656    114.4514
   835.0000   2000.0000   2000.0000     21.5494    115.8185
   835.2500   2000.0000   2000.0000     20.8005    117.8549
   835.5000   2000.0000   2000.0000     19.9915    122.5625
   835.7500   2000.0000   2000.0000     19.1019    126.2532
   836.0000   2000.0000   2000.0000     18.1399    131.7326
   836.2500   2000.0000   2000.0000     17.1480    135.2711
   836.5000   2000.0000   2000.0000     16.1894    140.6184
   836.7500   2000.0000   2000.0000     15.3225    144.0643
   837.0000   2000.0000   2000.0000     14.5837    148.3312
   837.2500   2000.0000   2000.0000     13.9837    150.3204
   837.5000   2000.0000   2000.0000     13.5145    152.2142
   837.7500   2000.0000   2000.0000     13.1593    152.9782
   838.0000   2000.0000   2000.0000     12.8983    153.8207
   838.2500   2000.0000   2000.0000     12.7120    154.7137
   838.5000   2000.0000   2000.0000     12.5823    157.7060
   838.7500   2000.0000   2000.0000     12.4959    160.9116
   839.0000   2000.0000   2000.0000     12.4467    165.8984
   839.2500   2000.0000   2000.0000     12.4359    167.7903
   839.5000   2000.0000   2000.0000     12.4681    166.7486
   839.7500   2000.0000   2000.0000     12.5464    163.6096
   840.0000   2000.0000   2000.0000     12.6688    156.7603
   840.2500   2000.0000   2000.0000     12.8271    151.5891
   840.5000   2000.0000   2000.0000     13.0090    143.6508
   840.7500   2000.0000   2000.0000     13.2007    138.5544
   841.0000   2000.0000   2000.0000     13.3902    131.9931
   841.2500   2000.0000   2000.0000     13.5698    128.7709
   841.5000   2000.0000   2000.0000     13.7379    125.8713
   841.7500   2000.0000   2000.0000     13.9023    124.9607
   842.0000   2000.0000   2000.0000     14.0790    124.1769
   842.2500   2000.0000   2000.0000     14.2874    123.4459
   842.5000   2000.0000   2000.0000     14.5425    121.7055
   842.7500   2000.0000   2000.0000     14.8493    120.5939
   843.0000   2000.0000   2000.0000     15.2004    120.4027
   843.2500   2000.0000   2000.0000     15.5782    121.7213
   843.5000   2000.0000   2000.0000     15.9576    125.2914
   843.7500   2000.0000   2000.0000     16.3081    127.8274
   844.0000   2000.0000   2000.0000     16.5979    130.3823
   844.2500   2000.0000   2000.0000     16.8046    130.8576
   844.5000   2000.0000   2000.0000     16.9305    130.0220
   844.7500   2000.0000   2000.0000     17.0081    129.0555
   845.0000   2000.0000   2000.0000     17.0851    128.5473
   845.2500   2000.0000   2000.0000     17.2002    129.7545
   845.5000   2000.0000   2000.0000     17.3681    134.4828
   845.7500   2000.0000   2000.0000     17.5793    138.8930
