~Version Information
VERS.                      2.0: CWLS Log ASCII Standard - VERSION 2.0
WRAP.                       NO: One line per depth step
~Well Information Block
STRT.FT               350.0000: 
STOP.FT              2803.2000: 
STEP.FT                 0.1000: 
NULL.                -999.2500: 
COMP.          Pioneer Natural Resources: COMPANY
WELL.          Grey Goose 33-30: WELL
FLD.           Purgatoire River: FIELD
LOC.           2136' FSL & 2065' FEL--: LOCATION
STAT.                 Colorado: State
CNTY.               Las Animas: COUNTY
CTRY. USA : Country
SECT. 30 : Section
TOWN. 32S : Township
RANG. 67W : Range
SRVC.                Patterson: SERVICE COMPANY
DATE.          Fri Nov 04 09:27:53 2005: LOG DATE
API.           05 071 08546 00: UNIQUE WELL ID
~Curve Information Block
DEPT.FT            0 000 00 00: Depth
DCAL.in                       : CDL Caliper
DPOR.pu                       : CDL Density Porosity
NPOR.pu                       : Neutron Porosity
RHOB.g/cc                     : CDL Bulk Density
RHOC.g/cc                     : CDL Density Correction
GR.GAPI                       : Gamma Ray
~Parameter Information Block
~A  Depth       DCAL        DPOR        NPOR        RHOB        RHOC         GR     
# ...
   513.2000      8.0035      8.4004     24.5632      2.5114     -0.0162    116.3993
   513.3000      8.0040      9.5911     24.8999      2.4917     -0.0694    117.9085
   513.4000      8.0040      8.0920     24.6901      2.5165     -0.0022    119.9920
   513.5000      8.0041      4.9107     24.1543      2.5690      0.0060    122.3031
   513.6000      8.0041      1.9450     23.9345      2.6179      0.0486    119.7147
   513.7000      8.0041      0.3975     24.1766      2.6434      0.0830    110.8641
   513.8000      8.0032      0.3381     24.2840      2.6444      0.0454    103.7132
   513.9000      8.0032      1.3043     24.2806      2.6285      0.0577    101.1410
   514.0000      8.0024      3.0619     24.6472      2.5995      0.0510     99.9876
   514.1000      8.0024      4.8899     25.1286      2.5693     -0.0255    100.9051
   514.2000      8.0024      5.6067     25.3051      2.5575      0.0088    104.4206
   514.3000      8.0023      4.9497     25.1601      2.5683     -0.0050    108.0347
   514.4000      8.0023      3.7305     24.7255      2.5884      0.0212    108.9949
   514.5000      8.0013      2.6873     24.0827      2.6057      0.0326    107.8357
   514.6000      8.0013      1.8900     23.6216      2.6188      0.0705    108.5200
   514.7000      8.0013      1.7582     23.4631      2.6210      0.0512    113.7489
   514.8000      7.9992      2.8732     23.2195      2.6026      0.0495    120.6702
   514.9000      7.9992      4.5664     22.8012      2.5747      0.0018    123.5480
   515.0000      7.9986      5.6417     22.5897      2.5569      0.0039    121.5300
   515.1000      7.9986      5.9368     22.8613      2.5520     -0.0021    118.9128
   515.2000      7.9986      5.8487     23.1619      2.5535     -0.0028    117.6352
   515.3000      7.9988      5.6069     22.8508      2.5575      0.0358    113.6191
   515.4000      7.9988      5.0068     22.2017      2.5674     -0.0015    106.6149
   515.5000      8.0000      3.6419     21.8913      2.5899     -0.0095    102.2850
   515.6000      8.0000      2.2813     22.1952      2.6124      0.0651    100.4838
   515.7000      8.0000      2.0969     22.8510      2.6154      0.0081     97.1858
   515.8000      8.0023      3.1121     23.2662      2.5987      0.0600     93.0461
   515.9000      8.0023      4.8670     23.1523      2.5697      0.0104     90.1698
   516.0000      8.0034      6.5155     22.7636      2.5425     -0.0234     87.9783
   516.1000      8.0034      7.2583     22.3582      2.5302     -0.0230     85.1627
   516.2000      8.0034      7.1907     22.0256      2.5314      0.0266     83.7645
   516.3000      8.0031      6.8703     21.6615      2.5366      0.0025     86.1047
   516.4000      8.0031      6.7741     21.0845      2.5382      0.0161     87.2209
   516.5000      8.0030      6.8834     20.5536      2.5364     -0.0107     82.6359
   516.6000      8.0030      6.8865     20.4633      2.5364      0.0203     76.5924
   516.7000      8.0030      6.8665     20.6813      2.5367      0.0225     73.3009
   516.8000      8.0039      6.6169     20.7144      2.5408      0.0390     71.8694
   516.9000      8.0039      5.6744     20.3812      2.5564      0.0244     70.3733
   517.0000      8.0042      4.7245     20.0004      2.5720      0.0829     68.9458
   517.1000      8.0042      5.0577     19.8764      2.5665      0.0210     68.9978
   517.2000      8.0042      6.4829     19.9926      2.5430      0.0351     69.9351
   517.3000      8.0040      7.7998     20.0359      2.5213      0.0126     70.4340
   517.4000      8.0040      8.5029     19.6114      2.5097      0.0151     70.6811
   517.5000      8.0049      9.0780     18.9000      2.5002      0.0241     71.5381
   517.6000      8.0049      9.6785     18.4967      2.4903     -0.0236     73.1278
   517.7000      8.0049      9.6133     18.5440      2.4914     -0.0037     75.3107
   517.8000      8.0064      8.9918     18.8352      2.5016      0.0334     78.5771
   517.9000      8.0064      8.7081     19.1705      2.5063      0.0076     80.1302
   518.0000      8.0075      8.9903     19.2608      2.5017      0.0075     77.2996
   518.1000      8.0075      9.6229     19.1007      2.4912      0.0209     73.6707
   518.2000      8.0075     10.2510     19.0573      2.4809      0.0049     74.1127
   518.3000      8.0084     10.9548     19.3167      2.4692      0.0160     78.2168
   518.4000      8.0084     12.0855     19.6798      2.4506     -0.0201     82.3765
   518.5000      8.0121     12.7279     19.9428      2.4400     -0.0669     85.0061
   518.6000      8.0121     11.9859     20.1967      2.4522      0.0219     88.1374
   518.7000      8.0121     10.7070     20.4731      2.4733      0.0067     91.6968
   518.8000      8.0202      9.9695     20.6058      2.4855      0.0300     89.5542
   518.9000      8.0202      9.8890     20.6342      2.4868      0.0234     82.2319
   519.0000      8.0263      9.9234     20.7706      2.4863      0.0523     77.6505
   519.1000      8.0263      9.7111     20.8571      2.4898      0.0384     79.1686
   519.2000      8.0263      9.4494     20.7140      2.4941      0.0457     82.6220
   519.3000      8.0279      9.3315     20.4449      2.4960      0.0441     82.4847
   519.4000      8.0279      9.1602     20.0346      2.4989      0.0501     79.1728
   519.5000      8.0284      9.3099     19.4800      2.4964      0.0901     75.7067
   519.6000      8.0284     10.6309     19.0180      2.4746      0.0730     72.8723
   519.7000      8.0284     12.5214     18.6727      2.4434      0.0461     71.2510
   519.8000      8.0291     13.6191     18.1593      2.4253      0.0277     71.0283
   519.9000      8.0291     13.6899     17.4043      2.4241      0.0035     70.3661
   520.0000      8.0355     12.9298     16.6982      2.4367      0.0295     67.0713
   520.1000      8.0355     11.8261     16.3384      2.4549      0.0874     61.7094
   520.2000      8.0355     11.3700     16.1831      2.4624      0.0658     57.3631
   520.3000      8.0488     11.7042     15.8701      2.4569      0.0715     57.7042
   520.4000      8.0488     11.8535     15.3359      2.4544      0.0144     62.7670
   520.5000      8.0568     11.0312     14.8074      2.4680      0.0831     66.2103
   520.6000      8.0568      9.7314     14.6126      2.4894      0.0867     63.8997
   520.7000      8.0568      8.8445     14.8199      2.5041      0.0868     58.6040
   520.8000      8.0566      8.7703     15.1444      2.5053      0.0820     54.0559
   520.9000      8.0566      9.7530     15.3391      2.4891      0.1128     51.9329
   521.0000      8.0561     11.5232     15.3133      2.4599      0.0462     53.2223
   521.1000      8.0561     12.8130     15.0879      2.4386      0.0365     56.6692
   521.2000      8.0561     12.9782     14.7169      2.4359      0.0566     59.2099
   521.3000      8.0580     12.6920     14.3260      2.4406     -0.0078     59.0838
   521.4000      8.0580     12.5972     14.0938      2.4421      0.0265     56.5351
   521.5000      8.0595     12.6171     14.0857      2.4418      0.0464     53.8256
   521.6000      8.0595     12.5224     14.1372      2.4434      0.0691     53.5805
   521.7000      8.0595     12.4957     14.0644      2.4438      0.0319     55.5058
   521.8000      8.0600     12.9109     13.9837      2.4370      0.0880     58.6501
   521.9000      8.0600     13.7672     14.0677      2.4228      0.0625     62.3497
   522.0000      8.0611     14.0389     14.3767      2.4184      0.0269     63.1695
   522.1000      8.0611     13.0728     14.7364      2.4343      0.0585     60.6455
   522.2000      8.0611     11.6376     14.7605      2.4580      0.0460     59.9017
   522.3000      8.0606     10.7574     14.5877      2.4725      0.0867     62.4520
   522.4000      8.0606     11.0888     14.7088      2.4670      0.0802     65.3506
   522.5000      8.0588     12.2886     15.0687      2.4472      0.0277     65.8388
   522.6000      8.0588     13.2913     15.1300      2.4307      0.0321     64.2583
   522.7000      8.0588     13.4813     14.6682      2.4276      0.0485     63.8010
