~Version Information
VERS.                      2.0: CWLS Log ASCII Standard - VERSION 2.0
WRAP.                       NO: One line per depth step
~Well Information Block
STRT.FT               695.5000: 
STOP.FT              1499.5000: 
STEP.FT                 0.2500: 
NULL.                -999.2500: 
COMP.          Pioneer Natural Resources: COMPANY
WELL.          Pallet Ranch 34-25 Tr: WELL
FLD.           Purgatoire River: FIELD
LOC.           465' FSL & 2138' FEL: LOCATION
PROV.                 Colorado: PROVINCE
CNTY.               Las Animas: COUNTRY
SRVC.                Patterson: SERVICE COMPANY
DATE.          Wed Jan 18 18:58:46 2006: LOG DATE
UWI.           05 071 08657 00: UNIQUE WELL ID
~Curve Information Block
DEPT.FT            0 000 00 00: Depth
SN.Ohm-m                      : IEL Short Normal
SP.mV                         : IEL Spontaneous Potential
DIR.Ohm-m                     : IEL Induction Resistivity
GR.GAPI                       : Gamma Ray
~Parameter Information Block
~A  Depth        SN          SP         DIR          GR     
# ...
   863.0000   2000.0000   2000.0000      8.5278    110.6997
   863.2500   2000.0000   2000.0000      8.3787    111.4781
   863.5000   2000.0000   2000.0000      8.2515    116.7271
   863.7500   2000.0000   2000.0000      8.1414    121.5841
   864.0000   2000.0000   2000.0000      8.0401    128.7374
   864.2500   2000.0000   2000.0000      7.9413    132.6104
   864.5000   2000.0000   2000.0000      7.8451    136.2972
   864.7500   2000.0000   2000.0000      7.7604    137.0561
   865.0000   2000.0000   2000.0000      7.7010    135.7318
   865.2500   2000.0000   2000.0000      7.6798    133.9416
   865.5000   2000.0000   2000.0000      7.7035    131.9941
   865.7500   2000.0000   2000.0000      7.7714    131.9242
   866.0000   2000.0000   2000.0000      7.8768    132.8400
   866.2500   2000.0000   2000.0000      8.0119    133.1224
   866.5000   2000.0000   2000.0000      8.1701    132.6966
   866.7500   2000.0000   2000.0000      8.3460    132.5696
   867.0000   2000.0000   2000.0000      8.5341    133.6024
   867.2500   2000.0000   2000.0000      8.7268    134.7883
   867.5000   2000.0000   2000.0000      8.9168    135.7570
   867.7500   2000.0000   2000.0000      9.0999    135.1366
   868.0000   2000.0000   2000.0000      9.2762    132.3607
   868.2500   2000.0000   2000.0000      9.4484    130.0465
   868.5000   2000.0000   2000.0000      9.6173    127.4189
   868.7500   2000.0000   2000.0000      9.7787    126.6956
   869.0000   2000.0000   2000.0000      9.9238    127.2067
   869.2500   2000.0000   2000.0000     10.0420    128.5721
   869.5000   2000.0000   2000.0000     10.1235    132.1445
   869.7500   2000.0000   2000.0000     10.1619    135.2286
   870.0000   2000.0000   2000.0000     10.1544    139.4100
   870.2500   2000.0000   2000.0000     10.1035    140.8262
   870.5000   2000.0000   2000.0000     10.0182    140.2447
   870.7500   2000.0000   2000.0000      9.9114    138.8188
   871.0000   2000.0000   2000.0000      9.7952    137.3417
   871.2500   2000.0000   2000.0000      9.6761    137.5373
   871.5000   2000.0000   2000.0000      9.5546    138.9261
   871.7500   2000.0000   2000.0000      9.4283    139.4568
   872.0000   2000.0000   2000.0000      9.2967    138.1880
   872.2500   2000.0000   2000.0000      9.1645    136.1128
   872.5000   2000.0000   2000.0000      9.0395    132.8968
   872.7500   2000.0000   2000.0000      8.9284    131.5975
   873.0000   2000.0000   2000.0000      8.8315    130.8787
   873.2500   2000.0000   2000.0000      8.7437    130.5417
   873.5000   2000.0000   2000.0000      8.6584    129.5039
   873.7500   2000.0000   2000.0000      8.5757    128.6060
   874.0000   2000.0000   2000.0000      8.5047    127.6101
   874.2500   2000.0000   2000.0000      8.4595    127.4413
   874.5000   2000.0000   2000.0000      8.4493    128.1193
   874.7500   2000.0000   2000.0000      8.4720    129.3661
   875.0000   2000.0000   2000.0000      8.5176    132.9465
   875.2500   2000.0000   2000.0000      8.5770    136.5551
   875.5000   2000.0000   2000.0000      8.6475    142.6694
   875.7500   2000.0000   2000.0000      8.7317    145.9260
   876.0000   2000.0000   2000.0000      8.8317    147.8519
   876.2500   2000.0000   2000.0000      8.9457    147.1417
   876.5000   2000.0000   2000.0000      9.0689    144.5759
   876.7500   2000.0000   2000.0000      9.1964    142.9430
   877.0000   2000.0000   2000.0000      9.3263    141.4702
   877.2500   2000.0000   2000.0000      9.4598    140.7485
   877.5000   2000.0000   2000.0000      9.6005    138.6029
   877.7500   2000.0000   2000.0000      9.7524    135.9951
   878.0000   2000.0000   2000.0000      9.9189    130.9368
   878.2500   2000.0000   2000.0000     10.1025    127.7192
   878.5000   2000.0000   2000.0000     10.3049    124.5915
   878.7500   2000.0000   2000.0000     10.5257    124.0098
   879.0000   2000.0000   2000.0000     10.7634    125.0176
   879.2500   2000.0000   2000.0000     11.0186    126.2537
   879.5000   2000.0000   2000.0000     11.2982    127.3845
   879.7500   2000.0000   2000.0000     11.6123    126.8773
   880.0000   2000.0000   2000.0000     11.9650    123.9181
   880.2500   2000.0000   2000.0000     12.3418    121.0222
   880.5000   2000.0000   2000.0000     12.7065    116.5665
   880.7500   2000.0000   2000.0000     13.0094    113.7615
   881.0000   2000.0000   2000.0000     13.2046    109.1177
   881.2500   2000.0000   2000.0000     13.2651    105.3616
   881.5000   2000.0000   2000.0000     13.1909     99.4962
   881.7500   2000.0000   2000.0000     13.0080     96.6066
   882.0000   2000.0000   2000.0000     12.7602     95.8214
   882.2500   2000.0000   2000.0000     12.4948     98.3408
   882.5000   2000.0000   2000.0000     12.2458    106.7718
   882.7500   2000.0000   2000.0000     12.0230    114.8217
   883.0000   2000.0000   2000.0000     11.8135    128.0530
   883.2500   2000.0000   2000.0000     11.5935    135.8042
   883.5000   2000.0000   2000.0000     11.3426    143.4710
   883.7500   2000.0000   2000.0000     11.0521    145.6877
   884.0000   2000.0000   2000.0000     10.7251    146.1464
   884.2500   2000.0000   2000.0000     10.3736    145.8391
   884.5000   2000.0000   2000.0000     10.0155    145.9053
   884.7500   2000.0000   2000.0000      9.6734    146.3198
   885.0000   2000.0000   2000.0000      9.3701    146.5184
   885.2500   2000.0000   2000.0000      9.1224    145.6823
   885.5000   2000.0000   2000.0000      8.9353    142.4511
   885.7500   2000.0000   2000.0000      8.8026    139.3275
   886.0000   2000.0000   2000.0000      8.7141    134.6445
   886.2500   2000.0000   2000.0000      8.6651    132.3746
   886.5000   2000.0000   2000.0000      8.6595    130.7781
   886.7500   2000.0000   2000.0000      8.7040    130.5577
   887.0000   2000.0000   2000.0000      8.7996    130.4017
   887.2500   2000.0000   2000.0000      8.9370    130.0385
   887.5000   2000.0000   2000.0000      9.0992    129.0832
   887.7500   2000.0000   2000.0000      9.2665    128.0954
   888.0000   2000.0000   2000.0000      9.4248    125.3408
   888.2500   2000.0000   2000.0000      9.5707    122.1400
   888.5000   2000.0000   2000.0000      9.7145    115.2563
   888.7500   2000.0000   2000.0000      9.8751    110.1006
   889.0000   2000.0000   2000.0000     10.0723    104.0530
   889.2500   2000.0000   2000.0000     10.3206    102.4917
   889.5000   2000.0000   2000.0000     10.6296    104.3438
   889.7500   2000.0000   2000.0000     11.0074    107.4748
   890.0000   2000.0000   2000.0000     11.4624    112.6624
   890.2500   2000.0000   2000.0000     11.9982    115.2740
   890.5000   2000.0000   2000.0000     12.6068    116.6719
   890.7500   2000.0000   2000.0000     13.2615    115.6678
   891.0000   2000.0000   2000.0000     13.9127    111.8720
   891.2500   2000.0000   2000.0000     14.4894    108.8339
   891.5000   2000.0000   2000.0000     14.9167    105.7398
   891.7500   2000.0000   2000.0000     15.1493    105.5976
   892.0000   2000.0000   2000.0000     15.1981    108.5751
   892.2500   2000.0000   2000.0000     15.1211    112.3028
   892.5000   2000.0000   2000.0000     14.9810    119.7584
   892.7500   2000.0000   2000.0000     14.8097    125.6604
   893.0000   2000.0000   2000.0000     14.6051    135.1637
   893.2500   2000.0000   2000.0000     14.3511    141.1526
   893.5000   2000.0000   2000.0000     14.0356    148.0093
   893.7500   2000.0000   2000.0000     13.6545    150.5181
   894.0000   2000.0000   2000.0000     13.2101    151.2382
   894.2500   2000.0000   2000.0000     12.7116    150.3713
   894.5000   2000.0000   2000.0000     12.1771    148.6843
   894.7500   2000.0000   2000.0000     11.6305    148.0861
   895.0000   2000.0000   2000.0000     11.0950    148.4766
   895.2500   2000.0000   2000.0000     10.5894    149.3448
   895.5000   2000.0000   2000.0000     10.1293    150.6340
   895.7500   2000.0000   2000.0000      9.7267    150.9389
   896.0000   2000.0000   2000.0000      9.3897    149.8340
   896.2500   2000.0000   2000.0000      9.1207    147.8136
