~Version Information
VERS.                      2.0: CWLS Log ASCII Standard - VERSION 2.0
WRAP.                       NO: One line per depth step
~Well Information Block
STRT.FT               420.0000: 
STOP.FT              2888.7500: 
STEP.FT                 0.2500: 
NULL.                -999.2500: 
COMP.          Pioneer Natural Resources: COMPANY
WELL.          Touchstone 11-32: WELL
FLD.           Purgatoire River: FIELD
LOC.           853' FNL & 407' FWL--: LOCATION
CNTY.               Las Animas: COUNTY
SRVC.                Patterson: SERVICE COMPANY
DATE.          Thu Feb 23 14:02:36 2006: LOG DATE
UWI.           05 071 08564 00: UNIQUE WELL ID
STAT.                 Colorado: STATE
~Curve Information Block
DEPT.FT            0 000 00 00: Depth
SN.Ohm-m                      : IEL Short Normal
SP.mV                         : IEL Spontaneous Potential
DIR.Ohm-m                     : IEL Induction Resistivity
GR.GAPI                       : Gamma Ray
~Parameter Information Block
~A  Depth        SN          SP         DIR          GR     
# ...
  2698.0000     17.2833     83.3776     15.4387    104.1400
  2698.2500     17.2083     83.4950     15.5270    105.2427
  2698.5000     17.1196     83.7148     15.5866    107.5717
  2698.7500     17.0330     84.0435     15.6183    108.6284
  2699.0000     16.9637     84.4707     15.6283    108.1618
  2699.2500     16.9192     84.9627     15.6228    106.4829
  2699.5000     16.8965     85.4628     15.6055    103.0049
  2699.7500     16.8857     85.8992     15.5779    100.8309
  2700.0000     16.8788     86.2002     15.5445     98.8274
  2700.2500     16.8796     86.3124     15.5157     98.6722
  2700.5000     16.9071     86.2144     15.5086    100.0940
  2700.7500     16.9894     85.9229     15.5435    101.6250
  2701.0000     17.1531     85.4867     15.6402    103.5490
  2701.2500     17.4114     84.9728     15.8147    103.9941
  2701.5000     17.7578     84.4472     16.0729    102.9774
  2701.7500     18.1645     83.9593     16.4039    101.2556
  2702.0000     18.5888     83.5311     16.7755     97.5884
  2702.2500     18.9934     83.1572     17.1412     94.7755
  2702.5000     19.3740     82.8114     17.4597     90.7148
  2702.7500     19.7699     82.4585     17.7183     88.6219
  2703.0000     20.2443     82.0660     17.9426     87.2389
  2703.2500     20.8472     81.6129     18.1848     87.6581
  2703.5000     21.5877     81.0917     18.4977     89.6302
  2703.7500     22.4282     80.5078     18.9127     91.0570
  2704.0000     23.2967     79.8748     19.4316     92.2646
  2704.2500     24.1135     79.2098     20.0336     92.2518
  2704.5000     24.8238     78.5308     20.6879     91.0547
  2704.7500     25.4203     77.8546     21.3626     89.3738
  2705.0000     25.9415     77.1980     22.0302     85.1875
  2705.2500     26.4514     76.5784     22.6737     81.3830
  2705.5000     27.0185     76.0155     23.2930     75.3847
  2705.7500     27.6984     75.5307     23.9033     72.2752
  2706.0000     28.5165     75.1469     24.5210     70.2341
  2706.2500     29.4504     74.8861     25.1444     70.6366
  2706.5000     30.4188     74.7671     25.7434     72.8538
  2706.7500     31.2948     74.8020     26.2650     74.5275
  2707.0000     31.9496     74.9930     26.6534     76.0413
  2707.2500     32.3078     75.3300     26.8714     76.1838
  2707.5000     32.3776     75.7885     26.9128     75.9898
  2707.7500     32.2348     76.3305     26.8002     76.3981
  2708.0000     31.9759     76.9065     26.5724     78.4083
  2708.2500     31.6764     77.4594     26.2721     80.3067
  2708.5000     31.3785     77.9296     25.9404     82.9283
  2708.7500     31.1033     78.2613     25.6136     84.2274
  2709.0000     30.8654     78.4089     25.3167     85.6572
  2709.2500     30.6808     78.3430     25.0546     86.3219
  2709.5000     30.5707     78.0566     24.8129     86.4181
  2709.7500     30.5625     77.5689     24.5706     85.4932
  2710.0000     30.6809     76.9271     24.3164     82.4319
  2710.2500     30.9226     76.2049     24.0519     79.5261
  2710.5000     31.2232     75.4972     23.7715     74.6450
  2710.7500     31.4395     74.9107     23.4313     71.5196
  2711.0000     31.3753     74.5519     22.9312     67.6372
  2711.2500     30.8538     74.5142     22.1364     65.8052
  2711.5000     29.7995     74.8648     20.9419     64.6664
  2711.7500     28.2741     75.6355     19.3471     65.4900
  2712.0000     26.4428     76.8181     17.4790     69.9698
  2712.2500     24.4937     78.3653     15.5400     75.0961
  2712.5000     22.5621     80.1979     13.7284     84.6526
  2712.7500     20.7020     82.2154     12.1822     91.1759
  2713.0000     18.9124     84.3096     10.9634     99.8819
  2713.2500     17.1906     86.3763     10.0663    104.6228
  2713.5000     15.5701     88.3239      9.4329    109.6677
  2713.7500     14.1189     90.0775      8.9684    111.3438
  2714.0000     12.9077     91.5788      8.5606    111.3543
  2714.2500     11.9747     92.7812      8.1124    110.3235
  2714.5000     11.3131     93.6409      7.5806    108.8515
  2714.7500     10.8805     94.1056      6.9937    108.6398
  2715.0000     10.6206     94.0986      6.4260    109.9643
  2715.2500     10.4807     93.4990      5.9541    111.9336
  2715.5000     10.4227     92.1199      5.6270    115.9347
  2715.7500     10.4270     89.6877      5.4602    118.5090
  2716.0000     10.4889     85.8276      5.4406    120.6789
  2716.2500     10.6117     80.0654      5.5271    120.6039
  2716.5000     10.7985     71.8534      5.6514    118.6180
  2716.7500     11.0500     60.6278      5.7306    116.2066
  2717.0000     11.3705     45.8940      5.7063    109.8478
  2717.2500     11.7880     27.3305      5.5897    102.6680
  2717.5000     12.3793      4.8867      5.4710     86.9649
  2717.7500     13.2650    -21.1523      5.4944     74.4206
  2718.0000     14.5281    -50.1550      5.8638     56.1813
  2718.2500     16.0559    -81.1998      6.9878     46.3108
  2718.5000     17.4240   -113.1845     10.2517     36.3914
  2718.7500     18.0147   -144.9660     26.9504     32.9229
  2719.0000     17.4012   -175.4938 100000.0000     31.5684
  2719.2500     15.6857   -203.9096 100000.0000     32.6813
  2719.5000     13.4221   -229.5971 100000.0000     36.2479
  2719.7500     11.1843   -252.1842 100000.0000     39.0038
  2720.0000      9.2321   -271.5151 100000.0000     42.1770
  2720.2500      7.5463   -287.6026 100000.0000     43.1748
  2720.5000      6.0596   -300.5792 100000.0000     43.1245
  2720.7500      4.7903   -310.6477     19.2370     42.3615
  2721.0000      3.8070   -318.0320     14.0517     40.4277
  2721.2500      3.1452   -322.9215     23.2022     38.7338
  2721.5000      2.7786   -325.4149 100000.0000     36.1923
  2721.7500      2.6433   -325.4687 100000.0000     35.1501
  2722.0000      2.6650   -322.8699 100000.0000     35.8049
  2722.2500      2.7734   -317.2474 100000.0000     38.1481
  2722.5000      2.9206   -308.1357 100000.0000     44.1216
  2722.7500      3.1122   -295.0847 100000.0000     48.8830
  2723.0000      3.4298   -277.7975 100000.0000     55.5290
  2723.2500      4.0174   -256.2613     15.8462     59.0616
  2723.5000      5.0184   -230.8302      8.1962     63.0495
  2723.7500      6.4812   -202.2370      6.3518     65.3340
  2724.0000      8.2958   -171.5233      5.8899     69.4928
  2724.2500     10.2272   -139.9081      6.0626     73.5017
  2724.5000     12.0304   -108.6303      6.6298     82.0867
  2724.7500     13.5559    -78.8049      7.4112     89.3486
  2725.0000     14.7716    -51.3196      8.1456    101.0739
  2725.2500     15.7235    -26.7825      8.5421    108.1223
  2725.5000     16.4858     -5.5176      8.4966    115.4589
  2725.7500     17.1280     12.4068      8.1796    117.7041
  2726.0000     17.6936     27.1315      7.8569    117.7657
  2726.2500     18.1965     38.9512      7.7153    116.2612
  2726.5000     18.6313     48.2589      7.8390    112.0982
  2726.7500     18.9900     55.4929      8.2423    108.1165
  2727.0000     19.2758     61.0914      8.8830    101.7065
  2727.2500     19.5146     65.4553      9.6472     98.7572
  2727.5000     19.7515     68.9243     10.3460     98.4051
  2727.7500     20.0279     71.7640     10.7846    100.6996
  2728.0000     20.3481     74.1653     10.8958    105.9398
  2728.2500     20.6640     76.2532     10.7989    109.5677
  2728.5000     20.8960     78.0983     10.7063    114.2069
  2728.7500     20.9771     79.7326     10.7951    116.2431
  2729.0000     20.8917     81.1648     11.1509    116.6607
  2729.2500     20.6887     82.3942     11.7685    114.9379
  2729.5000     20.4649     83.4209     12.5681    110.3187
  2729.7500     20.3287     84.2542     13.4262    106.9897
  2730.0000     20.3620     84.9172     14.2246    103.0936
  2730.2500     20.5942     85.4485     14.8978    101.3475
  2730.5000     20.9949     85.8999     15.4463     99.1113
  2730.7500     21.4903     86.3301     15.9152     97.0977
  2731.0000     22.0008     86.7952     16.3641     92.2242
  2731.2500     22.4810     87.3378     16.8446     87.5751
