~Version Information
VERS.                      2.0: CWLS Log ASCII Standard - VERSION 2.0
WRAP.                       NO: One line per depth step
~Well Information Block
STRT.FT                 0.0000: 
STOP.FT              1193.0000: 
STEP.FT                 0.1000: 
NULL.                -999.2500: 
COMP.          Pioneer Natural Resources: COMPANY
WELL.          Big Pine 32-15 Tr: WELL
FLD.           Purgatorie River: FIELD
LOC.           2546' FNL & 1451' FEL: LOCATION
STAT.                 Colorado: State
CNTY.               Las Animas: COUNTY
CTRY. USA : Country
SECT. 15 : Section
TOWN. 33S : Township
RANG. 67W : Range
SRVC.                Patterson: SERVICE COMPANY
DATE.          Tue Nov 08 07:11:35 2005: LOG DATE
API. 05-071-08604                         : UNIQUE WELL ID
~Curve Information Block
DEPT.FT            0 000 00 00: Depth
DCAL.in                       : CDL Caliper
RHOB.g/cc                     : CDL Bulk Density
RHOC.g/cc                     : CDL Density Correction
DPOR.pu                       : CDL Density Porosity
GR.GAPI                       : Gamma Ray
NPOR.pu                       : Neutron Porosity
~Parameter Information Block
~A  Depth       DCAL        RHOB        RHOC        DPOR         GR         NPOR    
# ...
   931.2000      7.9112      2.5649      0.1059      5.1591    148.4820     25.0545
   931.3000      7.8919      2.5635      0.1061      5.2434    148.3186     25.1963
   931.4000      7.8919      2.5483      0.1019      6.1640    146.1168     25.1156
   931.5000      7.8793      2.5257      0.1260      7.5333    146.4301     25.0248
   931.6000      7.8793      2.5063      0.0868      8.7103    149.0471     25.1106
   931.7000      7.8793      2.5001      0.0837      9.0840    149.0857     25.3400
   931.8000      7.8820      2.5060      0.0598      8.7281    144.1546     25.4252
   931.9000      7.8820      2.5056      0.0876      8.7517    139.3738     25.3143
   932.0000      7.9194      2.4818      0.0683     10.1953    139.1913     25.1474
   932.1000      7.9194      2.4405      0.0244     12.6952    141.3860     24.9017
   932.2000      7.9194      2.3981      0.0012     15.2684    142.9403     24.5824
   932.3000      7.9707      2.3566     -0.0050     17.7839    144.2990     24.2820
   932.4000      7.9707      2.3072     -0.0025     20.7767    146.6372     24.0353
   932.5000      7.9553      2.2527     -0.0182     24.0798    148.8992     23.6756
   932.6000      7.9553      2.2100     -0.0129     26.6643    150.0406     22.9304
   932.7000      7.9553      2.1870      0.0052     28.0636    148.9263     22.0015
   932.8000      7.9667      2.1762      0.0512     28.7148    145.4375     21.5417
   932.9000      7.9667      2.1719      0.0588     28.9758    143.6578     21.6615
   933.0000      7.9892      2.1752      0.0774     28.7783    144.1617     21.8580
   933.1000      7.9892      2.1806      0.1419     28.4470    143.5914     21.8575
   933.2000      7.9892      2.1812      0.1216     28.4129    142.1417     21.7962
   933.3000      8.0090      2.1827      0.1693     28.3226    142.4140     21.7938
   933.4000      8.0090      2.1960      0.0851     27.5127    145.7017     21.8857
   933.5000      8.0973      2.2282      0.0844     25.5664    149.5901     22.1175
   933.6000      8.0973      2.2663      0.0804     23.2554    150.0089     22.4745
   933.7000      8.0973      2.2919      0.0507     21.7014    148.5672     22.7887
   933.8000      8.1737      2.3111      0.0272     20.5403    148.5161     22.9055
   933.9000      8.1737      2.3383      0.0426     18.8901    147.9248     23.0979
   934.0000      8.1080      2.3650      0.1080     17.2740    145.9352     23.6558
   934.1000      8.1080      2.3707      0.1024     16.9262    145.5725     24.1909
   934.2000      8.1080      2.3595      0.0586     17.6073    147.0736     24.2667
   934.3000      8.1265      2.3525      0.0575     18.0315    146.9963     23.9592
   934.4000      8.1265      2.3573      0.0530     17.7409    144.5567     23.3620
   934.5000      8.0889      2.3700      0.0316     16.9672    142.7582     22.6405
   934.6000      8.0889      2.3888      0.0621     15.8285    142.3815     22.1523
   934.7000      8.0889      2.4100      0.0527     14.5451    142.9457     21.9928
   934.8000      8.1214      2.4217      0.1011     13.8351    144.9850     22.0742
   934.9000      8.1214      2.4096      0.1207     14.5709    145.8967     22.1496
   935.0000      8.1245      2.3755      0.0595     16.6387    144.5006     21.8598
   935.1000      8.1245      2.3333      0.0823     19.1930    143.5163     21.1882
   935.2000      8.1245      2.2858      0.0987     22.0717    143.4493     20.4545
   935.3000      8.1594      2.2370      0.0201     25.0328    142.7010     19.9754
   935.4000      8.1594      2.2082     -0.0195     26.7737    141.8690     19.9356
   935.5000      8.1871      2.2137      0.0176     26.4395    141.9187     20.3131
   935.6000      8.1871      2.2484      0.0034     24.3396    142.1935     20.7974
   935.7000      8.1871      2.2984      0.0890     21.3068    141.8117     21.1043
   935.8000      8.1459      2.3457      0.1424     18.4452    140.0782     21.1362
   935.9000      8.1459      2.3804      0.1366     16.3415    135.8183     21.2416
   936.0000      8.1001      2.4038      0.1509     14.9223    129.3886     21.7723
   936.1000      8.1001      2.4231      0.0884     13.7519    124.5885     22.3329
   936.2000      8.1001      2.4515      0.0903     12.0322    123.3124     22.6842
   936.3000      7.9438      2.4902      0.0850      9.6854    123.2980     23.1738
   936.4000      7.9438      2.5150      0.1443      8.1799    122.9851     23.7959
   936.5000      7.8877      2.5029      0.1017      8.9170    123.1106     24.2325
   936.6000      7.8877      2.4712      0.0311     10.8390    123.7575     24.3275
   936.7000      7.8877      2.4585      0.0085     11.6043    123.1294     24.1078
   936.8000      7.8818      2.4741      0.0696     10.6580    121.6232     23.7413
   936.9000      7.8818      2.4942      0.0925      9.4415    121.4630     23.4700
   937.0000      7.8848      2.4998      0.0681      9.1014    122.8851     23.4489
   937.1000      7.8848      2.4912      0.0487      9.6224    124.3973     23.5332
   937.2000      7.8848      2.4763      0.0638     10.5265    125.1595     23.4989
   937.3000      7.8933      2.4626      0.0201     11.3592    126.5347     23.2664
   937.4000      7.8933      2.4554      0.0191     11.7958    129.8845     23.0153
   937.5000      7.9280      2.4547      0.0167     11.8376    134.2343     22.9099
   937.6000      7.9280      2.4559      0.0201     11.7636    137.4704     22.9450
   937.7000      7.9280      2.4564     -0.0143     11.7336    136.9055     23.0773
   937.8000      7.9558      2.4555      0.0245     11.7909    133.7731     23.3004
   937.9000      7.9558      2.4542      0.0095     11.8651    133.8287     23.5620
   938.0000      7.9354      2.4619      0.0330     11.3989    137.4070     23.8400
   938.1000      7.9354      2.4840      0.0404     10.0624    140.6046     24.2791
   938.2000      7.9354      2.5098      0.0906      8.4974    141.8015     24.8545
   938.3000      7.9116      2.5264      0.1154      7.4913    141.0873     25.4638
   938.4000      7.9116      2.5366      0.1136      6.8753    140.2834     26.1565
   938.5000      7.9022      2.5497      0.1170      6.0801    139.7105     26.8186
   938.6000      7.9022      2.5614      0.1540      5.3721    138.8123     27.4018
   938.7000      7.9022      2.5648      0.0963      5.1650    140.1075     27.9925
   938.8000      7.9138      2.5651      0.1110      5.1452    143.1726     28.2552
   938.9000      7.9138      2.5634      0.1195      5.2457    143.1623     27.7841
   939.0000      7.9403      2.5546      0.0972      5.7810    140.6196     27.0441
   939.1000      7.9403      2.5403      0.0473      6.6468    140.2794     26.7429
   939.2000      7.9403      2.5272      0.0614      7.4405    141.2870     26.7575
   939.3000      7.9423      2.5177      0.0454      8.0205    141.0293     26.6692
   939.4000      7.9423      2.5101      0.0418      8.4768    141.0322     26.4237
   939.5000      7.9327      2.5018      0.0158      8.9835    141.6918     26.1020
   939.6000      7.9327      2.4999     -0.0403      9.0963    141.3168     25.8315
   939.7000      7.9327      2.5149      0.0557      8.1859    138.0859     25.7974
   939.8000      7.9389      2.5405      0.0682      6.6370    132.6198     25.9930
   939.9000      7.9389      2.5665      0.0783      5.0603    129.4643     26.2052
   940.0000      7.9330      2.5784      0.1308      4.3407    129.1104     26.2901
   940.1000      7.9330      2.5646      0.0862      5.1779    128.0585     26.3491
   940.2000      7.9330      2.5490      0.0383      6.1205    125.9705     26.4917
   940.3000      7.9008      2.5541      0.0648      5.8145    124.5415     26.6061
   940.4000      7.9008      2.5662      0.0506      5.0816    124.1613     26.6538
   940.5000      7.8966      2.5737      0.0268      4.6238    124.6902     26.7419
   940.6000      7.8966      2.5779      0.0786      4.3719    126.5833     26.8491
   940.7000      7.8966      2.5760      0.0720      4.4849    128.6582     26.7830
