~Version Information
VERS.                      2.0: CWLS Log ASCII Standard - VERSION 2.0
WRAP.                       NO: One line per depth step
~Well Information Block
STRT.FT               480.0000: 
STOP.FT              1946.0000: 
STEP.FT                 0.1000: 
NULL.                -999.2500: 
COMP.          XTO Energy Inc.: COMPANY
WELL.          Golden Eagle 19-15: WELL
FLD.           Purgatoire River: FIELD
LOC.           1121' FSL & 2332' FEL--: LOCATION
CNTY.               Las Animas: COUNTY
SRVC.                Patterson: SERVICE COMPANY
DATE.          Mon Mar 13 10:27:20 2006: LOG DATE
UWI.           05 071 08717 00: UNIQUE WELL ID
STAT.                 Colorado: STATE
~Curve Information Block
DEPT.FT            0 000 00 00: Depth
DCAL.in                       : CDL Caliper
RHOB.g/cc                     : CDL Bulk Density
RHOC.g/cc                     : CDL Density Correction
DPOR.pu                       : CDL Density Porosity
NPOR.pu                       : Neutron Porosity
GR.GAPI                       : Gamma Ray
~Parameter Information Block
~A  Depth       DCAL        RHOB        RHOC        DPOR        NPOR         GR     
# ...
  1622.4000      7.9438      2.5850      0.1208      3.9405     26.1308     90.1803
  1622.5000      7.9431      2.5931      0.1468      3.4490     26.6193     88.7811
  1622.6000      7.9431      2.5877      0.0960      3.7763     27.4169     89.6796
  1622.7000      7.9431      2.5745      0.0504      4.5738     27.8637     94.2235
  1622.8000      7.9500      2.5647      0.0663      5.1724     27.9989     99.9576
  1622.9000      7.9500      2.5559      0.0406      5.7017     28.1449     98.3458
  1623.0000      7.9641      2.5429      0.0624      6.4926     28.3128     88.5913
  1623.1000      7.9641      2.5236      0.0574      7.6626     28.2751     78.3587
  1623.2000      7.9641      2.5058      0.0248      8.7364     28.0334     75.6425
  1623.3000      7.9720      2.4977      0.0766      9.2312     27.7664     84.2862
  1623.4000      7.9720      2.4903      0.0637      9.6769     27.4276     98.5205
  1623.5000      7.9726      2.4818      0.0318     10.1939     27.0169    106.8281
  1623.6000      7.9726      2.4816      0.0442     10.2047     26.6545    106.1988
  1623.7000      7.9726      2.4902      0.0455      9.6867     26.3667    100.4354
  1623.8000      7.9723      2.5026      0.0384      8.9363     26.0278     95.3605
  1623.9000      7.9723      2.5098      0.0790      8.4961     25.7772     98.1015
  1624.0000      7.9725      2.5055      0.0772      8.7567     26.0236    107.3525
  1624.1000      7.9725      2.5033      0.0173      8.8923     26.6142    111.6814
  1624.2000      7.9725      2.5157      0.0835      8.1390     26.9777    106.3139
  1624.3000      7.9705      2.5284      0.0726      7.3685     27.0188     99.1636
  1624.4000      7.9705      2.5286      0.0816      7.3574     27.0462     96.3850
  1624.5000      7.9666      2.5238      0.0401      7.6472     26.9931     96.0203
  1624.6000      7.9666      2.5257      0.0362      7.5304     26.4434     95.2821
  1624.7000      7.9666      2.5318      0.0430      7.1627     25.6607     94.2866
  1624.8000      7.9642      2.5317      0.0546      7.1699     25.5382     95.2687
  1624.9000      7.9642      2.5269      0.0168      7.4579     26.2059     98.6488
  1625.0000      7.9651      2.5252      0.0569      7.5646     26.9412    100.7783
  1625.1000      7.9651      2.5229      0.0415      7.7013     27.2470     99.5774
  1625.2000      7.9651      2.5175      0.0526      8.0278     26.9964     96.0321
  1625.3000      7.9684      2.5115      0.0377      8.3925     26.4222     93.0782
  1625.4000      7.9684      2.5043      0.0261      8.8296     26.0271     94.5622
  1625.5000      7.9696      2.4978     -0.0167      9.2237     26.0557     98.0801
  1625.6000      7.9696      2.5071     -0.0293      8.6581     26.3697     98.2811
  1625.7000      7.9696      2.5383      0.0554      6.7674     26.7371     98.8015
  1625.8000      7.9672      2.5630      0.1197      5.2704     27.0385    105.8220
  1625.9000      7.9672      2.5599      0.0601      5.4577     27.0091    110.9054
  1626.0000      7.9651      2.5474      0.0557      6.2206     26.6847    104.8228
  1626.1000      7.9651      2.5479      0.0538      6.1865     26.5732     98.2541
  1626.2000      7.9651      2.5540      0.0692      5.8177     26.6065     99.2118
  1626.3000      7.9662      2.5442      0.0921      6.4096     26.2557    100.6794
  1626.4000      7.9662      2.5261      0.0409      7.5062     25.7166     99.0027
  1626.5000      7.9688      2.5278      0.0492      7.4070     25.5569     97.5508
  1626.6000      7.9688      2.5472      0.0811      6.2322     25.6084     98.6168
  1626.7000      7.9688      2.5575      0.0909      5.6074     25.4325     98.8420
  1626.8000      7.9708      2.5511      0.0893      5.9964     25.0420     95.0273
  1626.9000      7.9708      2.5373      0.0965      6.8294     24.8810     90.5932
  1627.0000      7.9724      2.5252      0.0463      7.5662     25.2531     89.5388
  1627.1000      7.9724      2.5173      0.0849      8.0449     25.8633     91.3892
  1627.2000      7.9724      2.5061      0.0832      8.7195     26.2986     94.4804
  1627.3000      7.9743      2.4934      0.0519      9.4925     26.4251     95.9731
  1627.4000      7.9743      2.4904      0.0291      9.6757     26.4404     93.3646
  1627.5000      7.9765      2.4960      0.0374      9.3336     26.4126     89.5545
  1627.6000      7.9765      2.5007      0.0526      9.0501     26.2239     89.2905
  1627.7000      7.9765      2.5030      0.0332      8.9065     25.9724     93.1514
  1627.8000      7.9778      2.5175      0.0023      8.0307     25.5268     98.1391
  1627.9000      7.9778      2.5542      0.0697      5.8079     25.0046    100.3037
  1628.0000      7.9788      2.5980      0.0749      3.1509     24.9872     96.7038
  1628.1000      7.9788      2.6211      0.1093      1.7517     25.4653     88.6919
  1628.2000      7.9788      2.6093      0.0840      2.4665     25.8076     82.9321
  1628.3000      7.9810      2.5789      0.0497      4.3095     25.7537     81.8597
  1628.4000      7.9810      2.5556      0.0421      5.7220     25.7865     83.1136
  1628.5000      7.9817      2.5475      0.0283      6.2119     26.3327     85.1040
  1628.6000      7.9817      2.5451      0.0435      6.3571     27.2489     84.5110
  1628.7000      7.9817      2.5352      0.0377      6.9576     27.9435     80.7803
  1628.8000      7.9804      2.5160      0.0374      8.1185     27.8573     78.1272
  1628.9000      7.9804      2.5000      0.0232      9.0929     27.3278     76.9671
  1629.0000      7.9804      2.4964      0.0210      9.3066     26.9261     75.8847
  1629.1000      7.9804      2.5008      0.0012      9.0437     26.6571     77.3941
  1629.2000      7.9804      2.5077      0.0465      8.6266     26.4611     82.3744
  1629.3000      7.9843      2.5188      0.0406      7.9500     26.4576     89.1212
  1629.4000      7.9843      2.5345      0.0484      6.9980     26.6467     96.0043
  1629.5000      7.9911      2.5479      0.0947      6.1891     26.6267    102.2862
  1629.6000      7.9911      2.5510      0.0618      5.9995     26.2952    107.1102
  1629.7000      7.9911      2.5457      0.0554      6.3188     26.2352    110.2574
  1629.8000      7.9936      2.5364      0.0572      6.8844     26.5773    111.8819
  1629.9000      7.9936      2.5272      0.0200      7.4413     27.1283    112.3720
  1630.0000      7.9921      2.5276      0.0275      7.4209     27.8270    113.8622
  1630.1000      7.9921      2.5324      0.0832      7.1291     28.3622    118.7011
  1630.2000      7.9921      2.5285      0.0548      7.3650     28.4868    123.5870
  1630.3000      7.9923      2.5221      0.0323      7.7502     28.3561    122.6171
  1630.4000      7.9923      2.5187      0.0514      7.9605     28.0918    116.9950
  1630.5000      7.9928      2.5104      0.0394      8.4601     27.5555    114.5218
  1630.6000      7.9928      2.4989      0.0920      9.1553     26.8788    119.2722
  1630.7000      7.9928      2.4881      0.0641      9.8138     26.3757    125.2960
  1630.8000      7.9930      2.4762      0.0789     10.5312     26.1307    126.1168
  1630.9000      7.9930      2.4654      0.0466     11.1908     26.2059    123.3296
  1631.0000      7.9944      2.4604      0.0591     11.4918     26.4480    119.4054
  1631.1000      7.9944      2.4593      0.0476     11.5604     26.6192    113.0858
  1631.2000      7.9944      2.4613      0.0237     11.4373     26.7974    106.8995
  1631.3000      7.9960      2.4648      0.1093     11.2228     27.1183    106.6182
  1631.4000      7.9960      2.4643      0.0252     11.2524     27.3787    108.1994
  1631.5000      7.9955      2.4649      0.0828     11.2152     27.3385    107.6101
  1631.6000      7.9955      2.4674      0.0633     11.0662     27.1872    109.6319
  1631.7000      7.9955      2.4728      0.0145     10.7417     27.0526    113.3669
  1631.8000      7.9938      2.4821      0.0617     10.1782     26.8973    114.1213
  1631.9000      7.9938      2.4872      0.0382      9.8642     26.7155    114.4066
