~Version Information
VERS.                      2.0: CWLS Log ASCII Standard - VERSION 2.0
WRAP.                       NO: One line per depth step
~Well Information Block
STRT.FT                -7.7500: 
STOP.FT              1485.2500: 
STEP.FT                 0.2500: 
NULL.                -999.2500: 
COMP.          Pioneer Natural Resources: COMPANY
WELL.          Hammerhead 24-24 Tr: WELL
FLD.           Purgatorie River: FIELD
LOC.           953' FSL & 1922' FWL--: LOCATION
CNTY.               Las Animas: COUNTY
SRVC.          Patterson Wireline: SERVICE COMPANY
DATE.          Thu Feb 02 15:03:23 2006: LOG DATE
UWI.           05 071 08669 00: UNIQUE WELL ID
STAT.                       CO: STATE
~Curve Information Block
DEPT.FT            0 000 00 00: Depth
CCL.                          : Casing Collar Locator
TT3.usec                      : CBL 3' Travel Time
AMP3.mV                       : CBL 3' Amplitude
GR.GAPI                       : Gamma Ray
~Parameter Information Block
~A  Depth       CCL         TT3         AMP3         GR     
# ...
  1466.2500      0.0000    457.4044      7.1036    140.2651
  1466.5000      0.0000    471.1846      7.1146    144.8896
  1466.7500      0.0000    490.7533      7.1423    151.6222
  1467.0000      0.0000    505.0388      7.2175    155.8825
  1467.2500      0.0000    504.8357      7.3693    153.7792
  1467.5000      0.0000    487.0224      7.6048    144.8625
  1467.7500      0.0000    457.3314      7.9046    132.4358
  1468.0000      0.0000    430.1432      8.2306    121.5126
  1468.2500      0.0000    422.6730      8.5379    116.0829
  1468.5000      0.0000    445.3494      8.7859    117.3027
  1468.7500      0.0000    494.3983      8.9484    123.4613
  1469.0000      0.0000    552.8598      9.0187    131.5031
  1469.2500      0.0000    601.7037      9.0090    138.6711
  1469.5000      0.0000    632.9883      8.9429    142.8493
  1469.7500      0.0000    652.5961      8.8449    142.1895
  1470.0000      0.0000    670.4584      8.7326    135.5966
  1470.2500      0.0000    689.6719      8.6182    123.6992
  1470.5000      0.0000    705.0057      8.5147    108.4440
  1470.7500      0.0000    708.2557      8.4364     91.4061
  1471.0000      0.0000    692.2543      8.3869     72.9780
  1471.2500      0.0000    652.6984      8.3454     53.4801
  1471.5000      0.0000    591.9775      8.2746     34.6142
  1471.7500      0.0000    522.1835      8.1494     19.0987
  1472.0000      0.0000    460.2486      7.9804      8.7400
  1472.2500      0.0000    417.5465      7.8077      3.2529
  1472.5000      0.0000    394.6464      7.6735      0.9717
  1472.7500      0.0000    385.1025      7.6010      0.2302
  1473.0000      0.0000    381.9893      7.5927      0.0428
  1473.2500      0.0000    381.1722      7.6392      0.0057
  1473.5000      0.0000    381.4058      7.7255      0.0000
  1473.7500      0.0000    383.8963      7.8313   -999.2500
  1474.0000      0.0000    392.6433      7.9324   -999.2500
  1474.2500      0.0000    414.3510      8.0043   -999.2500
  1474.5000      0.0000    455.2854      8.0276   -999.2500
  1474.7500      0.0000    514.9448      7.9976   -999.2500
  1475.0000      0.0000    582.3877      7.9278   -999.2500
  1475.2500      0.0000    641.0781      7.8468   -999.2500
  1475.5000      0.0000    678.1584      7.7790   -999.2500
  1475.7500      0.0000    687.5156      7.7113   -999.2500
  1476.0000      0.0000    664.4500      7.5485   -999.2500
  1476.2500      0.0000    601.9971      7.0990   -999.2500
  1476.5000      0.0000    497.4832      6.1620   -999.2500
  1476.7500      0.0000    363.5225      4.7107   -999.2500
  1477.0000      0.0000    228.3133      3.0064   -999.2500
  1477.2500      0.0000    120.4435      1.4696   -999.2500
  1477.5000      0.0000     52.4384      0.3984   -999.2500
  1477.7500      0.0000     18.5927     -0.1806   -999.2500
  1478.0000      0.0000      5.3129     -0.4237   -999.2500
  1478.2500      0.0000      1.2112     -0.5030   -999.2500
  1478.5000      0.0000      0.2154     -0.5232   -999.2500
  1478.7500      0.0000      0.0257     -0.5272   -999.2500
  1479.0000      0.0000   -999.2500   -999.2500   -999.2500
  1479.2500      0.0000   -999.2500   -999.2500   -999.2500
  1479.5000      0.0000   -999.2500   -999.2500   -999.2500
  1479.7500      0.0000   -999.2500   -999.2500   -999.2500
  1480.0000      0.0000   -999.2500   -999.2500   -999.2500
  1480.2500      0.0000   -999.2500   -999.2500   -999.2500
  1480.5000      0.0000   -999.2500   -999.2500   -999.2500
  1480.7500      0.0000   -999.2500   -999.2500   -999.2500
  1481.0000      0.0000   -999.2500   -999.2500   -999.2500
  1481.2500      0.0000   -999.2500   -999.2500   -999.2500
  1481.5000      0.0000   -999.2500   -999.2500   -999.2500
  1481.7500      0.0000   -999.2500   -999.2500   -999.2500
  1482.0000      0.0000   -999.2500   -999.2500   -999.2500
  1482.2500      0.0000   -999.2500   -999.2500   -999.2500
  1482.5000      0.0000   -999.2500   -999.2500   -999.2500
  1482.7500      0.0000   -999.2500   -999.2500   -999.2500
  1483.0000      0.0000   -999.2500   -999.2500   -999.2500
  1483.2500      0.0000   -999.2500   -999.2500   -999.2500
  1483.5000      0.0000   -999.2500   -999.2500   -999.2500
  1483.7500      0.0000   -999.2500   -999.2500   -999.2500
  1484.0000      0.0000   -999.2500   -999.2500   -999.2500
  1484.2500      0.0000   -999.2500   -999.2500   -999.2500
  1484.5000      0.0000   -999.2500   -999.2500   -999.2500
  1484.7500   -999.2500   -999.2500   -999.2500   -999.2500
  1485.0000   -999.2500   -999.2500   -999.2500   -999.2500
  1485.2500   -999.2500   -999.2500   -999.2500   -999.2500
