~Version Information
VERS.                      2.0: CWLS Log ASCII Standard - VERSION 2.0
WRAP.                       NO: One line per depth step
~Well Information Block
STRT.FT                -7.0000: 
STOP.FT              1239.2500: 
STEP.FT                 0.2500: 
NULL.                -999.2500: 
COMP.          Pioneer Natural Resources: COMPANY
WELL.              Julie 11-30: WELL
FLD.           Purgatorie River: FIELD
LOC.           672' FNL & 1052' FWL--: LOCATION
CNTY.               Las Animas: COUNTY
SRVC.          Patterson Wireline: SERVICE COMPANY
DATE.          Tue Apr 18 11:12:35 2006: LOG DATE
UWI.           05 071 08724 00: UNIQUE WELL ID
STAT.                       CO: STATE
~Curve Information Block
DEPT.FT            0 000 00 00: Depth
CCL.                          : Casing Collar Locator
TT3.usec                      : CBL 3' Travel Time
AMP3.mV                       : CBL 3' Amplitude
GR.GAPI                       : Gamma Ray
~Parameter Information Block
~A  Depth       CCL         TT3         AMP3         GR     
# ...
   562.5000      0.0000    736.3692      6.2020    170.6821
   562.7500      0.0000    728.8952      6.1733    183.0330
   563.0000      0.0000    723.5673      6.1735    188.2131
   563.2500      0.0000    723.4891      6.1995    187.1780
   563.5000      0.0000    729.6150      6.2396    183.0373
   563.7500      0.0000    739.2253      6.2830    179.0650
   564.0000      0.0000    747.0166      6.3280    176.1374
   564.2500      0.0000    749.1514      6.3795    172.9352
   564.5000      0.0000    746.2312      6.4402    168.4004
   564.7500      0.0000    741.6635      6.5091    162.9388
   565.0000      0.0000    737.4777      6.5876    157.6789
   565.2500      0.0000    732.5865      6.6874    153.6640
   565.5000      0.0000    724.9892      6.8243    151.5999
   565.7500      0.0000    714.6406      7.0026    151.5750
   566.0000      0.0000    703.8597      7.2026    152.8054
   566.2500      0.0000    695.6169      7.3902    153.8268
   566.5000      0.0000    691.8014      7.5456    152.9822
   566.7500      0.0000    692.4560      7.6785    148.9235
   567.0000      0.0000    695.7489      7.8136    141.1264
   567.2500      0.0000    698.6700      7.9661    130.2802
   567.5000      0.0000    698.7215      8.1369    118.2485
   567.7500      0.0000    695.5634      8.3249    107.4314
   568.0000      0.0000    690.9461      8.5342     99.5540
   568.2500      0.0000    686.8386      8.7661     94.5952
   568.5000      0.0000    683.6656      9.0092     91.0743
   568.7500      0.0000    679.7545      9.2410     87.6154
   569.0000      0.0000    672.1638      9.4381     84.1272
   569.2500      0.0000    659.4177      9.5847     81.6268
   569.5000      0.0000    645.0054      9.6771     81.2379
   569.7500      0.0000    636.8143      9.7227     83.2966
   570.0000      0.0000    640.3684      9.7335     87.1677
   570.2500      0.0000    653.0842      9.7189     91.6877
   570.5000      0.0000    666.8340      9.6853     95.4960
   570.7500      0.0000    674.7410      9.6421     97.1108
   571.0000      0.0000    673.5530      9.6048     95.4672
   571.2500      0.0000    661.5262      9.5926     90.9277
   571.5000      0.0000    637.6469      9.6206     85.7132
   571.7500      0.0000    603.8304      9.6913     83.0436
   572.0000      0.0000    566.2319      9.7832     85.3443
   572.2500      0.0000    533.2722      9.8540     92.5972
   572.5000      0.0000    512.0239      9.8716    102.2486
   572.7500      0.0000    504.6650      9.8505    111.1588
   573.0000      0.0000    507.3251      9.8309    117.9250
   573.2500      0.0000    514.0525      9.8038    123.3571
   573.5000      0.0000    522.5175      9.7001    128.9377
   573.7500      0.0000    534.1111      9.4926    134.9185
   574.0000      0.0000    549.5947      9.2663    139.5791
   574.2500      0.0000    566.5596      9.1456    140.2252
   574.5000      0.0000    579.0140      9.1837    135.4177
   574.7500      2.0000    578.0269      9.3505    126.7227
   575.0000      0.0000    556.2535      9.5907    118.0707
   575.2500      0.0000    514.9914      9.8793    112.8839
   575.5000      0.0000    465.3614     10.2534    111.6835
   575.7500      0.0000    420.7405     10.7913    112.3703
   576.0000      0.0000    388.5132     11.5177    112.4445
   576.2500      0.0000    368.6329     12.3349    110.8489
   576.5000      0.0000    357.2804     13.0994    108.0812
   576.7500      0.0000    350.5515     13.7494    105.1265
   577.0000      0.0000    346.0974     14.3120    102.6596
   577.2500      0.0000    343.0388     14.8174    101.1056
   577.5000      0.0000    341.1247     15.2578    100.7393
   577.7500      0.0000    340.0845     15.6114    101.3858
   578.0000      0.0000    339.5755     15.8747    102.5954
   578.2500      0.0000    339.3232     16.0733    104.3897
   578.5000      0.0000    339.1713     16.2515    107.2110
   578.7500      0.0000    339.0461     16.4465    110.8984
   579.0000      0.0000    338.9273     16.6659    114.5406
   579.2500      0.0000    338.8157     16.8871    117.8398
   579.5000      0.0000    338.7172     17.0759    122.0526
   579.7500      0.0000    338.6304     17.2106    128.9409
   580.0000      0.0000    338.5486     17.2959    138.8192
   580.2500      0.0000    338.4667     17.3592    149.9701
   580.5000      0.0000    338.3890     17.4290    159.9006
   580.7500      0.0000    338.3292     17.5138    166.8203
   581.0000      0.0000    338.3006     17.5987    169.9393
   581.2500      0.0000    338.3050     17.6598    168.9313
   581.5000      0.0000    338.3311     17.6836    163.7398
   581.7500      0.0000    338.3648     17.6770    155.1350
   582.0000      0.0000    338.4010     17.6604    145.0683
   582.2500      0.0000    338.4456     17.6492    135.9562
   582.5000      0.0000    338.5065     17.6402    129.3858
   582.7500      0.0000    338.5857     17.6128    125.4779
   583.0000      0.0000    338.6817     17.5411    123.4183
   583.2500      0.0000    338.7957     17.4062    122.4320
   583.5000      0.0000    338.9313     17.2058    122.0699
   583.7500      0.0000    339.0876     16.9565    121.7394
   584.0000      0.0000    339.2550     16.6849    120.4932
   584.2500      0.0000    339.4207     16.4130    117.7061
   584.5000      0.0000    339.5795     16.1516    113.8826
   584.7500      0.0000    339.7411     15.9060    110.5270
   585.0000      0.0000    339.9209     15.6889    109.2888
   585.2500      0.0000    340.1137     15.5259    111.4796
   585.5000      0.0000    340.2766     15.4484    117.9536
   585.7500      0.0000    340.3466     15.4750    128.4492
   586.0000      0.0000    340.2827     15.6019    140.9443
   586.2500      0.0000    340.0941     15.8067    152.5155
   586.5000      0.0000    339.8383     16.0559    161.2011
   586.7500      0.0000    339.5912     16.3064    166.6265
   587.0000      0.0000    339.4095     16.5098    168.9744
   587.2500      0.0000    339.3183     16.6249    168.2607
   587.5000      0.0000    339.3316     16.6319    164.7518
   587.7500      0.0000    339.4812     16.5445    159.3176
   588.0000      0.0000    339.9263     16.4082    153.1297
   588.2500      0.0000    341.2621     16.2722    147.2758
   588.5000      0.0000    345.0378     16.1478    142.4062
   588.7500      0.0000    353.8245     15.9980    138.3288
   589.0000      0.0000    369.7700     15.7761    134.3991
   589.2500      0.0000    391.7844     15.4780    130.8289
   589.5000      0.0000    414.2692     15.1544    129.0185
   589.7500      0.0000    430.3663     14.8757    130.0596
   590.0000      0.0000    437.3390     14.6878    133.5150
   590.2500      0.0000    437.8926     14.5939    137.8173
   590.5000      0.0000    436.3107     14.5627    141.0007
   590.7500      0.0000    434.9147     14.5517    141.0241
   591.0000      0.0000    434.1571     14.5325    136.9163
   591.2500      0.0000    433.9738     14.5042    130.4202
   591.5000      0.0000    434.5003     14.4836    125.5593
   591.7500      0.0000    436.2190     14.4845    125.6037
   592.0000      0.0000    438.7171     14.5121    130.4314
   592.2500      0.0000    438.9355     14.5683    136.7343
   592.5000      0.0000    432.3988     14.6489    140.6627
   592.7500      0.0000    417.7914     14.7295    140.7558
   593.0000      0.0000    400.2975     14.7678    138.8496
   593.2500      0.0000    389.4783     14.7312    138.2446
   593.5000      0.0000    393.3732     14.6175    140.9303
   593.7500      0.0000    414.3132     14.4528    146.3821
   594.0000      0.0000    449.2941     14.2752    152.4957
   594.2500      0.0000    492.6107     14.1218    157.2743
   594.5000      0.0000    536.4424     14.0167    159.8458
   594.7500      0.0000    569.1272     13.9662    160.4858
   595.0000      0.0000    577.1373     13.9694    160.1099
   595.2500      0.0000    555.2900     14.0276    159.8607
   595.5000      0.0000    515.5905     14.1363    160.9651
   595.7500      0.0000    479.2708     14.2745    164.3773
