~Version Information
 VERS.                                  2.0 : CWLS LAS VERSION
 WRAP.                                   NO : WRAPING MODE
 SWARE .                 MController 2.5.0J : SOFTWARE VERSION
~Well Information
 WELL.                       Cooper 11-13Tr : WELL
 COMP.    Pioneer Natural Resources USA Inc : COMPANY
 FLD.                      Purgatoire River : FIELD
 LOC.                 NW/NW SEC13 T32S R67W : LOCATION
 DATE.                             09/24/05 : DATE(S) LOGGED
 SRVC.       Blanco Geological Services LLC : SERVICE COMPANY
 STAT.                             Colorado : STATE
 CNTY.                           Las Animas : COUNTY
 CTRY.                                  USA : COUNTRY
 API.                       05-071-08525-00 : API NUMBER
 STRT.FT                             327.00 : START DEPTH
 STOP.FT                            1876.00 : STOP DEPTH
 STEP.FT                               1.00 : DEPTH INCREMENT
 NULL.                                -9999 : NULL VALUE
~Curve information
 DEPTH.FT                                   :
 ROP.MIN/FT                                 :
 GAS.UNITS                                  :
~ASCII Log data
# ...
       727.0         0.20          6.6 
       728.0         0.17          6.4 
       729.0         0.20          6.5 
       730.0         0.20          6.3 
       731.0         0.17          6.3 
       732.0         0.20          6.6 
       733.0         0.20          6.3 
       734.0         0.17          6.2 
       735.0         0.20          6.4 
       736.0         0.23          6.4 
       737.0         0.27          6.3 
       738.0         0.22          6.6 
       739.0         0.27          6.5 
       740.0         0.20          6.1 
       741.0         0.23          6.2 
       742.0         0.23          6.3 
       743.0         0.20          6.5 
       744.0         0.23          6.3 
       745.0         0.20          6.5 
       746.0         1.60          6.4 
       747.0         0.42          6.3 
       748.0         0.30          6.3 
       749.0         0.27          6.6 
       750.0         0.20          6.5 
       751.0         0.23          6.7 
       752.0         0.20          6.7 
       753.0         0.20          6.5 
       754.0         0.23          6.4 
       755.0         0.23          6.2 
       756.0         0.23          6.6 
       757.0         0.27          6.8 
       758.0         0.27          6.5 
       759.0         0.27          6.5 
       760.0         0.22          6.5 
       761.0         0.17          6.5 
       762.0         0.30          6.3 
       763.0         0.27          6.3 
       764.0         0.27          6.2 
       765.0         0.20          6.2 
       766.0         0.20          6.4 
       767.0         0.23          6.6 
       768.0         0.20          6.3 
       769.0         0.27          6.6 
       770.0         0.23          6.6 
       771.0         0.20          6.3 
       772.0         0.20          6.4 
       773.0         0.20          6.2 
       774.0         0.20          6.8 
       775.0         0.22          6.4 
       776.0         1.80          6.8 
       777.0         0.30          6.4 
       778.0         0.23          6.8 
       779.0         0.23          6.5 
       780.0         0.30          6.9 
       781.0         0.27          6.6 
       782.0         0.32          6.9 
       783.0         0.27          6.8 
       784.0         0.27          6.5 
       785.0         0.27          6.9 
       786.0         0.30          6.9 
       787.0         0.27          6.6 
       788.0         0.20          6.6 
       789.0         0.17          6.3 
       790.0         0.17          6.6 
       791.0         0.17          6.8 
       792.0         0.20          6.8 
       793.0         0.20          6.6 
       794.0         0.17          6.5 
       795.0         0.27          6.7 
       796.0         0.25          7.6 
       797.0         0.17          6.8 
       798.0         0.17          6.8 
       799.0         0.20          6.4 
       800.0         0.17          6.2 
       801.0         0.20          6.4 
       802.0         0.27          6.8 
       803.0         0.20          6.6 
       804.0         0.20          6.6 
       805.0         0.20          6.8 
       806.0         1.82          7.3 
       807.0         0.30          6.7 
       808.0         0.27          6.7 
       809.0         0.27          6.9 
       810.0         0.23          6.9 
       811.0         0.23          6.7 
       812.0         0.30          6.8 
       813.0         0.20          6.7 
       814.0         0.17          6.8 
       815.0         0.30          6.6 
       816.0         0.20          6.5 
       817.0         0.20          6.9 
       818.0         0.17          6.6 
       819.0         0.20          7.0 
       820.0         0.18          6.9 
       821.0         0.20          6.6 
       822.0         0.17          6.8 
       823.0         0.17          6.8 
       824.0         0.17          6.6 
       825.0         0.17          6.7 
       826.0         0.17          6.8 
       827.0         0.17          6.8 
       828.0         0.23          6.8 
       829.0         0.17          6.4 
       830.0         0.20          6.2 
       831.0         0.20          6.2 
       832.0         0.23          7.0 
       833.0         0.23          6.6 
       834.0         0.27          6.8 
       835.0         0.20          6.9 
       836.0         2.05          7.3 
       837.0         0.43          7.0 
       838.0         0.33          6.5 
       839.0         0.30          6.6 
       840.0         0.30          7.3 
       841.0         0.28          7.3 
       842.0         0.30          6.7 
       843.0         0.27         18.4 
       844.0         0.37        102.1 
       845.0         0.37         97.4 
       846.0         0.23         29.5 
       847.0         0.27         15.2 
       848.0         0.27          8.9 
       849.0         0.23          5.7 
       850.0         0.27          3.3 
       851.0         0.20          2.8 
       852.0         0.23          2.1 
       853.0         0.23          2.0 
       854.0         0.25          1.6 
       855.0         0.20          1.3 
       856.0         0.20          1.1 
       857.0         0.20          1.2 
       858.0         0.20          1.4 
       859.0         0.23          1.4 
       860.0         0.23          1.7 
       861.0         0.20          2.0 
       862.0         0.17          2.0 
       863.0         0.17          2.3 
       864.0         0.17          2.7 
       865.0         0.53          3.5 
       866.0         2.02          5.5 
       867.0         0.37          5.1 
       868.0         0.27          5.4 
       869.0         0.23          4.9 
       870.0         0.23          5.2 
       871.0         0.20          5.0 
       872.0         0.20          4.6 
       873.0         0.23          4.9 
       874.0         0.28          4.9 
       875.0         0.23          5.4 
       876.0         0.27          5.5 
       877.0         0.20          5.5 
       878.0         0.20          5.3 
       879.0         0.17          4.8 
       880.0         0.20          4.9 
       881.0         0.20          4.7 
       882.0         0.23          4.9 
       883.0         0.20          4.7 
       884.0         0.20          4.7 
       885.0         0.20          4.6 
       886.0         0.20          5.2 
       887.0         0.20          5.0 
       888.0         0.20          4.8 
       889.0         0.17          4.6 
       890.0         0.25          4.8 
       891.0         0.27          5.1 
       892.0         0.27          4.8 
       893.0         0.30          5.1 
       894.0         0.80          5.5 
       895.0         1.60          6.3 
       896.0         2.15          6.5 
       897.0         0.27          5.2 
       898.0         0.27          5.1 
       899.0         0.27          5.4 
       900.0         0.27          5.2 
       901.0         0.28          5.5 
       902.0         0.27          5.5 
       903.0         0.27          5.7 
       904.0         0.53          5.6 
       905.0         0.53          5.4 
       906.0         0.27          5.5 
       907.0         0.27          5.7 
       908.0         0.27          5.6 
       909.0         0.27          5.3 
       910.0         0.27          5.7 
       911.0         0.27          5.6 
       912.0         0.28          5.6 
       913.0         0.27          6.0 
       914.0         0.27          6.1 
       915.0         0.27          6.2 
       916.0         0.27          6.1 
       917.0         0.27          6.9 
       918.0         0.27          6.8 
       919.0         0.27          6.9 
       920.0         0.27          6.8 
       921.0         0.27          7.3 
       922.0         0.27          7.0 
       923.0         0.30          7.0 
       924.0         0.28          7.3 
       925.0         0.27          7.0 
       926.0         0.27          6.7 
