~Version Information
VERS.                      2.0: CWLS Log ASCII Standard - VERSION 2.0
WRAP.                       NO: One line per depth step
~Well Information Block
STRT.FT                 0.0000: 
STOP.FT              2086.0000: 
STEP.FT                 0.2500: 
NULL.                -999.2500: 
COMP.          Petrogulf Corporation: COMPANY
WELL.               YWAM 7-32R: WELL
FLD.           Purgatorie River: FIELD
LOC.           2355' FNL & 2376' FEL: LOCATION
STAT.                 Colorado: State
CNTY.               Las Animas: COUNTY
CTRY. USA : Country
SECT. 7 : Section
TOWN. 33S : Township
RANG. 67W : Range
SRVC.                Patterson: SERVICE COMPANY
DATE.          Wed Nov 09 16:33:59 2005: LOG DATE
API. 05-071-08518                         : UNIQUE WELL ID
~Curve Information Block
DEPT.FT            0 000 00 00: Depth
CCL.                          : Casing Collar Locator
TT3.usec                      : CBL 3' Travel Time
AMP3.mV                       : CBL 3' Amplitude
GR.GAPI                       : Gamma Ray
~Parameter Information Block
~A  Depth       CCL         TT3         AMP3         GR     
# ...
  1373.5000      0.0000    639.0336      4.9919     82.3076
  1373.7500      0.0000    637.8668      5.5189     86.0179
  1374.0000      0.0000    639.3314      6.2583     91.9569
  1374.2500      0.0000    645.9491      7.1461    100.3320
  1374.5000      0.0000    652.7869      8.1307    110.5470
  1374.7500      0.0000    648.5240      9.1432    120.8364
  1375.0000      0.0000    619.4028     10.1049    129.5131
  1375.2500      0.0000    558.3642     11.0170    136.0574
  1375.5000      0.0000    481.0974     11.9735    140.6744
  1375.7500      0.0000    418.0196     13.0649    143.5372
  1376.0000      0.0000    382.9639     14.2703    144.8919
  1376.2500      0.0000    367.9303     15.4139    145.0657
  1376.5000      0.0000    363.4144     16.2957    143.8063
  1376.7500      0.0000    365.4101     16.8756    140.1692
  1377.0000      0.0000    369.8699     17.2377    133.6707
  1377.2500      0.0000    373.0733     17.4403    125.4887
  1377.5000      0.0000    374.3300     17.5049    118.1603
  1377.7500      0.0000    374.5944     17.4519    113.6777
  1378.0000      0.0000    374.7908     17.2507    111.8115
  1378.2500      0.0000    376.7811     16.8438    110.5475
  1378.5000      0.0000    386.7477     16.2695    108.1673
  1378.7500      0.0000    416.3087     15.6333    104.6984
  1379.0000      0.0000    469.5432     14.9708    101.5194
  1379.2500      0.0000    525.5345     14.2597     99.9863
  1379.5000      0.0000    559.4444     13.5598    100.5317
  1379.7500      0.0000    583.2797     13.0079    102.6234
  1380.0000      0.0000    625.3750     12.6253    105.0208
  1380.2500      0.0000    682.9925     12.2444    106.0888
  1380.5000      0.0000    732.5856     11.6482    104.5248
  1380.7500      0.0000    757.6443     10.7035    100.2424
  1381.0000      0.0000    752.4357      9.4587     94.3321
  1381.2500      0.0000    725.8232      8.1716     87.8557
  1381.5000      0.0000    697.8154      7.1072     81.0010
  1381.7500      0.0000    679.5281      6.3467     73.7436
  1382.0000      0.0000    666.2401      5.8469     66.8427
  1382.2500      0.0000    655.4662      5.5294     61.5492
  1382.5000      0.0000    658.2574      5.2996     58.4478
  1382.7500      0.0000    679.4658      5.0782     57.0133
  1383.0000      0.0000    702.4720      4.8258     56.1979
  1383.2500      0.0000    708.0626      4.5564     55.1585
  1383.5000      0.0000    689.9666      4.3292     53.7393
  1383.7500      0.0000    650.2668      4.1986     52.7584
  1384.0000      0.0000    600.5280      4.1740     53.6614
  1384.2500      0.0000    560.2813      4.2209     57.3430
  1384.5000      0.0000    539.7371      4.2955     63.0652
  1384.7500      0.0000    533.6993      4.3796     68.5622
  1385.0000      0.0000    533.3508      4.4529     71.3512
  1385.2500      0.0000    533.5832      4.4768     70.3016
  1385.5000      0.0000    531.5587      4.4579     66.3094
  1385.7500      0.0000    525.8897      4.4449     61.5220
  1386.0000      0.0000    519.7126      4.4566     57.7516
  1386.2500      0.0000    522.9191      4.4907     55.4837
  1386.5000      0.0000    547.9999      4.5537     54.0191
  1386.7500      0.0000    597.5732      4.6473     52.3130
  1387.0000      0.0000    653.2795      4.7620     49.9305
  1387.2500      0.0000    688.3806      4.8640     47.6025
  1387.5000      0.0000    695.9849      4.9320     46.8985
  1387.7500      0.0000    691.7393      5.0261     49.1303
  1388.0000      0.0000    688.8808      5.2323     54.3869
  1388.2500      0.0000    685.9986      5.5397     61.7034
  1388.5000      0.0000    679.3920      5.8274     70.2321
  1388.7500      0.0000    671.6617      5.9562     80.0821
  1389.0000      0.0000    665.6450      5.8524     91.7944
  1389.2500      0.0000    660.8099      5.5355    104.9718
  1389.5000      0.0000    658.3307      5.0953    117.4316
  1389.7500      0.0000    663.3334      4.6321    125.7260
  1390.0000      0.0000    676.8053      4.2044    126.8327
  1390.2500      0.0000    690.2255      3.8146    120.0821
  1390.5000      0.0000    694.9944      3.4506    107.8755
  1390.7500      0.0000    692.3373      3.1158     94.3423
  1391.0000      0.0000    690.5819      2.7972     82.8685
  1391.2500      0.0000    693.8271      2.4559     74.6579
  1391.5000      0.0000    695.7874      2.0964     69.3161
  1391.7500      0.0000    691.0948      1.7967     66.2195
  1392.0000      0.0000    685.9717      1.6282     65.0711
  1392.2500      0.0000    685.4752      1.5906     65.5076
  1392.5000      0.0000    680.1679      1.6238     66.5224
  1392.7500      0.0000    661.9764      1.6598     66.4939
  1393.0000      0.0000    638.6047      1.6804     64.2138
  1393.2500      0.0000    616.2988      1.7026     60.0033
  1393.5000      0.0000    584.8389      1.7440     55.4110
  1393.7500      0.0000    533.5085      1.8327     51.7839
  1394.0000      0.0000    476.9204      1.9774     49.5068
  1394.2500      0.0000    450.1650      2.1343     48.5244
  1394.5000      0.0000    469.3448      2.2578     49.0345
  1394.7500      0.0000    509.2837      2.3474     51.4674
  1395.0000      0.0000    536.9181      2.4351     55.9339
  1395.2500      0.0000    555.4905      2.5506     61.8415
  1395.5000      0.0000    586.7494      2.7031     68.1820
  1395.7500      0.0000    627.5466      2.8893     74.2797
  1396.0000      0.0000    656.8593      3.0888     80.3143
  1396.2500      0.0000    665.8879      3.2755     87.2384
  1396.5000      0.0000    661.7457      3.4376     96.2092
  1396.7500      0.0000    653.0836      3.5347    107.6991
  1397.0000      0.0000    645.2169      3.5451    120.6301
  1397.2500      0.0000    645.6638      3.6493    132.3736
  1397.5000      0.0000    661.0467      4.0862    140.0808
  1397.7500      0.0000    688.7796      4.7323    142.4673
  1398.0000      0.0000    719.7555      5.2510    140.4039
  1398.2500      0.0000    743.4556      5.5665    135.8348
  1398.5000      0.0000    746.9887      5.7676    130.3476
  1398.7500      0.0000    727.8081      5.8548    124.8535
  1399.0000      0.0000    708.2194      5.8206    120.2404
  1399.2500      2.0000    711.8893      5.7253    117.5923
  1399.5000      0.0000    734.4940      5.5704    117.3445
  1399.7500      0.0000    755.1011      5.2816    118.5767
  1400.0000      0.0000    762.5699      4.9455    119.7400
  1400.2500      0.0000    759.0252      4.7662    120.1219
  1400.5000      0.0000    748.4184      4.6744    120.3280
  1400.7500      0.0000    730.6116      4.4440    121.3457
  1401.0000      0.0000    707.6257      4.1031    123.4031
  1401.2500      0.0000    690.5109      3.7917    125.8328
  1401.5000      0.0000    688.0710      3.5455    127.7913
  1401.7500      0.0000    695.6373      3.3839    128.8870
  1402.0000      0.0000    704.0821      3.3190    129.2619
  1402.2500      0.0000    709.7810      3.3077    129.3274
  1402.5000      0.0000    711.4388      3.2999    129.4398
  1402.7500      0.0000    708.2068      3.2988    129.7795
  1403.0000      0.0000    704.6987      3.3564    130.4453
  1403.2500      0.0000    706.7888      3.5180    131.3151
  1403.5000      0.0000    710.6439      3.7805    131.6359
  1403.7500      0.0000    707.0740      4.0853    130.2558
  1404.0000      0.0000    694.0986      4.3506    126.8002
  1404.2500      0.0000    678.4354      4.5455    122.4967
  1404.5000      0.0000    667.6714      4.7107    119.3786
  1404.7500      0.0000    664.5573      4.8999    118.5399
  1405.0000      0.0000    668.3430      5.1204    119.2831
  1405.2500      0.0000    676.6931      5.3139    119.9974
  1405.5000      0.0000    684.1581      5.4238    119.8374
  1405.7500      0.0000    684.5961      5.4665    119.5848
  1406.0000      0.0000    678.0024      5.4899    120.9109
  1406.2500      0.0000    669.5003      5.5187    124.6695
  1406.5000      0.0000    660.2773      5.5596    129.8479
  1406.7500      0.0000    644.4156      5.5999    134.3214
