~Version Information
VERS.                      2.0: CWLS Log ASCII Standard - VERSION 2.0
WRAP.                       NO: One line per depth step
~Well Information Block
STRT.FT               350.0000: 
STOP.FT               906.0000: 
STEP.FT                 0.2500: 
NULL.                -999.2500: 
COMP.          Pioneer Natural Resources: COMPANY
WELL.           Hartford 31-18: WELL
FLD.           Purgatorie River: FIELD
LOC.           375' FNL & 1660' FEL: LOCATION
PROV.                 Colorado: PROVINCE
CNTY.               Las Animas: COUNTRY
SRVC.                Patterson: SERVICE COMPANY
DATE.          Sat Nov 19 19:02:38 2005: LOG DATE
UWI.           05-071-08555               : UNIQUE WELL ID
~Curve Information Block
DEPT.FT            0 000 00 00: Depth
SN.Ohm-m                      : IEL Short Normal
SP.mV                         : IEL Spontaneous Potential
DIR.Ohm-m                     : IEL Induction Resistivity
GR.GAPI                       : Gamma Ray
~Parameter Information Block
~A  Depth        SN          SP         DIR          GR     
# ...
   517.5000   2000.0000   1880.0000     17.0597     97.2484
   517.7500   2000.0000   1880.0000     16.7340     96.3372
   518.0000   2000.0000   1880.0000     16.4534     98.9298
   518.2500   2000.0000   1880.0000     16.2372    102.3345
   518.5000   2000.0000   1880.0000     16.0859    107.2359
   518.7500   2000.0000   1880.0000     15.9794    109.3091
   519.0000   2000.0000   1880.0000     15.8806    110.9537
   519.2500   2000.0000   1880.0000     15.7467    112.0891
   519.5000   2000.0000   1880.0000     15.5434    115.1815
   519.7500   2000.0000   1880.0000     15.2555    118.1995
   520.0000   2000.0000   1880.0000     14.8885    123.2539
   520.2500   2000.0000   1880.0000     14.4641    126.1917
   520.5000   2000.0000   1880.0000     14.0118    128.5115
   520.7500   2000.0000   1880.0000     13.5614    127.9875
   521.0000   2000.0000   1880.0000     13.1379    123.8080
   521.2500   2000.0000   1880.0000     12.7579    119.3546
   521.5000   2000.0000   1880.0000     12.4292    112.2560
   521.7500   2000.0000   1880.0000     12.1515    108.5030
   522.0000   2000.0000   1880.0000     11.9188    105.3563
   522.2500   2000.0000   1880.0000     11.7227    104.6855
   522.5000   2000.0000   1880.0000     11.5552    104.9628
   522.7500   2000.0000   1880.0000     11.4096    105.9409
   523.0000   2000.0000   1880.0000     11.2804    109.3982
   523.2500   2000.0000   1880.0000     11.1638    113.3417
   523.5000   2000.0000   1880.0000     11.0567    120.6992
   523.7500   2000.0000   1880.0000     10.9579    125.1937
   524.0000   2000.0000   1880.0000     10.8680    129.2643
   524.2500   2000.0000   1880.0000     10.7896    129.9955
   524.5000   2000.0000   1880.0000     10.7274    129.6833
   524.7500   2000.0000   1880.0000     10.6869    129.8318
   525.0000   2000.0000   1880.0000     10.6736    131.6283
   525.2500   2000.0000   1880.0000     10.6924    133.3796
   525.5000   2000.0000   1880.0000     10.7479    135.0269
   525.7500   2000.0000   1880.0000     10.8443    134.7081
   526.0000   2000.0000   1880.0000     10.9854    131.9566
   526.2500   2000.0000   1880.0000     11.1736    128.8549
   526.5000   2000.0000   1880.0000     11.4080    122.3571
   526.7500   2000.0000   1880.0000     11.6827    116.7125
   527.0000   2000.0000   1880.0000     11.9843    107.2713
   527.2500   2000.0000   1880.0000     12.2936    101.8341
   527.5000   2000.0000   1880.0000     12.5880     97.5238
   527.7500   2000.0000   1880.0000     12.8465     97.5419
   528.0000   2000.0000   1880.0000     13.0548    100.0994
   528.2500   2000.0000   1880.0000     13.2084    101.9307
   528.5000   2000.0000   1880.0000     13.3152    103.1850
   528.7500   2000.0000   1880.0000     13.3916    103.0553
   529.0000   2000.0000   1880.0000     13.4570    102.6498
   529.2500   2000.0000   1880.0000     13.5272    102.8712
   529.5000   2000.0000   1880.0000     13.6109    103.5170
   529.7500   2000.0000   1880.0000     13.7106    103.0953
   530.0000   2000.0000   1880.0000     13.8249     99.9775
   530.2500   2000.0000   1880.0000     13.9491     96.9498
   530.5000   2000.0000   1880.0000     14.0736     94.1243
   530.7500   2000.0000   1880.0000     14.1816     94.8562
   531.0000   2000.0000   1880.0000     14.2518     99.6355
   531.2500   2000.0000   1880.0000     14.2655    103.7971
   531.5000   2000.0000   1880.0000     14.2163    109.1268
   531.7500   2000.0000   1880.0000     14.1139    111.7151
   532.0000   2000.0000   1880.0000     13.9801    114.8237
   532.2500   2000.0000   1880.0000     13.8394    116.6436
   532.5000   2000.0000   1880.0000     13.7126    118.5073
   532.7500   2000.0000   1880.0000     13.6144    118.6104
   533.0000   2000.0000   1880.0000     13.5562    116.2394
   533.2500   2000.0000   1880.0000     13.5481    112.8562
   533.5000   2000.0000   1880.0000     13.5989    106.0546
   533.7500   2000.0000   1880.0000     13.7145    101.5693
   534.0000   2000.0000   1880.0000     13.8965     96.7119
   534.2500   2000.0000   1880.0000     14.1417     94.9694
   534.5000   2000.0000   1880.0000     14.4409     94.0680
   534.7500   2000.0000   1880.0000     14.7780     94.4103
   535.0000   2000.0000   1880.0000     15.1312     96.5130
   535.2500   2000.0000   1880.0000     15.4796     99.0049
   535.5000   2000.0000   1880.0000     15.8119    103.7964
   535.7500   2000.0000   1880.0000     16.1320    107.0993
   536.0000   2000.0000   1880.0000     16.4569    111.0096
   536.2500   2000.0000   1880.0000     16.8098    112.2026
   536.5000   2000.0000   1880.0000     17.2119    111.3702
   536.7500   2000.0000   1880.0000     17.6778    109.6606
   537.0000   2000.0000   1880.0000     18.2118    107.1770
   537.2500   2000.0000   1880.0000     18.8068    105.9704
   537.5000   2000.0000   1880.0000     19.4455    103.5987
   537.7500   2000.0000   1880.0000     20.1046    100.7105
   538.0000   2000.0000   1880.0000     20.7579     94.2965
   538.2500   2000.0000   1880.0000     21.3809     89.3021
   538.5000   2000.0000   1880.0000     21.9552     81.6606
   538.7500   2000.0000   1880.0000     22.4734     76.5965
   539.0000   2000.0000   1880.0000     22.9392     69.2819
   539.2500   2000.0000   1880.0000     23.3647     64.9033
   539.5000   2000.0000   1880.0000     23.7652     59.3081
   539.7500   2000.0000   1880.0000     24.1560     56.1110
   540.0000   2000.0000   1880.0000     24.5516     52.1982
   540.2500   2000.0000   1880.0000     24.9656     50.4770
   540.5000   2000.0000   1880.0000     25.4117     49.2402
   540.7500   2000.0000   1880.0000     25.9016     48.7335
   541.0000   2000.0000   1880.0000     26.4413     47.2605
   541.2500   2000.0000   1880.0000     27.0244     45.5880
   541.5000   2000.0000   1880.0000     27.6260     42.5586
   541.7500   2000.0000   1880.0000     28.2011     40.6011
   542.0000   2000.0000   1880.0000     28.6883     38.1922
   542.2500   2000.0000   1880.0000     29.0168     37.0678
   542.5000   2000.0000   1880.0000     29.1171     36.1622
   542.7500   2000.0000   1880.0000     28.9317     36.0025
   543.0000   2000.0000   1880.0000     28.4301     36.1744
   543.2500   2000.0000   1880.0000     27.6253     36.3363
   543.5000   2000.0000   1880.0000     26.5803     36.1292
   543.7500   2000.0000   1880.0000     25.3932     35.5108
   544.0000   2000.0000   1880.0000     24.1648     34.1892
   544.2500   2000.0000   1880.0000     22.9692     33.4770
   544.5000   2000.0000   1880.0000     21.8437     33.2383
   544.7500   2000.0000   1880.0000     20.7965     33.8726
   545.0000   2000.0000   1880.0000     19.8198     36.8330
   545.2500   2000.0000   1880.0000     18.9006     40.9985
   545.5000   2000.0000   1880.0000     18.0266     51.9019
   545.7500   2000.0000   1880.0000     17.1891     62.3036
   546.0000   2000.0000   1880.0000     16.3845     80.6383
   546.2500   2000.0000   1880.0000     15.6162     92.7833
   546.5000   2000.0000   1880.0000     14.8948    108.0872
   546.7500   2000.0000   1880.0000     14.2374    115.5677
   547.0000   2000.0000   1880.0000     13.6619    122.5895
   547.2500   2000.0000   1880.0000     13.1799    124.7797
   547.5000   2000.0000   1880.0000     12.7923    125.2865
   547.7500   2000.0000   1880.0000     12.4889    124.5595
   548.0000   2000.0000   1880.0000     12.2532    123.2649
   548.2500   2000.0000   1880.0000     12.0681    122.8379
   548.5000   2000.0000   1880.0000     11.9199    123.2407
   548.7500   2000.0000   1880.0000     11.7984    124.2207
   549.0000   2000.0000   1880.0000     11.6952    126.5949
   549.2500   2000.0000   1880.0000     11.6021    128.5296
   549.5000   2000.0000   1880.0000     11.5126    131.3152
   549.7500   2000.0000   1880.0000     11.4246    132.7947
   550.0000   2000.0000   1880.0000     11.3425    134.0713
   550.2500   2000.0000   1880.0000     11.2760    133.9706
   550.5000   2000.0000   1880.0000     11.2357    131.8727
   550.7500   2000.0000   1880.0000     11.2289    129.4315
