~Version Information
VERS.                      2.0: CWLS Log ASCII Standard - VERSION 2.0
WRAP.                       NO: One line per depth step
~Well Information Block
STRT.FT               840.0000: 
STOP.FT              1912.0000: 
STEP.FT                 0.1000: 
NULL.                -999.2500: 
COMP.          Petrogulf Corporation: COMPANY
WELL.             Kraft 17-23R: WELL
FLD.           Purgatorie River: FIELD
LOC.           1509' FSL & 1673' FWL: LOCATION
PROV.                 Colorado: PROVINCE
CNTY.               Las Animas: COUNTRY
SRVC.                Patterson: SERVICE COMPANY
DATE.          Wed Oct 12 07:01:14 2005: LOG DATE
UWI.                          : UNIQUE WELL ID
~Curve Information Block
DEPT.FT            0 000 00 00: Depth
DCAL.in                       : CDL Caliper
RHOB.g/cc                     : CDL Bulk Density
RHOC.g/cc                     : CDL Density Correction
DPOR.pu                       : CDL Density Porosity
GR.GAPI                       : Gamma Ray
NPOR.pu                       : Neutron Porosity
~Parameter Information Block
~A  Depth       DCAL        RHOB        RHOC        DPOR         GR         NPOR    
# ...
  1195.2000      8.2312      2.3582      0.0424     17.6837    141.9995     29.7738
  1195.3000      8.1922      2.3607      0.0319     17.5328    146.4080     30.3076
  1195.4000      8.1922      2.3755      0.0713     16.6380    148.4644     30.2496
  1195.5000      8.1725      2.3869      0.0637     15.9439    146.4340     29.8999
  1195.6000      8.1725      2.3817      0.0807     16.2615    144.6295     29.5945
  1195.7000      8.1725      2.3570      0.0767     17.7603    144.1404     29.3228
  1195.8000      8.1621      2.3182      0.0343     20.1115    142.1695     29.1835
  1195.9000      8.1621      2.2870      0.0061     21.9991    137.5356     29.4176
  1196.0000      8.1650      2.2913     -0.0255     21.7366    133.6387     29.7987
  1196.1000      8.1650      2.3320      0.0188     19.2731    133.6678     29.9343
  1196.2000      8.1650      2.3821      0.0278     16.2372    136.4436     29.8640
  1196.3000      8.1573      2.4199      0.0960     13.9482    138.5001     29.6771
  1196.4000      8.1573      2.4435      0.1307     12.5177    139.0068     29.2280
  1196.5000      8.1492      2.4727      0.1517     10.7442    140.1887     28.5473
  1196.6000      8.1492      2.5191      0.2593      7.9338    140.2363     28.0096
  1196.7000      8.1492      2.5606      0.3248      5.4190    135.1458     27.9086
  1196.8000      8.1635      2.5739      0.2531      4.6150    129.3114     28.1578
  1196.9000      8.1635      2.5536      0.2195      5.8409    128.6400     28.2542
  1197.0000      8.2078      2.5123      0.0902      8.3442    131.3798     28.0270
  1197.1000      8.2078      2.4820      0.0829     10.1801    134.7524     27.9270
  1197.2000      8.2078      2.4807      0.1560     10.2585    137.3954     27.9806
  1197.3000      8.1453      2.4952      0.1271      9.3813    138.7093     27.7400
  1197.4000      8.1453      2.5074      0.0958      8.6409    139.1534     27.3121
  1197.5000      8.1411      2.5105      0.0888      8.4516    139.6550     27.2037
  1197.6000      8.1411      2.5110      0.1051      8.4222    142.1019     27.4556
  1197.7000      8.1411      2.5170      0.1522      8.0609    146.7947     27.6434
  1197.8000      8.1480      2.5210      0.1516      7.8178    150.4416     27.5734
  1197.9000      8.1480      2.5076      0.1553      8.6274    150.7155     27.5370
  1198.0000      8.1822      2.4750      0.0668     10.6089    149.2858     27.8760
  1198.1000      8.1822      2.4366      0.0194     12.9358    149.5202     28.2897
  1198.2000      8.1822      2.4001      0.0649     15.1437    150.7364     28.2381
  1198.3000      8.1470      2.3673      0.0175     17.1331    147.8518     27.7854
  1198.4000      8.1470      2.3444      0.0118     18.5190    140.4222     27.3543
  1198.5000      8.0721      2.3366     -0.0078     18.9962    135.1031     27.2221
  1198.6000      8.0721      2.3433      0.0196     18.5883    134.6370     27.4023
  1198.7000      8.0721      2.3594      0.0026     17.6102    134.9137     27.8528
  1198.8000      8.0526      2.3839      0.0493     16.1302    134.4947     28.4694
  1198.9000      8.0526      2.4164      0.0835     14.1566    135.5464     28.8798
  1199.0000      8.0536      2.4485      0.0959     12.2122    138.9003     28.6232
  1199.1000      8.0536      2.4656      0.1467     11.1764    143.0333     27.9217
  1199.2000      8.0536      2.4603      0.1098     11.4969    145.6190     27.6267
  1199.3000      8.0535      2.4416      0.0561     12.6307    145.1887     27.8819
  1199.4000      8.0535      2.4224      0.0223     13.7948    142.5052     27.9585
  1199.5000      8.0358      2.4094     -0.0273     14.5820    141.3889     27.6346
  1199.6000      8.0358      2.4070      0.0070     14.7250    143.2301     27.1788
  1199.7000      8.0358      2.4227     -0.0309     13.7777    145.0832     26.8062
  1199.8000      8.0298      2.4607      0.0029     11.4714    145.0603     26.6896
  1199.9000      8.0298      2.5047      0.0772      8.8078    144.9944     26.6645
  1200.0000      8.0244      2.5304      0.1580      7.2494    145.7921     26.5955
  1200.1000      8.0244      2.5350      0.1293      6.9715    146.3489     26.5921
  1200.2000      8.0244      2.5342      0.0966      7.0158    146.7368     26.7078
  1200.3000      8.0190      2.5359      0.1395      6.9152    147.6361     26.9959
  1200.4000      8.0190      2.5355      0.0857      6.9420    151.0990     27.3605
  1200.5000      8.0268      2.5373      0.0342      6.8316    155.8061     27.4891
  1200.6000      8.0268      2.5411      0.1129      6.5974    155.8096     27.4394
  1200.7000      8.0268      2.5336      0.0713      7.0566    150.0276     27.6143
  1200.8000      8.0131      2.5166      0.0992      8.0873    145.2410     27.8176
  1200.9000      8.0131      2.5097      0.0087      8.5016    147.2076     27.6439
  1201.0000      7.9921      2.5245      0.0553      7.6045    151.2489     27.2558
  1201.1000      7.9921      2.5436      0.0816      6.4459    150.4261     26.9340
  1201.2000      7.9921      2.5496      0.0442      6.0867    147.4302     26.8361
  1201.3000      7.9923      2.5466      0.0846      6.2651    147.6447     26.9135
  1201.4000      7.9923      2.5378      0.0458      6.8026    148.3537     27.1334
  1201.5000      7.9977      2.5240      0.0620      7.6344    144.7424     27.4597
  1201.6000      7.9977      2.5162      0.0358      8.1086    142.4021     27.5709
  1201.7000      7.9977      2.5153      0.0253      8.1629    148.6115     27.3852
  1201.8000      7.9922      2.5109      0.0052      8.4277    158.5397     27.3326
  1201.9000      7.9922      2.5054      0.0177      8.7650    164.1230     27.6157
  1202.0000      8.0161      2.5086      0.0455      8.5705    164.2675     27.8635
  1202.1000      8.0161      2.5257      0.1110      7.5335    163.1582     28.0144
  1202.2000      8.0161      2.5529      0.1426      5.8858    166.5003     28.5051
  1202.3000      8.1038      2.5694      0.2028      4.8838    171.5530     29.0037
  1202.4000      8.1038      2.5552      0.1240      5.7434    169.6862     28.8144
  1202.5000      8.1717      2.5255      0.0941      7.5450    162.8239     28.2024
  1202.6000      8.1717      2.5155      0.0229      8.1493    156.3171     27.9969
  1202.7000      8.1717      2.5285      0.0805      7.3656    150.8231     28.2152
  1202.8000      8.1554      2.5326      0.0579      7.1166    147.2818     28.3563
  1202.9000      8.1554      2.5169      0.0211      8.0679    147.1030     28.3111
  1203.0000      8.1041      2.4988      0.0188      9.1650    148.8315     27.9693
  1203.1000      8.1041      2.4854      0.0456      9.9746    150.4311     27.3986
  1203.2000      8.1041      2.4727      0.0084     10.7446    151.5179     26.9551
  1203.3000      8.0518      2.4647      0.0077     11.2310    150.5536     26.8097
  1203.4000      8.0518      2.4675      0.0216     11.0631    149.7324     26.9708
  1203.5000      7.9988      2.4806      0.0503     10.2644    153.7279     27.1017
  1203.6000      7.9988      2.4948      0.0740      9.4052    159.4072     26.9650
  1203.7000      7.9988      2.5003      0.0599      9.0721    158.7944     26.8585
  1203.8000      8.0270      2.4958      0.0789      9.3481    152.3076     27.0240
  1203.9000      8.0270      2.4820      0.1056     10.1798    148.6308     27.5335
  1204.0000      8.0140      2.4726      0.0789     10.7495    152.8807     28.0978
  1204.1000      8.0140      2.4826      0.0986     10.1458    158.8314     28.2012
  1204.2000      8.0140      2.4997      0.1318      9.1088    158.7448     27.9002
  1204.3000      8.0366      2.5039      0.1201      8.8547    154.6146     27.7119
  1204.4000      8.0366      2.5016      0.0985      8.9952    150.4124     27.8457
  1204.5000      8.0380      2.5158      0.1113      8.1361    148.9978     28.1418
  1204.6000      8.0380      2.5482      0.1635      6.1673    151.3247     28.3416
  1204.7000      8.0380      2.5770      0.1931      4.4249    152.0076     28.2941
