~Version Information
VERS.                      2.0: CWLS Log ASCII Standard - VERSION 2.0
WRAP.                       NO: One line per depth step
~Well Information Block
STRT.FT                -7.5000: 
STOP.FT              1336.0000: 
STEP.FT                 0.2500: 
NULL.                -999.2500: 
COMP.          Pioneer Natural Resources: COMPANY
WELL.               LPGC 32-32: WELL
FLD.           Purgatorie River: FIELD
LOC.           1937' FNL & 1661' FEL--: LOCATION
CNTY.               Las Animas: COUNTY
SRVC.          Patterson Wireline: SERVICE COMPANY
DATE.          Fri Feb 03 09:39:42 2006: LOG DATE
UWI.           05 071 08641 00: UNIQUE WELL ID
STAT.                       CO: STATE
~Curve Information Block
DEPT.FT            0 000 00 00: Depth
CCL.                          : Casing Collar Locator
TT3.usec                      : CBL 3' Travel Time
AMP3.mV                       : CBL 3' Amplitude
GR.GAPI                       : Gamma Ray
~Parameter Information Block
~A  Depth       CCL         TT3         AMP3         GR     
# ...
   260.5000      0.0000    794.3416     12.5353     89.8470
   260.7500      0.0000    778.4883     12.7080     86.2716
   261.0000      0.0000    752.2335     12.9380     83.4189
   261.2500      0.0000    717.2050     13.2582     81.5228
   261.5000      0.0000    677.5823     13.6874     80.1452
   261.7500      0.0000    635.9059     14.1971     78.7791
   262.0000      0.0000    595.1119     14.6930     77.3109
   262.2500      0.0000    562.8210     15.0544     75.7904
   262.5000      0.0000    545.5419     15.2201     74.0434
   262.7500      0.0000    538.3709     15.2353     71.7386
   263.0000      0.0000    528.5605     15.2077     68.8323
   263.2500      0.0000    509.6279     15.2227     65.8906
   263.5000      0.0000    484.4698     15.3040     63.8740
   263.7500      0.0000    456.3315     15.4319     63.4457
   264.0000      0.0000    425.9962     15.5729     64.3542
   264.2500      0.0000    397.6824     15.6901     65.5232
   264.5000      0.0000    380.2160     15.7439     65.8951
   264.7500      0.0000    380.4767     15.7017     65.2011
   265.0000      0.0000    396.9409     15.5623     63.8648
   265.2500      0.0000    418.2914     15.3786     62.3666
   265.5000      0.0000    429.0990     15.2398     61.0280
   265.7500      0.0000    420.8966     15.2060     60.2865
   266.0000      0.0000    398.6050     15.2560     60.6721
   266.2500      0.0000    374.6547     15.3120     62.3184
   266.5000      0.0000    358.1125     15.3131     64.6960
   266.7500      0.0000    350.6708     15.2481     66.9875
   267.0000      0.0000    349.9899     15.1291     68.7296
   267.2500      0.0000    353.4241     14.9634     70.0163
   267.5000      0.0000    358.7152     14.7636     71.1421
   267.7500      0.0000    363.4784     14.5757     72.4891
   268.0000      0.0000    365.6683     14.4852     74.8486
   268.2500      0.0000    364.6107     14.5762     79.0580
   268.5000      0.0000    361.3047     14.8612     84.6091
   268.7500      0.0000    357.6721     15.2432     88.9711
   269.0000      0.0000    355.3938     15.5691     89.0696
   269.2500      0.0000    355.1909     15.7370     83.8713
   269.5000      0.0000    357.7032     15.7492     75.5558
   269.7500      0.0000    366.1662     15.6635     68.0084
   270.0000      0.0000    387.6717     15.5183     64.0175
   270.2500      0.0000    428.6112     15.3169     63.7909
   270.5000      0.0000    485.1267     15.0707     65.6914
   270.7500      0.0000    538.1525     14.8407     67.9609
   271.0000      0.0000    563.0260     14.7273     69.8961
   271.2500      0.0000    549.1149     14.8053     71.8802
   271.5000      0.0000    510.5756     15.0455     74.5222
   271.7500      0.0000    475.4563     15.2990     77.7375
   272.0000      0.0000    462.6458     15.3892     80.7239
   272.2500      0.0000    469.0292     15.2510     82.8736
   272.5000      0.0000    478.9336     14.9717     84.4656
   272.7500      0.0000    484.6007     14.6851     86.2018
   273.0000      0.0000    494.3229     14.4474     88.1823
   273.2500      0.0000    519.6351     14.2311     89.6657
   273.5000      0.0000    559.0967     14.0107     89.9000
   273.7500      0.0000    599.6456     13.8179     89.0703
   274.0000      0.0000    630.8400     13.7206     88.3315
   274.2500      0.0000    651.0104     13.7646     88.7802
   274.5000      0.0000    661.5770     13.9285     90.4252
   274.7500      0.0000    666.0676     14.1218     92.3562
   275.0000      0.0000    675.6689     14.2402     93.7766
   275.2500      0.0000    703.3428     14.2432     94.6253
   275.5000      0.0000    748.4119     14.1742     95.3140
   275.7500      0.0000    796.4035     14.0942     96.1113
   276.0000      0.0000    834.7609     14.0104     96.8872
   276.2500      0.0000    859.7414     13.8816     97.3929
   276.5000      0.0000    871.2581     13.6790     97.6380
   276.7500      0.0000    870.4236     13.4231     97.8560
   277.0000      0.0000    859.0546     13.1787     98.0406
   277.2500      0.0000    836.3224     13.0264     97.4896
   277.5000      0.0000    800.4635     13.0154     95.1450
   277.7500      0.0000    756.8195     13.1154     90.9618
   278.0000      0.0000    718.9257     13.2207     86.8549
   278.2500      0.0000    698.2615     13.2182     85.4780
   278.5000      0.0000    695.5684     13.0596     87.6992
   278.7500      0.0000    703.2409     12.7778     91.6380
   279.0000      0.0000    712.8574     12.4505     94.3845
   279.2500      0.0000    718.7980     12.1581     94.4469
   279.5000      0.0000    717.7235     11.9616     92.5914
   279.7500      0.0000    708.0146     11.8994     90.8423
   280.0000      0.0000    690.4908     11.9849     90.8760
   280.2500      0.0000    668.8854     12.1813     92.8215
   280.5000      0.0000    648.9973     12.3583     95.1650
   280.7500      0.0000    636.8028     12.2887     95.9981
   281.0000      0.0000    635.7539     11.7625     94.5542
   281.2500      0.0000    644.4039     10.7721     91.4486
   281.5000      0.0000    656.0326      9.5779     87.6408
   281.7500      0.0000    661.2731      8.5490     83.6362
   282.0000     -2.0000    654.5620      7.9330     79.6999
   282.2500      2.0000    640.5403      7.7704     76.3582
   282.5000      2.0000    631.9200      7.9672     74.3288
   282.7500      0.0000    638.1512      8.4083     74.0189
   283.0000      0.0000    656.4343      9.0239     75.2441
   283.2500      0.0000    674.8290      9.7699     77.3743
   283.5000      0.0000    684.5451     10.5363     79.6632
   283.7500      0.0000    687.7385     11.1275     81.4800
   284.0000      0.0000    690.8908     11.4216     82.3796
   284.2500      0.0000    692.5993     11.5198     82.1391
   284.5000      0.0000    683.4198     11.6586     80.8619
   284.7500      0.0000    658.9412     12.0017     78.9692
   285.0000      0.0000    628.7900     12.5493     77.0723
   285.2500      0.0000    610.5920     13.1720     75.8914
   285.5000      0.0000    616.0947     13.6794     75.9013
   285.7500      0.0000    642.7939     13.9037     76.5345
   286.0000      0.0000    677.2197     13.7866     76.0946
   286.2500      0.0000    705.4443     13.4097     73.3787
   286.5000      0.0000    720.8899     12.9376     69.4682
   286.7500      0.0000    723.8112     12.5263     67.2186
   287.0000      0.0000    716.6913     12.2660     68.6613
   287.2500      0.0000    701.6080     12.1804     73.2032
   287.5000      0.0000    680.8273     12.2503     78.4041
   287.7500      0.0000    658.9427     12.4274     82.0037
   288.0000      0.0000    644.2321     12.6333     83.1390
   288.2500      0.0000    645.8187     12.7759     82.2472
   288.5000      0.0000    666.3927     12.8024     80.3747
   288.7500      0.0000    698.5419     12.7395     78.5294
   289.0000      0.0000    730.9286     12.6596     77.1907
   289.2500      0.0000    757.0777     12.6123     76.1663
   289.5000      0.0000    776.1382     12.6018     75.2284
   289.7500      0.0000    787.4240     12.6099     74.8271
   290.0000      0.0000    788.5443     12.6146     75.5806
   290.2500      0.0000    779.3922     12.5996     77.1908
   290.5000      0.0000    764.5306     12.5726     78.5435
   290.7500      0.0000    749.8433     12.5739     78.8593
   291.0000      0.0000    738.5960     12.6531     78.2314
   291.2500      0.0000    731.3834     12.8297     77.1132
   291.5000      0.0000    727.8770     13.0642     75.8179
   291.7500      0.0000    727.1160     13.2487     74.6500
   292.0000      0.0000    727.1318     13.2473     74.1579
   292.2500      0.0000    725.7113     12.9924     74.8472
   292.5000      0.0000    721.8171     12.5475     76.6243
   292.7500      0.0000    715.9357     12.0497     78.8007
   293.0000      0.0000    709.2892     11.5957     80.7968
   293.2500      0.0000    703.0203     11.2144     82.6760
   293.5000      0.0000    697.9645     10.9299     84.8226
   293.7500      0.0000    694.5414     10.8024     87.1653
