~Version Information
VERS.                      2.0: CWLS Log ASCII Standard - VERSION 2.0
WRAP.                       NO: One line per depth step
~Well Information Block
STRT.FT               240.0000: 
STOP.FT              1159.2000: 
STEP.FT                 0.1000: 
NULL.                -999.2500: 
COMP.          Pioneer Natural Resources: COMPANY
WELL.               Ryan 41-17: WELL
FLD.           Purgatoire River: FIELD
LOC.           822' FNL & 532' FEL--: LOCATION
CNTY.               Las Animas: COUNTY
SRVC.                Patterson: SERVICE COMPANY
DATE.          Fri Mar 17 07:19:36 2006: LOG DATE
UWI.           05 071 08719 00: UNIQUE WELL ID
STAT.                 Colorado: STATE
~Curve Information Block
DEPT.FT            0 000 00 00: Depth
DCAL.in                       : CDL Caliper
RHOB.g/cc                     : CDL Bulk Density
RHOC.g/cc                     : CDL Density Correction
DPOR.pu                       : CDL Density Porosity
NPOR.pu                       : Neutron Porosity
GR.GAPI                       : Gamma Ray
~Parameter Information Block
~A  Depth       DCAL        RHOB        RHOC        DPOR        NPOR         GR     
# ...
   777.6000      7.8658      2.5757      0.0395      4.5038     23.8403     58.9190
   777.7000      7.8658      2.5676      0.0243      4.9951     23.6079     62.5026
   777.8000      7.8545      2.5810      0.0580      4.1824     23.4534     68.4592
   777.9000      7.8545      2.6006      0.0587      2.9968     23.6915     71.6572
   778.0000      7.8481      2.6097      0.0619      2.4451     24.2926     69.1673
   778.1000      7.8481      2.6073      0.0440      2.5886     25.0279     63.3315
   778.2000      7.8481      2.5962      0.0568      3.2624     25.6828     60.0653
   778.3000      7.8516      2.5752      0.0095      4.5328     25.9000     61.5374
   778.4000      7.8516      2.5493     -0.0179      6.1051     25.6996     64.6418
   778.5000      7.8639      2.5206      0.0233      7.8454     25.6250     67.0706
   778.6000      7.8639      2.4914     -0.0198      9.6106     25.9526     68.1662
   778.7000      7.8639      2.4814     -0.0219     10.2195     26.3514     68.2385
   778.8000      7.8828      2.5005     -0.0007      9.0623     26.3620     69.2425
   778.9000      7.8828      2.5295      0.0695      7.3002     25.9972     71.2034
   779.0000      7.9016      2.5421      0.0753      6.5412     25.8099     71.9587
   779.1000      7.9016      2.5329      0.0761      7.0969     26.0984     72.0065
   779.2000      7.9016      2.5234      0.0147      7.6716     26.5580     73.0210
   779.3000      7.9115      2.5290      0.0821      7.3340     26.8614     75.2305
   779.4000      7.9115      2.5392      0.0874      6.7161     27.1681     79.0353
   779.5000      7.9110      2.5470      0.0630      6.2409     27.5552     83.6652
   779.6000      7.9110      2.5575      0.0636      5.6031     27.6027     84.8387
   779.7000      7.9110      2.5667      0.0904      5.0461     27.2373     80.1762
   779.8000      7.9071      2.5595      0.0971      5.4843     26.8739     73.2717
   779.9000      7.9071      2.5288      0.0451      7.3450     26.6219     69.2282
   780.0000      7.9054      2.4875      0.0120      9.8481     26.3785     68.5571
   780.1000      7.9054      2.4543     -0.0029     11.8607     26.2780     67.3309
   780.2000      7.9054      2.4345      0.0292     13.0601     26.4223     64.3841
   780.3000      7.9031      2.4226     -0.0059     13.7840     26.5136     61.9338
   780.4000      7.9031      2.4186     -0.0110     14.0243     26.3134     61.9824
   780.5000      7.8997      2.4241      0.0362     13.6881     26.0948     64.8430
   780.6000      7.8997      2.4348      0.0380     13.0411     26.1462     67.7933
   780.7000      7.8997      2.4455      0.0496     12.3963     26.4227     67.9537
   780.8000      7.8976      2.4518      0.0485     12.0098     26.8959     65.5598
   780.9000      7.8976      2.4491      0.0640     12.1764     27.5581     63.0857
   781.0000      7.8988      2.4362      0.0438     12.9596     28.0674     62.2993
   781.1000      7.8988      2.4248      0.0200     13.6458     28.1405     62.6101
   781.2000      7.8988      2.4252      0.0302     13.6271     28.0363     64.6805
   781.3000      7.9017      2.4334      0.0452     13.1243     27.9469     69.3758
   781.4000      7.9017      2.4409      0.0594     12.6716     27.7618     73.9653
   781.5000      7.9058      2.4402      0.0695     12.7176     27.5327     74.9385
   781.6000      7.9058      2.4390      0.0099     12.7887     27.3379     73.6724
   781.7000      7.9058      2.4535      0.0777     11.9070     27.2845     74.0795
   781.8000      7.9085      2.4781      0.0984     10.4188     27.5789     75.7950
   781.9000      7.9085      2.4990      0.0467      9.1519     28.1482     76.6749
   782.0000      7.9050      2.5118      0.1103      8.3788     28.6034     76.0460
   782.1000      7.9050      2.5118      0.1025      8.3751     28.7064     74.6843
   782.2000      7.9050      2.5036      0.0579      8.8704     28.5445     73.1421
   782.3000      7.9062      2.4994      0.0722      9.1266     28.1796     70.0037
   782.4000      7.9062      2.5071      0.0221      8.6586     27.9630     67.6506
   782.5000      7.9153      2.5249      0.0757      7.5818     28.3013     72.1404
   782.6000      7.9153      2.5390      0.0812      6.7247     28.8996     80.8765
   782.7000      7.9153      2.5440      0.0583      6.4223     29.0252     87.1490
   782.8000      7.9196      2.5453      0.0748      6.3450     28.4454     90.8117
   782.9000      7.9196      2.5405      0.0780      6.6343     27.7584     92.8251
   783.0000      7.9141      2.5230      0.0666      7.6944     27.5707     91.8631
   783.1000      7.9141      2.4993      0.0202      9.1349     27.8652     89.2123
   783.2000      7.9141      2.4819      0.0421     10.1906     28.1899     87.4765
   783.3000      7.9083      2.4711      0.0497     10.8432     28.1726     86.1937
   783.4000      7.9083      2.4638      0.0053     11.2868     28.0620     83.7649
   783.5000      7.9050      2.4622      0.0222     11.3829     28.3695     81.1253
   783.6000      7.9050      2.4645      0.0525     11.2451     29.0461     80.7276
   783.7000      7.9050      2.4623      0.0461     11.3752     29.7068     82.1576
   783.8000      7.8987      2.4524      0.0446     11.9743     30.1251     84.2729
   783.9000      7.8987      2.4471      0.0281     12.2965     30.1519     87.3737
   784.0000      7.8923      2.4609      0.0362     11.4588     29.8776     88.7143
   784.1000      7.8923      2.4867      0.0498      9.8946     29.4312     87.3864
   784.2000      7.8923      2.5054      0.0790      8.7641     29.0515     85.9958
   784.3000      7.8890      2.5116      0.0606      8.3884     29.0250     85.4138
   784.4000      7.8890      2.5078      0.0797      8.6202     28.9767     86.5973
   784.5000      7.8885      2.4927      0.0546      9.5356     28.4751     88.6929
   784.6000      7.8885      2.4745      0.0364     10.6361     27.6730     87.3580
   784.7000      7.8885      2.4681      0.0030     11.0242     26.8251     82.7370
   784.8000      7.8825      2.4714      0.0680     10.8262     26.3535     78.4646
   784.9000      7.8825      2.4677      0.0320     11.0474     26.5338     75.6583
   785.0000      7.8734      2.4557      0.0385     11.7769     26.9496     76.2143
   785.1000      7.8734      2.4502      0.0306     12.1119     27.4263     81.1355
   785.2000      7.8734      2.4588      0.0579     11.5881     28.0727     87.0050
   785.3000      7.8693      2.4767      0.0427     10.5039     28.3925     88.3871
   785.4000      7.8693      2.4926      0.0848      9.5393     28.1610     84.5446
   785.5000      7.8735      2.4918      0.0889      9.5889     27.9788     79.1667
   785.6000      7.8735      2.4743      0.0435     10.6510     27.9613     73.7042
   785.7000      7.8735      2.4582      0.0476     11.6256     27.6969     69.0171
   785.8000      7.8803      2.4636      0.0319     11.2989     27.1996     67.7943
   785.9000      7.8803      2.4937      0.0683      9.4750     26.7360     68.1476
   786.0000      7.8830      2.5218      0.1364      7.7722     26.4864     68.0668
   786.1000      7.8830      2.5288      0.0818      7.3442     26.4474     71.7221
   786.2000      7.8830      2.5269      0.1014      7.4587     26.3934     78.8026
   786.3000      7.8822      2.5267      0.0573      7.4730     26.1679     82.5397
   786.4000      7.8822      2.5317      0.0851      7.1684     25.9817     80.9206
   786.5000      7.8856      2.5403      0.0643      6.6485     26.0807     77.5362
   786.6000      7.8856      2.5470      0.0646      6.2448     26.3978     75.7722
   786.7000      7.8856      2.5513      0.0676      5.9833     26.7694     75.2813
   786.8000      7.8974      2.5530      0.0713      5.8760     26.9245     73.6047
   786.9000      7.8974      2.5555      0.0621      5.7255     26.8008     70.8346
   787.0000      7.9105      2.5636      0.0867      5.2378     26.7088     69.4110
   787.1000      7.9105      2.5647      0.0861      5.1699     26.5600     70.4442
