~Version Information
VERS.                      2.0: CWLS Log ASCII Standard - VERSION 2.0
WRAP.                       NO: One line per depth step
~Well Information Block
STRT.FT               262.2500: 
STOP.FT              1942.0000: 
STEP.FT                 0.2500: 
NULL.                -999.2500: 
COMP.          XTO Energy Inc.: COMPANY
WELL.          Golden Eagle 19-11: WELL
FLD.           Purgatoire River: FIELD
LOC.           2351' FSL & 1926' FWL--: LOCATION
CNTY.               Las Animas: COUNTY
SRVC.                Patterson: SERVICE COMPANY
DATE.          Wed Mar 08 23:33:01 2006: LOG DATE
UWI.           05 071 08696 00: UNIQUE WELL ID
STAT.                 Colorado: STATE
~Curve Information Block
DEPT.FT            0 000 00 00: Depth
SP.mV                         : DIL Spontaneous Potential
RILD.Ohm-m                    : DIL Deep Resistivity
RILM.Ohm-m                    : DIL Medium Resistivity
RLL3.Ohm-m                    : DIL Shallow Resistivity
GR.GAPI                       : Gamma Ray
~Parameter Information Block
~A  Depth        SP         RILD        RILM        RLL3         GR     
# ...
  1270.2500   2008.0000     22.8080     23.1062   2000.0000     57.8700
  1270.5000   2008.0000     22.7058     23.1292   2000.0000     59.1814
  1270.7500   2008.0000     22.6248     23.1260   2000.0000     61.0707
  1271.0000   2008.0000     22.5507     23.0776   2000.0000     65.8246
  1271.2500   2008.0000     22.4670     22.9635   2000.0000     69.8030
  1271.5000   2008.0000     22.3643     22.7744   2000.0000     75.2093
  1271.7500   2008.0000     22.2404     22.5211   2000.0000     77.4152
  1272.0000   2008.0000     22.0924     22.2313   2000.0000     77.9214
  1272.2500   2008.0000     21.9142     21.9352   2000.0000     76.6849
  1272.5000   2008.0000     21.7028     21.6511   2000.0000     73.5467
  1272.7500   2008.0000     21.4669     21.3800   2000.0000     71.1312
  1273.0000   2008.0000     21.2263     21.1097   2000.0000     67.3317
  1273.2500   2008.0000     21.0023     20.8265   2000.0000     64.5172
  1273.5000   2008.0000     20.8057     20.5273   2000.0000     59.4234
  1273.7500   2008.0000     20.6336     20.2241   2000.0000     55.3518
  1274.0000   2008.0000     20.4724     19.9357   2000.0000     48.5843
  1274.2500   2008.0000     20.3070     19.6739   2000.0000     44.1052
  1274.5000   2008.0000     20.1296     19.4383   2000.0000     38.4408
  1274.7500   2008.0000     19.9460     19.2260   2000.0000     35.8077
  1275.0000   2008.0000     19.7753     19.0424   2000.0000     33.5851
  1275.2500   2008.0000     19.6407     18.9041   2000.0000     32.8487
  1275.5000   2008.0000     19.5588     18.8299   2000.0000     32.0893
  1275.7500   2008.0000     19.5334     18.8294   2000.0000     31.6673
  1276.0000   2008.0000     19.5590     18.8993   2000.0000     31.4580
  1276.2500   2008.0000     19.6280     19.0264   2000.0000     31.8314
  1276.5000   2008.0000     19.7371     19.1950   2000.0000     33.2332
  1276.7500   2008.0000     19.8864     19.3939   2000.0000     34.5140
  1277.0000   2008.0000     20.0752     19.6185   2000.0000     36.3143
  1277.2500   2008.0000     20.2982     19.8681   2000.0000     37.1628
  1277.5000   2008.0000     20.5460     20.1407   2000.0000     38.0389
  1277.7500   2008.0000     20.8086     20.4314   2000.0000     38.6171
  1278.0000   2008.0000     21.0804     20.7345   2000.0000     39.5270
  1278.2500   2008.0000     21.3604     21.0478   2000.0000     39.9106
  1278.5000   2008.0000     21.6479     21.3736   2000.0000     39.8517
  1278.7500   2008.0000     21.9363     21.7153   2000.0000     39.4706
  1279.0000   2008.0000     22.2127     22.0726   2000.0000     38.6594
  1279.2500   2008.0000     22.4650     22.4381   2000.0000     38.0035
  1279.5000   2008.0000     22.6921     22.7984   2000.0000     36.8359
  1279.7500   2008.0000     22.9052     23.1416   2000.0000     36.0890
  1280.0000   2008.0000     23.1173     23.4645   2000.0000     35.7347
  1280.2500   2008.0000     23.3299     23.7754   2000.0000     36.5727
  1280.5000   2008.0000     23.5252     24.0908   2000.0000     40.3044
  1280.7500   2008.0000     23.6695     24.4268   2000.0000     44.7388
  1281.0000   2008.0000     23.7244     24.7893   2000.0000     54.0125
  1281.2500   2008.0000     23.6554     25.1646   2000.0000     60.9925
  1281.5000   2008.0000     23.4356     25.5154   2000.0000     69.7489
  1281.7500   2008.0000     23.0497     25.7885   2000.0000     72.6588
  1282.0000   2008.0000     22.5017     25.9276   2000.0000     71.2239
  1282.2500   2008.0000     21.8209     25.8799   2000.0000     67.1128
  1282.5000   2008.0000     21.0546     25.5912   2000.0000     59.3896
  1282.7500   2008.0000     20.2491     25.0048   2000.0000     55.2219
  1283.0000   2008.0000     19.4373     24.0804   2000.0000     52.8544
  1283.2500   2008.0000     18.6406     22.8307   2000.0000     54.6025
  1283.5000   2008.0000     17.8782     21.3441   2000.0000     62.7065
  1283.7500   2008.0000     17.1721     19.7667   2000.0000     71.5929
  1284.0000   2008.0000     16.5413     18.2524   2000.0000     88.6526
  1284.2500   2008.0000     15.9923     16.9146   2000.0000    100.8595
  1284.5000   2008.0000     15.5164     15.8075   2000.0000    117.0828
  1284.7500   2008.0000     15.0954     14.9339   2000.0000    125.0960
  1285.0000   2008.0000     14.7112     14.2659   2000.0000    132.3379
  1285.2500   2008.0000     14.3549     13.7643   2000.0000    134.4772
  1285.5000   2008.0000     14.0282     13.3926   2000.0000    134.8771
  1285.7500   2008.0000     13.7424     13.1238   2000.0000    133.9155
  1286.0000   2008.0000     13.5134     12.9408   2000.0000    131.6716
  1286.2500   2008.0000     13.3575     12.8340   2000.0000    130.2126
  1286.5000   2008.0000     13.2867     12.7964   2000.0000    128.7271
  1286.7500   2008.0000     13.3051     12.8227   2000.0000    128.2510
  1287.0000   2008.0000     13.4097     12.9093   2000.0000    127.8359
  1287.2500   2008.0000     13.5930     13.0571   2000.0000    127.4275
  1287.5000   2008.0000     13.8465     13.2734   2000.0000    126.5385
  1287.7500   2008.0000     14.1618     13.5713   2000.0000    125.9006
  1288.0000   2008.0000     14.5287     13.9660   2000.0000    124.4252
  1288.2500   2008.0000     14.9344     14.4685   2000.0000    122.2469
  1288.5000   2008.0000     15.3619     15.0787   2000.0000    115.9964
  1288.7500   2008.0000     15.7914     15.7781   2000.0000    110.1148
  1289.0000   2008.0000     16.2029     16.5269   2000.0000    100.8835
  1289.2500   2008.0000     16.5817     17.2701   2000.0000     95.9881
  1289.5000   2008.0000     16.9237     17.9518   2000.0000     92.2443
  1289.7500   2008.0000     17.2383     18.5309   2000.0000     92.2210
  1290.0000   2008.0000     17.5441     18.9882   2000.0000     94.5960
  1290.2500   2008.0000     17.8567     19.3249   2000.0000     96.7258
  1290.5000   2008.0000     18.1787     19.5579   2000.0000     99.4539
  1290.7500   2008.0000     18.4948     19.7162   2000.0000    100.7167
  1291.0000   2008.0000     18.7799     19.8344   2000.0000    101.8644
  1291.2500   2008.0000     19.0138     19.9426   2000.0000    102.2185
  1291.5000   2008.0000     19.1912     20.0589   2000.0000    102.3165
  1291.7500   2008.0000     19.3194     20.1882   2000.0000    102.3092
  1292.0000   2008.0000     19.4076     20.3296   2000.0000    102.5126
  1292.2500   2008.0000     19.4589     20.4823   2000.0000    102.6732
  1292.5000   2008.0000     19.4723     20.6450   2000.0000    102.2930
  1292.7500   2008.0000     19.4486     20.8088   2000.0000    101.3731
  1293.0000   2008.0000     19.3968     20.9522   2000.0000     99.3115
  1293.2500   2008.0000     19.3352     21.0466   2000.0000     98.0467
  1293.5000   2008.0000     19.2876     21.0721   2000.0000     97.3426
  1293.7500   2008.0000     19.2764     21.0309   2000.0000     97.8723
  1294.0000   2008.0000     19.3155     20.9485   2000.0000     99.3742
  1294.2500   2008.0000     19.4076     20.8619   2000.0000    100.0337
  1294.5000   2008.0000     19.5432     20.8047   2000.0000     99.7942
  1294.7500   2008.0000     19.7031     20.7971   2000.0000     99.1564
  1295.0000   2008.0000     19.8606     20.8427   2000.0000     98.6957
  1295.2500   2008.0000     19.9876     20.9280   2000.0000     99.1618
  1295.5000   2008.0000     20.0663     21.0293   2000.0000    100.7851
  1295.7500   2008.0000     20.0980     21.1274   2000.0000    101.8758
  1296.0000   2008.0000     20.1032     21.2219   2000.0000    102.2093
  1296.2500   2008.0000     20.1087     21.3341   2000.0000    100.9988
  1296.5000   2008.0000     20.1325     21.4912   2000.0000     96.9416
  1296.7500   2008.0000     20.1769     21.7058   2000.0000     93.1713
  1297.0000   2008.0000     20.2316     21.9671   2000.0000     86.9141
  1297.2500   2008.0000     20.2807     22.2496   2000.0000     82.7969
  1297.5000   2008.0000     20.3046     22.5300   2000.0000     77.1449
  1297.7500   2008.0000     20.2816     22.7958   2000.0000     73.8910
  1298.0000   2008.0000     20.1937     23.0356   2000.0000     70.1299
