~Version Information
VERS.                      2.0: CWLS Log ASCII Standard - VERSION 2.0
WRAP.                       NO: One line per depth step
~Well Information Block
STRT.FT                -7.7500: 
STOP.FT              2248.5000: 
STEP.FT                 0.2500: 
NULL.                -999.2500: 
COMP.          Pioneer Natural Resources: COMPANY
WELL.          Interceptor 43-13 Tr: WELL
FLD.           Purgatoire River: FIELD
LOC.           2006' FSL & 438' FEL--: LOCATION
PROV.                       CO: PROVINCE
CNTY.               Las Animas: COUNTRY
SRVC.          Patterson Wireline: SERVICE COMPANY
DATE.          Thu Nov 17 10:14:59 2005: LOG DATE
UWI.           05 071 08549 00: UNIQUE WELL ID
~Curve Information Block
DEPT.FT            0 000 00 00: Depth
CCL.                          : Casing Collar Locator
TT3.usec                      : CBL 3' Travel Time
AMP3.mV                       : CBL 3' Amplitude
GR.GAPI                       : Gamma Ray
~Parameter Information Block
~A  Depth       CCL         TT3         AMP3         GR     
# ...
   729.2500      0.0000    281.2726     76.1069    106.0224
   729.5000      0.0000    281.2768     76.0995    101.6029
   729.7500      0.0000    281.2807     76.1147     99.5186
   730.0000      0.0000    281.2825     76.1495     99.4696
   730.2500      0.0000    281.2803     76.1908    100.0980
   730.5000      0.0000    281.2736     76.2224    100.1199
   730.7500      0.0000    281.2629     76.2344     99.2394
   731.0000      0.0000    281.2502     76.2284     98.4574
   731.2500      0.0000    281.2375     76.2156     99.3591
   731.5000      0.0000    281.2268     76.2076    102.7344
   731.7500      0.0000    281.2194     76.2086    107.8317
   732.0000      0.0000    281.2159     76.2168    112.9040
   732.2500      0.0000    281.2159     76.2285    116.3292
   732.5000      0.0000    281.2180     76.2418    117.4099
   732.7500      0.0000    281.2201     76.2565    116.6152
   733.0000      0.0000    281.2206     76.2722    115.2345
   733.2500      0.0000    281.2185     76.2837    114.4221
   733.5000      0.0000    281.2138     76.2793    114.1995
   733.7500      0.0000    281.2067     76.2501    113.3276
   734.0000      0.0000    281.1977     76.2031    110.2548
   734.2500      0.0000    281.1874     76.1584    104.4561
   734.5000      0.0000    281.1772     76.1314     97.3321
   734.7500      0.0000    281.1698     76.1198     91.8877
   735.0000      0.0000    281.1681     76.1099     90.9667
   735.2500      0.0000    281.1737     76.0901     95.2646
   735.5000      0.0000    281.1852     76.0578    102.8585
   735.7500      0.0000    281.1986     76.0155    110.5416
   736.0000      0.0000    281.2088     75.9586    115.5375
   736.2500      0.0000    281.2118     75.8632    116.2399
   736.5000      0.0000    281.2048     75.6870    112.1360
   736.7500      0.0000    281.1870     75.3913    103.8205
   737.0000      0.0000    281.1597     74.9654     93.0639
   737.2500      0.0000    281.1280     74.4216     82.2165
   737.5000      0.0000    281.1015     73.7413     73.1309
   737.7500      0.0000    281.0920     72.8090     66.6409
   738.0000      0.0000    281.1098     71.4235     62.9472
   738.2500      0.0000    281.1581     69.4395     62.0790
   738.5000      0.0000    281.2273     66.9432     63.7840
   738.7500      0.0000    281.2986     64.2669     67.2124
   739.0000      0.0000    281.3569     61.7895     71.1065
   739.2500      0.0000    281.4009     59.7199     74.4990
   739.5000      0.0000    281.4385     58.0668     77.1232
   739.7500      0.0000    281.4747     56.7626     79.1576
   740.0000      0.0000    281.5077     55.7630     80.9130
   740.2500      0.0000    281.5348     55.0366     82.6493
   740.5000      0.0000    281.5580     54.5205     84.1162
   740.7500      0.0000    281.5807     54.1317     84.4341
   741.0000      0.0000    281.5998     53.8323     83.0938
   741.2500      0.0000    281.6008     53.6896     81.0033
   741.5000      0.0000    281.5656     53.8638     80.0096
   741.7500      0.0000    281.4873     54.4906     81.2159
   742.0000      0.0000    281.3809     55.5262     83.8315
   742.2500      0.0000    281.2767     56.7240     85.7060
   742.5000      0.0000    281.1999     57.7995     85.1385
   742.7500      0.0000    281.1562     58.6181     82.3732
   743.0000      0.0000    281.1360     59.2169     79.4895
   743.2500      0.0000    281.1271     59.6937     78.8556
   743.5000      0.0000    281.1202     60.1277     81.3762
   743.7500      0.0000    281.1077     60.5786     85.7082
   744.0000      0.0000    281.0849     61.0959     89.1142
   744.2500      0.0000    281.0538     61.7054     89.6458
   744.5000      0.0000    281.0227     62.4001     87.8348
   744.7500      0.0000    281.0019     63.1430     86.0541
   745.0000      0.0000    280.9988     63.8795     86.1838
   745.2500      0.0000    281.0140     64.5719     88.1917
   745.5000      0.0000    281.0405     65.2530     90.7954
   745.7500      0.0000    281.0671     66.0238     92.8302
   746.0000      0.0000    281.0824     66.9533     93.9714
   746.2500      0.0000    281.0775     67.9745     94.8480
   746.5000      0.0000    281.0481     68.9198     96.5452
   746.7500      0.0000    280.9969     69.6713     99.4579
   747.0000      0.0000    280.9345     70.2538    102.5598
   747.2500      0.0000    280.8765     70.7824    104.0694
   747.5000      0.0000    280.8383     71.3450    102.7203
   747.7500      0.0000    280.8312     71.9366     98.3873
   748.0000      0.0000    280.8595     72.4868     91.9771
   748.2500      0.0000    280.9177     72.9512     84.9431
   748.5000      0.0000    280.9900     73.3870     78.5183
   748.7500      0.0000    281.0553     73.9213     73.2420
   749.0000      0.0000    281.0973     74.6221     69.2706
   749.2500      0.0000    281.1111     75.4151     66.8731
   749.5000      0.0000    281.1017     76.1469     66.3221
   749.7500      0.0000    281.0775     76.7039     67.4993
   750.0000      0.0000    281.0471     77.0521     69.9176
   750.2500      0.0000    281.0182     77.2001     73.1071
   750.5000      0.0000    280.9991     77.1674     76.8556
   750.7500      0.0000    280.9975     76.9920     81.1725
   751.0000      0.0000    281.0169     76.7447     86.2698
   751.2500      0.0000    281.0519     76.5181     92.6119
   751.5000      0.0000    281.0894     76.3908    100.7031
   751.7500      0.0000    281.1145     76.3920    110.7087
   752.0000      0.0000    281.1188     76.4986    122.3071
   752.2500      0.0000    281.1027     76.6602    134.6281
   752.5000      0.0000    281.0735     76.8135    146.0287
   752.7500      0.0000    281.0426     76.8573    154.3286
   753.0000      0.0000    281.0292     76.6118    157.6527
   753.2500      0.0000    281.1040     75.8031    154.9292
   753.5000      0.0000    281.4813     74.1453    145.9234
   753.7500      0.0000    282.5927     71.5011    131.7861
   754.0000      0.0000    284.9240     67.9732    115.5035
   754.2500      0.0000    288.4756     63.8713    100.7064
   754.5000      0.0000    292.2686     59.7289     89.7212
   754.7500      0.0000    294.7288     56.3471     83.0482
   755.0000      0.0000    294.9401     54.4750     80.1413
   755.2500      0.0000    293.4190     54.2164     80.0472
   755.5000      0.0000    291.4810     54.9103     81.8686
   755.7500      2.0000    290.0730     55.7078     85.4895
   756.0000      0.0000    289.3527     56.1174     91.7383
   756.2500      0.0000    289.0343     56.0273    101.3235
   756.5000      0.0000    288.7792     55.5187    113.4193
   756.7500      0.0000    288.3185     54.8680    125.2118
   757.0000      0.0000    287.4774     54.6412    132.9469
   757.2500      0.0000    286.2460     55.5680    134.1366
   757.5000      0.0000    284.8093     58.1534    129.2731
   757.7500      0.0000    283.4469     62.2287    121.2325
   758.0000      0.0000    282.3707     66.8293    112.9308
   758.2500      0.0000    281.6495     70.7063    105.9827
   758.5000      0.0000    281.2370     73.1310    101.2926
   758.7500      0.0000    281.0367     74.2042     99.6031
   759.0000      0.0000    280.9536     74.4781    100.6964
   759.2500      0.0000    280.9246     74.4464    102.8496
   759.5000      0.0000    280.9202     74.3530    104.1110
   759.7500      0.0000    280.9303     74.2700    104.2000
   760.0000      0.0000    280.9493     74.2081    104.8226
   760.2500      0.0000    280.9699     74.1661    108.0712
   760.5000      0.0000    280.9849     74.1420    114.3298
   760.7500      0.0000    280.9905     74.1440    121.4539
   761.0000      0.0000    280.9883     74.1963    126.0991
   761.2500      0.0000    280.9819     74.3202    126.2468
   761.5000      0.0000    280.9746     74.5124    122.6028
   761.7500      0.0000    280.9667     74.7456    117.6468
   762.0000      0.0000    280.9588     74.9911    113.7137
   762.2500      0.0000    280.9540     75.2380    112.0223
   762.5000      0.0000    280.9567     75.4862    112.7721
