~Version Information
VERS.                      2.0: CWLS Log ASCII Standard - VERSION 2.0
WRAP.                       NO: One line per depth step
~Well Information Block
STRT.FT               410.0000: 
STOP.FT              1530.5000: 
STEP.FT                 0.1000: 
NULL.                -999.2500: 
COMP.          Pioneer Natural Resources: COMPANY
WELL.          Pioneer 34-27 Tr: WELL
FLD.           Purgatoire River: FIELD
LOC.           243' FSL & 1593' FEL: LOCATION
STAT.                 Colorado: State
CNTY.               Las Animas: COUNTY
CTRY. USA : Country
SECT. 27 : Section
TOWN. 32S : Township
RANG. 67W : Range 
SRVC.                Patterson: SERVICE COMPANY
DATE.          Fri Oct 07 07:11:38 2005: LOG DATE
API.           05 071 08548 00: UNIQUE WELL ID
~Curve Information Block
DEPT.FT            0 000 00 00: Depth
DCAL.in                       : CDL Caliper
RHOB.g/cc                     : CDL Bulk Density
RHOC.g/cc                     : CDL Density Correction
DPOR.pu                       : CDL Density Porosity
GR.GAPI                       : Gamma Ray
NPOR.pu                       : Neutron Porosity
~Parameter Information Block
~A  Depth       DCAL        RHOB        RHOC        DPOR         GR         NPOR    
# ...
  1437.2000      7.9968      1.9924      0.0167     39.8541    125.4555     32.7057
  1437.3000      7.9973      1.8496     -0.0262     48.5113    116.3091     32.3550
  1437.4000      7.9973      1.7216     -0.1114     56.2649    110.3221     31.6128
  1437.5000      8.0180      1.6218     -0.0377     62.3147    103.2298     31.3893
  1437.6000      8.0180      1.5467     -0.0360     66.8648     90.5198     32.3061
  1437.7000      8.0180      1.4888     -0.0612     70.3735     78.6942     33.0562
  1437.8000      8.0874      1.4418      0.0478     73.2264     73.5215     32.6337
  1437.9000      8.0874      1.4000      0.0030     75.7568     71.6663     32.4783
  1438.0000      8.1858      1.3646      0.0528     77.9022     69.1022     33.8817
  1438.1000      8.1858      1.3364      0.0387     79.6148     64.0312     35.5135
  1438.2000      8.1858      1.3203     -0.0051     80.5865     56.1241     35.5257
  1438.3000      8.1967      1.3220      0.0286     80.4867     48.3825     34.2329
  1438.4000      8.1967      1.3307      0.0604     79.9548     44.6416     33.3836
  1438.5000      8.1438      1.3327      0.0310     79.8359     44.5775     33.6287
  1438.6000      8.1438      1.3327      0.0226     79.8334     45.3667     33.8603
  1438.7000      8.1438      1.3462      0.0346     79.0200     46.0129     33.3302
  1438.8000      8.1607      1.3775      0.0422     77.1223     46.7204     32.8318
  1438.9000      8.1607      1.4171      0.0808     74.7222     47.6603     33.0750
  1439.0000      8.1445      1.4657      0.0509     71.7776     50.3173     33.4086
  1439.1000      8.1445      1.5562      0.0453     66.2922     54.2292     33.2577
  1439.2000      8.1445      1.7121      0.1291     56.8398     57.4611     33.0698
  1439.3000      8.3961      1.8922      0.2031     45.9244     63.0092     33.2192
  1439.4000      8.3961      2.0292      0.2335     37.6233     75.3986     33.4765
  1439.5000      8.5133      2.1055      0.2223     33.0012     91.3867     33.5766
  1439.6000      8.5133      2.1387      0.2702     30.9891    102.7844     33.4927
  1439.7000      8.5133      2.1254      0.2316     31.7929    105.7020     32.9012
  1439.8000      8.3231      2.0556      0.1181     36.0251    103.6463     31.7269
  1439.9000      8.3231      1.9531     -0.0653     42.2389    103.7812     30.8750
  1440.0000      8.3621      1.8612     -0.0948     47.8037    108.9678     31.2437
  1440.1000      8.3621      1.8060     -0.1066     51.1506    112.0150     32.2217
  1440.2000      8.3621      1.7923     -0.0544     51.9845    107.0631     32.6528
  1440.3000      8.0914      1.8186     -0.0002     50.3902     98.8457     32.6256
  1440.4000      8.0914      1.8892      0.0482     46.1119     92.9654     32.4292
  1440.5000      8.0114      2.0037      0.1854     39.1677     90.7442     31.8475
  1440.6000      8.0114      2.1283      0.2899     31.6210     91.0040     31.2351
  1440.7000      8.0114      2.2169      0.2871     26.2458     92.8275     31.3978
  1440.8000      8.0320      2.2707      0.2077     22.9904     96.1129     32.2545
  1440.9000      8.0320      2.3276      0.1158     19.5371     97.2055     32.7138
  1441.0000      8.1954      2.3977      0.1329     15.2913     96.7146     32.2110
  1441.1000      8.1954      2.4560      0.1064     11.7594    101.2312     31.3385
  1441.2000      8.1954      2.4964      0.1168      9.3119    110.0884     30.7842
  1441.3000      8.1213      2.5287      0.1662      7.3537    116.5213     30.9432
  1441.4000      8.1213      2.5495      0.1564      6.0909    117.8919     31.6242
  1441.5000      8.0420      2.5552      0.1659      5.7440    115.4758     31.4212
  1441.6000      8.0420      2.5564      0.1301      5.6717    113.3553     29.9024
  1441.7000      8.0420      2.5673      0.1440      5.0122    114.5029     28.4870
  1441.8000      8.0311      2.5821      0.1716      4.1124    115.5691     28.3038
  1441.9000      8.0311      2.5796      0.1568      4.2691    116.8336     28.7772
  1442.0000      8.0056      2.5538      0.0423      5.8297    120.7841     29.2274
  1442.1000      8.0056      2.5222      0.0255      7.7474    122.1208     29.8463
  1442.2000      8.0056      2.4906      0.0676      9.6594    118.1348     30.4189
  1442.3000      8.0029      2.4506      0.0214     12.0819    113.0924     30.8543
  1442.4000      8.0029      2.4145     -0.0252     14.2705    110.2930     31.2897
  1442.5000      7.9840      2.4037      0.0146     14.9302    109.9061     31.6096
  1442.6000      7.9840      2.4100      0.0396     14.5426    110.8097     31.4622
  1442.7000      7.9840      2.4107      0.0382     14.5056    117.1861     30.4915
  1442.8000      7.9941      2.4041      0.0230     14.9015    132.3560     29.7455
  1442.9000      7.9941      2.4065      0.0579     14.7550    145.3969     30.0065
  1443.0000      8.0047      2.4265      0.0279     13.5478    147.7716     29.9882
  1443.1000      8.0047      2.4544      0.1141     11.8525    145.4224     29.1208
  1443.2000      8.0047      2.4765      0.0776     10.5162    141.5627     28.9152
  1443.3000      8.0636      2.4930      0.1026      9.5155    134.5721     29.9081
  1443.4000      8.0636      2.5065      0.1310      8.6964    124.6886     30.6929
  1443.5000      8.1208      2.5171      0.1191      8.0561    117.3512     30.7922
  1443.6000      8.1208      2.5208      0.1313      7.8290    120.5113     30.7999
  1443.7000      8.1208      2.5058      0.0931      8.7374    130.4139     30.6259
  1443.8000      8.1068      2.4751      0.0319     10.5972    136.4209     29.9298
  1443.9000      8.1068      2.4494      0.0389     12.1546    137.8401     29.3767
  1444.0000      8.0206      2.4387      0.0367     12.8058    140.1137     29.9742
  1444.1000      8.0206      2.4390      0.0069     12.7877    143.1639     31.3646
  1444.2000      8.0206      2.4433      0.0202     12.5263    144.5473     31.9548
  1444.3000      7.9930      2.4451      0.0392     12.4211    145.4451     31.0122
  1444.4000      7.9930      2.4438      0.0237     12.4960    146.3653     29.5330
  1444.5000      7.9965      2.4422      0.0526     12.5941    146.5546     28.6121
  1444.6000      7.9965      2.4417      0.0552     12.6232    145.5672     28.4712
  1444.7000      7.9965      2.4454      0.0673     12.3980    143.8180     28.6627
  1444.8000      8.0156      2.4554      0.0512     11.7950    144.1276     28.8393
  1444.9000      8.0156      2.4738      0.0502     10.6817    147.8939     29.5776
  1445.0000      8.0142      2.5028      0.0625      8.9195    153.1337     31.0075
  1445.1000      8.0142      2.5379      0.0973      6.7936    156.1517     31.7578
  1445.2000      8.0142      2.5641      0.1747      5.2064    156.4600     31.1260
  1445.3000      7.9889      2.5696      0.1641      4.8742    155.3472     30.0579
  1445.4000      7.9889      2.5627      0.0829      5.2921    151.6032     29.3347
  1445.5000      7.9669      2.5612      0.0810      5.3804    147.6452     29.0763
  1445.6000      7.9669      2.5643      0.1277      5.1966    146.3779     28.9401
  1445.7000      7.9669      2.5589      0.0575      5.5185    144.2712     28.5387
  1445.8000      7.9965      2.5436      0.0246      6.4458    139.8835     28.3139
  1445.9000      7.9965      2.5212      0.0060      7.8067    137.7841     28.4934
  1446.0000      8.0234      2.4955     -0.0080      9.3641    138.6463     28.3487
  1446.1000      8.0234      2.4767      0.0012     10.5055    142.1605     27.8194
  1446.2000      8.0234      2.4664      0.0674     11.1253    149.2012     27.6736
  1446.3000      8.0232      2.4567      0.0715     11.7153    153.1206     28.2554
  1446.4000      8.0232      2.4534      0.0525     11.9137    152.1659     29.0717
  1446.5000      8.0266      2.4650      0.0584     11.2145    150.6923     29.1959
  1446.6000      8.0266      2.4755      0.0755     10.5748    146.6687     28.4288
  1446.7000      8.0266      2.4676      0.0815     11.0573    139.4329     27.7742
