~Version Information
VERS.                      2.0: CWLS Log ASCII Standard - VERSION 2.0
WRAP.                       NO: One line per depth step
~Well Information Block
STRT.FT               240.0000: 
STOP.FT              1159.2500: 
STEP.FT                 0.2500: 
NULL.                -999.2500: 
COMP.          Pioneer Natural Resources: COMPANY
WELL.               Ryan 41-17: WELL
FLD.           Purgatoire River: FIELD
LOC.           822' FNL & 532' FEL--: LOCATION
CNTY.               Las Animas: COUNTY
SRVC.                Patterson: SERVICE COMPANY
DATE.          Thu Mar 16 16:50:09 2006: LOG DATE
UWI.           05 071 08719 00: UNIQUE WELL ID
STAT.                 Colorado: STATE
~Curve Information Block
DEPT.FT            0 000 00 00: Depth
SN.Ohm-m                      : IEL Short Normal
SP.mV                         : IEL Spontaneous Potential
DIR.Ohm-m                     : IEL Induction Resistivity
GR.GAPI                       : Gamma Ray
~Parameter Information Block
~A  Depth        SN          SP         DIR          GR     
# ...
   943.5000     26.7319    -17.3242     21.9884     90.4126
   943.7500     26.6274    -17.5588     22.7320     88.4423
   944.0000     26.4433    -17.7585     23.3437     89.1553
   944.2500     26.1604    -17.9313     23.7517     92.0200
   944.5000     25.7850    -18.0828     23.8895     99.0077
   944.7500     25.3466    -18.2170     23.7188    104.6806
   945.0000     24.8759    -18.3382     23.2481    113.2620
   945.2500     24.3844    -18.4504     22.5274    118.0746
   945.5000     23.8659    -18.5573     21.6219    122.2565
   945.7500     23.3140    -18.6615     20.5918    122.5235
   946.0000     22.7358    -18.7632     19.4922    120.0254
   946.2500     22.1528    -18.8600     18.3822    117.8851
   946.5000     21.5928    -18.9482     17.3249    116.7340
   946.7500     21.0829    -19.0234     16.3765    118.1345
   947.0000     20.6450    -19.0826     15.5743    122.4996
   947.2500     20.2912    -19.1252     14.9339    125.4504
   947.5000     20.0221    -19.1534     14.4513    127.8279
   947.7500     19.8275    -19.1717     14.1087    127.7766
   948.0000     19.6895    -19.1861     13.8783    126.1297
   948.2500     19.5850    -19.2017     13.7256    124.6348
   948.5000     19.4931    -19.2215     13.6153    122.4148
   948.7500     19.4027    -19.2442     13.5192    121.0271
   949.0000     19.3156    -19.2627     13.4225    118.8302
   949.2500     19.2385    -19.2641     13.3247    117.0510
   949.5000     19.1741    -19.2304     13.2347    114.1298
   949.7500     19.1189    -19.1424     13.1630    112.6647
   950.0000     19.0653    -18.9840     13.1148    112.1159
   950.2500     19.0047    -18.7479     13.0878    112.6640
   950.5000     18.9317    -18.4393     13.0733    113.7697
   950.7500     18.8490    -18.0763     13.0595    114.4005
   951.0000     18.7667    -17.6865     13.0371    115.6493
   951.2500     18.6943    -17.3003     13.0005    116.8646
   951.5000     18.6329    -16.9430     12.9477    118.3104
   951.7500     18.5743    -16.6280     12.8789    118.1053
   952.0000     18.5068    -16.3544     12.7982    115.6335
   952.2500     18.4245    -16.1076     12.7146    113.3327
   952.5000     18.3323    -15.8636     12.6414    110.9774
   952.7500     18.2458    -15.5952     12.5922    111.0041
   953.0000     18.1832    -15.2773     12.5787    113.6263
   953.2500     18.1543    -14.8915     12.6094    116.5007
   953.5000     18.1547    -14.4285     12.6892    120.9808
   953.7500     18.1677    -13.8886     12.8152    123.2124
   954.0000     18.1707    -13.2818     12.9723    123.9561
   954.2500     18.1443    -12.6258     13.1314    121.9784
   954.5000     18.0801    -11.9439     13.2574    115.4421
   954.7500     17.9861    -11.2619     13.3222    110.0082
   955.0000     17.8848    -10.6047     13.3182    103.3329
   955.2500     17.8052     -9.9914     13.2618    101.0608
   955.5000     17.7705     -9.4319     13.1861    101.2722
   955.7500     17.7891     -8.9252     13.1296    103.4202
   956.0000     17.8521     -8.4587     13.1249    108.4186
   956.2500     17.9361     -8.0115     13.1929    111.8548
   956.5000     18.0066     -7.5602     13.3403    114.8278
   956.7500     18.0225     -7.0860     13.5605    114.1849
   957.0000     17.9495     -6.5813     13.8340    108.6895
   957.2500     17.7819     -6.0554     14.1320    102.7196
   957.5000     17.5612     -5.5356     14.4229     92.8092
   957.7500     17.3757     -5.0652     14.6857     87.2150
   958.0000     17.3344     -4.6966     14.9210     82.4049
   958.2500     17.5238     -4.4823     15.1536     81.9264
   958.5000     17.9720     -4.4638     15.4217     84.3431
   958.7500     18.6369     -4.6624     15.7606     87.0210
   959.0000     19.4268     -5.0734     16.1883     91.2067
   959.2500     20.2382     -5.6656     16.6983     93.7251
   959.5000     20.9905     -6.3868     17.2601     96.5652
   959.7500     21.6407     -7.1734     17.8257     97.1841
   960.0000     22.1791     -7.9620     18.3437     95.1158
   960.2500     22.6173     -8.6998     18.7776     91.9033
   960.5000     22.9793     -9.3502     19.1222     86.1195
   960.7500     23.3000     -9.8948     19.4062     82.7253
   961.0000     23.6215    -10.3302     19.6790     79.1514
   961.2500     23.9772    -10.6631     19.9885     77.7731
   961.5000     24.3726    -10.9048     20.3611     77.0180
   961.7500     24.7773    -11.0670     20.7901     77.2367
   962.0000     25.1435    -11.1597     21.2358     78.2699
   962.2500     25.4350    -11.1909     21.6388     79.2181
   962.5000     25.6433    -11.1673     21.9415     80.7356
   962.7500     25.7803    -11.0952     22.1087     81.5511
   963.0000     25.8618    -10.9807     22.1385     81.8606
   963.2500     25.8995    -10.8294     22.0620     81.2740
   963.5000     25.9065    -10.6458     21.9330     79.7296
   963.7500     25.8997    -10.4327     21.8114     78.9052
   964.0000     25.8949    -10.1905     21.7459     78.6883
   964.2500     25.8992     -9.9181     21.7648     79.0917
   964.5000     25.9102     -9.6129     21.8755     79.8635
   964.7500     25.9192     -9.2725     22.0659     80.3160
   965.0000     25.9135     -8.8948     22.3014     81.1335
   965.2500     25.8750     -8.4791     22.5222     81.9372
   965.5000     25.7872     -8.0258     22.6517     83.5199
   965.7500     25.6454     -7.5370     22.6215     84.6951
   966.0000     25.4647     -7.0163     22.4036     86.4006
   966.2500     25.2765     -6.4692     22.0289     87.3790
   966.5000     25.1194     -5.9038     21.5767     88.4609
   966.7500     25.0277     -5.3317     21.1441     89.0286
   967.0000     25.0203     -4.7690     20.8172     90.3361
   967.2500     25.0924     -4.2367     20.6578     91.8919
   967.5000     25.2142     -3.7606     20.7030     94.8265
   967.7500     25.3412     -3.3697     20.9714     96.2126
   968.0000     25.4300     -3.0941     21.4680     95.7297
   968.2500     25.4518     -2.9616     22.1833     93.4692
   968.5000     25.3981     -2.9949     23.0840     88.4903
   968.7500     25.2799     -3.2075     24.0999     85.4706
   969.0000     25.1183     -3.6018     25.1162     83.3489
   969.2500     24.9268     -4.1664     25.9809     83.7244
   969.5000     24.6967     -4.8747     26.5294     85.1810
   969.7500     24.4038     -5.6849     26.6214     85.1518
   970.0000     24.0353     -6.5424     26.1827     82.1540
   970.2500     23.6085     -7.3854     25.2416     78.7585
   970.5000     23.1612     -8.1539     23.9325     74.3039
   970.7500     22.7225     -8.8011     22.4480     73.4194
   971.0000     22.2926     -9.3033     20.9659     76.5532
   971.2500     21.8514     -9.6660     19.6008     81.1904
   971.5000     21.3831     -9.9219     18.4009     89.7748
   971.7500     20.8941    -10.1215     17.3718     95.0649
   972.0000     20.4105    -10.3184     16.5029    100.3041
   972.2500     19.9644    -10.5535     15.7828    101.5601
   972.5000     19.5820    -10.8451     15.2048    100.9843
   972.7500     19.2792    -11.1866     14.7662    100.1283
   973.0000     19.0621    -11.5517     14.4650    100.0681
   973.2500     18.9299    -11.9053     14.2949    101.4403
   973.5000     18.8760    -12.2140     14.2411    105.4899
   973.7500     18.8860    -12.4542     14.2756    108.8654
   974.0000     18.9350    -12.6147     14.3561    113.2034
   974.2500     18.9922    -12.6954     14.4307    114.5261
   974.5000     19.0307    -12.7043     14.4518    113.0952
   974.7500     19.0375    -12.6524     14.3954    110.2966
   975.0000     19.0162    -12.5516     14.2726    105.8527
   975.2500     18.9799    -12.4121     14.1244    104.2873
   975.5000     18.9399    -12.2421     14.0015    104.8100
   975.7500     18.9008    -12.0476     13.9449    106.2901
   976.0000     18.8632    -11.8331     13.9768    108.3094
   976.2500     18.8317    -11.6018     14.1029    108.8610
   976.5000     18.8193    -11.3560     14.3190    108.2655
   976.7500     18.8483    -11.0982     14.6167    106.9949
