~Version Information
VERS.                      2.0: CWLS Log ASCII Standard - VERSION 2.0
WRAP.                       NO: One line per depth step
~Well Information Block
STRT.FT                14.0000: 
STOP.FT              1631.0000: 
STEP.FT                 0.1000: 
NULL.                -999.2500: 
COMP.          Pioneer Natural Resources: COMPANY
WELL.            Bluesky 44-17: WELL
FLD.           Purgatorie River: FIELD
LOC.           39' FSL & 288' FEL: LOCATION
STAT.                 Colorado: State
CNTY.               Las Animas: COUNTY
CTRY. USA : Country
SECT. 17 : Section
TOWN. 33S : Township
RANG. 66W : Range
SRVC.                Patterson: SERVICE COMPANY
DATE.          Thu Sep 08 07:30:20 2005: LOG DATE
API. 05-071-08511                         : UNIQUE WELL ID
~Curve Information Block
DEPT.FT            0 000 00 00: Depth
DCAL.in                       : CDL Caliper
RHOB.g/cc                     : CDL Bulk Density
RHOC.g/cc                     : CDL Density Correction
DPOR.pu                       : CDL Density Porosity
GR.GAPI                       : Gamma Ray
NPOR.pu                       : Neutron Porosity
~Parameter Information Block
~A  Depth       DCAL        RHOB        RHOC        DPOR         GR         NPOR    
# ...
  1598.0000      7.7966      2.4965      0.0637      9.3020     92.3712     47.7432
  1598.1000      7.7966      2.5009     -0.0086      9.0338     89.9734     47.7856
  1598.2000      7.7966      2.5243      0.0307      7.6154     85.8607     47.7880
  1598.3000      7.8026      2.5602      0.0652      5.4455     81.1908   -999.2500
  1598.4000      7.8026      2.5810      0.0691      4.1793     77.8756   -999.2500
  1598.5000      7.8020      2.5637      0.0934      5.2309     74.5631   -999.2500
  1598.6000      7.8020      2.5090      0.0691      8.5470     70.7178   -999.2500
  1598.7000      7.8020      2.4544     -0.0502     11.8565     68.0501   -999.2500
  1598.8000      7.8072      2.4378     -0.0178     12.8600     66.0121   -999.2500
  1598.9000      7.8072      2.4495      0.0253     12.1486     63.0771   -999.2500
  1599.0000      7.8087      2.4610      0.0087     11.4521     60.4126   -999.2500
  1599.1000      7.8087      2.4663     -0.0025     11.1318     59.2951   -999.2500
  1599.2000      7.8087      2.4663      0.0123     11.1326     58.6586   -999.2500
  1599.3000      7.7995      2.4602     -0.0048     11.5036     58.8018   -999.2500
  1599.4000      7.7995      2.4559      0.0299     11.7631     60.0850   -999.2500
  1599.5000      7.7961      2.4574      0.0091     11.6737     60.3155   -999.2500
  1599.6000      7.7961      2.4608      0.0476     11.4641     57.6630   -999.2500
  1599.7000      7.7961      2.4621      0.0283     11.3880     55.0442   -999.2500
  1599.8000      7.7871      2.4594      0.0201     11.5532     57.1385   -999.2500
  1599.9000      7.7871      2.4591      0.0049     11.5674     62.6462   -999.2500
  1600.0000      7.7805      2.4705      0.0271     10.8760     65.3290   -999.2500
  1600.1000      7.7805      2.4863      0.0592      9.9204     62.2466   -999.2500
  1600.2000      7.7805      2.4887      0.0721      9.7748     57.5001   -999.2500
  1600.3000      7.7711      2.4795      0.0440     10.3350     55.7832   -999.2500
  1600.4000      7.7711      2.4738      0.0537     10.6817     57.1660   -999.2500
  1600.5000      7.7799      2.4714      0.0654     10.8245     59.9490   -999.2500
  1600.6000      7.7799      2.4674      0.0248     11.0695     62.8786   -999.2500
  1600.7000      7.7799      2.4675      0.0141     11.0585     65.0459   -999.2500
  1600.8000      7.7753      2.4729      0.0574     10.7322     64.8714   -999.2500
  1600.9000      7.7753      2.4736      0.0815     10.6929     61.2708   -999.2500
  1601.0000      7.7980      2.4665      0.0431     11.1197     56.9339   -999.2500
  1601.1000      7.7980      2.4598      0.0334     11.5285     55.7401   -999.2500
  1601.2000      7.7980      2.4555      0.0370     11.7903     57.3378   -999.2500
  1601.3000      7.8040      2.4528      0.0071     11.9516     58.8027   -999.2500
  1601.4000      7.8040      2.4544      0.0383     11.8559     59.9858   -999.2500
  1601.5000      7.8174      2.4544      0.0380     11.8531     61.2978   -999.2500
  1601.6000      7.8174      2.4466     -0.0017     12.3294     61.8228   -999.2500
  1601.7000      7.8174      2.4436     -0.0143     12.5110     61.9032   -999.2500
  1601.8000      7.8170      2.4623      0.0389     11.3729     61.7407   -999.2500
  1601.9000      7.8170      2.4935      0.0549      9.4873     60.3346   -999.2500
  1602.0000      7.8154      2.5049      0.0867      8.7946     57.8334   -999.2500
  1602.1000      7.8154      2.4797      0.0471     10.3210     56.4300   -999.2500
  1602.2000      7.8154      2.4465      0.0239     12.3358     58.0621   -999.2500
  1602.3000      7.8129      2.4395      0.0263     12.7589     60.8406   -999.2500
  1602.4000      7.8129      2.4476      0.0369     12.2653     61.0125   -999.2500
  1602.5000      7.8111      2.4466      0.0143     12.3289     58.5644   -999.2500
  1602.6000      7.8111      2.4421     -0.0022     12.5986     56.3305   -999.2500
  1602.7000      7.8111      2.4487     -0.0073     12.1975     55.8706   -999.2500
  1602.8000      7.8147      2.4609     -0.0043     11.4610     56.6465   -999.2500
  1602.9000      7.8147      2.4654      0.0238     11.1892     58.6701   -999.2500
  1603.0000      7.8146      2.4598      0.0150     11.5265     61.7712   -999.2500
  1603.1000      7.8146      2.4479      0.0312     12.2499     62.3443   -999.2500
  1603.2000      7.8146      2.4331     -0.0199     13.1448     56.0186   -999.2500
  1603.3000      7.8216      2.4207     -0.0092     13.8943     40.5483   -999.2500
  1603.4000      7.8216      2.4116     -0.0065     14.4474     20.6283   -999.2500
  1603.5000      7.8003      2.4132     -0.0378     14.3496      6.5386   -999.2500
  1603.6000      7.8003      2.4357      0.0137     12.9902      1.1953   -999.2500
  1603.7000      7.8003      2.4656      0.0285     11.1741      0.1206   -999.2500
  1603.8000      7.7989      2.4805      0.0414     10.2713      0.0064   -999.2500
  1603.9000      7.7989      2.4799      0.0256     10.3073      0.0000   -999.2500
  1604.0000      7.8028      2.4844     -0.0049     10.0392   -999.2500   -999.2500
  1604.1000      7.8028      2.5042      0.0256      8.8334   -999.2500   -999.2500
  1604.2000      7.8028      2.5244      0.0868      7.6116   -999.2500   -999.2500
  1604.3000      7.8011      2.5257      0.0636      7.5351   -999.2500   -999.2500
  1604.4000      7.8011      2.5083      0.0104      8.5849   -999.2500   -999.2500
  1604.5000      7.7977      2.4884     -0.0019      9.7935   -999.2500   -999.2500
  1604.6000      7.7977      2.4827     -0.0185     10.1390   -999.2500   -999.2500
  1604.7000      7.7977      2.4978     -0.0071      9.2260   -999.2500   -999.2500
  1604.8000      7.7908      2.5208      0.0185      7.8291   -999.2500   -999.2500
  1604.9000      7.7908      2.5368      0.0240      6.8609   -999.2500   -999.2500
  1605.0000      7.7939      2.5423      0.0421      6.5277   -999.2500   -999.2500
  1605.1000      7.7939      2.5420     -0.0040      6.5483   -999.2500   -999.2500
  1605.2000      7.7939      2.5452      0.0200      6.3515   -999.2500   -999.2500
  1605.3000      7.7946      2.5514      0.0541      5.9742   -999.2500   -999.2500
  1605.4000      7.7946      2.5547      0.0335      5.7737   -999.2500   -999.2500
  1605.5000      7.7955      2.5614      0.0108      5.3697   -999.2500   -999.2500
  1605.6000      7.7955      2.5692      0.0926      4.8999   -999.2500   -999.2500
  1605.7000      7.7955      2.5608      0.0516      5.4091   -999.2500   -999.2500
  1605.8000      7.7949      2.5398      0.0521      6.6763   -999.2500   -999.2500
  1605.9000      7.7949      2.5259      0.0012      7.5215   -999.2500   -999.2500
  1606.0000      7.7953      2.5253     -0.0005      7.5557   -999.2500   -999.2500
  1606.1000      7.7953      2.5300      0.0167      7.2699   -999.2500   -999.2500
  1606.2000      7.7953      2.5309      0.0269      7.2182   -999.2500   -999.2500
  1606.3000      7.7843      2.5217      0.0510      7.7761   -999.2500   -999.2500
  1606.4000      7.7843      2.5037      0.0402      8.8643   -999.2500   -999.2500
  1606.5000      7.7842      2.4874     -0.0011      9.8543   -999.2500   -999.2500
  1606.6000      7.7842      2.4818      0.0093     10.1915   -999.2500   -999.2500
  1606.7000      7.7842      2.4820      0.0352     10.1819   -999.2500   -999.2500
  1606.8000      7.7865      2.4745      0.0255     10.6353   -999.2500   -999.2500
  1606.9000      7.7865      2.4650     -0.0110     11.2134   -999.2500   -999.2500
  1607.0000      7.7802      2.4747     -0.0162     10.6268   -999.2500   -999.2500
  1607.1000      7.7802      2.5001      0.0460      9.0849   -999.2500   -999.2500
  1607.2000      7.7802      2.5179      0.0310      8.0038   -999.2500   -999.2500
  1607.3000      7.7810      2.5219      0.0418      7.7614   -999.2500   -999.2500
  1607.4000      7.7810      2.5224      0.0460      7.7322   -999.2500   -999.2500
  1607.5000      7.7610      2.5297      0.0227      7.2888   -999.2500   -999.2500
