~Version Information
VERS.                      2.0: CWLS Log ASCII Standard - VERSION 2.0
WRAP.                       NO: One line per depth step
~Well Information Block
STRT.FT               880.0000: 
STOP.FT              1995.0000: 
STEP.FT                 0.2500: 
NULL.                -999.2500: 
COMP.          Petrogulf Corporation: COMPANY
WELL.          Collister 17-31R: WELL
FLD.           Purgatorie River: FIELD
LOC.           962' FNL & 1520' FEL: LOCATION
PROV.                 Colorado: PROVINCE
CNTY.               Las Animas: COUNTRY
SRVC.                Patterson: SERVICE COMPANY
DATE.          Mon Sep 26 09:32:26 2005: LOG DATE
UWI.                          : UNIQUE WELL ID
~Curve Information Block
DEPT.FT            0 000 00 00: Depth
SP.mV                         : DIL Spontaneous Potential
RILD.Ohm-m                    : DIL Deep Resistivity
RILM.Ohm-m                    : DIL Medium Resistivity
RLL3.Ohm-m                    : DIL Shallow Resistivity
GR.GAPI                       : Gamma Ray
~Parameter Information Block
~A  Depth        SP         RILD        RILM        RLL3         GR     
# ...
  1608.0000    299.9911     11.1017     11.9844     12.6584    140.2107
  1608.2500    299.9911     11.0134     11.4157     10.2957    145.9174
  1608.5000    299.9911     10.8785     10.7009      9.5228    124.5638
  1608.7500    299.9911     10.5931     10.5128      9.4861    129.8992
  1609.0000    299.9909     10.3465     10.3735      9.8279    148.8098
  1609.2500    299.9245     10.0918     10.2962     10.5583    153.2116
  1609.5000    299.3742      9.9658     10.1843     11.9497    142.0907
  1609.7500    298.7930      9.8560     10.0197     13.3187    157.7038
  1610.0000    298.1531      9.8701      9.9736     13.1568    151.6658
  1610.2500    297.4590     10.0583      9.8843     11.4628    156.3342
  1610.5000    296.7985     10.2168      9.9493     10.3932    136.4289
  1610.7500    296.2313     10.3911     10.3532      9.6629    125.2563
  1611.0000    295.7139     10.7172     10.9875     10.2098    163.7633
  1611.2500    295.3366     11.0372     11.8873     14.1875    128.3149
  1611.5000    295.0976     11.3457     12.8123     20.2183    120.4389
  1611.7500    294.9780     11.3908     13.7756     24.5069    130.7585
  1612.0000    294.9311     11.3846     14.4014     23.2008    108.1389
  1612.2500    295.1212     11.1845     14.9185     23.0909    102.9437
  1612.5000    295.4164     11.0676     14.9930     27.9434     98.6243
  1612.7500    295.7626     10.8891     14.4693     32.2297    109.5514
  1613.0000    296.2664     11.0459     13.5565     27.5566    106.3241
  1613.2500    296.8279     11.0549     12.6174     18.1936    103.8382
  1613.5000    297.0401     10.9034     11.7919     11.9319     83.5363
  1613.7500    296.7856     10.5541     11.2959      9.1644     91.7383
  1614.0000    296.4742     10.1526     10.7739      8.8762     90.7321
  1614.2500    296.2437      9.8781     10.3697     10.9064    135.1232
  1614.5000    296.2410      9.6504     10.0049     14.1524    155.1390
  1614.7500    296.5737      9.3217      9.4275     14.0340    163.1779
  1615.0000    297.0976      9.1339      8.8719     10.4439    138.4335
  1615.2500    297.8831      8.8290      8.3955      8.1317    155.5394
  1615.5000    298.5369      8.6184      8.1436      7.3046    141.9806
  1615.7500    299.0245      8.3352      8.0400      8.2022    149.2352
  1616.0000    299.3256      8.3009      8.0714      9.9938    161.7360
  1616.2500    299.6306      8.1937      8.2752     10.4812    176.3601
  1616.5000    299.9447      8.0737      8.4436     10.4904    141.7871
  1616.7500    299.9900      7.9680      8.4916     10.6558    121.4771
  1617.0000    299.9911      7.7403      8.4518     11.4197    143.8322
  1617.2500    299.9911      7.5919      8.3811     11.9166    162.4207
  1617.5000    299.9911      7.5165      8.2558     11.3849    143.1360
  1617.7500    299.9911      7.5271      8.0412      9.9462    115.3674
  1618.0000    299.9911      7.4839      8.0089      8.9713    142.5484
  1618.2500    299.9911      7.3939      7.8998      9.1949    157.5711
  1618.5000    299.9911      7.2573      7.7229      9.4561    168.0342
  1618.7500    299.9911      7.2273      7.5247      9.3584    162.8422
  1619.0000    299.9911      7.2358      7.3215      8.8704    151.7178
  1619.2500    299.9911      7.2310      7.1068      8.1010    154.1124
  1619.5000    299.9909      7.1816      6.8828      7.7893    151.3904
  1619.7500    299.9439      7.1930      6.6941      7.5606    150.2336
  1620.0000    299.4976      7.2473      6.6957      7.4369    150.7803
  1620.2500    298.6104      7.3454      6.6831      7.2833    172.3042
  1620.5000    297.6693      7.3499      6.7953      7.3447    186.2413
  1620.7500    296.6278      7.4135      6.9615      7.5029    185.2059
  1621.0000    295.6266      7.4667      7.2220      8.4243    154.8144
  1621.2500    294.7128      7.5546      7.4866      9.5431    147.1482
  1621.5000    293.8089      7.6861      7.8449     11.2750    124.8582
  1621.7500    293.1658      7.8737      8.1339     12.3787    138.8502
  1622.0000    292.6440      8.0979      8.3186     12.2463    150.1374
  1622.2500    292.0243      8.4717      8.5626     11.4109    129.7516
  1622.5000    291.3099      8.7756      8.8201     10.9821    126.1983
  1622.7500    290.5977      8.9996      9.2672     11.1201    117.9126
  1623.0000    290.0800      9.3775      9.6920     11.4545    127.7583
  1623.2500    289.4815      9.9725     10.1791     12.1364    127.1775
  1623.5000    288.3132     10.2684     10.5600     12.3895    136.1089
  1623.7500    286.8878     10.8795     11.0191     11.5978    121.5045
  1624.0000    285.8345     11.2265     11.7658     10.8431    136.2123
  1624.2500    284.9519     11.2945     12.5231     11.6572    143.0249
  1624.5000    284.1185     11.3791     13.2889     14.9745    134.6592
  1624.7500    283.3979     11.2663     14.1857     19.4025    136.7687
  1625.0000    282.9047     11.5016     14.2739     23.8868    145.0789
  1625.2500    282.7704     11.3443     14.5414     24.8925    137.2266
  1625.5000    282.8128     11.1256     14.0926     19.1476    103.4958
  1625.7500    282.8289     10.7981     13.8655     15.6019     97.8067
  1626.0000    282.6830     10.6600     13.3207     18.0268    107.1888
  1626.2500    282.6418     10.5692     12.4898     22.4502     99.0293
  1626.5000    282.8325     10.4715     11.5848     20.9288    105.3802
  1626.7500    283.1689     10.5616     10.5547     14.6726    119.1298
  1627.0000    283.4745     10.6085      9.8148     10.2330    107.2658
  1627.2500    283.6082     10.5260      9.2047      8.0704    102.3443
  1627.5000    283.4520     10.4112      9.0929      7.6067    112.4496
  1627.7500    282.9632     10.3022      9.2079      8.3191    131.1787
  1628.0000    282.4561     10.4119      9.3642     10.4919    144.4715
  1628.2500    282.0670     10.4948      9.3117     12.3563    150.0699
  1628.5000    281.7158     10.7569      9.4370     12.1014    181.9526
  1628.7500    281.4350     10.7802      9.6114     10.6889    180.3190
  1629.0000    281.2519     10.9682      9.9188      9.7495    170.8665
  1629.2500    281.1675     11.3150     10.4247      9.7761    181.3584
  1629.5000    281.1754     11.5937     11.3773     11.1485    162.6808
  1629.7500    281.3448     12.2543     12.6021     15.0682    158.0022
  1630.0000    281.8038     12.8173     14.0250     21.8291    146.6009
  1630.2500    282.6701     13.4400     15.7243     28.8604    150.5885
  1630.5000    283.6982     13.7532     17.4582     33.8501    132.9781
  1630.7500    285.0226     13.9743     18.6029     37.5825    117.0479
  1631.0000    286.3104     14.0244     19.3303     40.3116    103.2470
  1631.2500    287.4846     14.2660     19.5112     46.7288     94.3745
  1631.5000    288.4926     14.7076     18.8325     53.6180     90.8442
  1631.7500    289.3505     14.7922     17.7907     45.1887    110.3033
  1632.0000    290.1412     14.7442     16.3863     29.8255     84.8319
  1632.2500    290.6267     14.5476     14.9633     17.7583     87.6108
  1632.5000    290.7062     14.3277     13.9586     11.7005     75.7736
  1632.7500    290.3845     13.9812     13.5200     10.2420     97.4283
  1633.0000    289.9265     13.7910     13.2953     11.6363    129.9301
  1633.2500    289.4762     13.5295     13.2736     14.2114    129.3483
  1633.5000    289.3341     13.4085     12.8146     15.6907    116.4842
  1633.7500    289.3173     13.2007     12.5144     14.4675    118.8841
  1634.0000    289.4338     12.9236     12.1974     12.9437    116.5417
  1634.2500    289.4307     12.8962     12.0632     12.3361    135.5357
  1634.5000    289.4472     13.0751     12.1124     12.0840    152.7843
  1634.7500    289.5282     13.1722     12.6928     13.3002    132.0797
  1635.0000    289.8997     13.4899     13.2447     15.0536    109.5682
  1635.2500    290.3656     13.9189     14.3058     17.6229    127.1103
  1635.5000    290.8904     14.1243     15.4310     24.3107    111.7674
  1635.7500    291.4995     14.3104     16.4631     33.2830    105.9368
