~Version Information
VERS.                      2.0: CWLS Log ASCII Standard - VERSION 2.0
WRAP.                       NO: One line per depth step
~Well Information Block
STRT.FT               665.0000: 
STOP.FT              2193.5000: 
STEP.FT                 0.1000: 
NULL.                -999.2500: 
COMP.          Pioneer Natural Resources: COMPANY
WELL.          Bear Cub Federal 11-23: WELL
FLD.           Purgatoire River: FIELD
LOC.           1225' FNL & 1268' FWL--: LOCATION
CNTY.               Las Animas: COUNTY
SRVC.                Patterson: SERVICE COMPANY
DATE.          Tue Jun 20 09:14:02 2006: LOG DATE
UWI.           05 071 08509 00: UNIQUE WELL ID
STAT.                 Colorado: STATE
~Curve Information Block
DEPT.FT            0 000 00 00: Depth
DCAL.in                       : CDL Caliper
RHOB.g/cc                     : CDL Bulk Density
RHOC.g/cc                     : CDL Density Correction
DPOR.pu                       : CDL Density Porosity
NPOR.pu                       : Neutron Porosity
GR.GAPI                       : Gamma Ray
~Parameter Information Block
~A  Depth       DCAL        RHOB        RHOC        DPOR        NPOR         GR     
# ...
  1356.2000      8.0237      2.5203      0.0470      7.8610     21.7958     81.0723
  1356.3000      8.0228      2.5206      0.0664      7.8403     21.7199     77.4903
  1356.4000      8.0228      2.5276      0.0457      7.4210     21.6837     77.5645
  1356.5000      8.0231      2.5365      0.0631      6.8802     21.5969     78.7925
  1356.6000      8.0231      2.5402      0.0556      6.6529     21.4268     80.7310
  1356.7000      8.0231      2.5329      0.0549      7.0972     21.2922     83.8469
  1356.8000      8.0241      2.5166      0.0233      8.0841     21.1555     86.0479
  1356.9000      8.0241      2.5033      0.0096      8.8934     20.9177     87.4654
  1357.0000      8.0261      2.5009      0.0473      9.0359     20.6741     88.7406
  1357.1000      8.0261      2.5021      0.0549      8.9639     20.4871     89.0252
  1357.2000      8.0261      2.4958      0.0641      9.3468     20.2340     89.3406
  1357.3000      8.0281      2.4870      0.0157      9.8811     20.0345     88.6966
  1357.4000      8.0281      2.4872      0.0310      9.8658     20.0934     84.0435
  1357.5000      8.0267      2.4930      0.0628      9.5159     20.2335     77.3672
  1357.6000      8.0267      2.4920      0.0626      9.5753     20.2062     73.0288
  1357.7000      8.0267      2.4823      0.0488     10.1609     20.0789     73.3794
  1357.8000      8.0229      2.4778      0.0179     10.4392     20.1088     76.5135
  1357.9000      8.0229      2.4914      0.0650      9.6104     20.2219     77.3827
  1358.0000      8.0225      2.5139      0.1088      8.2492     20.1631     73.8833
  1358.1000      8.0225      2.5289      0.0619      7.3365     20.2029     69.0480
  1358.2000      8.0225      2.5337      0.0988      7.0502     20.6130     66.5984
  1358.3000      8.0247      2.5272      0.0996      7.4429     20.9529     66.0419
  1358.4000      8.0247      2.5181      0.0662      7.9930     20.8581     64.9568
  1358.5000      8.0263      2.5207      0.1101      7.8368     20.6762     64.0605
  1358.6000      8.0263      2.5324      0.0734      7.1255     20.7510     65.0352
  1358.7000      8.0263      2.5420      0.1115      6.5457     20.8894     66.3319
  1358.8000      8.0271      2.5424      0.1184      6.5240     20.8202     65.9992
  1358.9000      8.0271      2.5312      0.1026      7.1978     20.6516     66.0192
  1359.0000      8.0261      2.5062      0.1204      8.7143     20.5921     67.8258
  1359.1000      8.0261      2.4755      0.0324     10.5774     20.6484     68.2427
  1359.2000      8.0261      2.4523      0.0849     11.9829     20.7902     65.1799
  1359.3000      8.0237      2.4276      0.0573     13.4790     20.8416     61.7672
  1359.4000      8.0237      2.3923      0.0398     15.6185     20.6214     61.8170
  1359.5000      8.0217      2.3622      0.0017     17.4436     20.3259     66.1160
  1359.6000      8.0217      2.3609     -0.0103     17.5201     20.2856     72.3274
  1359.7000      8.0217      2.3929      0.0209     15.5808     20.4932     74.6615
  1359.8000      8.0213      2.4366      0.0947     12.9341     20.4968     70.9995
  1359.9000      8.0213      2.4646      0.0678     11.2377     20.1248     66.3783
  1360.0000      8.0208      2.4706      0.0739     10.8727     19.7438     65.1327
  1360.1000      8.0208      2.4651      0.0860     11.2080     19.6306     66.8335
  1360.2000      8.0208      2.4584      0.0921     11.6139     19.8958     68.8639
  1360.3000      8.0214      2.4594      0.0458     11.5540     20.4135     69.7639
  1360.4000      8.0214      2.4707      0.0987     10.8670     20.6715     70.8273
  1360.5000      8.0243      2.4783      0.1035     10.4075     20.4901     74.6129
  1360.6000      8.0243      2.4697      0.0737     10.9247     20.0840     80.0919
  1360.7000      8.0243      2.4520      0.1043     12.0025     19.6066     80.7545
  1360.8000      8.0246      2.4384      0.0520     12.8261     19.2664     75.2781
  1360.9000      8.0246      2.4369      0.0685     12.9139     19.0102     70.4400
  1361.0000      8.0218      2.4440      0.0980     12.4861     18.6410     70.6047
  1361.1000      8.0218      2.4532      0.0915     11.9287     18.4000     73.2393
  1361.2000      8.0218      2.4610      0.0904     11.4542     18.4797     74.3917
  1361.3000      8.0201      2.4602      0.0935     11.5009     18.6927     74.1869
  1361.4000      8.0201      2.4502      0.0873     12.1115     18.8841     73.7629
  1361.5000      8.0222      2.4456      0.0705     12.3899     19.0074     72.3614
  1361.6000      8.0222      2.4536      0.1154     11.9040     19.1756     70.3272
  1361.7000      8.0222      2.4623      0.0864     11.3777     19.4668     69.3234
  1361.8000      8.0251      2.4612      0.0844     11.4449     19.5072     70.0527
  1361.9000      8.0251      2.4516      0.0895     12.0221     19.2308     73.2736
  1362.0000      8.0255      2.4470      0.0516     12.3004     18.9594     80.1715
  1362.1000      8.0255      2.4592      0.0664     11.5620     18.7256     87.1805
  1362.2000      8.0255      2.4803      0.0554     10.2876     18.6196     88.6098
  1362.3000      8.0264      2.4932      0.0790      9.5036     18.7360     84.4126
  1362.4000      8.0264      2.4894      0.0990      9.7349     19.0833     79.0839
  1362.5000      8.0272      2.4698      0.0679     10.9194     19.5720     76.8827
  1362.6000      8.0272      2.4423      0.0883     12.5893     19.9254     77.6200
  1362.7000      8.0272      2.4201      0.0236     13.9354     19.8452     78.2375
  1362.8000      8.0287      2.4155      0.0321     14.2126     19.5046     79.1487
  1362.9000      8.0287      2.4265      0.0387     13.5473     19.3385     80.1721
  1363.0000      8.0306      2.4402      0.0494     12.7143     19.2799     78.0238
  1363.1000      8.0306      2.4449      0.0407     12.4305     18.9520     72.3266
  1363.2000      8.0306      2.4367      0.0585     12.9266     18.4835     67.1797
  1363.3000      8.0303      2.4220      0.0532     13.8197     18.3182     64.6678
  1363.4000      8.0303      2.4102      0.0702     14.5318     18.3322     64.0797
  1363.5000      8.0278      2.4086      0.0690     14.6319     18.2686     67.4458
  1363.6000      8.0278      2.4154      0.1007     14.2173     18.2766     73.8532
  1363.7000      8.0278      2.4242      0.0739     13.6844     18.4538     76.4099
  1363.8000      8.0273      2.4393      0.0474     12.7676     18.7265     72.9841
  1363.9000      8.0273      2.4605      0.1050     11.4852     18.9750     68.8039
  1364.0000      8.0297      2.4706      0.1421     10.8705     19.1429     66.7716
  1364.1000      8.0297      2.4668      0.0657     11.1044     19.2637     65.5981
  1364.2000      8.0297      2.4639      0.0853     11.2762     19.2869     64.4522
  1364.3000      8.0310      2.4663      0.0620     11.1354     19.2391     63.3972
  1364.4000      8.0310      2.4678      0.0905     11.0423     19.2945     63.9183
  1364.5000      8.0293      2.4620      0.0904     11.3929     19.5478     66.7212
  1364.6000      8.0293      2.4495      0.0848     12.1539     19.8266     71.4420
  1364.7000      8.0293      2.4461      0.0621     12.3550     19.8233     75.2201
  1364.8000      8.0267      2.4624      0.0850     11.3680     19.5780     74.8086
  1364.9000      8.0267      2.4855      0.1324      9.9699     19.4697     71.4511
  1365.0000      8.0250      2.5002      0.1231      9.0802     19.4929     68.0461
  1365.1000      8.0250      2.4993      0.1507      9.1319     19.3786     66.1945
  1365.2000      8.0250      2.4800      0.1019     10.3055     19.1561     65.4347
  1365.3000      8.0244      2.4547      0.1004     11.8366     18.9564     66.7933
  1365.4000      8.0244      2.4433      0.0373     12.5286     18.8077     70.6611
  1365.5000      8.0234      2.4519      0.0806     12.0037     18.8285     73.9373
  1365.6000      8.0234      2.4661      0.1257     11.1475     19.1731     74.2951
  1365.7000      8.0234      2.4676      0.1198     11.0528     19.7283     71.6551
