~Version Information
VERS.                      2.0: CWLS Log ASCII Standard - VERSION 2.0
WRAP.                       NO: One line per depth step
~Well Information Block
STRT.FT               350.0000: 
STOP.FT               906.0000: 
STEP.FT                 0.2500: 
NULL.                -999.2500: 
COMP.          Pioneer Natural Resources: COMPANY
WELL.           Hartford 31-18: WELL
FLD.           Purgatorie River: FIELD
LOC.           375' FNL & 1660' FEL: LOCATION
PROV.                 Colorado: PROVINCE
CNTY.               Las Animas: COUNTRY
SRVC.                Patterson: SERVICE COMPANY
DATE.          Sat Nov 19 19:02:38 2005: LOG DATE
UWI.           05-071-08555               : UNIQUE WELL ID
~Curve Information Block
DEPT.FT            0 000 00 00: Depth
SN.Ohm-m                      : IEL Short Normal
SP.mV                         : IEL Spontaneous Potential
DIR.Ohm-m                     : IEL Induction Resistivity
GR.GAPI                       : Gamma Ray
~Parameter Information Block
~A  Depth        SN          SP         DIR          GR     
# ...
   651.5000     26.0839    137.9767     18.1594     91.5205
   651.7500     26.2869    138.5327     17.5072     90.6639
   652.0000     26.2061    139.1308     16.8573     86.1512
   652.2500     25.7040    139.7744     16.2723     81.4056
   652.5000     24.7772    140.4602     15.7963     74.6259
   652.7500     23.5578    141.1681     15.4519     72.3412
   653.0000     22.2228    141.8575     15.2421     73.4773
   653.2500     20.9028    142.4757     15.1569     76.2936
   653.5000     19.6925    142.9761     15.1785     80.8164
   653.7500     18.7098    143.3340     15.2834     82.8360
   654.0000     18.0881    143.5522     15.4424     83.8777
   654.2500     17.9121    143.6520     15.6215     83.8551
   654.5000     18.1884    143.6607     15.7872     84.5613
   654.7500     18.8682    143.6043     15.9157     86.1004
   655.0000     19.9163    143.5053     16.0007     88.8258
   655.2500     21.4087    143.3830     16.0555     89.3842
   655.5000     23.5665    143.2517     16.1083     86.7811
   655.7500     26.6062    143.1176     16.1928     83.3671
   656.0000     30.4036    142.9793     16.3397     78.1287
   656.2500     34.2012    142.8343     16.5684     75.3294
   656.5000     36.7518    142.6866     16.8802     71.6026
   656.7500     37.0235    142.5497     17.2521     68.8007
   657.0000     34.9616    142.4400     17.6357     64.1251
   657.2500     31.5482    142.3672     17.9650     61.3540
   657.5000     28.0649    142.3275     18.1722     58.9686
   657.7500     25.3146    142.3024     18.2068     58.9865
   658.0000     23.4371    142.2642     18.0488     61.7697
   658.2500     22.2021    142.1864     17.7120     65.4436
   658.5000     21.3438    142.0541     17.2393     72.5823
   658.7500     20.7019    141.8693     16.6908     77.0681
   659.0000     20.1933    141.6487     16.1301     81.1802
   659.2500     19.7577    141.4195     15.6090     81.8573
   659.5000     19.3470    141.2136     15.1592     80.8388
   659.7500     18.9449    141.0633     14.7892     79.5623
   660.0000     18.5715    140.9943     14.4894     77.4770
   660.2500     18.2542    141.0211     14.2394     76.2514
   660.5000     17.9972    141.1484     14.0168     75.0520
   660.7500     17.7724    141.3793     13.8029     74.6358
   661.0000     17.5365    141.7230     13.5856     74.3321
   661.2500     17.2495    142.1922     13.3593     74.6119
   661.5000     16.8828    142.7926     13.1239     76.7951
   661.7500     16.4278    143.5124     12.8829     79.5884
   662.0000     15.8977    144.3191     12.6414     84.6499
   662.2500     15.3316    145.1622     12.4055     87.7245
   662.5000     14.8019    145.9808     12.1813     91.1560
   662.7500     14.3958    146.7190     11.9749     92.4834
   663.0000     14.1665    147.3443     11.7922     92.2824
   663.2500     14.1027    147.8546     11.6400     90.2261
   663.5000     14.1425    148.2715     11.5258     84.8364
   663.7500     14.2131    148.6252     11.4585     81.0020
   664.0000     14.2715    148.9451     11.4475     77.1903
   664.2500     14.3147    149.2567     11.5019     76.4106
   664.5000     14.3606    149.5816     11.6299     76.9536
   664.7500     14.4373    149.9348     11.8370     77.5322
   665.0000     14.5842    150.3207     12.1256     77.9303
   665.2500     14.8436    150.7332     12.4935     78.2532
   665.5000     15.2454    151.1634     12.9348     80.0704
   665.7500     15.8092    151.6068     13.4409     82.2985
   666.0000     16.5529    152.0617     14.0025     85.6135
   666.2500     17.4840    152.5227     14.6125     86.5860
   666.5000     18.5876    152.9759     15.2699     85.4217
   666.7500     19.8286    153.3972     15.9828     83.3612
   667.0000     21.1544    153.7518     16.7689     79.4570
   667.2500     22.4981    153.9973     17.6515     76.6190
   667.5000     23.8192    154.0957     18.6524     72.0534
   667.7500     25.1381    154.0318     19.7833     68.8065
   668.0000     26.4882    153.8243     21.0370     63.9548
   668.2500     27.8495    153.5208     22.3814     61.2104
   668.5000     29.1760    153.1811     23.7611     58.9091
   668.7500     30.4665    152.8624     25.1103     58.9455
   669.0000     31.7605    152.6134     26.3691     60.8526
   669.2500     33.0814    152.4735     27.4969     62.4410
   669.5000     34.4169    152.4688     28.4778     63.5378
   669.7500     35.7477    152.6069     29.3232     62.9032
   670.0000     37.0659    152.8800     30.0713     60.4084
   670.2500     38.3505    153.2750     30.7760     58.3905
   670.5000     39.5284    153.7826     31.4859     55.4516
   670.7500     40.4981    154.3963     32.2267     53.4526
   671.0000     41.2093    155.1048     32.9982     50.1502
   671.2500     41.7004    155.8843     33.7833     47.8980
   671.5000     42.0786    156.6954     34.5565     45.0947
   671.7500     42.4742    157.4834     35.2866     43.9401
   672.0000     42.9665    158.1844     35.9403     43.3194
   672.2500     43.5318    158.7402     36.4916     43.3804
   672.5000     44.0909    159.1152     36.9332     43.6691
   672.7500     44.6200    159.3064     37.2812     43.7678
   673.0000     45.2010    159.3353     37.5706     43.2353
   673.2500     45.9427    159.2326     37.8459     42.0217
   673.5000     46.8643    159.0264     38.1483     38.7174
   673.7500     47.8829    158.7405     38.5028     35.9190
   674.0000     48.8981    158.3961     38.9100     31.9382
   674.2500     49.8445    158.0165     39.3492     30.0236
   674.5000     50.6543    157.6325     39.7913     28.9426
   674.7500     51.2438    157.2866     40.2167     29.4653
   675.0000     51.5992    157.0295     40.6255     31.2830
   675.2500     51.8208    156.9059     41.0382     32.3297
   675.5000     52.0364    156.9393     41.4866     32.4403
   675.7500     52.3101    157.1280     42.0047     31.3377
   676.0000     52.6425    157.4485     42.6199     28.4818
   676.2500     53.0211    157.8601     43.3424     26.4912
   676.5000     53.4544    158.3082     44.1567     24.8262
   676.7500     53.9652    158.7320     45.0229     25.2147
   677.0000     54.5814    159.0834     45.8954     28.1301
   677.2500     55.3486    159.3453     46.7466     31.1149
   677.5000     56.3318    159.5333     47.5746     35.7675
   677.7500     57.5918    159.6814     48.3861     38.1216
   678.0000     59.1424    159.8254     49.1669     39.5107
   678.2500     60.8956    159.9967     49.8676     39.0211
   678.5000     62.6603    160.2211     50.4161     37.1157
   678.7500     64.2363    160.5151     50.7504     35.6363
   679.0000     65.5235    160.8829     50.8463     33.4665
   679.2500     66.5239    161.3218     50.7198     32.0734
   679.5000     67.2178    161.8349     50.4074     30.1964
   679.7500     67.4535    162.4365     49.9471     29.1546
   680.0000     66.9904    163.1455     49.3719     27.7651
   680.2500     65.6643    163.9731     48.7150     26.7745
   680.5000     63.5367    164.9138     48.0146     25.0806
   680.7500     60.9105    165.9432     47.3097     24.0345
   681.0000     58.1880    167.0163     46.6272     23.4472
   681.2500     55.6813    168.0709     45.9696     24.2230
   681.5000     53.5265    169.0407     45.3164     27.3920
   681.7500     51.7317    169.8769     44.6391     30.4619
   682.0000     50.2617    170.5638     43.9221     35.2229
   682.2500     49.0930    171.1180     43.1756     37.7415
   682.5000     48.2336    171.5741     42.4342     39.9036
   682.7500     47.6876    171.9714     41.7494     40.4714
   683.0000     47.4052    172.3472     41.1770     40.9328
   683.2500     47.2933    172.7325     40.7671     41.3924
   683.5000     47.2650    173.1454     40.5561     42.3056
   683.7500     47.2763    173.5874     40.5661     42.7645
   684.0000     47.3433    174.0489     40.8051     42.7373
   684.2500     47.5084    174.5217     41.2627     42.2119
   684.5000     47.7930    175.0105     41.8974     41.2032
   684.7500     48.2157    175.5312     42.6259     40.8227
