~Version Information
VERS.                      2.0: CWLS Log ASCII Standard - VERSION 2.0
WRAP.                       NO: One line per depth step
~Well Information Block
STRT.FT                -9.5000: 
STOP.FT              2305.7500: 
STEP.FT                 0.2500: 
NULL.                -999.2500: 
COMP.          Pioneer Natural Resources: COMPANY
WELL.          Fittipaldi 21-12: WELL
FLD.           Purgatorie River: FIELD
LOC.           207' FNL & 2110' FWL--: LOCATION
CNTY.               Las Animas: COUNTY
SRVC.          Patterson Wireline: SERVICE COMPANY
DATE.          Wed Apr 12 10:38:25 2006: LOG DATE
UWI.           05 071 08492 00: UNIQUE WELL ID
STAT.                       CO: STATE
~Curve Information Block
DEPT.FT            0 000 00 00: Depth
CCL.                          : Casing Collar Locator
TT3.usec                      : CBL 3' Travel Time
AMP3.mV                       : CBL 3' Amplitude
GR.GAPI                       : Gamma Ray
~Parameter Information Block
~A  Depth       CCL         TT3         AMP3         GR     
# ...
   459.5000      0.0000    648.5417      4.1940     57.0937
   459.7500      0.0000    643.6067      4.1902     56.1039
   460.0000      0.0000    636.5220      4.1798     54.4106
   460.2500      0.0000    628.5263      4.1697     52.6503
   460.5000      0.0000    621.4056      4.1659     51.6474
   460.7500      0.0000    616.3173      4.1693     51.8684
   461.0000      0.0000    613.2851      4.1759     53.1006
   461.2500      0.0000    611.7597      4.1813     54.6468
   461.5000      0.0000    611.5076      4.1826     55.5869
   461.7500      0.0000    613.1368      4.1796     55.0632
   462.0000      0.0000    618.0317      4.1745     52.9458
   462.2500      0.0000    627.5052      4.1733     50.3460
   462.5000      0.0000    641.3386      4.1822     49.1637
   462.7500      0.0000    656.9897      4.2016     51.0135
   463.0000      0.0000    670.7906      4.2240     56.3558
   463.2500      0.0000    680.3008      4.2379     64.1032
   463.5000      0.0000    685.4595      4.2360     71.9043
   463.7500      0.0000    687.7144      4.2220     77.3581
   464.0000      0.0000    688.5290      4.2076     79.5295
   464.2500      0.0000    688.4385      4.2036     79.3757
   464.5000      0.0000    686.4704      4.2121     78.8228
   464.7500      0.0000    679.3839      4.2267     79.6068
   465.0000      0.0000    661.5209      4.2387     82.7155
   465.2500      0.0000    627.2710      4.2440     88.1812
   465.5000      0.0000    576.2396      4.2455     95.0155
   465.7500      0.0000    516.5443      4.2508    101.5442
   466.0000      0.0000    461.2188      4.2653    106.0887
   466.2500      0.0000    420.1125      4.2883    107.5533
   466.5000      0.0000    395.2001      4.3168    105.7511
   466.7500      0.0000    382.5658      4.3514    101.3612
   467.0000      0.0000    377.0333      4.3952     95.4579
   467.2500      0.0000    374.9742      4.4454     89.1427
   467.5000      0.0000    374.6854      4.4889     83.6685
   467.7500      0.0000    375.8145      4.5089     80.4339
   468.0000      0.0000    378.7977      4.4955     80.2945
   468.2500      0.0000    384.4696      4.4516     82.7493
   468.5000      0.0000    393.9609      4.3867     85.9952
   468.7500      0.0000    409.2766      4.3086     88.0069
   469.0000      0.0000    434.0630      4.2232     87.6820
   469.2500      0.0000    472.2185      4.1393     84.9963
   469.5000      0.0000    523.3527      4.0694     80.5120
   469.7500      0.0000    579.4741      4.0238     75.3105
   470.0000      0.0000    628.4773      4.0052     71.0906
   470.2500      0.0000    662.1541      4.0067     69.3426
   470.5000      0.0000    680.3524      4.0165     70.0853
   470.7500      0.0000    688.1878      4.0250     71.8314
   471.0000      0.0000    691.2232      4.0282     72.9264
   471.2500      0.0000    693.4371      4.0239     72.7391
   471.5000      0.0000    697.8886      4.0079     71.7889
   471.7500      0.0000    707.3763      3.9776     71.3130
   472.0000      0.0000    723.2311      3.9370     72.7857
   472.2500      0.0000    742.9236      3.8951     77.1435
   472.5000      0.0000    759.4846      3.8605     83.8082
   472.7500      0.0000    765.1311      3.8389     90.6730
   473.0000      0.0000    757.0170      3.8331     95.5959
   473.2500      0.0000    739.7260      3.8408     97.9022
   473.5000      0.0000    721.7458      3.8548     98.2699
   473.7500      0.0000    709.3146      3.8698     97.5613
   474.0000      0.0000    703.2858      3.8863     96.1729
   474.2500      0.0000    700.7913      3.9061     94.2176
   474.5000      0.0000    698.8519      3.9249     91.6985
   474.7500      0.0000    696.4476      3.9336     88.4883
   475.0000      0.0000    694.2319      3.9282     84.5978
   475.2500      0.0000    693.3564      3.9125     80.6191
   475.5000      0.0000    694.8842      3.8914     77.5657
   475.7500      0.0000    699.5422      3.8665     76.0941
   476.0000      0.0000    706.8469      3.8409     75.9886
   476.2500      0.0000    714.0854      3.8217     76.4129
   476.5000      0.0000    717.3229      3.8142     76.4751
   476.7500      0.0000    714.7076      3.8159     75.6040
   477.0000      0.0000    708.5453      3.8182     73.7366
   477.2500      0.0000    703.4429      3.8105     71.3774
   477.5000      0.0000    702.7890      3.7856     69.3701
   477.7500      0.0000    707.1864      3.7448     68.4755
   478.0000      0.0000    715.1757      3.6981     69.1250
   478.2500      0.0000    724.3460      3.6570     71.3631
   478.5000      0.0000    731.5493      3.6262     74.6619
   478.7500      0.0000    731.9341      3.6031     78.0740
   479.0000      0.0000    718.1910      3.5846     81.1433
   479.2500      0.0000    683.1339      3.5717     84.3422
   479.5000      0.0000    626.3826      3.5663     87.8876
   479.7500      0.0000    558.8389      3.5683     90.5379
   480.0000      0.0000    497.6159      3.5757     90.5759
   480.2500      0.0000    454.7986      3.5881     87.9071
   480.5000      0.0000    431.5052      3.6058     84.3525
   480.7500      0.0000    421.5466      3.6262     81.9254
   481.0000      0.0000    418.2113      3.6427     81.3472
   481.2500      0.0000    417.9140      3.6483     81.8616
   481.5000      0.0000    420.6614      3.6402     81.8944
   481.7500      0.0000    429.7704      3.6222     80.2899
   482.0000      0.0000    450.9007      3.6029     77.4624
   482.2500      0.0000    488.2707      3.5948     75.1628
   482.5000      0.0000    538.8091      3.6112     74.7975
   482.7500      0.0000    590.5823      3.6526     76.1915
   483.0000      0.0000    630.2311      3.6901     78.2090
   483.2500      0.0000    652.8329      3.6769     80.2458
   483.5000      0.0000    663.3995      3.5943     82.5665
   483.7500      0.0000    669.9982      3.4761     85.3142
   484.0000      0.0000    678.0057      3.3740     88.0117
   484.2500      0.0000    690.1209      3.3097     90.2725
   484.5000     -2.0000    707.6799      3.2701     92.1523
   484.7500      2.0000    728.7134      3.2349     93.4379
   485.0000      0.0000    745.9556      3.1979     93.4814
   485.2500      0.0000    750.5062      3.1721     92.2565
   485.5000      0.0000    738.9289      3.1839     90.8503
   485.7500      0.0000    715.4881      3.2559     90.3803
   486.0000      0.0000    687.3915      3.3835     90.8962
   486.2500      0.0000    659.6726      3.5313     91.6101
   486.5000      0.0000    634.4330      3.6569     91.7253
   486.7500      0.0000    611.7789      3.7386     90.8307
   487.0000      0.0000    590.3362      3.7799     89.0811
   487.2500      0.0000    570.0428      3.7959     87.4704
   487.5000      0.0000    554.8781      3.8003     87.4609
   487.7500      0.0000    547.6322      3.8021     89.6063
   488.0000      0.0000    541.7333      3.8080     92.6482
   488.2500      0.0000    525.6943      3.8218     94.5490
   488.5000      0.0000    498.2549      3.8414     94.2152
   488.7500      0.0000    473.1100      3.8584     91.8084
   489.0000      0.0000    465.9173      3.8631     88.0304
   489.2500      0.0000    480.8835      3.8499     84.0387
   489.5000      0.0000    512.5466      3.8200     81.6098
   489.7500      0.0000    556.1578      3.7798     82.1922
   490.0000      0.0000    609.8842      3.7380     85.4878
   490.2500      0.0000    666.9460      3.7012     89.4512
   490.5000      0.0000    712.9372      3.6696     91.9090
   490.7500      0.0000    735.2708      3.6386     91.9754
   491.0000      0.0000    732.8549      3.6050     89.8945
   491.2500      0.0000    715.0249      3.5712     86.0426
   491.5000      0.0000    693.6010      3.5429     80.7443
   491.7500      0.0000    676.9091      3.5221     75.0496
   492.0000      0.0000    668.3955      3.5039     70.9790
   492.2500      0.0000    667.5087      3.4799     70.3636
   492.5000      0.0000    671.0703      3.4469     73.3074
   492.7500      0.0000    675.0819      3.4103     77.8244
