~Version Information
VERS.                      2.0: CWLS Log ASCII Standard - VERSION 2.0
WRAP.                       NO: One line per depth step
~Well Information Block
STRT.FT               260.8000: 
STOP.FT              1942.0000: 
STEP.FT                 0.1000: 
NULL.                -999.2500: 
COMP.          XTO Energy Inc.: COMPANY
WELL.          Golden Eagle 19-11: WELL
FLD.           Purgatoire River: FIELD
LOC.           2351' FSL & 1926' FWL--: LOCATION
CNTY.               Las Animas: COUNTY
SRVC.                Patterson: SERVICE COMPANY
DATE.          Thu Mar 09 08:41:38 2006: LOG DATE
UWI.           05 071 08696 00: UNIQUE WELL ID
STAT.                 Colorado: STATE
~Curve Information Block
DEPT.FT            0 000 00 00: Depth
DCAL.in                       : CDL Caliper
RHOB.g/cc                     : CDL Bulk Density
RHOC.g/cc                     : CDL Density Correction
DPOR.pu                       : CDL Density Porosity
NPOR.pu                       : Neutron Porosity
GR.GAPI                       : Gamma Ray
~Parameter Information Block
~A  Depth       DCAL        RHOB        RHOC        DPOR        NPOR         GR     
# ...
   491.2000      8.1738      2.4835      0.0266     10.0887     22.0411    142.6841
   491.3000      8.1701      2.4946      0.0331      9.4196     22.6335    140.0633
   491.4000      8.1701      2.4915      0.0264      9.6046     23.1250    136.2964
   491.5000      8.1618      2.4780      0.0029     10.4262     23.2279    134.6530
   491.6000      8.1618      2.4722     -0.0056     10.7744     23.2285    134.9377
   491.7000      8.1618      2.4899      0.0130      9.7036     23.3699    136.7493
   491.8000      8.1518      2.5191      0.0276      7.9335     23.6715    138.8902
   491.9000      8.1518      2.5322      0.0377      7.1386     24.1363    138.9176
   492.0000      8.1473      2.5203      0.0311      7.8624     24.5705    135.3119
   492.1000      8.1473      2.5007     -0.0003      9.0463     24.8575    129.2422
   492.2000      8.1473      2.4948     -0.0338      9.4084     25.0621    124.1190
   492.3000      8.1435      2.4987      0.0161      9.1719     25.2910    121.1387
   492.4000      8.1435      2.4953     -0.0306      9.3781     25.4226    120.0232
   492.5000      8.1339      2.4834     -0.0131     10.0970     25.1391    122.2209
   492.6000      8.1339      2.4717     -0.0310     10.8085     24.7256    126.4591
   492.7000      8.1339      2.4715     -0.0534     10.8153     24.7849    129.7721
   492.8000      8.1259      2.4854     -0.0096      9.9748     25.0691    133.0143
   492.9000      8.1259      2.4970      0.0186      9.2704     24.9891    135.9586
   493.0000      8.1259      2.4950      0.0184      9.3956     24.4942    132.8891
   493.1000      8.1259      2.4836      0.0410     10.0853     23.7066    123.9192
   493.2000      8.1259      2.4760     -0.0082     10.5471     23.0488    117.6514
   493.3000      8.1252      2.4839      0.0305     10.0652     22.9460    117.5808
   493.4000      8.1252      2.5022      0.0217      8.9549     22.9917    121.5629
   493.5000      8.1186      2.5152      0.0561      8.1723     22.7264    123.8951
   493.6000      8.1186      2.5153      0.0210      8.1664     22.3406    122.0249
   493.7000      8.1186      2.5115     -0.0131      8.3970     22.2778    120.3793
   493.8000      8.1121      2.5096      0.0244      8.5089     22.6079    121.9330
   493.9000      8.1121      2.5037      0.0034      8.8684     22.8521    125.0255
   494.0000      8.1057      2.4946     -0.0015      9.4193     22.8759    128.2757
   494.1000      8.1057      2.4931     -0.0145      9.5109     23.0179    129.5077
   494.2000      8.1057      2.5092     -0.0062      8.5337     23.3145    125.2794
   494.3000      8.1000      2.5458      0.0080      6.3141     23.5986    118.7384
   494.4000      8.1000      2.5883      0.0584      3.7368     23.6716    115.1967
   494.5000      8.0981      2.6095      0.0748      2.4550     23.4004    115.7833
   494.6000      8.0981      2.6010      0.0356      2.9688     23.0980    119.5859
   494.7000      8.0981      2.5844      0.0015      3.9730     23.2472    122.4326
   494.8000      8.0961      2.5866      0.0024      3.8439     23.9611    120.4289
   494.9000      8.0961      2.6126      0.0639      2.2646     24.7562    115.1004
   495.0000      8.0889      2.6444      0.0628      0.3411     25.1049    110.1907
   495.1000      8.0889      2.6662      0.0839     -0.9797     25.1314    109.1795
   495.2000      8.0889      2.6736      0.1155     -1.4316     25.1407    110.0538
   495.3000      8.0815      2.6674      0.0942     -1.0565     24.8175    108.9045
   495.4000      8.0815      2.6541      0.0535     -0.2507     23.9835    107.2780
   495.5000      8.0834      2.6412      0.0160      0.5354     23.3482    106.7147
   495.6000      8.0834      2.6328      0.0096      1.0453     23.4009    106.0082
   495.7000      8.0834      2.6294      0.0156      1.2472     23.8470    104.8424
   495.8000      8.0912      2.6356     -0.0373      0.8736     24.3779    102.0649
   495.9000      8.0912      2.6555      0.0141     -0.3323     24.7299     97.9130
   496.0000      8.0965      2.6744      0.0484     -1.4818     24.7977     96.9483
   496.1000      8.0965      2.6812      0.0210     -1.8905     24.7857    100.5467
   496.2000      8.0965      2.6749      0.0795     -1.5116     24.7324    105.2378
   496.3000      8.0988      2.6494      0.0304      0.0341     24.5245    109.1896
   496.4000      8.0988      2.6131      0.0060      2.2360     24.2267    110.7859
   496.5000      8.1033      2.5864      0.0234      3.8571     24.0575    109.1637
   496.6000      8.1033      2.5753     -0.0039      4.5287     24.1525    106.7849
   496.7000      8.1033      2.5751      0.0242      4.5402     24.3377    105.0624
   496.8000      8.1109      2.5810     -0.0085      4.1848     24.3527    103.5443
   496.9000      8.1109      2.5920     -0.0072      3.5159     24.3490    102.3979
   497.0000      8.1169      2.6032      0.0133      2.8375     24.5762    103.6765
   497.1000      8.1169      2.5971      0.0597      3.2039     25.0034    110.0838
   497.2000      8.1169      2.5702     -0.0020      4.8371     25.4512    117.9372
   497.3000      8.1184      2.5533     -0.0255      5.8590     25.6876    120.6579
   497.4000      8.1184      2.5673      0.0330      5.0109     25.7514    118.7576
   497.5000      8.1180      2.5951      0.0450      3.3278     25.7792    116.4780
   497.6000      8.1180      2.6184      0.0089      1.9123     25.8871    116.0812
   497.7000      8.1180      2.6334      0.0389      1.0048     26.1683    118.0449
   497.8000      8.1173      2.6381      0.0467      0.7214     26.1382    119.8881
   497.9000      8.1173      2.6363      0.0181      0.8307     25.4443    122.3984
   498.0000      8.1174      2.6333      0.0614      1.0117     24.7146    129.1035
   498.1000      8.1174      2.6295      0.0010      1.2397     24.6476    136.6785
   498.2000      8.1174      2.6202      0.0555      1.8050     25.1181    138.8826
   498.3000      8.1189      2.6033     -0.0294      2.8308     25.4689    135.4393
   498.4000      8.1189      2.5964      0.0210      3.2511     25.5789    131.9279
   498.5000      8.1227      2.6099      0.0012      2.4313     25.8086    131.5815
   498.6000      8.1227      2.6215      0.0357      1.7257     26.0257    130.7025
   498.7000      8.1227      2.6064      0.0385      2.6452     25.9303    128.1546
   498.8000      8.1327      2.5788     -0.0498      4.3177     25.6319    128.7311
   498.9000      8.1327      2.5672     -0.0304      5.0204     25.5851    130.5811
   499.0000      8.1457      2.5723     -0.0154      4.7073     25.9017    126.8586
   499.1000      8.1457      2.5858     -0.0078      3.8925     26.0098    122.0474
   499.2000      8.1457      2.6076      0.0078      2.5691     25.6065    124.0505
   499.3000      8.1518      2.6226      0.0681      1.6587     24.9604    130.3546
   499.4000      8.1518      2.6101      0.0816      2.4163     24.4271    132.0970
   499.5000      8.1514      2.5884     -0.0214      3.7363     24.4715    127.3582
   499.6000      8.1514      2.5879      0.0128      3.7651     25.0152    124.5147
   499.7000      8.1514      2.6014      0.0323      2.9477     25.3083    126.8919
   499.8000      8.1491      2.6061     -0.0033      2.6588     25.1346    130.4941
   499.9000      8.1491      2.5973      0.0155      3.1936     24.7713    131.9602
   500.0000      8.1469      2.5902     -0.0444      3.6217     24.5545    130.4241
   500.1000      8.1469      2.5981     -0.0083      3.1461     24.8181    127.9521
   500.2000      8.1469      2.6110     -0.0007      2.3610     25.4206    127.1767
   500.3000      8.1442      2.6103      0.0442      2.4051     25.8447    128.9593
   500.4000      8.1442      2.5887      0.0228      3.7122     25.8578    129.3718
   500.5000      8.1399      2.5606     -0.0061      5.4195     25.6631    126.5777
   500.6000      8.1399      2.5473     -0.0344      6.2258     25.5486    125.6017
   500.7000      8.1399      2.5533      0.0114      5.8605     25.5813    128.2947
