~Version Information
VERS.                      2.0: CWLS Log ASCII Standard - VERSION 2.0
WRAP.                       NO: One line per depth step
~Well Information Block
STRT.FT               309.8000: 
STOP.FT              2184.7000: 
STEP.FT                 0.1000: 
NULL.                -999.2500: 
COMP.          Pioneer Natural Resources: COMPANY
WELL.             AMX 13-13 Tr: WELL
FLD.           Purgatoire River: FIELD
LOC.           2401' FSL & 895' FWL--: LOCATION
PROV.                 Colorado: PROVINCE
CNTY.               Las Animas: COUNTRY
SRVC.                Patterson: SERVICE COMPANY
DATE.          Thu Dec 22 15:57:57 2005: LOG DATE
UWI.           05 071 08631 00: UNIQUE WELL ID
~Curve Information Block
DEPT.FT            0 000 00 00: Depth
DCAL.in                       : CDL Caliper
RHOB.g/cc                     : CDL Bulk Density
RHOC.g/cc                     : CDL Density Correction
DPOR.pu                       : CDL Density Porosity
GR.GAPI                       : Gamma Ray
~Parameter Information Block
~A  Depth       DCAL        RHOB        RHOC        DPOR         GR     
# ...
  1665.0000      7.9844      2.6467      0.0878      0.2013     95.1952
  1665.1000      7.9844      2.6323      0.0400      1.0740     96.7324
  1665.2000      7.9844      2.6185     -0.0044      1.9076     99.1565
  1665.3000      7.9965      2.6231      0.0765      1.6305    105.8634
  1665.4000      7.9965      2.6271      0.0447      1.3854    113.0866
  1665.5000      7.9990      2.6149      0.0644      2.1290    116.0457
  1665.6000      7.9990      2.5908      0.0160      3.5906    116.0395
  1665.7000      7.9990      2.5742      0.0403      4.5968    114.9716
  1665.8000      7.9982      2.5802      0.0368      4.2316    114.6071
  1665.9000      7.9982      2.5958      0.0974      3.2863    115.7287
  1666.0000      8.0029      2.5956      0.0512      3.2988    116.1706
  1666.1000      8.0029      2.5767      0.0586      4.4415    113.4540
  1666.2000      8.0029      2.5568      0.0444      5.6485    110.7104
  1666.3000      8.0092      2.5482      0.0551      6.1675    113.2780
  1666.4000      8.0092      2.5452      0.0783      6.3496    117.7637
  1666.5000      8.0036      2.5341      0.0912      7.0269    117.8331
  1666.6000      8.0036      2.5098      0.0497      8.4997    116.2540
  1666.7000      8.0036      2.4862      0.0187      9.9286    116.6897
  1666.8000      7.9865      2.4835     -0.0063     10.0891    115.2935
  1666.9000      7.9865      2.5068     -0.0004      8.6815    111.8345
  1667.0000      7.9667      2.5457      0.0703      6.3231    109.7046
  1667.1000      7.9667      2.5822      0.1326      4.1087    109.1213
  1667.2000      7.9667      2.6044      0.1127      2.7663    111.3004
  1667.3000      7.9596      2.6138      0.1308      2.1910    115.0275
  1667.4000      7.9596      2.6092      0.1382      2.4701    116.8915
  1667.5000      7.9714      2.5935      0.0635      3.4215    117.0037
  1667.6000      7.9714      2.5906      0.0739      3.6029    116.6936
  1667.7000      7.9714      2.6085      0.0998      2.5140    115.6421
  1667.8000      7.9964      2.6242      0.1175      1.5615    113.8875
  1667.9000      7.9964      2.6229      0.1114      1.6419    114.6026
  1668.0000      8.0206      2.6176      0.0611      1.9638    117.1640
  1668.1000      8.0206      2.6194      0.1273      1.8544    116.8095
  1668.2000      8.0206      2.6151      0.1183      2.1153    114.0719
  1668.3000      8.0211      2.5942      0.0887      3.3817    115.0245
  1668.4000      8.0211      2.5671      0.0563      5.0270    121.0532
  1668.5000      8.0032      2.5530      0.0458      5.8780    127.8280
  1668.6000      8.0032      2.5594      0.0707      5.4891    132.4135
  1668.7000      8.0032      2.5635      0.0965      5.2397    136.5786
  1668.8000      7.9883      2.5463      0.0355      6.2863    139.5727
  1668.9000      7.9883      2.5269      0.0264      7.4584    138.0822
  1669.0000      7.9776      2.5296      0.0448      7.2982    136.7766
  1669.1000      7.9776      2.5496      0.1156      6.0877    141.0219
  1669.2000      7.9776      2.5689      0.1050      4.9157    146.0747
  1669.3000      7.9720      2.5895      0.0921      3.6682    145.1941
  1669.4000      7.9720      2.6201      0.1389      1.8104    139.6729
  1669.5000      7.9763      2.6415      0.1828      0.5172    136.2606
  1669.6000      7.9763      2.6279      0.1520      1.3419    137.5583
  1669.7000      7.9763      2.5961      0.0562      3.2692    138.7416
  1669.8000      7.9794      2.5863      0.0353      3.8634    135.4731
  1669.9000      7.9794      2.5989      0.0603      3.0955    128.2578
  1670.0000      7.9657      2.6024      0.0648      2.8823    119.0563
  1670.1000      7.9657      2.5913      0.0431      3.5579    112.2387
  1670.2000      7.9657      2.5776      0.0398      4.3885    112.4777
  1670.3000      7.9589      2.5582      0.0240      5.5614    117.9465
  1670.4000      7.9589      2.5356     -0.0036      6.9337    123.5448
  1670.5000      7.9774      2.5274     -0.0174      7.4305    129.3135
  1670.6000      7.9774      2.5372      0.0290      6.8354    138.4936
  1670.7000      7.9774      2.5498      0.0484      6.0747    146.6982
  1670.8000      8.0048      2.5569      0.0420      5.6445    145.7905
  1670.9000      8.0048      2.5572      0.0833      5.6220    139.5830
  1671.0000      8.0172      2.5424      0.0634      6.5242    136.1665
  1671.1000      8.0172      2.5136      0.0643      8.2694    137.0173
  1671.2000      8.0172      2.4894      0.0123      9.7303    141.0612
  1671.3000      8.0039      2.4788      0.0563     10.3760    144.5533
  1671.4000      8.0039      2.4753      0.0064     10.5863    141.7875
  1671.5000      7.9741      2.4752      0.0824     10.5916    134.0026
  1671.6000      7.9741      2.4736      0.0607     10.6924    126.9418
  1671.7000      7.9741      2.4652      0.0868     11.2001    124.1952
  1671.8000      7.9516      2.4549      0.0468     11.8234    131.4059
  1671.9000      7.9516      2.4510      0.0851     12.0612    147.0983
  1672.0000      7.9462      2.4495      0.0960     12.1527    157.1439
  1672.1000      7.9462      2.4486      0.0255     12.2046    152.8559
  1672.2000      7.9462      2.4579      0.0640     11.6423    142.3602
  1672.3000      7.9566      2.4790      0.0925     10.3646    135.5134
  1672.4000      7.9566      2.5028      0.1410      8.9204    131.6299
  1672.5000      7.9776      2.5206      0.1013      7.8405    128.1733
  1672.6000      7.9776      2.5303      0.1059      7.2549    126.7820
  1672.7000      7.9776      2.5252      0.1099      7.5653    126.5811
  1672.8000      7.9979      2.4976      0.0935      9.2343    125.6023
  1672.9000      7.9979      2.4607      0.0788     11.4700    125.4748
  1673.0000      8.0105      2.4443      0.0300     12.4689    125.6997
  1673.1000      8.0105      2.4560      0.0774     11.7565    126.0175
  1673.2000      8.0105      2.4657      0.1351     11.1668    128.0061
  1673.3000      8.0067      2.4431      0.1108     12.5379    130.6132
  1673.4000      8.0067      2.3887      0.0592     15.8350    131.3417
  1673.5000      7.9880      2.3154      0.0197     20.2804    130.1518
  1673.6000      7.9880      2.2328     -0.0036     25.2869    128.1874
  1673.7000      7.9880      2.1576     -0.0139     29.8439    127.0165
  1673.8000      7.9752      2.1019     -0.0039     33.2210    126.6971
  1673.9000      7.9752      2.0570      0.0214     35.9419    122.8844
  1674.0000      7.9750      2.0207     -0.0534     38.1365    112.9254
  1674.1000      7.9750      2.0172     -0.0466     38.3536     99.7837
  1674.2000      7.9750      2.0593      0.0040     35.8017     89.3023
  1674.3000      7.9686      2.1275      0.0771     31.6667     85.6786
  1674.4000      7.9686      2.1915      0.1341     27.7858     86.0188
  1674.5000      7.9492      2.2294      0.2035     25.4909     83.6550
  1674.6000      7.9492      2.2345      0.2213     25.1833     77.0090
  1674.7000      7.9492      2.2208      0.1932     26.0138     70.4866
  1674.8000      7.9326      2.2069      0.1626     26.8536     66.4817
  1674.9000      7.9326      2.1937      0.1125     27.6545     62.8413
  1675.0000      7.9274      2.1714      0.0180     29.0085     58.3138
  1675.1000      7.9274      2.1358     -0.0586     31.1660     53.7096
  1675.2000      7.9274      2.0884     -0.0604     34.0386     48.6877
  1675.3000      7.9329      2.0468     -0.0909     36.5546     43.5092
  1675.4000      7.9329      2.0441     -0.0248     36.7225     39.9442
  1675.5000      7.9438      2.0908      0.0677     33.8904     39.7741
  1675.6000      7.9438      2.1604      0.1446     29.6723     41.9946
  1675.7000      7.9438      2.2128      0.1654     26.4962     43.1163
  1675.8000      7.9564      2.2234      0.1572     25.8528     42.6004
  1675.9000      7.9564      2.1956      0.0734     27.5381     43.5024
  1676.0000      7.9662      2.1515      0.0409     30.2094     46.7514
  1676.1000      7.9662      2.1141      0.0015     32.4802     50.5329
