~Version Information
VERS.                      2.0: CWLS Log ASCII Standard - VERSION 2.0
WRAP.                       NO: One line per depth step
~Well Information Block
STRT.FT                -7.2500: 
STOP.FT              1334.7500: 
STEP.FT                 0.2500: 
NULL.                -999.2500: 
COMP.          Pioneer Natural Resources: COMPANY
WELL.          Buffet 41-36 Tr: WELL
FLD.           Purgatorie River: FIELD
LOC.           119' FNL & 271' FEL--: LOCATION
PROV.                       CO: PROVINCE
CNTY.               Las Animas: COUNTRY
SRVC.          Patterson Wireline: SERVICE COMPANY
DATE.          Tue Jan 03 09:43:31 2006: LOG DATE
UWI.           05 071 08627 00: UNIQUE WELL ID
~Curve Information Block
DEPT.FT            0 000 00 00: Depth
CCL.                          : Casing Collar Locator
TT3.usec                      : CBL 3' Travel Time
AMP3.mV                       : CBL 3' Amplitude
GR.GAPI                       : Gamma Ray
~Parameter Information Block
~A  Depth       CCL         TT3         AMP3         GR     
# ...
   595.7500      0.0000    534.9831      7.0365     88.6730
   596.0000      0.0000    586.4115      7.0174     89.8351
   596.2500      0.0000    631.4933      7.0071     92.9240
   596.5000      0.0000    661.9625      7.0044     98.0157
   596.7500      0.0000    677.2328      7.0004    104.7700
   597.0000      0.0000    681.2761      6.9797    112.6159
   597.2500      0.0000    678.4800      6.9283    120.7364
   597.5000      0.0000    672.5126      6.8428    127.8113
   597.7500      0.0000    667.1876      6.7365    132.2738
   598.0000      0.0000    666.3670      6.6347    133.3119
   598.2500      0.0000    672.1255      6.5644    131.4504
   598.5000      0.0000    683.0095      6.5443    127.9818
   598.7500      0.0000    694.4049      6.5782    124.2191
   599.0000      0.0000    701.3655      6.6520    121.4362
   599.2500      0.0000    701.8934      6.7401    120.8919
   599.5000      0.0000    697.7605      6.8180    123.2561
   599.7500      0.0000    692.1846      6.8731    127.9452
   600.0000      0.0000    687.0164      6.9034    133.4085
   600.2500      0.0000    682.0790      6.9024    138.2872
   600.5000      0.0000    676.9389      6.8460    141.9775
   600.7500      0.0000    673.5189      6.7038    143.9565
   601.0000      0.0000    677.7264      6.4741    143.2845
   601.2500      0.0000    697.8425      6.2063    139.4210
   601.5000      0.0000    739.2954      5.9850    133.3724
   601.7500      0.0000    799.3836      5.8832    127.5045
   602.0000      0.0000    867.1868      5.9170    123.7643
   602.2500      0.0000    928.7654      6.0355    121.9785
   602.5000      2.0000    972.6139      6.1670    120.3000
   602.7500     -2.0000    993.5233      6.2836    117.5934
   603.0000      0.0000    995.2761      6.4181    114.9392
   603.2500      0.0000    988.0557      6.6295    114.2931
   603.5000      0.0000    978.7938      6.9591    116.0588
   603.7500      0.0000    964.4653      7.3891    118.6486
   604.0000      0.0000    936.8885      7.8174    120.2839
   604.2500      0.0000    892.6748      8.1030    120.5306
   604.5000      0.0000    837.6057      8.1771    119.9057
   604.7500      0.0000    783.1166      8.0903    118.4905
   605.0000      0.0000    739.4413      7.9368    115.5243
   605.2500      0.0000    710.7743      7.7723    110.6251
   605.5000      0.0000    695.4069      7.6213    105.1031
   605.7500      0.0000    689.1490      7.5098    101.3523
   606.0000      0.0000    688.5839      7.4583    100.5685
   606.2500      0.0000    692.1529      7.4605    101.4253
   606.5000      0.0000    699.0656      7.4866    101.3879
   606.7500      0.0000    707.3499      7.5090     99.1627
   607.0000      0.0000    713.2566      7.5214     95.5597
   607.2500      0.0000    713.5139      7.5354     92.2271
   607.5000      0.0000    708.1932      7.5617     90.0382
   607.7500      0.0000    700.6443      7.5990     88.6352
   608.0000      0.0000    694.4534      7.6356     87.1543
   608.2500      0.0000    690.9916      7.6556     85.2148
   608.5000      0.0000    689.6083      7.6422     83.0288
   608.7500      0.0000    689.1414      7.5857     80.5379
   609.0000      0.0000    688.9285      7.4933     77.0133
   609.2500      0.0000    688.9894      7.3889     72.0127
   609.5000      0.0000    689.9288      7.3039     66.4532
   609.7500      0.0000    692.7109      7.2645     62.2616
   610.0000      0.0000    698.1227      7.2844     60.8367
   610.2500      0.0000    706.1133      7.3596     61.7639
   610.5000      0.0000    715.6512      7.4693     63.0020
   610.7500      0.0000    725.1215      7.5865     62.6930
   611.0000      0.0000    732.5853      7.6909     60.9908
   611.2500      0.0000    736.0809      7.7730     59.8097
   611.5000      0.0000    734.7031      7.8298     60.5078
   611.7500      0.0000    729.6115      7.8634     62.2241
   612.0000      0.0000    723.3354      7.8821     62.9324
   612.2500      0.0000    717.8023      7.8972     61.8517
   612.5000      0.0000    713.2080      7.9157     60.2246
   612.7500      0.0000    708.7076      7.9350     59.7155
   613.0000      0.0000    703.9595      7.9443     60.5638
   613.2500      0.0000    699.9613      7.9291     61.5875
   613.5000      0.0000    698.4411      7.8780     61.5903
   613.7500      0.0000    700.3823      7.7890     60.3270
   614.0000      0.0000    705.2542      7.6741     58.4775
   614.2500      0.0000    711.6886      7.5548     57.1680
   614.5000      0.0000    718.6254      7.4524     57.2668
   614.7500      0.0000    725.6361      7.3780     58.8067
   615.0000      0.0000    732.5402      7.3318     61.0962
   615.2500      0.0000    739.0555      7.3077     63.2520
   615.5000      0.0000    744.5395      7.2997     64.5054
   615.7500      0.0000    747.7123      7.3031     64.5292
   616.0000      0.0000    746.8472      7.3119     63.8755
   616.2500      0.0000    740.7861      7.3180     63.7339
   616.5000      0.0000    730.2938      7.3148     64.9298
   616.7500      0.0000    718.4696      7.3015     67.4991
   617.0000      0.0000    709.1710      7.2860     71.4049
   617.2500      0.0000    704.4030      7.2809     77.0457
   617.5000      0.0000    703.2694      7.2951     84.4465
   617.7500      0.0000    703.5563      7.3237     92.2638
   618.0000      0.0000    704.1559      7.3497     98.2626
   618.2500      0.0000    706.0195      7.3557    100.7775
   618.5000      0.0000    711.1187      7.3350     99.4761
   618.7500      0.0000    720.3228      7.2915     95.1673
   619.0000      0.0000    731.9500      7.2331     89.5484
   619.2500      0.0000    742.5607      7.1677     84.8620
   619.5000      0.0000    749.5602      7.1034     82.8692
   619.7500      0.0000    752.9678      7.0486     83.9320
   620.0000      0.0000    754.3649      7.0104     87.3509
   620.2500      0.0000    754.0007      6.9904     92.3925
   620.5000      0.0000    749.5956      6.9806     98.5180
   620.7500      0.0000    739.1063      6.9643    104.6554
   621.0000      0.0000    724.4687      6.9254    108.9351
   621.2500      0.0000    711.2217      6.8595    109.8302
   621.5000      0.0000    704.2253      6.7800    107.5705
   621.7500      0.0000    704.3049      6.7101    103.9823
   622.0000      0.0000    708.3732      6.6681    100.8816
   622.2500      0.0000    711.7805      6.6563     98.8942
   622.5000      0.0000    711.1832      6.6661     97.7865
   622.7500      0.0000    706.5602      6.6878     97.5759
   623.0000      0.0000    701.0051      6.7162     99.0742
   623.2500      0.0000    698.2322      6.7459    103.2069
   623.5000      0.0000    699.7702      6.7670    109.7458
   623.7500      0.0000    703.8585      6.7692    116.8694
   624.0000      0.0000    706.7819      6.7492    122.2850
   624.2500      0.0000    705.8016      6.7144    125.0794
   624.5000      0.0000    701.2357      6.6786    126.3136
   624.7500      0.0000    695.7574      6.6528    127.5127
   625.0000      0.0000    692.0817      6.6407    128.7995
   625.2500      0.0000    691.7558      6.6420    128.9023
   625.5000      0.0000    695.6329      6.6578    126.7421
   625.7500      0.0000    704.1854      6.6909    122.4796
   626.0000      0.0000    716.5751      6.7388    117.1095
   626.2500      0.0000    729.7207      6.7904    111.6049
   626.5000      0.0000    739.3375      6.8326    106.7686
   626.7500      0.0000    742.6084      6.8606    103.5859
   627.0000      0.0000    739.9664      6.8778    103.2597
   627.2500      0.0000    734.1774      6.8867    106.6807
   627.5000      0.0000    727.7253      6.8807    113.6587
   627.7500      0.0000    721.1252      6.8482    122.4495
   628.0000      0.0000    713.6232      6.7873    130.2622
   628.2500      0.0000    705.1213      6.7129    134.9150
   628.5000      0.0000    696.9803      6.6472    136.3843
   628.7500      0.0000    690.9355      6.6054    136.6548
   629.0000      0.0000    687.6668      6.5912    137.8005
