~Version Information
VERS.                      2.0: CWLS Log ASCII Standard - VERSION 2.0
WRAP.                       NO: One line per depth step
~Well Information Block
STRT.FT               520.0000: 
STOP.FT              1373.0000: 
STEP.FT                 0.1000: 
NULL.                -999.2500: 
COMP.          Pioneer Natural Resources: COMPANY
WELL.            Gamma 13-3 Tr: WELL
FLD.           Purgatoire River: FIELD
LOC.           2127' FSL & 738' FWL: LOCATION
STAT.                 Colorado: State
CNTY.               Las Animas: COUNTY
CTRY.                      USA: Country
SECT.                        3: Section
TOWN.                       33S: Township
RANG.                       67W: Range
SRVC.                Patterson: SERVICE COMPANY
DATE.          Mon Sep 19 09:58:04 2005: LOG DATE
API.           05 071 08524 00: API
~Curve Information Block
DEPT.FT            0 000 00 00: Depth
DPOR.pu                       : CDL Density Porosity
GR.GAPI                       : Gamma Ray
NPOR.pu                       : Neutron Porosity
RHOB.g/cc                     : CDL Bulk Density
RHOC.g/cc                     : CDL Density Correction
DCAL.in                       : CDL Caliper
~Parameter Information Block
~A  Depth       DPOR         GR         NPOR        RHOB        RHOC        DCAL    
   520.0000      0.0058     74.5612     13.5173      2.9384      0.4153      1.7148
   520.1000      0.0007     75.7271     13.7427      2.6866      0.1409      1.7148
   520.2000     -0.0036     77.3878     13.7772      2.4691     -0.0693      1.7148
   520.3000     -0.0070     76.3932     13.4941      2.2979     -0.1300      1.7111
   520.4000     29.4523     73.9977     12.9540      2.1640     -0.3285      1.7111
   520.5000     33.9088     73.6204     12.3329      2.0905     -0.3005      1.7391
   520.6000     33.3760     73.7087     11.9885      2.0993     -0.3449      1.7391
   520.7000     29.0750     74.1394     12.3795      2.1703     -0.2832      1.7391
   520.8000     23.9636     77.5239     12.8883      2.2546     -0.2926      2.0938
   520.9000     20.1316     81.3918     12.6082      2.3178     -0.1978      2.0938
   521.0000     17.9006     82.5025     12.1060      2.3546     -0.2067      3.6742
   521.1000     17.6446     84.3725     12.0967      2.3589     -0.1461      3.6742
   521.2000     20.9632     86.1586     12.3695      2.3041     -0.1708      3.6742
   521.3000     27.4576     82.3637     12.6953      2.1970     -0.3970      6.2788
   521.4000     33.5456     77.9633     13.3595      2.0965     -0.4701      6.2788
   521.5000     36.4412     78.7521     14.5156      2.0487     -0.4984      7.8582
   521.6000     36.3465     81.2193     15.2690      2.0503     -0.4895      7.8582
   521.7000     35.4258     81.1274     14.8456      2.0655     -0.4705      7.8582
   521.8000     35.9445     81.4633     14.0268      2.0569     -0.4066      8.2090
   521.9000     38.0560     87.2398     13.7700      2.0221     -0.4737      8.2090
   522.0000     39.3285     94.8629     13.8551      2.0011     -0.5449      8.2394
   522.1000     37.8084     96.9406     13.6475      2.0262     -0.4883      8.2394
   522.2000     34.4795     91.4359     13.4417      2.0811     -0.4569      8.2394
   522.3000     31.8087     84.9084     13.9609      2.1252     -0.4188      8.2385
   522.4000     31.1955     82.8603     14.6357      2.1353     -0.4047      8.2385
   522.5000     32.1984     84.0658     14.3386      2.1187     -0.4325      8.2347
   522.6000     33.4256     85.7888     13.3170      2.0985     -0.3976      8.2347
   522.7000     33.9149     85.1147     12.5737      2.0904     -0.4331      8.2347
   522.8000     33.9013     82.5759     12.7886      2.0906     -0.3839      8.2344
   522.9000     34.0022     81.8949     13.8161      2.0890     -0.4787      8.2344
   523.0000     34.3286     82.4305     14.6133      2.0836     -0.3898      8.2356
   523.1000     34.8375     82.7231     14.5356      2.0752     -0.4554      8.2356
   523.2000     35.0561     85.0553     14.0746      2.0716     -0.4681      8.2356
   523.3000     34.5421     87.6352     13.8203      2.0801     -0.4756      8.2416
   523.4000     33.6641     88.2659     13.5239      2.0945     -0.4262      8.2416
   523.5000     33.0245     89.4298     12.8361      2.1051     -0.4585      8.2562
   523.6000     32.7897     92.0253     12.2573      2.1090     -0.4107      8.2562
   523.7000     32.7985     93.9593     12.3434      2.1088     -0.4682      8.2562
   523.8000     33.0490     94.2153     13.0796      2.1047     -0.4341      8.2647
   523.9000     33.6940     93.5809     14.2181      2.0940     -0.4903      8.2647
   524.0000     34.4939     92.6838     15.2057      2.0809     -0.4558      8.2445
   524.1000     34.8386     91.6717     15.6523      2.0752     -0.5158      8.2445
   524.2000     34.1860     90.6896     15.7877      2.0859     -0.4307      8.2445
   524.3000     32.9961     91.9844     15.7607      2.1056     -0.4475      8.2275
   524.4000     32.7280     93.5099     15.6494      2.1100     -0.3767      8.2275
   524.5000     33.8428     88.4833     15.7332      2.0916     -0.4754      8.2300
   524.6000     34.4726     79.5052     15.7322      2.0812     -0.4823      8.2300
   524.7000     33.4969     74.3344     14.8806      2.0973     -0.4663      8.2300
   524.8000     32.3916     72.8774     13.7114      2.1155     -0.4093      8.2348
   524.9000     32.3404     71.9990     13.5025      2.1164     -0.4692      8.2348
   525.0000     32.6081     71.2956     13.8900      2.1120     -0.4720      8.2391
   525.1000     32.1738     69.4070     13.9227      2.1191     -0.4511      8.2391
   525.2000     30.5494     68.3546     13.9887      2.1459     -0.4204      8.2391
   525.3000     28.2591     74.1961     14.4762      2.1837     -0.4111      8.2417
   525.4000     27.2706     84.1713     14.7098      2.2000     -0.3456      8.2417
   525.5000     28.5351     89.9287     14.2418      2.1792     -0.4226      8.2428
   525.6000     30.1805     88.0350     13.6359      2.1520     -0.4507      8.2428
   525.7000     30.5054     81.1388     13.6401      2.1467     -0.4198      8.2428
   525.8000     30.1331     76.3902     13.7231      2.1528     -0.3972      8.2501
   525.9000     30.1242     77.0574     12.9733      2.1530     -0.3804      8.2501
   526.0000     30.4526     76.7008     12.1942      2.1475     -0.4169      8.2538
   526.1000     30.6598     73.4123     12.1095      2.1441     -0.3972      8.2538
   526.2000     30.6874     72.6759     12.3773      2.1437     -0.4379      8.2538
   526.3000     30.7490     75.4301     12.9593      2.1426     -0.4005      8.2377
   526.4000     30.8697     79.8805     13.8960      2.1406     -0.4877      8.2377
   526.5000     31.0878     88.0981     14.8489      2.1371     -0.4431      8.2234
   526.6000     31.6549     96.1578     15.3199      2.1277     -0.4564      8.2234
   526.7000     32.3298     95.5296     15.1653      2.1166     -0.4831      8.2234
   526.8000     32.8733     91.5920     15.0573      2.1076     -0.4066      8.2190
   526.9000     33.4532     94.9923     16.1555      2.0980     -0.4682      8.2190
   527.0000     34.0600    104.8022     18.5926      2.0880     -0.4113      8.2163
   527.1000     34.5852    114.7813     20.5785      2.0793     -0.5228      8.2163
   527.2000     35.0179    123.7720     20.8380      2.0722     -0.4674      8.2163
   527.3000     35.7415    128.6176     20.4124      2.0603     -0.4837      8.2138
   527.4000     36.7411    125.8729     20.3313      2.0438     -0.4897      8.2138
   527.5000     37.3253    119.2028     20.2206      2.0341     -0.4821      8.2163
   527.6000     36.9751    116.3380     19.5757      2.0399     -0.5013      8.2163
   527.7000     36.3509    119.3707     19.0673      2.0502     -0.4178      8.2163
   527.8000     37.0582    124.2058     19.2011      2.0385     -0.4499      8.2182
   527.9000     39.2660    126.6784     19.3701      2.0021     -0.5399      8.2182
   528.0000     40.8761    126.7099     19.2865      1.9755     -0.5764      8.2156
   528.1000     40.2342    125.2383     19.3630      1.9861     -0.5470      8.2156
   528.2000     38.5357    122.9097     19.6245      2.0142     -0.4496      8.2156
   528.3000     38.0043    127.0557     19.8921      2.0229     -0.4774      8.2132
   528.4000     38.5668    138.7287     19.8598      2.0136     -0.5296      8.2132
   528.5000     39.3189    144.0041     19.3765      2.0012     -0.4192      8.2148
   528.6000     40.4710    138.3215     19.2062      1.9822     -0.5152      8.2148
   528.7000     41.3812    133.5847     19.6910      1.9672     -0.5907      8.2148
   528.8000     41.0017    134.8645     20.0737      1.9735     -0.4935      8.2213
   528.9000     39.6545    134.9339     20.3564      1.9957     -0.5405      8.2213
   529.0000     37.9967    132.4823     20.7377      2.0231     -0.4827      8.2283
   529.1000     36.7770    131.1835     20.5327      2.0432     -0.4372      8.2283
   529.2000     36.5833    129.0325     20.0269      2.0464     -0.4526      8.2283
   529.3000     36.9420    128.9672     20.2701      2.0405     -0.4647      8.2270
   529.4000     37.2884    134.1363     21.1019      2.0347     -0.4730      8.2270
   529.5000     37.6978    136.3853     21.4500      2.0280     -0.5154      8.2219
