~Version Information
VERS.                      2.0: CWLS Log ASCII Standard - VERSION 2.0
WRAP.                       NO: One line per depth step
~Well Information Block
STRT.FT                -8.5000: 
STOP.FT              1214.7500: 
STEP.FT                 0.2500: 
NULL.                -999.2500: 
COMP.          Pioneer Natural Resources: COMPANY
WELL.          Rock Island 44-24 Tr: WELL
FLD.           Purgatorie River: FIELD
LOC.           814' FSL & 761' FEL--: LOCATION
CNTY.               Las Animas: COUNTY
SRVC.          Patterson Wireline: SERVICE COMPANY
DATE.          Fri Apr 28 10:23:18 2006: LOG DATE
UWI.           05 071 08680 00: UNIQUE WELL ID
STAT.                       CO: STATE
~Curve Information Block
DEPT.FT            0 000 00 00: Depth
CCL.                          : Casing Collar Locator
TT3.usec                      : CBL 3' Travel Time
AMP3.mV                       : CBL 3' Amplitude
GR.GAPI                       : Gamma Ray
~Parameter Information Block
~A  Depth       CCL         TT3         AMP3         GR     
# ...
  1197.5000      0.0000    679.4803      4.8810     98.8788
  1197.7500      0.0000    676.3940      4.8359     98.4636
  1198.0000      0.0000    676.6205      4.8022     98.1179
  1198.2500      0.0000    676.4157      4.7841     99.4273
  1198.5000      0.0000    674.1005      4.7778    101.3463
  1198.7500      0.0000    673.3680      4.7782    101.3128
  1199.0000      0.0000    679.0743      4.7837     98.3391
  1199.2500      0.0000    690.2751      4.7952     94.4055
  1199.5000      0.0000    700.2161      4.8118     92.4870
  1199.7500      0.0000    703.3512      4.8311     93.3894
  1200.0000      0.0000    699.2766      4.8531     94.4437
  1200.2500      0.0000    689.3323      4.8814     91.0081
  1200.5000      0.0000    673.0506      4.9160     79.6675
  1200.7500      0.0000    650.7228      4.9478     61.0286
  1201.0000      0.0000    628.4291      4.9596     39.7855
  1201.2500      0.0000    617.5451      4.9355     21.6182
  1201.5000      0.0000    627.2034      4.8720      9.6394
  1201.7500      0.0000    656.3948      4.7852      3.4851
  1202.0000      0.0000    693.3441      4.7030      1.0121
  1202.2500      0.0000    723.2993      4.6483      0.2341
  1202.5000      0.0000    738.2680      4.6265      0.0422
  1202.7500      0.0000    740.7946      4.6302      0.0052
  1203.0000      0.0000    739.8785      4.6491      0.0000
  1203.2500      0.0000    743.7773      4.6735   -999.2500
  1203.5000      0.0000    755.2304      4.6936   -999.2500
  1203.7500      0.0000    771.2991      4.7014   -999.2500
  1204.0000      0.0000    786.4482      4.6957   -999.2500
  1204.2500      0.0000    795.7966      4.6828   -999.2500
  1204.5000      0.0000    796.1248      4.6732   -999.2500
  1204.7500      0.0000    784.8475      4.6757   -999.2500
  1205.0000      0.0000    758.8978      4.6870   -999.2500
  1205.2500      0.0000    715.0182      4.6798   -999.2500
  1205.5000      0.0000    650.9667      4.5954   -999.2500
  1205.7500      0.0000    565.8026      4.3469   -999.2500
  1206.0000      0.0000    460.1487      3.8564   -999.2500
  1206.2500      0.0000    339.8937      3.1283   -999.2500
  1206.5000      0.0000    220.2860      2.2943   -999.2500
  1206.7500      0.0000    121.2995      1.5531   -999.2500
  1207.0000      0.0000     55.3182      1.0414   -999.2500
  1207.2500      0.0000     20.5118      0.7666   -999.2500
  1207.5000      0.0000      6.1022      0.6517   -999.2500
  1207.7500      0.0000      1.4420      0.6144   -999.2500
  1208.0000      0.0000      0.2667      0.6050   -999.2500
  1208.2500      0.0000      0.0354      0.6031   -999.2500
  1208.5000      0.0000   -999.2500   -999.2500   -999.2500
  1208.7500      0.0000   -999.2500   -999.2500   -999.2500
  1209.0000      0.0000   -999.2500   -999.2500   -999.2500
  1209.2500      0.0000   -999.2500   -999.2500   -999.2500
  1209.5000      0.0000   -999.2500   -999.2500   -999.2500
  1209.7500      0.0000   -999.2500   -999.2500   -999.2500
  1210.0000      0.0000   -999.2500   -999.2500   -999.2500
  1210.2500      0.0000   -999.2500   -999.2500   -999.2500
  1210.5000      0.0000   -999.2500   -999.2500   -999.2500
  1210.7500      0.0000   -999.2500   -999.2500   -999.2500
  1211.0000      0.0000   -999.2500   -999.2500   -999.2500
  1211.2500      0.0000   -999.2500   -999.2500   -999.2500
  1211.5000      0.0000   -999.2500   -999.2500   -999.2500
  1211.7500      0.0000   -999.2500   -999.2500   -999.2500
  1212.0000      0.0000   -999.2500   -999.2500   -999.2500
  1212.2500      0.0000   -999.2500   -999.2500   -999.2500
  1212.5000      0.0000   -999.2500   -999.2500   -999.2500
  1212.7500      0.0000   -999.2500   -999.2500   -999.2500
  1213.0000      0.0000   -999.2500   -999.2500   -999.2500
  1213.2500      0.0000   -999.2500   -999.2500   -999.2500
  1213.5000      0.0000   -999.2500   -999.2500   -999.2500
  1213.7500      0.0000   -999.2500   -999.2500   -999.2500
  1214.0000      0.0000   -999.2500   -999.2500   -999.2500
  1214.2500   -999.2500   -999.2500   -999.2500   -999.2500
  1214.5000   -999.2500   -999.2500   -999.2500   -999.2500
  1214.7500   -999.2500   -999.2500   -999.2500   -999.2500
