~Version Information
VERS.                      2.0: CWLS Log ASCII Standard - VERSION 2.0
WRAP.                       NO: One line per depth step
~Well Information Block
STRT.FT               550.0000: 
STOP.FT              1498.5000: 
STEP.FT                 0.1000: 
NULL.                -999.2500: 
COMP.          Pioneer Natural Resources: COMPANY
WELL.          Surtees 23-34 Tr: WELL
FLD.           Purgatoire River: FIELD
LOC.           1559' FSL & 1997' FWL: LOCATION
PROV.                 Colorado: PROVINCE
CNTY.               Las Animas: COUNTRY
SRVC.                Patterson: SERVICE COMPANY
DATE.          Wed Jul 27 09:35:51 2005: LOG DATE
UWI.           05 071 08449 00: UNIQUE WELL ID
~Curve Information Block
DEPT.FT            0 000 00 00: Depth
DCAL.in                       : CDL Caliper
RHOB.g/cc                     : CDL Bulk Density
RHOC.g/cc                     : CDL Density Correction
DPOR.pu                       : CDL Density Porosity
GR.GAPI                       : Gamma Ray
NPOR.pu                       : Neutron Porosity
~Parameter Information Block
~A  Depth       DCAL        RHOB        RHOC        DPOR         GR         NPOR    
# ...
  1481.2000      7.9488      2.5291      0.1103      7.3292     32.8170     19.7545
  1481.3000      7.9533      2.5500      0.0572      6.0630     10.7375     19.5502
  1481.4000      7.9533      2.5592      0.0967      5.5008      1.9980     19.3251
  1481.5000      7.9288      2.5667      0.0876      5.0469      0.2036     18.7138
  1481.6000      7.9288      2.5783      0.1288      4.3465      0.0109     17.5336
  1481.7000      7.9288      2.5896      0.1748      3.6626      0.0000     16.3290
  1481.8000      7.8691      2.5933      0.0741      3.4381   -999.2500     15.8550
  1481.9000      7.8691      2.5863      0.0578      3.8594   -999.2500     16.2815
  1482.0000      7.8681      2.5665      0.0878      5.0584   -999.2500     16.8811
  1482.1000      7.8681      2.5373      0.0361      6.8285   -999.2500     16.7277
  1482.2000      7.8681      2.5114      0.0046      8.3978   -999.2500     16.0227
  1482.3000      7.9182      2.4953     -0.0015      9.3766   -999.2500     15.5808
  1482.4000      7.9182      2.4852     -0.0064      9.9857   -999.2500     15.7661
  1482.5000      7.9319      2.4814      0.0086     10.2205   -999.2500     16.3880
  1482.6000      7.9319      2.4895      0.0219      9.7289   -999.2500     17.0618
  1482.7000      7.9319      2.5127      0.0599      8.3214   -999.2500     17.5144
  1482.8000      7.9366      2.5419      0.0733      6.5487   -999.2500     17.5487
  1482.9000      7.9366      2.5602      0.0756      5.4430   -999.2500     17.1407
  1483.0000      7.9415      2.5609      0.0842      5.3973   -999.2500     16.4601
  1483.1000      7.9415      2.5552      0.0141      5.7424   -999.2500     15.7319
  1483.2000      7.9415      2.5574      0.0776      5.6146   -999.2500     15.3560
  1483.3000      7.9422      2.5687      0.0666      4.9286   -999.2500     15.3980
  1483.4000      7.9422      2.5840      0.0888      4.0001   -999.2500     15.7363
  1483.5000      7.9305      2.5973      0.1057      3.1960   -999.2500     16.9364
  1483.6000      7.9305      2.5993      0.1102      3.0697   -999.2500     20.4253
  1483.7000      7.9305      2.5873      0.1127      3.7972   -999.2500     28.7001
  1483.8000      7.9099      2.5759      0.0549      4.4892   -999.2500     40.4949
  1483.9000      7.9099      2.5814      0.0858      4.1584   -999.2500     48.6673
  1484.0000      7.9042      2.5950      0.1427      3.3316   -999.2500     51.5401
  1484.1000      7.9042      2.5975      0.0705      3.1796   -999.2500     52.0972
  1484.2000      7.9042      2.5893      0.0724      3.6791   -999.2500     52.1561
  1484.3000      7.9118      2.5816      0.0169      4.1462   -999.2500     52.1594
  1484.4000      7.9118      2.5807      0.0800      4.2030   -999.2500   -999.2500
  1484.5000      7.9140      2.5870      0.0977      3.8154   -999.2500   -999.2500
  1484.6000      7.9140      2.5946      0.0651      3.3604   -999.2500   -999.2500
  1484.7000      7.9140      2.5860      0.1004      3.8790   -999.2500   -999.2500
  1484.8000      7.9110      2.5617      0.0033      5.3488   -999.2500   -999.2500
  1484.9000      7.9110      2.5560      0.0055      5.6993   -999.2500   -999.2500
  1485.0000      7.9284      2.5863      0.0845      3.8592   -999.2500   -999.2500
  1485.1000      7.9284      2.6258      0.1804      1.4652   -999.2500   -999.2500
  1485.2000      7.9284      2.6491      0.1303      0.0556   -999.2500   -999.2500
  1485.3000      7.9379      2.6669      0.1349     -1.0240   -999.2500   -999.2500
  1485.4000      7.9379      2.6860      0.2217     -2.1800   -999.2500   -999.2500
  1485.5000      7.9403      2.6919      0.1859     -2.5380   -999.2500   -999.2500
  1485.6000      7.9403      2.6798      0.1870     -1.8090   -999.2500   -999.2500
  1485.7000      7.9403      2.6553      0.1875     -0.3184   -999.2500   -999.2500
  1485.8000      7.8992      2.6330      0.1060      1.0312   -999.2500   -999.2500
  1485.9000      7.8992      2.6291      0.1476      1.2679   -999.2500   -999.2500
  1486.0000      7.9069      2.6308      0.1426      1.1633   -999.2500   -999.2500
  1486.1000      7.9069      2.6243      0.1100      1.5582   -999.2500   -999.2500
  1486.2000      7.9069      2.6250      0.0757      1.5142   -999.2500   -999.2500
  1486.3000      7.9327      2.6423      0.1422      0.4665   -999.2500   -999.2500
  1486.4000      7.9327      2.6556      0.1524     -0.3370   -999.2500   -999.2500
  1486.5000      7.9940      2.6479      0.1169      0.1267   -999.2500   -999.2500
  1486.6000      7.9940      2.6254      0.1539      1.4936   -999.2500   -999.2500
  1486.7000      7.9940      2.6040      0.0778      2.7868   -999.2500   -999.2500
  1486.8000      8.0258      2.5950      0.1302      3.3348   -999.2500   -999.2500
  1486.9000      8.0258      2.5943      0.0983      3.3764   -999.2500   -999.2500
  1487.0000      7.9571      2.6003      0.0894      3.0111   -999.2500   -999.2500
  1487.1000      7.9571      2.6161      0.1116      2.0569   -999.2500   -999.2500
  1487.2000      7.9571      2.6419      0.0851      0.4938   -999.2500   -999.2500
  1487.3000      7.9401      2.6762      0.1625     -1.5888   -999.2500   -999.2500
  1487.4000      7.9401      2.7085      0.1518     -3.5449   -999.2500   -999.2500
  1487.5000      7.9400      2.7290      0.1671     -4.7896   -999.2500   -999.2500
  1487.6000      7.9400      2.7421      0.1414     -5.5805   -999.2500   -999.2500
  1487.7000      7.9400      2.7508      0.1348     -6.1072   -999.2500   -999.2500
  1487.8000      7.8721      2.7435      0.1136     -5.6684   -999.2500   -999.2500
  1487.9000      7.8721      2.7152      0.0987     -3.9537   -999.2500   -999.2500
  1488.0000      7.8163      2.6799      0.0047     -1.8119   -999.2500   -999.2500
  1488.1000      7.8163      2.6531      0.0040     -0.1852   -999.2500   -999.2500
  1488.2000      7.8163      2.6309      0.0295      1.1601   -999.2500   -999.2500
  1488.3000      7.8851      2.6051      0.0159      2.7191   -999.2500   -999.2500
  1488.4000      7.8851      2.5830      0.0319      4.0631   -999.2500   -999.2500
  1488.5000      7.9232      2.5607      0.0353      5.4141   -999.2500   -999.2500
  1488.6000      7.9232      2.5204      0.0037      7.8529   -999.2500   -999.2500
  1488.7000      7.9232      2.4806     -0.0825     10.2645   -999.2500   -999.2500
  1488.8000      7.9021      2.4850     -0.0440     10.0004   -999.2500   -999.2500
  1488.9000      7.9021      2.5354      0.1018      6.9462   -999.2500   -999.2500
  1489.0000      7.9058      2.5911      0.2403      3.5719   -999.2500   -999.2500
  1489.1000      7.9058      2.6156      0.2247      2.0869   -999.2500   -999.2500
  1489.2000      7.9058      2.6024      0.2176      2.8829   -999.2500   -999.2500
  1489.3000      7.9148      2.5712      0.1383      4.7748   -999.2500   -999.2500
  1489.4000      7.9148      2.5519      0.1159      5.9459   -999.2500   -999.2500
  1489.5000      7.9189      2.5520      0.1634      5.9413   -999.2500   -999.2500
  1489.6000      7.9189      2.5546      0.1354      5.7837   -999.2500   -999.2500
  1489.7000      7.9189      2.5548      0.1240      5.7698   -999.2500   -999.2500
  1489.8000      7.9609      2.5559      0.1505      5.7031   -999.2500   -999.2500
  1489.9000      7.9609      2.5588      0.1347      5.5258   -999.2500   -999.2500
  1490.0000      7.9917      2.5692      0.1080      4.8954   -999.2500   -999.2500
  1490.1000      7.9917      2.5845      0.1236      3.9684   -999.2500   -999.2500
  1490.2000      7.9917      2.5994      0.0908      3.0667   -999.2500   -999.2500
  1490.3000      7.9897      2.6240      0.1305      1.5732   -999.2500   -999.2500
  1490.4000      7.9897      2.6610      0.1508     -0.6678   -999.2500   -999.2500
  1490.5000      7.9168      2.6963      0.1379     -2.8065   -999.2500   -999.2500
  1490.6000      7.9168      2.7194      0.1921     -4.2031   -999.2500   -999.2500
  1490.7000      7.9168      2.7264      0.1973     -4.6288   -999.2500   -999.2500
