~Version Information
VERS.                      2.0: CWLS Log ASCII Standard - VERSION 2.0
WRAP.                       NO: One line per depth step
~Well Information Block
STRT.FT               245.0000: 
STOP.FT              1208.2000: 
STEP.FT                 0.1000: 
NULL.                -999.2500: 
COMP.          Pioneer Natural Resources: COMPANY
WELL.              Davida 34-8: WELL
FLD.           Purgatoire River: FIELD
LOC.           418' FSL & 1923' FEL--: LOCATION
CNTY.               Las Animas: COUNTY
SRVC.                Patterson: SERVICE COMPANY
DATE.          Mon Mar 20 08:22:01 2006: LOG DATE
UWI.           05 071 08722 00: UNIQUE WELL ID
STAT.                 Colorado: STATE
~Curve Information Block
DEPT.FT            0 000 00 00: Depth
DCAL.in                       : CDL Caliper
RHOB.g/cc                     : CDL Bulk Density
RHOC.g/cc                     : CDL Density Correction
DPOR.pu                       : CDL Density Porosity
NPOR.pu                       : Neutron Porosity
GR.GAPI                       : Gamma Ray
~Parameter Information Block
~A  Depth       DCAL        RHOB        RHOC        DPOR        NPOR         GR     
# ...
   744.2000      7.9605      2.6050     -0.0480      2.7264     20.2541    106.1077
   744.3000      7.9508      2.6091     -0.0055      2.4804     19.9857    103.2178
   744.4000      7.9508      2.6183     -0.0041      1.9236     20.1402     99.8742
   744.5000      7.9449      2.6120     -0.0088      2.3055     20.5311     97.0209
   744.6000      7.9449      2.5951     -0.0068      3.3290     20.7996     95.7433
   744.7000      7.9449      2.5846     -0.0011      3.9637     20.6065     94.6694
   744.8000      7.9399      2.5797      0.0266      4.2631     20.0141     91.7594
   744.9000      7.9399      2.5730      0.0216      4.6686     19.5133     88.1465
   745.0000      7.9290      2.5704      0.0315      4.8232     19.2528     86.8393
   745.1000      7.9290      2.5757      0.0036      4.5013     19.1636     86.9771
   745.2000      7.9290      2.5822      0.0356      4.1064     19.4508     86.4797
   745.3000      7.9310      2.5857      0.0440      3.8954     19.9293     86.2635
   745.4000      7.9310      2.5857      0.0526      3.8958     20.1439     88.2496
   745.5000      7.9500      2.5815      0.0471      4.1521     20.1850     90.9532
   745.6000      7.9500      2.5740      0.0077      4.6077     20.2117     89.2756
   745.7000      7.9500      2.5622      0.0102      5.3233     20.0347     83.3037
   745.8000      7.9638      2.5469      0.0294      6.2512     19.7627     80.3767
   745.9000      7.9638      2.5368     -0.0096      6.8583     19.9085     82.8920
   746.0000      7.9515      2.5352      0.0080      6.9572     20.4437     87.9176
   746.1000      7.9515      2.5316      0.0300      7.1748     20.8315     93.4771
   746.2000      7.9515      2.5245     -0.0469      7.6030     21.0496     97.6095
   746.3000      7.9288      2.5316      0.0117      7.1770     21.4799     99.6108
   746.4000      7.9288      2.5560      0.0607      5.6944     22.1406    101.3119
   746.5000      7.9215      2.5748      0.0718      4.5579     22.7869    104.4016
   746.6000      7.9215      2.5693      0.0703      4.8910     23.4084    108.0584
   746.7000      7.9215      2.5415      0.0487      6.5787     24.0669    112.0194
   746.8000      7.9265      2.5091     -0.0165      8.5378     24.9070    117.7220
   746.9000      7.9265      2.4896      0.0125      9.7195     25.9371    123.4392
   747.0000      7.9309      2.4814     -0.0239     10.2173     26.7849    127.3221
   747.1000      7.9309      2.4782     -0.0025     10.4092     27.2909    128.9627
   747.2000      7.9309      2.4867      0.0049      9.8960     27.7887    127.2186
   747.3000      7.9320      2.5120      0.0771      8.3629     28.5091    124.0438
   747.4000      7.9320      2.5332      0.0819      7.0803     29.1099    120.9529
   747.5000      7.9274      2.5277      0.0570      7.4129     29.0470    116.0961
   747.6000      7.9274      2.5110      0.0551      8.4247     28.1336    111.0331
   747.7000      7.9274      2.5224      0.0149      7.7358     26.8762    109.5678
   747.8000      7.9133      2.5701      0.1611      4.8447     25.8253    110.9831
   747.9000      7.9133      2.6129      0.2051      2.2478     24.8431    115.0645
   748.0000      7.8883      2.6241      0.1122      1.5669     23.6762    123.3298
   748.1000      7.8883      2.6187      0.1279      1.8986     22.5226    130.4939
   748.2000      7.8883      2.6133      0.1263      2.2262     21.7242    129.2738
   748.3000      7.8652      2.6100      0.1159      2.4237     21.4284    123.4484
   748.4000      7.8652      2.6068      0.1259      2.6194     21.4717    119.4178
   748.5000      7.8615      2.6044      0.0721      2.7633     21.6396    114.3637
   748.6000      7.8615      2.6000      0.0945      3.0289     21.9572    107.3433
   748.7000      7.8615      2.5895      0.0414      3.6687     22.6105    102.0784
   748.8000      7.8702      2.5828      0.0446      4.0746     23.5811     99.2572
   748.9000      7.8702      2.5830      0.0185      4.0589     24.4909     98.6773
   749.0000      7.8766      2.5728      0.0303      4.6768     25.0842     99.8426
   749.1000      7.8766      2.5380      0.0295      6.7854     25.4653     99.5759
   749.2000      7.8766      2.4895     -0.0327      9.7264     25.6737     98.0884
   749.3000      7.8781      2.4524     -0.0099     11.9781     25.5640     97.4025
   749.4000      7.8781      2.4411     -0.0610     12.6581     25.2616     95.9691
   749.5000      7.8787      2.4513     -0.0255     12.0441     25.0048     92.6463
   749.6000      7.8787      2.4618     -0.0138     11.4064     24.7103     90.1235
   749.7000      7.8787      2.4607     -0.0399     11.4733     24.3535     89.5452
   749.8000      7.8772      2.4532     -0.0096     11.9274     24.1964     89.2644
   749.9000      7.8772      2.4469     -0.0172     12.3105     24.4446     89.6941
   750.0000      7.8701      2.4448      0.0095     12.4368     24.8220     92.0362
   750.1000      7.8701      2.4482      0.0148     12.2307     24.8720     96.2245
   750.2000      7.8701      2.4652      0.0247     11.1989     24.6155    100.3556
   750.3000      7.8594      2.4991      0.0710      9.1461     24.2810    101.3757
   750.4000      7.8594      2.5307      0.1343      7.2284     24.0996    100.2928
   750.5000      7.8532      2.5443      0.0982      6.4037     24.4345    102.2459
   750.6000      7.8532      2.5513      0.0677      5.9812     25.0441    107.9040
   750.7000      7.8532      2.5622      0.1060      5.3222     25.1691    114.0823
   750.8000      7.8551      2.5658      0.1634      5.1047     24.6545    119.1270
   750.9000      7.8551      2.5611      0.1097      5.3880     24.0708    120.5610
   751.0000      7.8652      2.5692      0.0758      4.8961     24.0014    118.9212
   751.1000      7.8652      2.5929      0.1155      3.4582     24.3373    118.5744
   751.2000      7.8652      2.6125      0.1195      2.2730     24.6781    119.8366
   751.3000      7.8822      2.6226      0.1368      1.6605     24.8480    121.5351
   751.4000      7.8822      2.6332      0.1052      1.0159     24.8105    122.4200
   751.5000      7.8984      2.6408      0.1150      0.5548     24.8523    119.5423
   751.6000      7.8984      2.6322      0.0943      1.0792     25.0949    114.8474
   751.7000      7.8984      2.6070      0.1191      2.6065     25.2994    111.9150
   751.8000      7.9046      2.5752      0.0793      4.5329     25.4757    112.7229
   751.9000      7.9046      2.5530     -0.0133      5.8785     25.8849    115.5724
   752.0000      7.9005      2.5498      0.0669      6.0751     26.4302    115.5705
   752.1000      7.9005      2.5549      0.0392      5.7665     26.7313    112.6483
   752.2000      7.9005      2.5551      0.0458      5.7542     26.6964    111.3881
   752.3000      7.8936      2.5426      0.0254      6.5080     26.4373    113.0240
   752.4000      7.8936      2.5227      0.0095      7.7125     26.1247    115.4440
   752.5000      7.8937      2.5219     -0.0045      7.7641     25.9498    119.9965
   752.6000      7.8937      2.5534      0.0536      5.8538     25.9902    126.2821
   752.7000      7.8937      2.5887      0.0827      3.7136     26.0989    128.2741
   752.8000      7.9009      2.5978      0.0680      3.1628     26.1074    124.9740
   752.9000      7.9009      2.5877      0.0186      3.7777     25.8937    121.2453
   753.0000      7.9045      2.5777      0.0311      4.3834     25.4481    118.4808
   753.1000      7.9045      2.5692      0.0497      4.8944     25.1444    115.3918
   753.2000      7.9045      2.5576      0.0473      5.5971     25.2937    113.1191
   753.3000      7.9050      2.5498      0.0352      6.0711     25.5986    111.7465
   753.4000      7.9050      2.5600      0.0079      5.4528     25.5757    107.7334
   753.5000      7.9057      2.5935      0.0446      3.4246     25.3151    100.7685
   753.6000      7.9057      2.6246      0.1193      1.5418     25.3776     93.8712
   753.7000      7.9057      2.6206      0.0817      1.7800     25.7005     88.0814
