~Version Information
VERS.                      2.0: CWLS Log ASCII Standard - VERSION 2.0
WRAP.                       NO: One line per depth step
~Well Information Block
STRT.FT               645.0000: 
STOP.FT              2131.0000: 
STEP.FT                 0.1000: 
NULL.                -999.2500: 
COMP.          Pioneer Natural Resources: COMPANY
WELL.          Gunslinger 13-24: WELL
FLD.           Purgatoire River: FIELD
LOC.           1968' FSL & 633' FWL: LOCATION
PROV.                 Colorado: PROVINCE
CNTY.               Las Animas: COUNTRY
SRVC.                Patterson: SERVICE COMPANY
DATE.          Sat Jul 30 08:07:53 2005: LOG DATE
UWI.           05 071 08442 00: UNIQUE WELL ID
~Curve Information Block
DEPT.FT            0 000 00 00: Depth
DCAL.in                       : CDL Caliper
RHOB.g/cc                     : CDL Bulk Density
RHOC.g/cc                     : CDL Density Correction
DPOR.pu                       : CDL Density Porosity
GR.GAPI                       : Gamma Ray
NPOR.pu                       : Neutron Porosity
~Parameter Information Block
~A  Depth       DCAL        RHOB        RHOC        DPOR         GR         NPOR    
# ...
  1921.8000      7.9342      2.2536      0.0520     24.0245    100.3673     29.6582
  1921.9000      7.9342      2.2741      0.0540     22.7826    100.3891     29.8016
  1922.0000      7.9000      2.3047      0.0821     20.9250     96.5852     30.0782
  1922.1000      7.9000      2.3397      0.1303     18.8082     91.9265     29.8749
  1922.2000      7.9000      2.3707      0.0918     16.9263     90.2893     29.4529
  1922.3000      7.8697      2.4054      0.0917     14.8251     92.5813     29.3455
  1922.4000      7.8697      2.4456      0.1080     12.3895     96.4667     29.5830
  1922.5000      7.8766      2.4724      0.1218     10.7617    102.5844     29.8514
  1922.6000      7.8766      2.4752      0.0800     10.5928    112.8529     30.1251
  1922.7000      7.8766      2.4667      0.0508     11.1073    123.2914     30.3868
  1922.8000      7.8999      2.4632      0.0354     11.3195    126.4725     30.0628
  1922.9000      7.8999      2.4722      0.0749     10.7771    122.7237     28.8324
  1923.0000      7.8999      2.4885      0.0895      9.7896    118.3558     27.4096
  1923.1000      7.8999      2.4978      0.0591      9.2242    113.3884     26.6147
  1923.2000      7.8999      2.4935      0.0579      9.4874    105.2971     26.5838
  1923.3000      7.9144      2.4820     -0.0078     10.1833     99.0063     26.7934
  1923.4000      7.9144      2.4719      0.0117     10.7917     98.3838     26.7743
  1923.5000      7.9190      2.4718     -0.0311     10.7999    100.9760     26.7411
  1923.6000      7.9190      2.4836      0.0426     10.0832    103.8918     27.0952
  1923.7000      7.9190      2.4898      0.0331      9.7118    104.8511     27.8328
  1923.8000      7.9256      2.4806      0.0165     10.2649    103.5033     28.3495
  1923.9000      7.9256      2.4652      0.0329     11.1981    102.5940     28.1735
  1924.0000      7.9130      2.4512      0.0346     12.0494    104.5506     27.7023
  1924.1000      7.9130      2.4454      0.0141     12.4019    109.9040     27.5403
  1924.2000      7.9130      2.4526      0.0285     11.9641    115.6815     27.7444
  1924.3000      7.9134      2.4718      0.0062     10.7986    116.7581     28.1279
  1924.4000      7.9134      2.4960      0.0566      9.3307    113.2178     28.4179
  1924.5000      7.8912      2.5115      0.0651      8.3959    110.2774     28.1964
  1924.6000      7.8912      2.5118      0.0670      8.3773    108.2268     27.6744
  1924.7000      7.8912      2.5048      0.0737      8.8021    104.8452     27.4556
  1924.8000      7.8941      2.5013      0.0548      9.0137    101.8514     27.7544
  1924.9000      7.8941      2.5099      0.0473      8.4881    100.3360     28.1977
  1925.0000      7.8883      2.5241      0.0727      7.6283     97.3690     28.0483
  1925.1000      7.8883      2.5275      0.0878      7.4249     92.4325     27.1860
  1925.2000      7.8883      2.5163      0.0614      8.1001     87.4611     26.1376
  1925.3000      7.8851      2.4994      0.0616      9.1303     81.9975     25.7555
  1925.4000      7.8851      2.4855      0.0357      9.9670     77.2552     25.9527
  1925.5000      7.8802      2.4791      0.0432     10.3553     77.3668     26.0454
  1925.6000      7.8802      2.4888      0.0326      9.7685     81.4443     26.3053
  1925.7000      7.8802      2.5174      0.0963      8.0353     87.1591     27.0922
  1925.8000      7.8922      2.5422      0.0744      6.5303     97.0130     27.9391
  1925.9000      7.8922      2.5422      0.0945      6.5331    106.9604     28.1414
  1926.0000      7.8888      2.5246      0.0492      7.6024    110.7107     27.8189
  1926.1000      7.8888      2.5088      0.0647      8.5579    110.6862     27.6887
  1926.2000      7.8888      2.5005      0.0582      9.0614    109.4508     27.7796
  1926.3000      7.8903      2.4981      0.0424      9.2051    109.3821     27.8948
  1926.4000      7.8903      2.5021      0.0241      8.9644    112.3565     28.0401
  1926.5000      7.8834      2.5091      0.0696      8.5397    113.7380     27.8419
  1926.6000      7.8834      2.5220      0.0554      7.7575    110.0564     27.2888
  1926.7000      7.8834      2.5431      0.0847      6.4772    107.4815     26.9284
  1926.8000      7.8834      2.5530      0.1034      5.8806    110.6810     26.8949
  1926.9000      7.8834      2.5421      0.0326      6.5377    113.2927     26.8770
  1927.0000      7.8840      2.5324      0.0447      7.1274    108.9033     26.3144
  1927.1000      7.8840      2.5398      0.0454      6.6794    104.1936     25.5340
  1927.2000      7.8840      2.5558      0.0596      5.7079    105.2232     25.4273
  1927.3000      7.8817      2.5655      0.0655      5.1209    107.3831     25.7563
  1927.4000      7.8817      2.5671      0.0317      5.0242    106.5849     25.8214
  1927.5000      7.8855      2.5672      0.0389      5.0172    103.5629     25.6138
  1927.6000      7.8855      2.5633      0.0411      5.2558     98.7966     25.2452
  1927.7000      7.8855      2.5506      0.0139      6.0262     93.1961     24.7442
  1927.8000      7.8722      2.5401     -0.0094      6.6596     89.8013     24.3567
  1927.9000      7.8722      2.5491      0.0331      6.1122     87.4713     24.5205
  1928.0000      7.8686      2.5695      0.1066      4.8804     84.0599     25.0642
  1928.1000      7.8686      2.5759      0.0691      4.4920     80.2268     25.0669
  1928.2000      7.8686      2.5673      0.0145      5.0104     75.7844     24.0711
  1928.3000      7.8844      2.5679      0.0471      4.9773     71.3151     22.6839
  1928.4000      7.8844      2.5893      0.0508      3.6814     70.2791     21.8174
  1928.5000      7.8704      2.6106      0.0874      2.3877     70.3714     21.5701
  1928.6000      7.8704      2.6118      0.0264      2.3176     67.9836     21.2303
  1928.7000      7.8704      2.5988      0.0930      3.1044     67.4543     20.8891
  1928.8000      7.8778      2.5847      0.0583      3.9547     69.0070     20.8219
  1928.9000      7.8778      2.5788      0.0565      4.3137     66.3442     20.5141
  1929.0000      7.8786      2.5767      0.0539      4.4407     59.5286     20.2216
  1929.1000      7.8786      2.5727      0.0340      4.6827     53.4629     20.2932
  1929.2000      7.8786      2.5712      0.0670      4.7735     52.9360     20.3214
  1929.3000      7.8570      2.5682      0.0459      4.9546     57.9418     20.1525
  1929.4000      7.8570      2.5587      0.0271      5.5340     60.8130     19.9450
  1929.5000      7.8663      2.5516      0.0436      5.9616     58.1074     19.8822
  1929.6000      7.8663      2.5483      0.0686      6.1625     53.2136     20.1259
  1929.7000      7.8663      2.5409      0.0343      6.6141     48.7670     20.6841
  1929.8000      7.8578      2.5373      0.0273      6.8279     46.8547     21.0418
  1929.9000      7.8578      2.5450      0.0269      6.3610     48.6309     20.7913
  1930.0000      7.8630      2.5532      0.0349      5.8692     52.8985     20.7772
  1930.1000      7.8630      2.5478      0.0619      6.1915     56.5690     21.5333
  1930.2000      7.8630      2.5239      0.0364      7.6406     58.8190     22.4587
  1930.3000      7.8661      2.4862      0.0742      9.9299     60.9132     23.0424
  1930.4000      7.8661      2.4449      0.0483     12.4289     62.3524     23.2159
  1930.5000      7.8732      2.4119     -0.0050     14.4292     61.9080     23.2880
  1930.6000      7.8732      2.3895      0.0341     15.7883     61.4004     23.6433
  1930.7000      7.8732      2.3684      0.0122     17.0656     63.6288     24.4214
  1930.8000      7.8556      2.3526      0.0076     18.0219     68.3948     25.2410
  1930.9000      7.8556      2.3600     -0.0053     17.5748     74.3561     25.4232
  1931.0000      7.8478      2.3853      0.1172     16.0426     80.5114     25.2699
  1931.1000      7.8478      2.4084      0.0694     14.6434     86.5598     25.4206
  1931.2000      7.8478      2.4346      0.1036     13.0558     92.6760     25.9369
  1931.3000      7.8630      2.4648      0.1125     11.2217     96.4003     26.7785
