~Version Information
VERS.                      2.0: CWLS Log ASCII Standard - VERSION 2.0
WRAP.                       NO: One line per depth step
~Well Information Block
STRT.FT               370.0000: 
STOP.FT              1259.0000: 
STEP.FT                 0.1000: 
NULL.                -999.2500: 
COMP.          Pioneer Natural Resources: COMPANY
WELL.           Tennis 7-12 Tr: WELL
FLD.           Purgatoire River: FIELD
LOC.           1794' FNL & 1563' FEL: LOCATION
PROV.                 Colorado: PROVINCE
CNTY.               Las Animas: COUNTRY
SRVC.                Patterson: SERVICE COMPANY
DATE.          Tue Dec 20 13:35:40 2005: LOG DATE
UWI.           05 071 08635 00: UNIQUE WELL ID
~Curve Information Block
DEPT.FT            0 000 00 00: Depth
DCAL.in                       : CDL Caliper
RHOB.g/cc                     : CDL Bulk Density
RHOC.g/cc                     : CDL Density Correction
DPOR.pu                       : CDL Density Porosity
GR.GAPI                       : Gamma Ray
~Parameter Information Block
~A  Depth       DCAL        RHOB        RHOC        DPOR         GR     
# ...
  1008.4000      7.8648      1.5883     -0.1499     64.3455     26.6977
  1008.5000      7.8718      1.5597     -0.0757     66.0785     25.4523
  1008.6000      7.8718      1.5483      0.0288     66.7694     25.2907
  1008.7000      7.8718      1.5416      0.0619     67.1742     27.5127
  1008.8000      7.8755      1.5399      0.0271     67.2759     31.8016
  1008.9000      7.8755      1.5553      0.0274     66.3434     34.7214
  1009.0000      7.8750      1.5896      0.0566     64.2693     35.3931
  1009.1000      7.8750      1.6337      0.0625     61.5919     36.4854
  1009.2000      7.8750      1.6798      0.0990     58.7983     39.2773
  1009.3000      7.8707      1.7181      0.1304     56.4778     42.6803
  1009.4000      7.8707      1.7419      0.0915     55.0359     45.4966
  1009.5000      7.8631      1.7552      0.0982     54.2313     47.9482
  1009.6000      7.8631      1.7613      0.0962     53.8636     50.1276
  1009.7000      7.8631      1.7556      0.0874     54.2085     51.9157
  1009.8000      7.8526      1.7359      0.0700     55.3994     53.5493
  1009.9000      7.8526      1.7122      0.0026     56.8391     55.9832
  1010.0000      7.8436      1.6979      0.0294     57.7032     61.2050
  1010.1000      7.8436      1.6983      0.0555     57.6800     69.9546
  1010.2000      7.8436      1.7203      0.0603     56.3456     78.2644
  1010.3000      7.8496      1.7763      0.1170     52.9544     81.8367
  1010.4000      7.8496      1.8632      0.1686     47.6860     84.0611
  1010.5000      7.8719      1.9649      0.2066     41.5189     89.8613
  1010.6000      7.8719      2.0743      0.2383     34.8927     97.2963
  1010.7000      7.8719      2.1923      0.2427     27.7420    103.4805
  1010.8000      7.8924      2.3087      0.2780     20.6872    107.2532
  1010.9000      7.8924      2.4065      0.2846     14.7576    108.6912
  1011.0000      7.8979      2.4808      0.2400     10.2527    110.5757
  1011.1000      7.8979      2.5304      0.1812      7.2483    114.6376
  1011.2000      7.8979      2.5455      0.1983      6.3326    117.0891
  1011.3000      7.8962      2.5264      0.1167      7.4880    114.3809
  1011.4000      7.8962      2.5082      0.0029      8.5964    109.6156
  1011.5000      7.8959      2.5225      0.0427      7.7257    107.6303
  1011.6000      7.8959      2.5497      0.1231      6.0794    110.1486
  1011.7000      7.8959      2.5603      0.0631      5.4367    114.8604
  1011.8000      7.8917      2.5595      0.0673      5.4837    119.6803
  1011.9000      7.8917      2.5643      0.0750      5.1923    123.8218
  1012.0000      7.8828      2.5783      0.1252      4.3475    127.4100
  1012.1000      7.8828      2.5889      0.1430      3.7015    131.7479
  1012.2000      7.8828      2.5800      0.1481      4.2445    135.2806
  1012.3000      7.8775      2.5428      0.1532      6.4995    137.3061
  1012.4000      7.8775      2.4799      0.0798     10.3077    137.2703
  1012.5000      7.8799      2.4174      0.0184     14.0963    135.6888
  1012.6000      7.8799      2.3937     -0.0118     15.5363    136.6342
  1012.7000      7.8799      2.4162      0.0909     14.1668    140.3086
  1012.8000      7.8899      2.4589      0.1087     11.5830    141.3457
  1012.9000      7.8899      2.4970      0.1416      9.2723    136.7401
  1013.0000      7.9002      2.5152      0.1932      8.1685    130.2530
  1013.1000      7.9002      2.5055      0.1814      8.7561    128.5407
  1013.2000      7.9002      2.4708      0.1930     10.8597    133.9562
  1013.3000      7.9045      2.4277      0.1536     13.4699    142.6915
  1013.4000      7.9045      2.4008      0.1056     15.1046    147.9744
  1013.5000      7.9032      2.3959      0.1293     15.4027    146.3237
  1013.6000      7.9032      2.3982      0.0800     15.2628    141.0143
  1013.7000      7.9032      2.3981      0.0269     15.2662    135.0359
  1013.8000      7.8967      2.3954      0.0657     15.4298    130.5148
  1013.9000      7.8967      2.3897      0.1225     15.7777    132.6986
  1014.0000      7.8963      2.3803      0.1701     16.3463    139.9176
  1014.1000      7.8963      2.3745      0.1423     16.6967    142.5114
  1014.2000      7.8963      2.3861      0.1683     15.9914    138.6183
  1014.3000      7.9075      2.4144      0.1905     14.2772    136.3470
  1014.4000      7.9075      2.4439      0.2256     12.4936    139.0835
  1014.5000      7.9156      2.4619      0.2372     11.4013    140.4072
  1014.6000      7.9156      2.4589      0.2326     11.5824    134.4317
  1014.7000      7.9156      2.4232      0.2648     13.7478    124.5887
  1014.8000      7.9336      2.3537      0.2066     17.9574    118.0067
  1014.9000      7.9336      2.2698      0.1457     23.0451    115.5347
  1015.0000      7.9620      2.1837      0.1101     28.2630    114.8169
  1015.1000      7.9620      2.0907      0.0241     33.8954    114.6459
  1015.2000      7.9620      1.9860     -0.0051     40.2452    115.3856
  1015.3000      7.9778      1.8684     -0.0474     47.3682    115.9475
  1015.4000      7.9778      1.7536     -0.0319     54.3281    112.9427
  1015.5000      7.9877      1.6638      0.0245     59.7669    107.8923
  1015.6000      7.9877      1.6012     -0.0204     63.5659    102.9041
  1015.7000      7.9877      1.5541      0.0057     66.4173     93.7947
  1015.8000      8.0498      1.5072      0.0811     69.2596     80.3436
  1015.9000      8.0498      1.4525      0.0333     72.5768     70.0346
  1016.0000      8.1950      1.4126      0.0043     74.9915     65.6834
  1016.1000      8.1950      1.4197      0.1291     74.5624     65.2925
  1016.2000      8.1950      1.4758      0.1761     71.1618     68.9138
  1016.3000      8.3372      1.5546      0.2260     66.3884     75.6922
  1016.4000      8.3372      1.6194      0.2234     62.4588     80.3776
  1016.5000      8.4097      1.6467      0.2519     60.8036     80.0526
  1016.6000      8.4097      1.6361      0.2212     61.4483     77.9358
  1016.7000      8.4097      1.5990      0.2185     63.6978     77.2747
  1016.8000      8.3682      1.5452      0.1935     66.9546     78.5013
  1016.9000      8.3682      1.4834      0.1342     70.7040     79.6453
  1017.0000      8.2489      1.4161      0.0962     74.7788     77.6203
  1017.1000      8.2489      1.3377      0.0106     79.5324     71.5659
  1017.2000      8.2489      1.2536     -0.0552     84.6302     63.8718
  1017.3000      8.2844      1.1975     -0.0911     88.0330     58.0853
  1017.4000      8.2844      1.2076     -0.0097     87.4191     57.1954
  1017.5000      8.5397      1.2789      0.1961     83.0996     60.8371
  1017.6000      8.5397      1.3652      0.2856     77.8683     65.7371
  1017.7000      8.5397      1.4271      0.3605     74.1127     66.4558
  1017.8000      8.7774      1.4537      0.3536     72.5015     60.2831
  1017.9000      8.7774      1.4521      0.3223     72.6002     52.7228
  1018.0000      8.7875      1.4305      0.3148     73.9074     49.4809
  1018.1000      8.7875      1.3998      0.2197     75.7699     52.2493
  1018.2000      8.7875      1.3867      0.1496     76.5641     61.2277
  1018.3000      8.6092      1.4211      0.1731     74.4790     72.4114
  1018.4000      8.6092      1.5078      0.1628     69.2253     81.1219
  1018.5000      8.3771      1.6203      0.2158     62.4071     88.0664
  1018.6000      8.3771      1.7361      0.1696     55.3901     93.6425
  1018.7000      8.3771      1.8625      0.1984     47.7303     97.1648
  1018.8000      8.1850      2.0064      0.2761     39.0070    103.9681
  1018.9000      8.1850      2.1551      0.3429     29.9934    116.7257
  1019.0000      8.0086      2.2886      0.3785     21.9018    126.6748
  1019.1000      8.0086      2.4006      0.3274     15.1171    125.9855
  1019.2000      8.0086      2.4926      0.3239      9.5385    119.6016
  1019.3000      7.8889      2.5523      0.1891      5.9194    117.4889
  1019.4000      7.8889      2.5790      0.1134      4.3029    119.1426
  1019.5000      7.8441      2.5958      0.0800      3.2856    117.8515
