~Version Information
VERS.                      2.0: CWLS Log ASCII Standard - VERSION 2.0
WRAP.                       NO: One line per depth step
~Well Information Block
STRT.FT               -10.2500: 
STOP.FT              2871.7500: 
STEP.FT                 0.2500: 
NULL.                -999.2500: 
COMP.          Pioneer Natural Resources: COMPANY
WELL.          Grey Goose 33-30: WELL
FLD.           Purgatorie River: FIELD
LOC.           2136' FSL & 2065' FEL--: LOCATION
STAT.                       CO: State
CNTY.               Las Animas: COUNTY
CTRY. USA : Country
SECT. 30  : Section
TOWN. 32S : Township
RANG. 67W : Range
SRVC.          Patterson Wireline: SERVICE COMPANY
DATE.          Tue Dec 06 12:24:57 2005: LOG DATE
API.            05 071 0854600: UNIQUE WELL ID
~Curve Information Block
DEPT.FT            0 000 00 00: Depth
CCL.                          : Casing Collar Locator
TT3.usec                      : CBL 3' Travel Time
AMP3.mV                       : CBL 3' Amplitude
GR.GAPI                       : Gamma Ray
~Parameter Information Block
~A  Depth       CCL         TT3         AMP3         GR     
# ...
   760.2500      0.0000    748.8931      8.5688    117.7705
   760.5000      0.0000    742.2757      8.1069    122.4065
   760.7500      0.0000    754.4033      7.8765    125.7602
   761.0000      0.0000    784.9862      7.9492    128.5120
   761.2500      0.0000    821.3906      8.2510    130.0666
   761.5000      0.0000    848.0677      8.6044    129.1544
   761.7500      2.0000    858.2343      8.8584    125.5323
   762.0000      0.0000    855.8483      8.9694    120.6960
   762.2500      0.0000    847.9529      8.9721    116.6661
   762.5000      0.0000    837.7447      8.9193    114.2903
   762.7500      0.0000    824.8353      8.8666    112.9853
   763.0000      0.0000    808.6289      8.8838    111.8869
   763.2500      0.0000    789.6546      9.0353    110.7090
   763.5000      0.0000    770.2964      9.3312    109.4858
   763.7500      0.0000    756.0550      9.7035    108.1905
   764.0000      0.0000    753.6299     10.0360    107.0275
   764.2500      0.0000    765.4767     10.2294    106.6951
   764.5000      0.0000    786.7338     10.2533    107.8392
   764.7500      0.0000    808.6343     10.1452    110.2273
   765.0000      0.0000    824.6615      9.9653    112.5519
   765.2500      0.0000    833.4218      9.7566    113.2104
   765.5000      0.0000    836.9077      9.5419    111.6136
   765.7500      0.0000    837.4777      9.3371    108.6918
   766.0000      0.0000    836.4407      9.1563    105.8613
   766.2500      0.0000    834.4279      9.0059    103.7095
   766.5000      0.0000    831.7368      8.8826    101.9403
   766.7500      0.0000    827.3530      8.7738    100.1701
   767.0000      0.0000    818.3284      8.6631     98.4618
   767.2500      0.0000    802.5200      8.5356     97.2251
   767.5000      0.0000    783.2281      8.3873     96.5332
   767.7500      0.0000    769.6204      8.2306     95.5118
   768.0000      0.0000    770.8904      8.0888     93.0370
   768.2500      0.0000    789.3022      7.9831     89.4924
   768.5000      0.0000    817.9320      7.9252     87.1255
   768.7500      0.0000    844.6157      7.9184     87.8342
   769.0000      0.0000    859.4832      7.9604     90.9649
   769.2500      0.0000    860.5930      8.0440     94.0126
   769.5000      0.0000    853.1369      8.1589     95.1093
   769.7500      0.0000    843.6187      8.2933     94.1552
   770.0000      0.0000    835.0955      8.4354     91.9281
   770.2500      0.0000    827.1566      8.5758     89.0751
   770.5000      0.0000    818.8544      8.7111     86.1353
   770.7500      0.0000    810.9806      8.8386     83.6485
   771.0000      0.0000    805.8946      8.9461     81.6543
   771.2500      0.0000    805.6180      9.0151     79.4619
   771.5000      0.0000    810.1609      9.0435     76.4488
   771.7500      0.0000    817.6832      9.0594     72.9322
   772.0000      0.0000    826.4824      9.1047     69.9008
   772.2500      0.0000    836.6957      9.2017     68.1992
   772.5000      0.0000    849.2656      9.3394     68.5930
   772.7500      0.0000    863.0842      9.4897     72.3374
   773.0000      0.0000    874.4907      9.6296     80.6048
   773.2500      0.0000    880.7556      9.7450     92.8834
   773.5000      0.0000    883.0872      9.8215    106.4188
   773.7500      0.0000    884.4227      9.8422    117.6141
   774.0000      0.0000    884.3958      9.8007    124.0976
   774.2500      0.0000    878.5045      9.7125    125.8478
   774.5000      0.0000    863.4089      9.6098    124.8925
   774.7500      0.0000    841.8386      9.5214    123.9935
   775.0000      0.0000    820.8293      9.4619    125.0219
   775.2500      0.0000    805.8705      9.4348    128.0046
   775.5000      0.0000    797.8344      9.4368    131.5782
   775.7500      0.0000    794.5173      9.4579    134.4043
   776.0000      0.0000    793.3981      9.4839    136.0507
   776.2500      0.0000    792.9503      9.5002    136.5415
   776.5000      0.0000    792.5815      9.4925    135.5511
   776.7500      0.0000    792.2352      9.4509    132.6013
   777.0000      0.0000    792.0330      9.3774    127.9335
   777.2500      0.0000    791.9468      9.2898    122.6715
   777.5000      0.0000    791.2719      9.2138    118.2483
   777.7500      0.0000    788.0912      9.1680    115.9855
   778.0000      0.0000    779.7114      9.1547    116.9008
   778.2500      0.0000    764.8031      9.1603    121.2783
   778.5000      0.0000    745.7311      9.1646    128.3613
   778.7500      0.0000    728.1730      9.1522    136.5166
   779.0000      0.0000    718.0269      9.1191    143.5306
   779.2500      0.0000    718.8187      9.0712    147.1489
   779.5000      0.0000    730.9111      9.0161    146.6331
   779.7500      0.0000    751.1412      8.9578    144.1663
   780.0000      0.0000    773.1167      8.8998    143.2537
   780.2500      0.0000    790.0441      8.8506    144.7473
   780.5000      0.0000    798.5060      8.8227    145.4848
   780.7500      0.0000    799.4305      8.8219    142.0282
   781.0000      0.0000    796.1352      8.8372    134.9294
   781.2500      0.0000    792.4260      8.8467    127.9751
   781.5000      0.0000    791.5333      8.8371    123.9356
   781.7500      0.0000    794.7733      8.8132    122.6310
   782.0000      0.0000    800.6479      8.7874    122.7863
   782.2500      0.0000    805.9122      8.7652    123.9421
   782.5000      0.0000    808.0082      8.7443    126.2077
   782.7500      0.0000    806.5113      8.7269    129.3869
   783.0000      0.0000    802.6980      8.7266    132.9625
   783.2500      0.0000    798.6406      8.7576    136.3024
   783.5000      0.0000    796.9288      8.8145    138.3793
   783.7500      0.0000    799.9266      8.8722    137.5700
   784.0000      0.0000    807.8161      8.9120    132.5545
   784.2500      0.0000    817.6879      8.9451    123.9269
   784.5000      0.0000    825.4293      8.9991    114.6938
   784.7500      0.0000    828.4885      9.0813    108.5576
   785.0000      0.0000    826.7762      9.1629    107.2846
   785.2500      0.0000    821.8066      9.2025    109.6322
   785.5000      0.0000    815.1020      9.1823    112.7319
   785.7500      0.0000    806.3972      9.1186    114.3428
   786.0000      0.0000    793.3429      9.0393    113.8257
   786.2500      0.0000    774.2155      8.9600    111.5067
   786.5000      0.0000    751.2095      8.8856    107.8337
   786.7500      0.0000    729.7987      8.8311    103.4566
   787.0000      0.0000    714.5161      8.8268     99.6992
   787.2500      0.0000    706.0993      8.8986     98.0795
   787.5000      0.0000    702.4708      9.0455     99.0203
   787.7500      0.0000    701.2136      9.2408    101.5563
   788.0000      0.0000    700.8590      9.4508    104.5782
   788.2500      0.0000    700.8021      9.6524    107.7669
   788.5000      0.0000    700.8462      9.8378    111.0870
   788.7500      0.0000    700.9241     10.0099    113.9948
   789.0000      0.0000    700.9948     10.1725    115.6426
   789.2500      0.0000    701.0287     10.3235    115.7722
   789.5000      0.0000    701.0200     10.4561    115.2149
   789.7500      0.0000    700.9969     10.5664    115.2734
   790.0000      0.0000    700.9979     10.6592    116.4091
   790.2500      0.0000    700.9882     10.7489    117.7806
   790.5000      0.0000    700.7493     10.8528    118.3414
   790.7500      0.0000    699.7925     10.9823    118.1634
   791.0000      0.0000    697.5469     11.1341    118.5195
   791.2500      0.0000    694.0518     11.2920    120.7715
   791.5000      0.0000    690.6411     11.4337    125.1139
   791.7500      0.0000    689.3993     11.5372    130.1758
   792.0000      0.0000    691.3355     11.5836    133.8887
   792.2500      0.0000    695.3242     11.5616    134.9642
   792.5000      0.0000    699.2317     11.4791    133.7493
   792.7500      0.0000    701.7548     11.3701    131.7633
   793.0000      0.0000    702.9155     11.2830    130.1964
   793.2500      0.0000    703.3004     11.2547    128.7922
   793.5000      0.0000    703.3323     11.2923    126.6055
