~Version Information
VERS.                      2.0: CWLS Log ASCII Standard - VERSION 2.0
WRAP.                       NO: One line per depth step
~Well Information Block
STRT.FT               330.0000: 
STOP.FT              1876.2000: 
STEP.FT                 0.1000: 
NULL.                -999.2500: 
COMP.          Pioneer Natural Resources: COMPANY
WELL.          Cooper 11-13 Tr: WELL
FLD.           Purgatoire River: FIELD
LOC.           476' FNL & 738' FWL: LOCATION
STAT.                 Colorado: State
CNTY.               Las Animas: COUNTY
CTRY. USA : Country
SECT. 13 : Section
TOWN. 32S : Township
RANG. 67W : Range 
SRVC.                Patterson: SERVICE COMPANY
DATE.          Mon Sep 26 10:28:17 2005: LOG DATE
API.           05 071 08525 00: UNIQUE WELL ID
~Curve Information Block
DEPT.FT            0 000 00 00: Depth
DCAL.in                       : CDL Caliper
RHOB.g/cc                     : CDL Bulk Density
RHOC.g/cc                     : CDL Density Correction
DPOR.pu                       : CDL Density Porosity
NPOR.pu                       : Neutron Porosity
GR.GAPI                       : Gamma Ray
~Parameter Information Block
~A  Depth       DCAL        RHOB        RHOC        DPOR        NPOR         GR     
# ...
   733.2000      7.9642      2.5274      0.0219      7.4308     25.8024     94.7583
   733.3000      7.9625      2.5214      0.0455      7.7920     25.4838     99.5961
   733.4000      7.9625      2.5253      0.0485      7.5563     25.2207    100.0085
   733.5000      7.9625      2.5312      0.0219      7.2007     25.1365     94.9042
   733.6000      7.9625      2.5330      0.0536      7.0882     25.3517     91.9147
   733.7000      7.9625      2.5250      0.0233      7.5756     25.7533     95.4446
   733.8000      7.9639      2.5098      0.0277      8.4946     25.7273     98.9977
   733.9000      7.9639      2.4997     -0.0114      9.1087     25.1235     96.6982
   734.0000      7.9642      2.5062      0.0210      8.7171     24.8583     88.4879
   734.1000      7.9642      2.5224      0.0762      7.7341     25.2595     79.8385
   734.2000      7.9642      2.5352      0.0374      6.9588     25.6115     75.8745
   734.3000      7.9647      2.5449      0.0462      6.3679     25.4327     75.4301
   734.4000      7.9647      2.5491      0.0739      6.1133     24.8818     77.6191
   734.5000      7.9662      2.5434      0.0616      6.4582     24.4753     81.9344
   734.6000      7.9662      2.5366      0.0309      6.8709     24.5874     85.7365
   734.7000      7.9662      2.5381      0.0418      6.7841     25.0315     87.9172
   734.8000      7.9661      2.5496      0.0173      6.0824     25.4013     89.2243
   734.9000      7.9661      2.5674      0.0585      5.0086     25.4003     91.5370
   735.0000      7.9659      2.5766      0.0723      4.4494     25.0660     94.5023
   735.1000      7.9659      2.5693      0.0527      4.8932     24.6948     95.0938
   735.2000      7.9659      2.5535      0.0564      5.8488     24.5242     93.5091
   735.3000      7.9658      2.5383      0.0174      6.7727     24.4852     92.7630
   735.4000      7.9658      2.5264      0.0360      7.4931     24.3145     93.8981
   735.5000      7.9656      2.5203     -0.0113      7.8631     23.9666     94.3701
   735.6000      7.9656      2.5232      0.0344      7.6842     23.4379     90.9537
   735.7000      7.9656      2.5292      0.0413      7.3225     22.9013     85.4214
   735.8000      7.9663      2.5296      0.0567      7.2962     22.6764     83.1793
   735.9000      7.9663      2.5245      0.0311      7.6062     22.7270     83.9790
   736.0000      7.9649      2.5218      0.0166      7.7681     23.0477     83.7767
   736.1000      7.9649      2.5211      0.0612      7.8141     23.6910     84.2387
   736.2000      7.9649      2.5135      0.0157      8.2730     24.2331     88.1913
   736.3000      7.9631      2.5096      0.0070      8.5114     24.2352     93.4799
   736.4000      7.9631      2.5204      0.0477      7.8537     23.9608     96.0902
   736.5000      7.9638      2.5342      0.0396      7.0189     23.8207     95.2803
   736.6000      7.9638      2.5456      0.0213      6.3254     23.7403     93.4732
   736.7000      7.9638      2.5560      0.0252      5.6996     23.6881     91.3561
   736.8000      7.9651      2.5520      0.0299      5.9410     23.7723     90.0968
   736.9000      7.9651      2.5320      0.0141      7.1499     23.8784     90.9188
   737.0000      7.9650      2.5188      0.0110      7.9492     23.8955     93.3633
   737.1000      7.9650      2.5239      0.0086      7.6399     24.0248     96.2504
   737.2000      7.9650      2.5329      0.0186      7.0953     24.4071     97.1380
   737.3000      7.9650      2.5288      0.0298      7.3445     24.6042     96.3056
   737.4000      7.9650      2.5178     -0.0280      8.0151     24.3277     95.5346
   737.5000      7.9649      2.5197      0.0036      7.8975     23.9557     95.6546
   737.6000      7.9649      2.5341      0.0252      7.0231     23.7634     97.4375
   737.7000      7.9649      2.5415      0.0546      6.5736     23.5591     99.7690
   737.8000      7.9652      2.5346      0.0119      6.9920     23.0739    100.5507
   737.9000      7.9652      2.5293      0.0235      7.3159     22.3112     98.1801
   738.0000      7.9663      2.5405      0.0065      6.6365     21.7146     93.6900
   738.1000      7.9663      2.5620      0.0473      5.3337     21.7219     91.4918
   738.2000      7.9663      2.5707      0.0792      4.8062     21.9416     93.5155
   738.3000      7.9683      2.5546      0.0470      5.7829     21.8146     97.2335
   738.4000      7.9683      2.5293      0.0187      7.3145     21.5767     98.8116
   738.5000      7.9704      2.5125      0.0481      8.3309     21.6521     97.0870
   738.6000      7.9704      2.5037      0.0426      8.8638     21.9293     92.9857
   738.7000      7.9704      2.4973      0.0061      9.2535     22.1348     87.0814
   738.8000      7.9752      2.4869      0.0032      9.8858     22.0312     81.4069
   738.9000      7.9752      2.4677      0.0055     11.0508     21.4635     78.5606
   739.0000      7.9839      2.4530     -0.0274     11.9423     20.5011     79.1113
   739.1000      7.9839      2.4565      0.0231     11.7274     19.4850     80.6149
   739.2000      7.9839      2.4645      0.0366     11.2447     18.6788     80.2775
   739.3000      7.9904      2.4616      0.0222     11.4166     18.0421     77.4461
   739.4000      7.9904      2.4575      0.0323     11.6672     17.5440     74.3545
   739.5000      7.9927      2.4631      0.0411     11.3279     17.2778     72.7916
   739.6000      7.9927      2.4657      0.0845     11.1703     17.0435     70.8224
   739.7000      7.9927      2.4487      0.0584     12.1983     16.5679     66.5500
   739.8000      7.9931      2.4236      0.0169     13.7239     16.0544     62.3962
   739.9000      7.9931      2.4132      0.0256     14.3497     15.8063     62.5502
   740.0000      7.9918      2.4196      0.0308     13.9630     15.8826     65.6723
   740.1000      7.9918      2.4228      0.0497     13.7723     16.0380     68.2795
   740.2000      7.9918      2.4087     -0.0031     14.6250     16.0980     70.3203
   740.3000      7.9909      2.3909     -0.0153     15.7002     16.1794     71.5552
   740.4000      7.9909      2.3888      0.0089     15.8295     16.2447     73.4353
   740.5000      7.9922      2.4005      0.0217     15.1224     15.9732     77.8076
   740.6000      7.9922      2.4143      0.0425     14.2860     15.2759     80.5955
   740.7000      7.9922      2.4239      0.0461     13.7045     14.6197     79.5579
   740.8000      7.9925      2.4272      0.0516     13.5033     14.6076     79.4110
   740.9000      7.9925      2.4265      0.0203     13.5461     15.3910     79.7672
   741.0000      7.9911      2.4264      0.0453     13.5530     16.4669     75.0729
   741.1000      7.9911      2.4241      0.0394     13.6939     16.9635     66.5798
   741.2000      7.9911      2.4102      0.0759     14.5351     16.5850     60.5848
   741.3000      7.9896      2.3831      0.0250     16.1746     15.8712     59.2911
   741.4000      7.9896      2.3615     -0.0169     17.4826     15.2437     59.7254
   741.5000      7.9877      2.3561      0.0448     17.8113     14.6809     59.5430
   741.6000      7.9877      2.3509      0.0577     18.1296     14.3219     59.1546
   741.7000      7.9877      2.3331      0.0727     19.2064     14.3181     59.7037
   741.8000      7.9831      2.3114      0.0226     20.5228     14.2359     61.0191
   741.9000      7.9831      2.3029      0.0055     21.0337     13.6978     63.4353
   742.0000      7.9746      2.3137      0.0299     20.3806     12.8862     66.1634
   742.1000      7.9746      2.3369      0.0729     18.9741     12.1468     65.0757
   742.2000      7.9746      2.3657      0.0579     17.2306     11.7381     59.8025
   742.3000      7.9671      2.3921      0.0657     15.6303     11.8389     54.4633
   742.4000      7.9671      2.4066      0.0814     14.7507     12.1541     51.3026
   742.5000      7.9651      2.4114      0.0827     14.4625     12.1314     51.4599
   742.6000      7.9651      2.4166      0.0660     14.1437     11.8396     54.8509
   742.7000      7.9651      2.4247      0.0734     13.6526     11.5449     60.3854
