~Version Information
VERS.                      2.0: CWLS Log ASCII Standard - VERSION 2.0
WRAP.                       NO: One line per depth step
~Well Information Block
STRT.FT               305.0000: 
STOP.FT              1376.5000: 
STEP.FT                 0.1000: 
NULL.                -999.2500: 
COMP.          Pioneer Natural Resources: COMPANY
WELL.               LPGC 32-32: WELL
FLD.           Purgatoire River: FIELD
LOC.           1937' FNL & 1661' FEL: LOCATION
PROV.                 Colorado: PROVINCE
CNTY.               Las Animas: COUNTRY
SRVC.                Patterson: SERVICE COMPANY
DATE.          Mon Jan 30 07:33:36 2006: LOG DATE
UWI.           05 071 08641 00: UNIQUE WELL ID
~Curve Information Block
DEPT.FT            0 000 00 00: Depth
DCAL.in                       : CDL Caliper
RHOB.g/cc                     : CDL Bulk Density
RHOC.g/cc                     : CDL Density Correction
DPOR.pu                       : CDL Density Porosity
GR.GAPI                       : Gamma Ray
NPOR.pu                       : Neutron Porosity
~Parameter Information Block
~A  Depth       DCAL        RHOB        RHOC        DPOR         GR         NPOR    
# ...
  1082.6000      7.9017      2.4632     -0.0101     11.3236    131.1364     29.5403
  1082.7000      7.9017      2.4429      0.0783     12.5507    129.8944     29.6538
  1082.8000      7.9123      2.4070      0.0480     14.7300    129.5439     29.5785
  1082.9000      7.9123      2.3266      0.0314     19.6012    128.7054     29.6530
  1083.0000      7.9560      2.2070      0.0207     26.8509    124.0063     29.7917
  1083.1000      7.9560      2.0671     -0.0582     35.3287    114.5298     29.9430
  1083.2000      7.9560      1.9252     -0.1003     43.9273    105.1599     30.0976
  1083.3000      7.9955      1.7971     -0.1674     51.6939     98.3236     30.4574
  1083.4000      7.9955      1.6970     -0.1868     57.7580     91.8155     31.2090
  1083.5000      8.0103      1.6233     -0.1479     62.2250     84.9649     32.0093
  1083.6000      8.0103      1.5577     -0.1000     66.1978     77.6737     32.6825
  1083.7000      8.0103      1.4954     -0.1178     69.9783     70.7216     33.3308
  1083.8000      8.0087      1.4538     -0.0607     72.4965     65.9863     33.7797
  1083.9000      8.0087      1.4408      0.0699     73.2827     64.8362     33.9413
  1084.0000      8.0213      1.4394      0.0823     73.3712     63.0522     34.0718
  1084.1000      8.0213      1.4359      0.0572     73.5833     56.3527     34.0701
  1084.2000      8.0213      1.4298      0.0595     73.9498     50.2390     33.6948
  1084.3000      8.0005      1.4207      0.0583     74.5043     49.6481     33.0408
  1084.4000      8.0005      1.4124      0.0176     75.0031     49.2177     32.2689
  1084.5000      8.0163      1.4175      0.0667     74.6967     45.4734     31.7261
  1084.6000      8.0163      1.4507      0.0568     72.6858     44.0182     31.8550
  1084.7000      8.0163      1.5221      0.0518     68.3602     46.3046     32.5489
  1084.8000      7.9924      1.6259      0.0871     62.0652     48.4733     32.8483
  1084.9000      7.9924      1.7493      0.1473     54.5861     49.4560     32.2488
  1085.0000      7.9725      1.8836      0.1600     46.4463     53.1482     31.6770
  1085.1000      7.9725      2.0145      0.2442     38.5176     65.7049     31.9449
  1085.2000      7.9725      2.1267      0.2163     31.7127     82.5173     32.3571
  1085.3000      7.9855      2.2288      0.1902     25.5286     90.8394     31.9769
  1085.4000      7.9855      2.3327      0.2093     19.2294     90.6337     31.2790
  1085.5000      7.9725      2.4195      0.2228     13.9686     95.2040     31.0297
  1085.6000      7.9725      2.4705      0.1019     10.8761    108.6087     30.9834
  1085.7000      7.9725      2.4989      0.1063      9.1573    118.3632     30.7447
  1085.8000      7.9914      2.5174      0.1116      8.0363    114.9342     30.4171
  1085.9000      7.9914      2.5234      0.1340      7.6756    103.9152     30.0337
  1086.0000      7.9665      2.5085      0.1157      8.5785     96.4037     29.5170
  1086.1000      7.9665      2.4727      0.0595     10.7434     97.6541     28.8184
  1086.2000      7.9665      2.4354      0.0177     13.0041    103.4290     28.1774
  1086.3000      8.0073      2.4188     -0.0245     14.0114    110.6240     27.8006
  1086.4000      8.0073      2.4338     -0.0457     13.1030    119.6319     27.6466
  1086.5000      8.0119      2.4758      0.0316     10.5565    124.0073     27.8931
  1086.6000      8.0119      2.5197      0.0984      7.8999    118.7847     28.3532
  1086.7000      8.0119      2.5371      0.0943      6.8443    112.2536     28.6059
  1086.8000      8.0082      2.5294      0.0386      7.3084    109.7497     28.6726
  1086.9000      8.0082      2.5227      0.0290      7.7126    107.6585     28.4785
  1087.0000      7.9827      2.5312      0.0366      7.1999    104.1019     28.0504
  1087.1000      7.9827      2.5428      0.0738      6.4954     99.7354     27.8745
  1087.2000      7.9827      2.5416      0.0816      6.5711     96.3180     28.1573
  1087.3000      7.9146      2.5343      0.0348      7.0131     93.6898     28.3038
  1087.4000      7.9146      2.5330      0.0716      7.0909     90.7187     28.2881
  1087.5000      7.9060      2.5329      0.0433      7.0976     90.6690     28.6353
  1087.6000      7.9060      2.5308      0.0487      7.2248     98.4877     29.2414
  1087.7000      7.9060      2.5316      0.0403      7.1771    110.1275     29.8554
  1087.8000      7.9052      2.5350      0.0514      6.9725    115.2312     30.1601
  1087.9000      7.9052      2.5369      0.0374      6.8568    112.4751     30.2178
  1088.0000      7.9064      2.5371      0.0458      6.8418    103.9097     30.2896
  1088.1000      7.9064      2.5382      0.0189      6.7787     90.5170     30.0847
  1088.2000      7.9064      2.5384      0.0354      6.7624     81.2039     28.9728
  1088.3000      7.9108      2.5367      0.0729      6.8639     80.4962     27.1279
  1088.4000      7.9108      2.5343      0.0671      7.0107     84.1200     26.2188
  1088.5000      7.8970      2.5307      0.0562      7.2330     92.7452     26.9738
  1088.6000      7.8970      2.5262      0.0696      7.5043    103.8576     27.9324
  1088.7000      7.8970      2.5276      0.0300      7.4200    106.8609     27.9979
  1088.8000      7.9095      2.5341      0.0710      7.0212    101.5260     28.1519
  1088.9000      7.9095      2.5302      0.0636      7.2632     98.1322     29.2069
  1089.0000      7.9058      2.5159      0.0651      8.1259    102.2610     30.0879
  1089.1000      7.9058      2.5097      0.0357      8.5051    109.6479     30.0949
  1089.2000      7.9058      2.5084      0.0775      8.5828    114.2656     29.6984
  1089.3000      7.9015      2.4987      0.0150      9.1674    115.8711     29.1717
  1089.4000      7.9015      2.4868      0.0382      9.8923    114.4942     28.8101
  1089.5000      7.9042      2.4787      0.0448     10.3832    109.1384     28.9524
  1089.6000      7.9042      2.4759      0.0153     10.5541    105.1060     29.6311
  1089.7000      7.9042      2.4808      0.0336     10.2526    107.4699     30.4429
  1089.8000      7.9060      2.4864      0.0593      9.9147    109.2732     30.3425
  1089.9000      7.9060      2.4814      0.0326     10.2208    103.7234     29.5679
  1090.0000      7.9104      2.4631      0.0470     11.3248     97.1544     29.7017
  1090.1000      7.9104      2.4412     -0.0014     12.6573     97.0146     30.6341
  1090.2000      7.9104      2.4260      0.0171     13.5743     99.7774     30.6847
  1090.3000      7.9244      2.4233     -0.0354     13.7411     98.0678     29.5444
  1090.4000      7.9244      2.4395     -0.0477     12.7582     92.9119     28.5731
  1090.5000      8.0140      2.4692      0.0220     10.9570     88.9078     28.6204
  1090.6000      8.0140      2.4979      0.0360      9.2177     85.8433     29.4097
  1090.7000      8.0140      2.5231      0.1081      7.6880     81.4207     30.2419
  1090.8000      8.0342      2.5472      0.1079      6.2302     75.9991     30.5039
  1090.9000      8.0342      2.5702      0.1073      4.8354     72.0033     30.0602
  1091.0000      7.9509      2.5853      0.1870      3.9210     73.7011     29.1702
  1091.1000      7.9509      2.5801      0.1686      4.2383     80.3042     28.2725
  1091.2000      7.9509      2.5554      0.1276      5.7345     84.3684     27.6289
  1091.3000      7.8714      2.5219      0.1185      7.7628     83.7213     27.4099
  1091.4000      7.8714      2.4927      0.0959      9.5341     85.2217     27.3871
  1091.5000      7.8208      2.4822      0.1245     10.1687     92.9074     27.2800
  1091.6000      7.8208      2.4947      0.1039      9.4127    100.6072     27.2614
  1091.7000      7.8208      2.5220      0.1226      7.7594    103.4524     27.7525
  1091.8000      7.8432      2.5436      0.1474      6.4460    103.7942     28.8147
  1091.9000      7.8432      2.5367      0.1338      6.8667    104.1638     29.7093
  1092.0000      7.8926      2.5052      0.0837      8.7743    108.1385     30.1172
  1092.1000      7.8926      2.4762      0.0589     10.5329    118.5957     30.4246
