~Version Information
VERS.                      2.0: CWLS Log ASCII Standard - VERSION 2.0
WRAP.                       NO: One line per depth step
~Well Information Block
STRT.FT               340.0000: 
STOP.FT              2342.7500: 
STEP.FT                 0.2500: 
NULL.                -999.2500: 
COMP.          Pioneer Natural Resources: COMPANY
WELL.          Pinkerton 41-12: WELL
FLD.           Purgatoire River: FIELD
LOC.           1222' FNL & 670' FEL--: LOCATION
CNTY.               Las Animas: COUNTY
SRVC.                Patterson: SERVICE COMPANY
DATE.          Wed Mar 15 10:37:39 2006: LOG DATE
UWI.           05 071 08500 00: UNIQUE WELL ID
STAT.                 Colorado: STATE
~Curve Information Block
DEPT.FT            0 000 00 00: Depth
SN.Ohm-m                      : IEL Short Normal
SP.mV                         : IEL Spontaneous Potential
DIR.Ohm-m                     : IEL Induction Resistivity
GR.GAPI                       : Gamma Ray
~Parameter Information Block
~A  Depth        SN          SP         DIR          GR     
# ...
   742.0000   2000.0000   -999.2500     23.8946     94.0882
   742.2500   2000.0000   -999.2500     23.7692     95.7363
   742.5000   2000.0000   -999.2500     23.4955     98.7886
   742.7500   2000.0000   -999.2500     23.0116    100.9598
   743.0000   2000.0000   -999.2500     22.2993    104.5107
   743.2500   2000.0000   -999.2500     21.4055    107.1564
   743.5000   2000.0000   -999.2500     20.4307    111.2551
   743.7500   2000.0000   -999.2500     19.4905    113.7688
   744.0000   2000.0000   -999.2500     18.6759    117.2276
   744.2500   2000.0000   -999.2500     18.0306    119.6780
   744.5000   2000.0000   -999.2500     17.5496    123.6695
   744.7500   2000.0000   -999.2500     17.1920    125.9267
   745.0000   2000.0000   -999.2500     16.9006    127.3092
   745.2500   2000.0000   -999.2500     16.6219    126.5779
   745.5000   2000.0000   -999.2500     16.3232    123.6963
   745.7500   2000.0000   -999.2500     15.9989    121.4477
   746.0000   2000.0000   -999.2500     15.6659    119.2982
   746.2500   2000.0000   -999.2500     15.3490    119.5878
   746.5000   2000.0000   -999.2500     15.0692    123.2644
   746.7500   2000.0000   -999.2500     14.8402    127.3336
   747.0000   2000.0000   -999.2500     14.6691    133.6305
   747.2500   2000.0000   -999.2500     14.5591    136.6569
   747.5000   2000.0000   -999.2500     14.5093    138.3035
   747.7500   2000.0000   -999.2500     14.5148    137.3673
   748.0000   2000.0000   -999.2500     14.5688    133.2359
   748.2500   2000.0000   -999.2500     14.6650    129.2071
   748.5000   2000.0000   -999.2500     14.8017    122.7991
   748.7500   2000.0000   -999.2500     14.9824    119.1081
   749.0000   2000.0000   -999.2500     15.2132    114.7984
   749.2500   2000.0000   -999.2500     15.4962    112.3731
   749.5000   2000.0000   -999.2500     15.8242    108.8135
   749.7500   2000.0000   -999.2500     16.1810    106.6093
   750.0000   2000.0000   -999.2500     16.5470    104.2960
   750.2500   2000.0000   -999.2500     16.9065    103.7373
   750.5000   2000.0000   -999.2500     17.2493    104.3318
   750.7500   2000.0000   -999.2500     17.5691    105.4027
   751.0000   2000.0000   -999.2500     17.8610    107.5026
   751.2500   2000.0000   -999.2500     18.1200    109.0850
   751.5000   2000.0000   -999.2500     18.3398    111.6818
   751.7500   2000.0000   -999.2500     18.5137    113.4402
   752.0000   2000.0000   -999.2500     18.6405    115.6172
   752.2500   2000.0000   -999.2500     18.7313    116.4686
   752.5000   2000.0000   -999.2500     18.8103    116.6587
   752.7500   2000.0000   -999.2500     18.9081    116.1576
   753.0000   2000.0000   -999.2500     19.0499    114.9266
   753.2500   2000.0000   -999.2500     19.2455    114.1773
   753.5000   2000.0000   -999.2500     19.4866    113.7399
   753.7500   2000.0000   -999.2500     19.7542    113.9910
   754.0000   2000.0000   -999.2500     20.0324    114.7963
   754.2500   2000.0000   -999.2500     20.3198    115.2415
   754.5000   2000.0000   -999.2500     20.6284    115.2246
   754.7500   2000.0000   -999.2500     20.9721    114.5956
   755.0000   2000.0000   -999.2500     21.3609    112.7416
   755.2500   2000.0000   -999.2500     21.8053    110.9788
   755.5000   2000.0000   -999.2500     22.3256    107.5107
   755.7500   2000.0000   -999.2500     22.9527    104.5254
   756.0000   2000.0000   -999.2500     23.7153     98.9976
   756.2500   2000.0000   -999.2500     24.6210     94.8523
   756.5000   2000.0000   -999.2500     25.6403     88.7514
   756.7500   2000.0000   -999.2500     26.7045     85.2901
   757.0000   2000.0000   -999.2500     27.7188     81.5920
   757.2500   2000.0000   -999.2500     28.5862     80.1467
   757.5000   2000.0000   -999.2500     29.2286     79.1979
   757.7500   2000.0000   -999.2500     29.5902     79.2198
   758.0000   2000.0000   -999.2500     29.6302     80.2762
   758.2500   2000.0000   -999.2500     29.3225     81.9109
   758.5000   2000.0000   -999.2500     28.6727     86.3489
   758.7500   2000.0000   -999.2500     27.7337     90.6583
   759.0000   2000.0000   -999.2500     26.6009     97.8692
   759.2500   2000.0000   -999.2500     25.3847    101.8587
   759.5000   2000.0000   -999.2500     24.1802    105.0603
   759.7500   2000.0000   -999.2500     23.0506    105.5491
   760.0000   2000.0000   -999.2500     22.0268    105.5819
   760.2500   2000.0000   -999.2500     21.1165    106.0240
   760.5000   2000.0000   -999.2500     20.3145    107.4244
   760.7500   2000.0000   -999.2500     19.6111    108.3236
   761.0000   2000.0000   -999.2500     18.9981    108.8126
   761.2500   2000.0000   -999.2500     18.4713    108.4119
   761.5000   2000.0000   -999.2500     18.0300    106.8739
   761.7500   2000.0000   -999.2500     17.6725    105.5040
   762.0000   2000.0000   -999.2500     17.3913    103.6354
   762.2500   2000.0000   -999.2500     17.1719    102.8353
   762.5000   2000.0000   -999.2500     16.9980    102.4105
   762.7500   2000.0000   -999.2500     16.8608    102.5370
   763.0000   2000.0000   -999.2500     16.7635    103.2470
   763.2500   2000.0000   -999.2500     16.7175    104.1355
   763.5000   2000.0000   -999.2500     16.7335    106.1938
   763.7500   2000.0000   -999.2500     16.8132    107.9298
   764.0000   2000.0000   -999.2500     16.9480    110.5003
   764.2500   2000.0000   -999.2500     17.1245    111.8196
   764.5000   2000.0000   -999.2500     17.3338    112.8038
   764.7500   2000.0000   -999.2500     17.5772    112.6473
   765.0000   2000.0000   -999.2500     17.8668    110.9366
   765.2500   2000.0000   -999.2500     18.2214    108.7153
   765.5000   2000.0000   -999.2500     18.6620    103.8668
   765.7500   2000.0000   -999.2500     19.2076     99.8903
   766.0000   2000.0000   -999.2500     19.8710     93.7637
   766.2500   2000.0000   -999.2500     20.6562     90.3343
   766.5000   2000.0000   -999.2500     21.5593     87.0105
   766.7500   2000.0000   -999.2500     22.5745     85.8497
   767.0000   2000.0000   -999.2500     23.7013     84.6998
   767.2500   2000.0000   -999.2500     24.9460     83.9021
   767.5000   2000.0000   -999.2500     26.3140     82.6816
   767.7500   2000.0000   -999.2500     27.7963     82.0738
   768.0000   2000.0000   -999.2500     29.3548     81.6048
   768.2500   2000.0000   -999.2500     30.9129     81.4396
   768.5000   2000.0000   -999.2500     32.3631     81.0513
   768.7500   2000.0000   -999.2500     33.5893     80.5905
   769.0000   2000.0000   -999.2500     34.4867     79.8601
   769.2500   2000.0000   -999.2500     34.9634     79.8486
   769.5000   2000.0000   -999.2500     34.9397     81.6026
   769.7500   2000.0000   -999.2500     34.3828     84.2051
   770.0000   2000.0000   -999.2500     33.3576     89.7213
   770.2500   2000.0000   -999.2500     32.0303     93.9792
   770.5000   2000.0000   -999.2500     30.6042    100.8059
   770.7500   2000.0000   -999.2500     29.2442    105.5172
   771.0000   2000.0000   -999.2500     28.0444    112.2228
   771.2500   2000.0000   -999.2500     27.0411    115.9497
   771.5000   2000.0000   -999.2500     26.2402    119.9443
   771.7500   2000.0000   -999.2500     25.6367    121.5126
   772.0000   2000.0000   -999.2500     25.2215    121.9551
   772.2500   2000.0000   -999.2500     24.9831    120.5966
   772.5000   2000.0000   -999.2500     24.9079    115.8940
   772.7500   2000.0000   -999.2500     24.9816    111.6048
   773.0000   2000.0000   -999.2500     25.1896    105.3309
   773.2500   2000.0000   -999.2500     25.5151    102.0905
   773.5000   2000.0000   -999.2500     25.9378     98.7228
   773.7500   2000.0000   -999.2500     26.4331     97.0217
   774.0000   2000.0000   -999.2500     26.9730     94.9054
   774.2500   2000.0000   -999.2500     27.5290     93.9619
   774.5000   2000.0000   -999.2500     28.0778     93.1479
   774.7500   2000.0000   -999.2500     28.6078     92.2800
   775.0000   2000.0000   -999.2500     29.1173     89.1142
   775.2500   2000.0000   -999.2500     29.6077     85.8773
