~Version Information
VERS.                      2.0: CWLS Log ASCII Standard - VERSION 2.0
WRAP.                       NO: One line per depth step
~Well Information Block
STRT.FT               240.0000: 
STOP.FT              1342.0000: 
STEP.FT                 0.1000: 
NULL.                -999.2500: 
COMP.          Pioneer Natural Resources: COMPANY
WELL.          Lorencito 9-4-34-66: WELL
FLD.           Purgatoire River: FIELD
LOC.           2540' FSL & 438' FEL: LOCATION
STAT.                 Colorado: State
CNTY.               Las Animas: COUNTY
CTRY. USA : Country
SECT. 4 : Section
TOWN. 34S : Township
RANG. 68W : range
SRVC.                Patterson: SERVICE COMPANY
DATE.          Thu Sep 15 13:16:59 2005: LOG DATE
API.           05 071 08498 00: UNIQUE WELL ID
~Curve Information Block
DEPT.FT            0 000 00 00: Depth
DCAL.in                       : CDL Caliper
RHOB.g/cc                     : CDL Bulk Density
RHOC.g/cc                     : CDL Density Correction
DPOR.pu                       : CDL Density Porosity
GR.GAPI                       : Gamma Ray
NPOR.pu                       : Neutron Porosity
~Parameter Information Block
~A  Depth       DCAL        RHOB        RHOC        DPOR         GR         NPOR    
# ...
   460.8000      8.2762      2.5393      0.0975      6.7068    191.7288     26.8106
   460.9000      8.2762      2.5324      0.0960      7.1253    187.1242     26.9657
   461.0000      8.2765      2.5076      0.1096      8.6301    181.9935     26.7769
   461.1000      8.2765      2.4723      0.0427     10.7673    178.4186     26.1089
   461.2000      8.2765      2.4546      0.0637     11.8445    176.2502     25.6030
   461.3000      8.3225      2.4554      0.1080     11.7953    176.4156     25.6807
   461.4000      8.3225      2.4534      0.0683     11.9168    175.1528     25.7877
   461.5000      8.3201      2.4500      0.0217     12.1231    166.7462     25.2848
   461.6000      8.3201      2.4643      0.0194     11.2547    156.9922     24.3900
   461.7000      8.3201      2.4960      0.0939      9.3323    155.2946     23.9538
   461.8000      8.3212      2.5208      0.1528      7.8315    158.9859     24.2335
   461.9000      8.3212      2.5274      0.1658      7.4290    156.8350     24.8761
   462.0000      8.3069      2.5260      0.1491      7.5180    151.3850     25.3775
   462.1000      8.3069      2.5234      0.1818      7.6736    156.1215     25.2452
   462.2000      8.3069      2.5223      0.1368      7.7410    167.8637     24.7911
   462.3000      8.2976      2.5273      0.1136      7.4370    173.4349     24.6114
   462.4000      8.2976      2.5384      0.1144      6.7632    167.5772     24.7654
   462.5000      8.2847      2.5557      0.0905      5.7158    157.8692     24.9187
   462.6000      8.2847      2.5697      0.1948      4.8647    153.9815     24.8137
   462.7000      8.2847      2.5607      0.1644      5.4119    156.0266     24.7131
   462.8000      8.2864      2.5296      0.1737      7.2947    162.7418     24.9568
   462.9000      8.2864      2.5007      0.0681      9.0506    173.3592     25.3737
   463.0000      8.2827      2.4946      0.0634      9.4192    180.6450     25.5991
   463.1000      8.2827      2.5004      0.1494      9.0656    175.7145     25.5654
   463.2000      8.2827      2.5007      0.0738      9.0472    162.2824     25.5476
   463.3000      8.2706      2.5061      0.0074      8.7183    154.7172     25.7643
   463.4000      8.2706      2.5159      0.1366      8.1286    159.2166     26.1455
   463.5000      8.2598      2.5106      0.0869      8.4457    167.8059     26.6360
   463.6000      8.2598      2.5020      0.0474      8.9721    169.7190     26.7415
   463.7000      8.2598      2.5049      0.0672      8.7922    166.5347     26.1256
   463.8000      8.2811      2.5056      0.0727      8.7502    166.0537     25.3600
   463.9000      8.2811      2.4975      0.0218      9.2440    164.7474     24.5876
   464.0000      8.2055      2.4942      0.0795      9.4412    159.6575     24.0982
   464.1000      8.2055      2.4969      0.1195      9.2808    158.1477     24.3438
   464.2000      8.2055      2.4906      0.1431      9.6581    163.1435     24.6456
   464.3000      8.2062      2.4774      0.0679     10.4609    169.0174     24.3010
   464.4000      8.2062      2.4795      0.1240     10.3323    169.9552     23.9133
   464.5000      8.2213      2.5034      0.1141      8.8855    166.8124     23.9234
   464.6000      8.2213      2.5316      0.1357      7.1768    165.1589     24.0402
   464.7000      8.2213      2.5445      0.1554      6.3921    164.6204     24.4314
   464.8000      8.2494      2.5382      0.1254      6.7785    160.0767     25.3367
   464.9000      8.2494      2.5186      0.0795      7.9660    154.9703     26.3777
   465.0000      8.2622      2.4899      0.0922      9.7052    155.5499     27.4249
   465.1000      8.2622      2.4628      0.0184     11.3428    158.6143     28.5032
   465.2000      8.2622      2.4586      0.0092     11.5997    158.0546     29.0619
   465.3000      8.2631      2.4831      0.0858     10.1147    155.7080     29.0935
   465.4000      8.2631      2.5216      0.0844      7.7801    155.8348     29.3844
   465.5000      8.2810      2.5596      0.1110      5.4788    159.7437     29.9816
   465.6000      8.2810      2.5823      0.2011      4.1025    166.5531     30.1400
   465.7000      8.2810      2.5810      0.1531      4.1812    174.6929     29.7014
   465.8000      8.2376      2.5705      0.1584      4.8156    181.9879     29.0848
   465.9000      8.2376      2.5731      0.0778      4.6630    181.7643     28.4598
   466.0000      8.2327      2.5865      0.1258      3.8493    171.8259     28.2369
   466.1000      8.2327      2.5844      0.1163      3.9780    159.6185     28.9252
   466.2000      8.2327      2.5584      0.0291      5.5491    152.1041     29.9725
   466.3000      8.2155      2.5211      0.0669      7.8107    147.8862     30.4093
   466.4000      8.2155      2.4872      0.0080      9.8658    142.3405     30.0917
   466.5000      8.2253      2.4802     -0.0537     10.2893    138.0678     29.2129
   466.6000      8.2253      2.5043      0.0479      8.8330    138.9178     28.0257
   466.7000      8.2253      2.5298      0.0793      7.2858    142.0714     27.0278
   466.8000      8.2116      2.5425      0.0587      6.5182    145.2826     26.3766
   466.9000      8.2116      2.5539      0.1188      5.8251    146.4542     25.9225
   467.0000      8.2092      2.5694      0.1127      4.8851    142.9831     25.7775
   467.1000      8.2092      2.5862      0.1138      3.8695    136.6785     25.8003
   467.2000      8.2092      2.5972      0.1052      3.1977    132.6825     25.4263
   467.3000      8.2210      2.5925      0.1320      3.4829    134.2426     24.6063
   467.4000      8.2210      2.5719      0.0894      4.7346    138.0486     23.9051
   467.5000      8.2251      2.5528      0.0871      5.8903    140.0200     23.9148
   467.6000      8.2251      2.5525      0.0637      5.9094    140.9121     24.5951
   467.7000      8.2251      2.5654      0.0959      5.1280    141.2172     25.3014
   467.8000      8.2294      2.5737      0.1236      4.6221    142.6557     25.8041
   467.9000      8.2294      2.5731      0.0878      4.6583    145.7432     26.1639
   468.0000      8.2500      2.5625      0.1050      5.3040    148.3524     26.1763
   468.1000      8.2500      2.5423      0.0643      6.5274    149.7117     25.9122
   468.2000      8.2500      2.5328      0.0387      7.1049    149.8264     25.9995
   468.3000      8.2650      2.5467      0.0582      6.2595    148.9501     26.8369
   468.4000      8.2650      2.5651      0.1167      5.1430    149.3078     27.7039
   468.5000      8.2678      2.5712      0.0784      4.7757    150.8344     27.5801
   468.6000      8.2678      2.5795      0.0749      4.2718    151.6146     26.7199
   468.7000      8.2678      2.6142      0.0502      2.1704    154.2603     26.2511
   468.8000      8.2575      2.6643      0.1872     -0.8654    158.8937     26.7611
   468.9000      8.2575      2.6853      0.1655     -2.1384    159.2714     27.6292
   469.0000      8.2450      2.6640      0.1078     -0.8478    154.1152     27.7236
   469.1000      8.2450      2.6279      0.0889      1.3417    149.7162     26.8819
   469.2000      8.2450      2.5928      0.1119      3.4649    150.1482     26.1916
   469.3000      8.2242      2.5559      0.0858      5.7035    154.7132     26.5048
   469.4000      8.2242      2.5249      0.0225      7.5827    160.3107     27.3909
   469.5000      8.2013      2.5236      0.0494      7.6631    161.1531     28.3211
   469.6000      8.2013      2.5579      0.0685      5.5815    153.6358     29.1410
   469.7000      8.2013      2.5991      0.1296      3.0822    147.0271     29.2804
   469.8000      8.1953      2.6174      0.1454      1.9738    150.8542     28.9668
   469.9000      8.1953      2.6205      0.1030      1.7862    157.8474     29.5359
   470.0000      8.1893      2.6239      0.1302      1.5830    161.8429     31.0862
   470.1000      8.1893      2.6155      0.1248      2.0902    165.9210     32.2309
   470.2000      8.1893      2.5919      0.0786      3.5221    168.0762     32.1269
   470.3000      8.1742      2.5709      0.0813      4.7961    164.2989     31.5298
