~Version Information
VERS.                      2.0: CWLS Log ASCII Standard - VERSION 2.0
WRAP.                       NO: One line per depth step
~Well Information Block
STRT.FT                -7.5000: 
STOP.FT              2228.7500: 
STEP.FT                 0.2500: 
NULL.                -999.2500: 
COMP.          Pioneer Natural Resources: COMPANY
WELL.          McDonald 33-31 R: WELL
FLD.           Purgatorie River: FIELD
LOC.           1386' FSL & 1926' FEL: LOCATION
STAT.                       CO: State
CNTY.               Las Animas: COUNTY
CTRY.                      USA: Country
SECT.                       31: Section
TOWN.                      32S: Township
RANG.                      66W: Range
SRVC.          Patterson Wireline: SERVICE COMPANY
DATE.          Wed Sep 28 13:29:18 2005: LOG DATE
API.           05 071 08533 00: API#
~Curve Information Block
DEPT.FT            0 000 00 00: Depth
CCL.                          : Casing Collar Locator
TT3.usec                      : CBL 3' Travel Time
AMP3.mV                       : CBL 3' Amplitude
GR.GAPI                       : Gamma Ray
~Parameter Information Block
~A  Depth       CCL         TT3         AMP3         GR     
# ...
  1031.0000      0.0000    621.0323      7.4754    125.6722
  1031.2500      0.0000    630.0233      7.6067    122.4117
  1031.5000      0.0000    646.2852      7.7293    120.9364
  1031.7500      0.0000    664.0637      7.8568    118.5836
  1032.0000      0.0000    677.7154      7.9798    113.7804
  1032.2500      0.0000    685.3759      8.0701    107.9038
  1032.5000      0.0000    688.4729      8.1080    104.0555
  1032.7500      0.0000    689.2443      8.1064    104.5303
  1033.0000      0.0000    689.2402      8.1002    109.3246
  1033.2500      0.0000    689.2552      8.1113    116.3450
  1033.5000      0.0000    689.7106      8.1286    122.6789
  1033.7500      0.0000    690.9518      8.1199    126.1239
  1034.0000      0.0000    693.2380      8.0580    126.2070
  1034.2500      0.0000    696.3767      7.9342    124.1778
  1034.5000      0.0000    699.3813      7.7522    121.9090
  1034.7500      0.0000    700.9189      7.5200    120.3266
  1035.0000      0.0000    700.5683      7.2499    118.7653
  1035.2500      0.0000    699.5534      6.9650    116.0154
  1035.5000      0.0000    699.8967      6.7019    111.8623
  1035.7500      0.0000    702.6824      6.5058    107.5589
  1036.0000      0.0000    706.9848      6.4173    105.1043
  1036.2500      0.0000    710.4102      6.4552    105.9805
  1036.5000      0.0000    711.0611      6.6097    110.0361
  1036.7500      0.0000    709.2527      6.8468    115.3404
  1037.0000      0.0000    707.1038      7.1152    119.3168
  1037.2500      0.0000    706.5157      7.3573    120.4237
  1037.5000      0.0000    708.0669      7.5315    119.2580
  1037.7500      0.0000    711.5179      7.6282    118.0175
  1038.0000      0.0000    715.9788      7.6611    118.1433
  1038.2500      0.0000    719.2463      7.6468    118.3558
  1038.5000      0.0000    718.5538      7.5970    115.7865
  1038.7500      0.0000    713.1318      7.5220    109.3971
  1039.0000      0.0000    705.3063      7.4260    101.6566
  1039.2500      0.0000    698.4016      7.3027     96.3249
  1039.5000      0.0000    694.1084      7.1448     94.9745
  1039.7500      0.0000    692.0868      6.9596     96.1955
  1040.0000      0.0000    691.2484      6.7708     97.7367
  1040.2500      0.0000    690.8105      6.6086     98.5478
  1040.5000      0.0000    690.4897      6.4976     98.8504
  1040.7500      0.0000    690.2708      6.4463     99.1964
  1041.0000      0.0000    690.1971      6.4423     99.9163
  1041.2500      0.0000    690.2565      6.4615    101.0431
  1041.5000      0.0000    690.3225      6.4852    102.4290
  1041.7500      0.0000    690.1316      6.5081    103.9307
  1042.0000      0.0000    689.4041      6.5337    105.3928
  1042.2500      0.0000    688.2003      6.5679    106.4894
  1042.5000      0.0000    687.2955      6.6167    106.9968
  1042.7500      0.0000    688.0712      6.6811    107.3480
  1043.0000      0.0000    691.8007      6.7519    108.5135
  1043.2500      0.0000    698.9077      6.8158    111.1873
  1043.5000      0.0000    708.7300      6.8710    115.1425
  1043.7500      0.0000    719.5335      6.9346    119.2951
  1044.0000      0.0000    728.3918      7.0272    122.4186
  1044.2500      0.0000    730.9952      7.1460    124.0415
  1044.5000      0.0000    722.2576      7.2610    124.7259
  1044.7500      0.0000    698.8753      7.3407    125.4621
  1045.0000      0.0000    663.1649      7.3817    126.8154
  1045.2500      0.0000    624.7542      7.4076    128.5598
  1045.5000      0.0000    597.0680      7.4408    129.9333
  1045.7500      0.0000    589.9655      7.4800    130.0719
  1046.0000      0.0000    603.8495      7.5120    128.4543
  1046.2500      0.0000    630.0289      7.5420    125.5244
  1046.5000      0.0000    657.2512      7.6024    122.8356
  1046.7500      0.0000    679.0140      7.7195    121.8297
  1047.0000      0.0000    695.6707      7.8782    122.2999
  1047.2500      0.0000    710.5609      8.0324    122.5179
  1047.5000      0.0000    724.9278      8.1460    120.9110
  1047.7500      0.0000    736.7742      8.2125    117.3460
  1048.0000      0.0000    744.1906      8.2418    112.9500
  1048.2500      0.0000    748.3606      8.2429    109.1277
  1048.5000      0.0000    752.3862      8.2231    106.7054
  1048.7500      0.0000    758.0705      8.1912    105.7232
  1049.0000      0.0000    764.7206      8.1578    105.6977
  1049.2500      0.0000    770.2031      8.1309    105.7271
  1049.5000      0.0000    772.5004      8.1102    104.5989
  1049.7500      0.0000    771.0914      8.0848    101.6014
  1050.0000      0.0000    767.4745      8.0424     97.4353
  1050.2500      0.0000    764.1421      7.9835     93.7038
  1050.5000      0.0000    763.0041      7.9214     91.2311
  1050.7500      0.0000    764.6042      7.8668     89.3959
  1051.0000      0.0000    767.9186      7.8135     87.4364
  1051.2500      0.0000    770.4901      7.7463     85.9158
  1051.5000      0.0000    769.5577      7.6611     86.4310
  1051.7500      0.0000    763.2708      7.5720     90.1019
  1052.0000      0.0000    749.9455      7.4983     96.6582
  1052.2500      0.0000    727.0157      7.4485    104.6957
  1052.5000      0.0000    693.5358      7.4183    112.4615
  1052.7500      0.0000    654.1113      7.3985    118.5182
  1053.0000      0.0000    617.9589      7.3832    122.0135
  1053.2500      0.0000    593.4100      7.3722    122.7580
  1053.5000      0.0000    584.2712      7.3690    121.4546
  1053.7500      0.0000    590.1879      7.3698    119.6445
  1054.0000      0.0000    607.7891      7.3553    118.5615
  1054.2500      0.0000    631.0716      7.3015    117.7497
  1054.5000      0.0000    652.9406      7.2026    115.5763
  1054.7500      0.0000    668.5706      7.0792    111.5422
  1055.0000      0.0000    678.0737      6.9663    107.4285
  1055.2500      0.0000    685.6151      6.8941    105.6205
  1055.5000      0.0000    695.0340      6.8754    106.7138
  1055.7500      0.0000    705.3839      6.9016    109.2658
  1056.0000      0.0000    711.0161      6.9516    111.6035
  1056.2500      0.0000    706.9056      7.0059    113.2436
  1056.5000      0.0000    693.2900      7.0481    114.6703
  1056.7500      0.0000    674.1857      7.0578    116.5043
  1057.0000      0.0000    653.5169      7.0211    119.0734
  1057.2500      0.0000    635.1583      6.9524    122.0745
  1057.5000      0.0000    624.3886      6.8905    124.3895
  1057.7500      0.0000    625.2468      6.8657    124.9629
  1058.0000      0.0000    636.3370      6.8807    124.2013
  1058.2500      0.0000    651.0717      6.9198    123.9043
  1058.5000      0.0000    662.2220      6.9642    125.2613
  1058.7500      0.0000    665.9709      6.9971    127.2980
  1059.0000      0.0000    662.5389      7.0075    127.8211
  1059.2500      0.0000    653.9745      6.9974    125.6952
  1059.5000      0.0000    641.7217      6.9810    121.8859
  1059.7500      0.0000    626.3298      6.9755    118.6274
  1060.0000      0.0000    609.0359      6.9914    117.7572
  1060.2500      0.0000    592.5708      7.0333    119.4749
  1060.5000      0.0000    579.8313      7.1039    122.4324
  1060.7500      0.0000    572.0049      7.2026    125.0111
  1061.0000      0.0000    568.2623      7.3203    126.3882
  1061.2500      0.0000    566.9565      7.4410    126.4988
  1061.5000      0.0000    566.9318      7.5529    125.5908
  1061.7500      0.0000    568.1883      7.6527    124.2756
  1062.0000      0.0000    572.1180      7.7381    123.6142
  1062.2500      0.0000    581.3438      7.7999    124.4464
  1062.5000      0.0000    598.4460      7.8281    126.4743
  1062.7500      0.0000    623.5226      7.8285    128.2867
  1063.0000      0.0000    652.8364      7.8287    128.2870
  1063.2500      0.0000    681.0071      7.8628    125.5226
  1063.5000      0.0000    704.8531      7.9506    120.1078
  1063.7500      0.0000    724.1904      8.0853    113.4096
  1064.0000      0.0000    739.2570      8.2317    107.3333
  1064.2500      0.0000    749.2327      8.3371    102.6004
