~Version Information
VERS.                      2.0: CWLS Log ASCII Standard - VERSION 2.0
WRAP.                       NO: One line per depth step
~Well Information Block
STRT.FT               625.0000: 
STOP.FT              2053.7000: 
STEP.FT                 0.1000: 
NULL.                -999.2500: 
COMP.          Pioneer Natural Resources: COMPANY
WELL.            Zink 44-10 Tr: WELL
FLD.           Purgatoire River: FIELD
LOC.           486' FSL & 554' FEL--: LOCATION
PROV.                 Colorado: PROVINCE
CNTY.               Las Animas: COUNTRY
SRVC.                Patterson: SERVICE COMPANY
DATE.          Sun Jul 24 08:46:57 2005: LOG DATE
UWI.           05 071 08446 00: UNIQUE WELL ID
~Curve Information Block
DEPT.FT            0 000 00 00: Depth
DCAL.in                       : CDL Caliper
RHOB.g/cc                     : CDL Bulk Density
RHOC.g/cc                     : CDL Density Correction
DPOR.pu                       : CDL Density Porosity
NPOR.pu                       : Neutron Porosity
GR.GAPI                       : Gamma Ray
~Parameter Information Block
~A  Depth       DCAL        RHOB        RHOC        DPOR        NPOR         GR     
# ...
  1095.4000      8.1653      2.5880      0.2780      3.7597     21.6179    129.1332
  1095.5000      8.1773      2.4984      0.1809      9.1894     21.6352    126.0657
  1095.6000      8.1773      2.4171      0.0736     14.1137     21.2987    126.4715
  1095.7000      8.1773      2.3641      0.0795     17.3268     20.5588    128.6728
  1095.8000      8.1790      2.3287      0.0779     19.4756     19.5874    127.1447
  1095.9000      8.1790      2.2879      0.0643     21.9449     18.8070    122.5674
  1096.0000      8.1650      2.2289     -0.0081     25.5209     18.1037    121.1190
  1096.1000      8.1650      2.1523     -0.0040     30.1655     16.8500    123.6216
  1096.2000      8.1650      2.0623     -0.0330     35.6170     15.1618    125.3193
  1096.3000      8.1776      1.9700     -0.0487     41.2116     13.8059    122.2718
  1096.4000      8.1776      1.8996     -0.0456     45.4813     13.0656    116.2409
  1096.5000      8.2401      1.8766      0.0167     46.8747     12.6895    112.4961
  1096.6000      8.2401      1.9117      0.1801     44.7453     12.8212    113.1588
  1096.7000      8.2401      2.0104      0.2035     38.7649     13.8528    117.7583
  1096.8000      8.2848      2.1822      0.2916     28.3508     15.6115    124.2736
  1096.9000      8.2848      2.4047      0.4939     14.8673     17.3941    130.0670
  1097.0000      8.2217      2.6043      0.6620      2.7715     18.7097    131.7957
  1097.1000      8.2217      2.7154      0.6673     -3.9643     19.4907    125.2122
  1097.2000      8.2217      2.7396      0.5267     -5.4276     19.8993    116.2462
  1097.3000      8.1124      2.7232      0.4419     -4.4361     20.2702    115.8796
  1097.4000      8.1124      2.7007      0.3790     -3.0705     20.9899    123.0601
  1097.5000      8.0612      2.6777      0.2838     -1.6792     21.9766    129.8049
  1097.6000      8.0612      2.6487      0.2282      0.0786     22.7679    131.2843
  1097.7000      8.0612      2.6165      0.1278      2.0328     23.3568    128.6621
  1097.8000      8.0416      2.5914      0.0797      3.5492     23.9578    124.1797
  1097.9000      8.0416      2.5733      0.0654      4.6496     24.6170    119.7429
  1098.0000      8.0131      2.5593      0.0254      5.4943     25.2776    118.3008
  1098.1000      8.0131      2.5540      0.0211      5.8199     25.8843    119.4711
  1098.2000      8.0131      2.5645     -0.0107      5.1815     26.1805    121.9230
  1098.3000      7.9900      2.5925      0.0509      3.4820     26.0403    126.5427
  1098.4000      7.9900      2.6208      0.0489      1.7696     25.8307    131.7870
  1098.5000      7.9752      2.6344      0.0575      0.9478     25.8296    131.5966
  1098.6000      7.9752      2.6397      0.0328      0.6271     26.1548    124.2862
  1098.7000      7.9752      2.6525      0.0427     -0.1510     26.5619    114.6716
  1098.8000      7.9623      2.6776      0.0610     -1.6738     26.6747    108.3251
  1098.9000      7.9623      2.7048      0.0711     -3.3195     26.7292    109.0947
  1099.0000      7.9570      2.7205      0.0903     -4.2737     27.2756    115.1871
  1099.1000      7.9570      2.7184      0.0476     -4.1447     28.1569    122.1466
  1099.2000      7.9570      2.7031      0.0406     -3.2205     28.6215    126.1429
  1099.3000      7.9564      2.6839      0.0237     -2.0540     28.3221    125.0266
  1099.4000      7.9564      2.6732      0.0576     -1.4032     27.6186    121.7897
  1099.5000      7.9556      2.6780      0.0080     -1.6962     27.1126    119.6854
  1099.6000      7.9556      2.6883      0.0709     -2.3218     26.8376    117.2203
  1099.7000      7.9556      2.6835      0.0600     -2.0309     26.4554    113.6313
  1099.8000      7.9558      2.6575      0.0510     -0.4520     26.1065    113.4002
  1099.9000      7.9558      2.6192      0.0165      1.8637     26.0479    117.7163
  1100.0000      7.9563      2.5780      0.0088      4.3657     25.9424    121.5881
  1100.1000      7.9563      2.5417     -0.0210      6.5659     25.4967    122.9133
  1100.2000      7.9563      2.5158     -0.0292      8.1360     24.9934    121.3580
  1100.3000      7.9556      2.5007     -0.0082      9.0512     24.5221    116.1954
  1100.4000      7.9556      2.5014     -0.0251      9.0073     23.8708    110.9250
  1100.5000      7.9552      2.5244     -0.0386      7.6105     23.1467    108.0613
  1100.6000      7.9552      2.5553      0.0417      5.7406     22.6626    105.3683
  1100.7000      7.9552      2.5653      0.0606      5.1317     22.5035    103.4327
  1100.8000      7.9541      2.5547      0.0156      5.7746     22.7373    106.4071
  1100.9000      7.9541      2.5527      0.0185      5.8982     23.4354    113.5476
  1101.0000      7.9542      2.5734      0.0005      4.6421     24.4818    119.1979
  1101.1000      7.9542      2.5961      0.0964      3.2657     25.4697    118.9298
  1101.2000      7.9542      2.5996      0.0495      3.0522     26.0448    112.7654
  1101.3000      7.9565      2.5939      0.0784      3.4029     26.1835    105.3780
  1101.4000      7.9565      2.5915      0.0643      3.5469     26.1455    102.2592
  1101.5000      7.9584      2.5900      0.0837      3.6379     26.1063    103.0088
  1101.6000      7.9584      2.5842      0.0779      3.9895     25.8659    102.6296
  1101.7000      7.9584      2.5812      0.0550      4.1710     25.2665    100.9521
  1101.8000      7.9593      2.5889      0.0962      3.7024     24.5973    101.2513
  1101.9000      7.9593      2.6027      0.0617      2.8653     24.0325    104.5520
  1102.0000      7.9587      2.6156      0.0779      2.0874     23.4367    109.8513
  1102.1000      7.9587      2.6182      0.0847      1.9290     22.8525    114.8372
  1102.2000      7.9587      2.6063      0.0598      2.6502     22.7060    116.6536
  1102.3000      7.9561      2.5864      0.0741      3.8549     23.2242    116.6400
  1102.4000      7.9561      2.5706      0.0395      4.8096     23.6149    117.5006
  1102.5000      7.9496      2.5691      0.0633      4.9056     23.1349    116.1659
  1102.6000      7.9496      2.5833      0.0298      4.0438     22.4917    110.7658
  1102.7000      7.9496      2.6103      0.0628      2.4054     22.5150    106.0818
  1102.8000      7.9374      2.6357      0.0722      0.8661     23.1109    106.1225
  1102.9000      7.9374      2.6478      0.0427      0.1327     23.9855    108.6856
  1103.0000      7.9279      2.6529      0.0732     -0.1769     24.8147    110.0871
  1103.1000      7.9279      2.6559      0.0691     -0.3568     25.3233    108.7359
  1103.2000      7.9279      2.6517      0.0984     -0.1032     25.7229    104.3447
  1103.3000      7.9274      2.6406      0.0665      0.5697     26.2368    101.2187
  1103.4000      7.9274      2.6288      0.0365      1.2860     26.7186    102.2713
  1103.5000      7.9349      2.6224      0.0395      1.6716     26.9923    104.1860
  1103.6000      7.9349      2.6256      0.0685      1.4772     26.9333    105.7111
  1103.7000      7.9349      2.6276      0.0481      1.3557     26.4657    107.4457
  1103.8000      7.9453      2.6129      0.0345      2.2490     25.7716    107.6459
  1103.9000      7.9453      2.5861     -0.0169      3.8701     25.3138    105.4655
  1104.0000      7.9522      2.5682      0.0004      4.9588     25.1849    102.3165
  1104.1000      7.9522      2.5632      0.0421      5.2584     24.9339    100.0119
  1104.2000      7.9522      2.5580      0.0251      5.5783     24.6806    101.3095
  1104.3000      7.9532      2.5488      0.0422      6.1325     24.7860    107.3005
  1104.4000      7.9532      2.5417      0.0201      6.5640     24.9897    113.6148
  1104.5000      7.9469      2.5413      0.0386      6.5849     25.1528    114.6423
  1104.6000      7.9469      2.5522      0.0043      5.9278     25.1928    110.8293
  1104.7000      7.9469      2.5720      0.0985      4.7256     24.8656    109.1470
  1104.8000      7.9372      2.5890      0.1199      3.6986     24.2946    109.9320
  1104.9000      7.9372      2.5973      0.1313      3.1922     23.9816    106.2690
