~Version Information
VERS.                      2.0: CWLS Log ASCII Standard - VERSION 2.0
WRAP.                       NO: One line per depth step
~Well Information Block
STRT.FT               370.0000: 
STOP.FT              2831.7500: 
STEP.FT                 0.2500: 
NULL.                -999.2500: 
COMP.          Pioneer Natural Resources: COMPANY
WELL.          Black Cat 13-32: WELL
FLD.           Purgatoire River: FIELD
LOC.           1865' FSL & 1120' FWL--: LOCATION
PROV.                 Colorado: PROVINCE
CNTY.               Las Animas: COUNTRY
SRVC.                Patterson: SERVICE COMPANY
DATE.          Sun Jul 31 08:49:16 2005: LOG DATE
UWI.           05 071 08450 00: UNIQUE WELL ID
~Curve Information Block
DEPT.FT            0 000 00 00: Depth
DIR.Ohm-m                     : IEL Induction Resistivity
SN.Ohm-m                      : IEL Short Normal
SP.mV                         : IEL Spontaneous Potential
GR.GAPI                       : Gamma Ray
~Parameter Information Block
~A  Depth       DIR          SN          SP          GR     
   370.0000 100000.0000   2000.0000   1966.0000    129.4001
   370.2500 100000.0000   2000.0000   1966.0000    129.9643
   370.5000 100000.0000   2000.0000   1966.0000    130.8377
   370.7500 100000.0000   2000.0000   1966.0000    130.9262
   371.0000 100000.0000   2000.0000   1966.0000    130.4191
   371.2500 100000.0000   2000.0000   1966.0000    130.1903
   371.5000 100000.0000   2000.0000   1966.0000    130.4428
   371.7500 100000.0000   2000.0000   1966.0000    130.7753
   372.0000 100000.0000   2000.0000   1966.0000    131.0224
   372.2500 100000.0000   2000.0000   1966.0000    130.7987
   372.5000 100000.0000   2000.0000   1966.0000    129.2813
   372.7500 100000.0000   2000.0000   1966.0000    127.1811
   373.0000 100000.0000   2000.0000   1966.0000    122.8173
   373.2500 100000.0000   2000.0000   1966.0000    119.8312
   373.5000 100000.0000   2000.0000   1966.0000     77.5059
   373.7500 100000.0000   2000.0000   1966.0000     76.3850
   374.0000 100000.0000   2000.0000   1966.0000     75.1451
   374.2500 100000.0000   2000.0000   1966.0000     74.4742
   374.5000 100000.0000   2000.0000   1966.0000     73.5818
   374.7500 100000.0000   2000.0000   1966.0000     72.9232
   375.0000 100000.0000   2000.0000   1966.0000     71.4879
   375.2500 100000.0000   2000.0000   1966.0000     70.2953
   375.5000 100000.0000   2000.0000   1966.0000     69.1313
   375.7500 100000.0000   2000.0000   1966.0000     69.3802
   376.0000 100000.0000   2000.0000   1966.0000     70.9859
   376.2500 100000.0000   2000.0000   1966.0000     71.9226
   376.5000 100000.0000   2000.0000   1966.0000     71.9542
   376.7500 100000.0000   2000.0000   1966.0000     71.4812
   377.0000 100000.0000   2000.0000   1966.0000     72.0847
   377.2500 100000.0000   2000.0000   1966.0000     74.2893
   377.5000 100000.0000   2000.0000   1966.0000     80.0710
   377.7500 100000.0000   2000.0000   1966.0000     84.5021
   378.0000 100000.0000   2000.0000   1966.0000     89.9871
   378.2500 100000.0000   2000.0000   1966.0000     92.4071
   378.5000 100000.0000   2000.0000   1966.0000     95.0745
   378.7500 100000.0000   2000.0000   1966.0000     97.1734
   379.0000 100000.0000   2000.0000   1966.0000    101.6504
   379.2500 100000.0000   2000.0000   1966.0000    105.1637
   379.5000 100000.0000   2000.0000   1966.0000    109.8995
   379.7500 100000.0000   2000.0000   1966.0000    112.1714
   380.0000 100000.0000   2000.0000   1966.0000    114.0312
   380.2500     15.8102   2000.0000   1966.0000    114.2426
   380.5000      5.9749   2000.0000   1966.0000    113.3425
   380.7500      3.7134   2000.0000   1966.0000    112.6383
   381.0000      3.0498   2000.0000   1966.0000    113.1628
   381.2500      3.1668   2000.0000   1966.0000    115.0013
   381.5000      4.1861   2000.0000   1966.0000    118.6182
   381.7500      7.6887   2000.0000   1966.0000    120.0473
   382.0000     37.2874   2000.0000   1966.0000    118.9926
   382.2500 100000.0000   2000.0000   1966.0000    116.4564
   382.5000 100000.0000   2000.0000   1966.0000    111.9977
   382.7500 100000.0000   2000.0000   1966.0000    109.8128
   383.0000 100000.0000   2000.0000   1966.0000    108.7791
   383.2500 100000.0000   2000.0000   1966.0000    109.6200
   383.5000 100000.0000   2000.0000   1966.0000    112.6111
   383.7500     33.4102   2000.0000   1966.0000    115.2160
   384.0000     18.9665   2000.0000   1966.0000    119.0061
   384.2500     15.3333   2000.0000   1966.0000    120.9430
   384.5000     14.3825   2000.0000   1966.0000    122.3093
   384.7500     14.5800   2000.0000   1966.0000    121.9454
   385.0000     15.3990   2000.0000   1966.0000    119.5545
   385.2500     16.5277   2000.0000   1966.0000    117.1746
   385.5000     17.6464   2000.0000   1966.0000    113.3870
   385.7500     18.4412   2000.0000   1966.0000    110.9896
   386.0000     18.8248   2000.0000   1966.0000    107.5736
   386.2500     19.0774   2000.0000   1966.0000    105.4700
   386.5000     19.6920   2000.0000   1966.0000    102.9890
   386.7500     21.1249   2000.0000   1966.0000    102.0054
   387.0000     23.5983   2000.0000   1966.0000    101.4688
   387.2500     26.7759   2000.0000   1966.0000    101.4387
   387.5000     29.3605   2000.0000   1966.0000    101.3410
   387.7500     29.7099   2000.0000   1966.0000    101.1584
   388.0000     27.6936   2000.0000   1966.0000    100.9725
   388.2500     24.7538   2000.0000   1966.0000    101.0971
   388.5000     22.1545   2000.0000   1966.0000    101.8315
   388.7500     20.3556   2000.0000   1966.0000    102.7315
   389.0000     19.3607   2000.0000   1966.0000    104.7547
   389.2500     19.0200   2000.0000   1966.0000    106.5787
   389.5000     19.1298   2000.0000   1966.0000    109.9168
   389.7500     19.4546   2000.0000   1966.0000    112.3421
   390.0000     19.7623   2000.0000   1966.0000    115.9631
   390.2500     19.8875   2000.0000   1966.0000    118.3839
   390.5000     19.7738   2000.0000   1966.0000    122.2368
   390.7500     19.4590   2000.0000   1966.0000    124.8953
   391.0000     19.0243   2000.0000   1966.0000    128.3535
   391.2500     18.5492   2000.0000   1966.0000    129.7788
   391.5000     18.0915   2000.0000   1966.0000    130.1995
   391.7500     17.6856   2000.0000   1966.0000    129.6430
   392.0000     17.3487   2000.0000   1966.0000    128.5940
   392.2500     17.0908   2000.0000   1966.0000    128.2449
   392.5000     16.9202   2000.0000   1966.0000    128.5276
   392.7500     16.8473   2000.0000   1966.0000    129.0407
   393.0000     16.8835   2000.0000   1966.0000    129.3433
   393.2500     17.0346   2000.0000   1966.0000    128.6283
   393.5000     17.2936   2000.0000   1966.0000    125.8795
   393.7500     17.6357   2000.0000   1966.0000    123.2270
   394.0000     18.0235   2000.0000   1966.0000    118.5688
   394.2500     18.4187   2000.0000   1966.0000    115.0913
   394.5000     18.7922   2000.0000   1966.0000    109.4839
   394.7500     19.1240   2000.0000   1966.0000    105.9705
   395.0000     19.3934   2000.0000   1966.0000    102.4477
   395.2500     19.5726   2000.0000   1966.0000    101.9358
   395.5000     19.6322   2000.0000   1966.0000    104.0241
   395.7500     19.5538   2000.0000   1966.0000    106.8362
   396.0000     19.3398   2000.0000   1966.0000    112.1346
   396.2500     19.0128   2000.0000   1966.0000    115.8363
   396.5000     18.6086   2000.0000   1966.0000    120.7329
   396.7500     18.1691   2000.0000   1966.0000    123.1564
   397.0000     17.7384   2000.0000   1966.0000    125.4945
   397.2500     17.3594   2000.0000   1966.0000    126.5650
   397.5000     17.0696   2000.0000   1966.0000    128.1419
   397.7500     16.8948   2000.0000   1966.0000    129.2979
   398.0000     16.8433   2000.0000   1966.0000    130.9914
   398.2500     16.9033   2000.0000   1966.0000    132.0012
   398.5000     17.0459   2000.0000   1966.0000    133.2171
   398.7500     17.2330   2000.0000   1966.0000    133.5900
   399.0000     17.4291   2000.0000   1966.0000    133.0305
   399.2500     17.6102   2000.0000   1966.0000    131.9363
   399.5000     17.7697   2000.0000   1966.0000    129.7171
   399.7500     17.9197   2000.0000   1966.0000    128.1242
   400.0000     18.0893   2000.0000   1966.0000    125.8441
   400.2500     18.3171   2000.0000   1966.0000    124.5799
   400.5000     18.6413   2000.0000   1966.0000    123.5356
   400.7500     19.0898   2000.0000   1966.0000    123.5494
   401.0000     19.6742   2000.0000   1966.0000    123.8697
   401.2500     20.3889   2000.0000   1966.0000    123.1810
   401.5000     21.2172   2000.0000   1966.0000    119.0687
   401.7500     22.1426   2000.0000   1966.0000    114.1176
   402.0000     23.1564   2000.0000   1966.0000    104.4796
   402.2500     24.2567   2000.0000   1966.0000     97.4008
   402.5000     25.4420   2000.0000   1966.0000     86.8490
   402.7500     26.7136   2000.0000   1966.0000     80.3422
   403.0000     28.0875   2000.0000   1966.0000     72.2894
   403.2500     29.6003   2000.0000   1966.0000     68.6273
