~Version Information
VERS.                      2.0: CWLS Log ASCII Standard - VERSION 2.0
WRAP.                       NO: One line per depth step
~Well Information Block
STRT.FT                -8.2500: 
STOP.FT              1580.5000: 
STEP.FT                 0.2500: 
NULL.                -999.2500: 
COMP.          Pioneer Natural Resources: COMPANY
WELL.          Daytona 31-14 Tr: WELL
FLD.           Purgatorie River: FIELD
LOC.           683' FNL & 1943' FEL--: LOCATION
CNTY.               Las Animas: COUNTY
SRVC.          Patterson Wireline: SERVICE COMPANY
DATE.          Thu Feb 02 08:47:22 2006: LOG DATE
UWI.           05 071 08681 00: UNIQUE WELL ID
STAT.                       CO: STATE
~Curve Information Block
DEPT.FT            0 000 00 00: Depth
CCL.                          : Casing Collar Locator
TT3.usec                      : CBL 3' Travel Time
AMP3.mV                       : CBL 3' Amplitude
GR.GAPI                       : Gamma Ray
~Parameter Information Block
~A  Depth       CCL         TT3         AMP3         GR     
    -8.2500   -999.2500   -999.2500   -999.2500     86.4620
    -8.0000   -999.2500   -999.2500   -999.2500     87.6104
    -7.7500   -999.2500   -999.2500   -999.2500     89.4067
    -7.5000   -999.2500   -999.2500   -999.2500     92.5032
    -7.2500   -999.2500   -999.2500   -999.2500     96.3933
    -7.0000   -999.2500   -999.2500   -999.2500     98.9402
    -6.7500   -999.2500   -999.2500   -999.2500     98.3415
    -6.5000   -999.2500   -999.2500   -999.2500     95.1814
    -6.2500   -999.2500   -999.2500   -999.2500     91.8216
    -6.0000   -999.2500   -999.2500   -999.2500     90.1682
    -5.7500   -999.2500   -999.2500   -999.2500     90.7167
    -5.5000   -999.2500   -999.2500   -999.2500     93.1200
    -5.2500   -999.2500   -999.2500   -999.2500     96.4966
    -5.0000   -999.2500   -999.2500   -999.2500     99.2648
    -4.7500   -999.2500   -999.2500   -999.2500     99.7470
    -4.5000   -999.2500   -999.2500   -999.2500     97.4820
    -4.2500   -999.2500   -999.2500   -999.2500     93.8387
    -4.0000   -999.2500   -999.2500   -999.2500     91.1359
    -3.7500   -999.2500   -999.2500   -999.2500     90.7736
    -3.5000   -999.2500   -999.2500   -999.2500     91.7892
    -3.2500   -999.2500   1161.0000      0.9196     91.3890
    -3.0000   -999.2500   1161.0000      0.9128     87.4671
    -2.7500   -999.2500   1161.0000      0.9103     80.6463
    -2.5000   -999.2500   1161.0000      0.9157     73.5287
    -2.2500   -999.2500   1161.0000      0.9292     68.1208
    -2.0000   -999.2500   1161.0000      0.9474     64.4807
    -1.7500   -999.2500   1161.0000      0.9641     61.7926
    -1.5000   -999.2500   1161.0000      0.9734     59.8055
    -1.2500   -999.2500   1161.0000      0.9724     58.6307
    -1.0000   -999.2500   1161.0000      0.9625     57.7076
    -0.7500   -999.2500   1161.0000      0.9506     55.7543
    -0.5000   -999.2500   1161.0000      0.9438     51.7996
    -0.2500   -999.2500   1161.0000      0.9448     46.0903
     0.0000   -999.2500   1161.0000      0.9502     40.0865
     0.2500   -999.2500   1161.0000      0.9548     35.6085
     0.5000   -999.2500   1161.0000      0.9515     33.8668
     0.7500   -999.2500   1161.0000      0.9444     34.7289
     1.0000   -999.2500   1161.0000      0.9362     35.1736
     1.2500   -999.2500   1161.0000      0.9279     35.4996
     1.5000   -999.2500   1161.0000      0.9192     37.1387
     1.7500   -999.2500   1161.0000      0.9100     41.3343
     2.0000      0.0000   1161.0000      0.9033     47.8935
     2.2500      0.0000   1161.0000      0.9044     54.8908
     2.5000      0.0000   1161.0000      0.9162     59.7499
     2.7500      0.0000   1161.0000      0.9358     61.2772
     3.0000      0.0000   1161.0000      0.9551     60.7593
     3.2500      0.0000   1161.0000      0.9666     60.5626
     3.5000      0.0000   1161.0000      0.9676     61.6473
     3.7500      0.0000   1161.0000      0.9605     63.0214
     4.0000      0.0000   1161.0000      0.9502     63.6519
     4.2500      0.0000   1161.0000      0.9417     64.1343
     4.5000      0.0000   1161.0000      0.9379     66.0352
     4.7500      0.0000   1161.0000      0.9394     69.9886
     5.0000      0.0000   1161.0000      0.9445     74.8652
     5.2500      0.0000   1161.0000      0.9503     78.7950
     5.5000      0.0000   1161.0000      0.9557     80.9668
     5.7500      0.0000   1160.9927      0.9616     82.3356
     6.0000      0.0000   1160.9526      0.9688     84.5640
     6.2500      0.0000   1160.7310      0.9760     88.4623
     6.5000      0.0000   1159.8033      0.9849     93.4725
     6.7500      0.0000   1156.6788      1.0171     98.2831
     7.0000      0.0000   1147.8185      1.1743    101.6577
     7.2500      0.0000   1126.1337      1.7950    102.8615
     7.5000      0.0000   1079.9512      3.7186    101.8585
     7.7500      0.0000    995.4978      8.4008     99.5709
     8.0000      0.0000    866.1766     17.3459     97.7098
     8.2500      0.0000    704.2794     30.7550     97.6873
     8.5000      0.0000    541.3517     46.5334     99.5583
     8.7500      0.0000    410.8744     61.1129    102.2532
     9.0000      0.0000    328.1955     71.6912    104.5530
     9.2500      0.0000    286.8750     77.7163    105.4942
     9.5000      0.0000    270.6218     80.4236    104.3658
     9.7500      0.0000    265.5987     81.4312    100.9172
    10.0000      0.0000    264.3836     81.8322     95.5047
    10.2500      0.0000    264.1567     82.1010     88.8035
    10.5000      0.0000    264.1336     82.3439     81.5552
    10.7500      0.0000    264.1426     82.5127     74.7598
    11.0000      0.0000    264.1500     82.4944     70.0376
    11.2500      0.0000    264.1554     82.1084     69.4414
    11.5000      0.0000    264.1660     81.0795     74.3379
    11.7500      0.0000    264.2076     79.0549     84.0829
    12.0000      0.0000    264.3368     75.7124     95.9025
    12.2500      0.0000    264.6634     70.9281    106.4275
    12.5000      0.0000    265.4071     64.8954    113.5468
    12.7500      0.0000    266.9940     58.0961    116.9251
    13.0000      0.0000    270.0779     51.1185    117.1261
    13.2500      0.0000    275.2453     44.4460    114.5681
    13.5000      0.0000    282.4623     38.3556    109.3437
    13.7500      0.0000    290.9191     32.9487    101.9030
    14.0000      0.0000    300.0639     28.2247     93.9011
    14.2500      0.0000    311.5072     24.1362     88.2657
    14.5000      0.0000    330.1734     20.6258     87.8767
    14.7500      0.0000    362.6839     17.6554     93.3456
    15.0000      0.0000    411.8150     15.2242    101.8043
    15.2500      0.0000    469.7117     13.3544    108.3857
    15.5000      0.0000    517.4819     12.0429    109.5938
    15.7500      0.0000    535.9603     11.2181    105.5427
    16.0000      0.0000    519.6530     10.7480     99.0383
    16.2500      0.0000    479.8274     10.4933     92.9980
    16.5000      0.0000    434.7934     10.3510     89.0797
    16.7500      0.0000    398.5584     10.2610     87.9382
    17.0000      0.0000    376.4066     10.1896     89.3202
    17.2500      0.0000    366.5320     10.1144     91.6530
    17.5000      0.0000    363.7800     10.0236     92.7922
    17.7500      0.0000    363.1235      9.9184     91.9227
    18.0000      0.0000    361.7592      9.8098     90.2317
    18.2500      0.0000    359.5027      9.7108     89.3608
    18.5000      0.0000    357.8996      9.6301     89.7404
    18.7500      0.0000    359.0273      9.5706     90.7199
    19.0000      0.0000    365.1954      9.5291     91.6244
    19.2500      0.0000    380.2878      9.4974     92.0250
    19.5000      0.0000    410.8379      9.4625     91.4291
    19.7500      0.0000    463.0507      9.4086     89.5006
    20.0000      0.0000    535.6571      9.3242     86.6477
    20.2500      0.0000    615.8780      9.2148     83.9159
    20.5000      0.0000    685.5538      9.1068     82.1009
    20.7500      0.0000    732.8936      9.0351     81.1663
    21.0000      0.0000    757.9914      9.0207     80.6546
    21.2500      0.0000    768.3763      9.0587     80.3866
    21.5000      0.0000    771.7567      9.1253     80.3132
    21.7500      0.0000    772.5735      9.1966     79.7686
    22.0000      0.0000    772.2977      9.2613     77.5199
    22.2500      0.0000    770.6777      9.3187     72.9654
    22.5000      0.0000    766.6958      9.3658     67.1055
    22.7500      0.0000    759.7249      9.3918     62.0523
    23.0000      0.0000    750.8724      9.3863     59.4890
    23.2500      0.0000    743.1041      9.3537     59.5122
    23.5000      0.0000    739.1071      9.3139     60.8184
    23.7500      0.0000    738.9304      9.2873     61.9264
    24.0000      0.0000    740.3375      9.2826     62.3463
    24.2500      0.0000    741.2786      9.2977     62.5266
    24.5000      0.0000    741.2815      9.3228     62.6366
    24.7500      0.0000    740.7051      9.3405     61.8621
    25.0000      0.0000    739.5126      9.3285     59.4128
