~Version Information
VERS.                      2.0: CWLS Log ASCII Standard - VERSION 2.0
WRAP.                       NO: One line per depth step
~Well Information Block
STRT.FT                -8.2500: 
STOP.FT              1653.2500: 
STEP.FT                 0.2500: 
NULL.                -999.2500: 
COMP.          Pioneer Natural Resources: COMPANY
WELL.            Relay 12-7 Tr: WELL
FLD.           Purgatorie River: FIELD
LOC.           2025' FNL & 790' FWL--: LOCATION
PROV.                       CO: PROVINCE
CNTY.               Las Animas: COUNTRY
SRVC.          Patterson Wireline: SERVICE COMPANY
DATE.          Tue Jan 24 10:25:08 2006: LOG DATE
UWI.           05 071 08603 00: UNIQUE WELL ID
~Curve Information Block
DEPT.FT            0 000 00 00: Depth
CCL.                          : Casing Collar Locator
TT3.usec                      : CBL 3' Travel Time
AMP3.mV                       : CBL 3' Amplitude
GR.GAPI                       : Gamma Ray
~Parameter Information Block
~A  Depth       CCL         TT3         AMP3         GR     
# ...
  1398.7500      0.0000    355.8759      4.0118     84.5427
  1399.0000      0.0000    351.9997      4.0133     91.0237
  1399.2500      0.0000    350.4442      3.9955     97.7575
  1399.5000      0.0000    350.8156      3.9659    103.4091
  1399.7500      0.0000    352.8057      3.9359    107.3567
  1400.0000      0.0000    356.5451      3.9162    109.2195
  1400.2500      0.0000    362.3773      3.9138    108.5156
  1400.5000      0.0000    370.1932      3.9284    104.9985
  1400.7500      0.0000    378.9211      3.9532     99.3507
  1401.0000      0.0000    386.8571      3.9804     93.3296
  1401.2500      0.0000    392.6574      4.0051     89.0084
  1401.5000      0.0000    396.0051      4.0211     87.6956
  1401.7500      0.0000    397.4370      4.0183     89.4500
  1402.0000      0.0000    397.9203      3.9886     93.3850
  1402.2500      0.0000    398.7906      3.9341     98.0537
  1402.5000      0.0000    401.9710      3.8677    101.5471
  1402.7500      0.0000    409.4472      3.8071    101.9577
  1403.0000      0.0000    421.1606      3.7720     98.5166
  1403.2500      0.0000    432.9020      3.7789     92.3607
  1403.5000      0.0000    437.9600      3.8342     85.8980
  1403.7500      0.0000    432.7476      3.9284     81.4091
  1404.0000      0.0000    420.2179      4.0409     80.1715
  1404.2500      0.0000    406.5848      4.1490     82.3597
  1404.5000      0.0000    395.6487      4.2334     87.1368
  1404.7500      0.0000    387.2149      4.2816     92.8311
  1405.0000      0.0000    379.6879      4.2916     97.5905
  1405.2500      0.0000    372.6208      4.2739    100.4714
  1405.5000      0.0000    366.8568      4.2468    102.0583
  1405.7500      0.0000    363.2119      4.2259    103.8154
  1406.0000      0.0000    361.6366      4.2160    106.6272
  1406.2500      0.0000    361.4604      4.2117    110.0442
  1406.5000      0.0000    362.0458      4.2045    113.0856
  1406.7500      0.0000    363.0600      4.1909    115.6342
  1407.0000      0.0000    364.3904      4.1740    118.5242
  1407.2500      0.0000    366.0029      4.1603    122.0491
  1407.5000      0.0000    367.8761      4.1537    125.0377
  1407.7500      0.0000    369.9626      4.1528    126.0495
  1408.0000      0.0000    372.1544      4.1508    125.1232
  1408.2500      0.0000    374.2865      4.1400    123.6175
  1408.5000      0.0000    376.1892      4.1180    122.3694
  1408.7500      0.0000    377.7721      4.0911    120.9196
  1409.0000      0.0000    379.1119      4.0697    118.9676
  1409.2500      0.0000    380.7354      4.0603    117.7404
  1409.5000      0.0000    384.3113      4.0609    118.8734
  1409.7500      0.0000    393.6963      4.0653    122.1469
  1410.0000      0.0000    415.0826      4.0692    125.3645
  1410.2500      0.0000    454.0922      4.0676    126.6861
  1410.5000      0.0000    510.0478      4.0476    126.2273
  1410.7500      0.0000    572.8520      3.9897    125.0422
  1411.0000      0.0000    627.8893      3.8846    123.4524
  1411.2500      0.0000    665.4829      3.7492    121.0980
  1411.5000      0.0000    685.4372      3.6218    118.1425
  1411.7500      0.0000    693.5817      3.5379    115.5729
  1412.0000      0.0000    696.0120      3.5109    113.9540
  1412.2500      0.0000    696.3629      3.5325    112.1228
  1412.5000      0.0000    696.1179      3.5866    107.8358
  1412.7500      0.0000    695.7410      3.6615    100.0710
  1413.0000      0.0000    695.3991      3.7496     90.0848
  1413.2500      0.0000    695.1976      3.8362     79.9328
  1413.5000      0.0000    695.1644      3.8937     70.8101
  1413.7500      0.0000    695.2620      3.8958     63.3425
  1414.0000      0.0000    695.4396      3.8377     58.7919
  1414.2500      0.0000    695.6667      3.7377     59.2742
  1414.5000      0.0000    695.9324      3.6205     66.6923
  1414.7500      0.0000    696.2495      3.5069     81.3002
  1415.0000      0.0000    696.6340      3.4194    100.9336
  1415.2500      0.0000    697.0240      3.3860    121.4586
  1415.5000      0.0000    697.0242      3.4297    138.2549
  1415.7500      0.0000    695.3564      3.5533    148.1219
  1416.0000      0.0000    689.0132      3.7331    150.7135
  1416.2500      0.0000    673.0483      3.9257    148.2900
  1416.5000      0.0000    642.7990      4.0878    143.7429
  1416.7500      0.0000    598.5215      4.1955    138.8283
  1417.0000      0.0000    548.0933      4.2498    134.2342
  1417.2500      0.0000    503.2274      4.2642    130.6877
  1417.5000      0.0000    471.8171      4.2516    129.3020
  1417.7500      0.0000    454.1360      4.2232    130.7644
  1418.0000      0.0000    445.5815      4.1929    134.5664
  1418.2500      0.0000    441.3830      4.1741    139.1944
  1418.5000      0.0000    438.8350      4.1717    143.0341
  1418.7500      0.0000    436.9759      4.1805    145.2218
  1419.0000      0.0000    435.7263      4.1910    145.7468
  1419.2500      0.0000    435.6139      4.1940    144.8979
  1419.5000      0.0000    438.0067      4.1816    143.0122
  1419.7500      0.0000    444.6801      4.1504    140.6437
  1420.0000      0.0000    455.5595      4.1073    138.1484
  1420.2500      0.0000    466.2585      4.0679    134.8544
  1420.5000      0.0000    469.8616      4.0471    129.4959
  1420.7500      0.0000    463.4659      4.0523    121.9724
  1421.0000      0.0000    452.4778      4.0865    114.2534
  1421.2500      0.0000    446.4533      4.1523    109.1518
  1421.5000      0.0000    450.0349      4.2429    108.1222
  1421.7500      0.0000    458.1985      4.3303    110.0152
  1422.0000      0.0000    461.0449      4.3669    111.9730
  1422.2500      0.0000    454.0964      4.3135    111.8798
  1422.5000      0.0000    442.8633      4.1746    109.8919
  1422.7500      0.0000    435.8054      4.0047    107.3610
  1423.0000      0.0000    434.2439      3.8647    104.9120
  1423.2500      0.0000    431.4291      3.7786    102.3577
  1423.5000      0.0000    420.8446      3.7480     99.9726
  1423.7500      0.0000    402.9149      3.7948     98.6528
  1424.0000      0.0000    383.3920      3.9534     98.7227
  1424.2500      0.0000    367.7249      4.2143     99.3410
  1424.5000      2.0000    358.5946      4.4964     99.2030
  1424.7500      0.0000    357.4716      4.6826     97.4199
  1425.0000     -2.0000    366.7065      4.6822     93.9009
  1425.2500      0.0000    389.1766      4.4794     89.5078
  1425.5000      0.0000    424.4797      4.1501     85.9003
  1425.7500      0.0000    463.9125      3.8253     84.6218
  1426.0000      0.0000    490.9617      3.6073     85.8384
  1426.2500      0.0000    491.6642      3.5096     87.9969
  1426.5000      0.0000    466.6025      3.4776     88.8853
  1426.7500      0.0000    430.5876      3.4562     87.1680
  1427.0000      0.0000    399.9427      3.4263     83.1976
  1427.2500      0.0000    381.8281      3.3930     78.6842
  1427.5000      0.0000    374.3794      3.3641     75.5231
  1427.7500      0.0000    372.7978      3.3403     74.4605
  1428.0000      0.0000    373.9291      3.3152     74.5419
  1428.2500      0.0000    377.0606      3.2796     73.9996
  1428.5000      0.0000    382.2822      3.2283     71.9362
  1428.7500      0.0000    388.7874      3.1649     69.1143
  1429.0000      0.0000    394.8687      3.0989     66.9629
  1429.2500      0.0000    399.1780      3.0387     65.9894
  1429.5000      0.0000    401.5324      2.9872     65.4036
  1429.7500      0.0000    402.8157      2.9442     64.1843
  1430.0000      0.0000    404.9170      2.9101     62.1506
  1430.2500      0.0000    411.4100      2.8853     59.8841
  1430.5000      0.0000    427.9725      2.8691     57.9927
  1430.7500      0.0000    460.3006      2.8613     56.8979
  1431.0000      0.0000    509.1107      2.8661     57.1642
  1431.2500      0.0000    566.5952      2.8925     59.4937
  1431.5000      0.0000    619.6609      2.9498     64.3203
  1431.7500      0.0000    658.2019      3.0417     71.7685
  1432.0000      0.0000    680.3334      3.1649     81.8971
