~Version Information
VERS.                      2.0: CWLS Log ASCII Standard - VERSION 2.0
WRAP.                       NO: One line per depth step
~Well Information Block
STRT.FT                -6.7500: 
STOP.FT              2256.0000: 
STEP.FT                 0.2500: 
NULL.                -999.2500: 
COMP.          Pioneer Natural Resources: COMPANY
WELL.               Relay 12-7: WELL
FLD.           Purgatorie River: FIELD
LOC.           1999' FNL & 848' FWL--: LOCATION
PROV.                       CO: PROVINCE
CNTY.               Las Animas: COUNTRY
SRVC.          Patterson Wireline: SERVICE COMPANY
DATE.          Thu Dec 22 09:06:31 2005: LOG DATE
UWI.           05 071 08453 00: UNIQUE WELL ID
~Curve Information Block
DEPT.FT            0 000 00 00: Depth
CCL.                          : Casing Collar Locator
TT3.usec                      : CBL 3' Travel Time
AMP3.mV                       : CBL 3' Amplitude
GR.GAPI                       : Gamma Ray
~Parameter Information Block
~A  Depth       CCL         TT3         AMP3         GR     
# ...
  1802.2500      0.0000    389.6689      4.9979    154.8275
  1802.5000      0.0000    388.0073      4.9201    152.9304
  1802.7500      0.0000    387.8203      4.8232    150.6100
  1803.0000      0.0000    389.7194      4.7216    146.9976
  1803.2500      0.0000    393.2204      4.6322    141.5686
  1803.5000      0.0000    396.5180      4.5642    134.7177
  1803.7500      0.0000    397.6521      4.5157    127.1481
  1804.0000      0.0000    396.3574      4.4789    119.3393
  1804.2500      0.0000    394.5490      4.4465    112.1227
  1804.5000      0.0000    394.5495      4.4133    107.4528
  1804.7500      0.0000    396.7900      4.3748    107.6144
  1805.0000      0.0000    399.4076      4.3265    113.0695
  1805.2500      0.0000    399.9830      4.2668    121.4332
  1805.5000      0.0000    397.6435      4.2006    129.2753
  1805.7500      0.0000    393.9593      4.1394    135.2237
  1806.0000      0.0000    392.4530      4.0952    140.6911
  1806.2500      0.0000    397.2755      4.0716    146.9830
  1806.5000      0.0000    411.4218      4.0634    152.6191
  1806.7500      0.0000    434.9190      4.0683    154.7916
  1807.0000      0.0000    464.3364      4.0950    152.7774
  1807.2500      0.0000    494.6186      4.1515    148.4555
  1807.5000      0.0000    521.1050      4.2281    143.9112
  1807.7500      0.0000    539.1079      4.2997    139.8969
  1808.0000      0.0000    543.0550      4.3494    136.4159
  1808.2500      0.0000    529.3466      4.3868    133.4320
  1808.5000      0.0000    501.1893      4.4374    130.6375
  1808.7500      0.0000    469.0004      4.5115    127.5397
  1809.0000      0.0000    444.4559      4.5895    124.7102
  1809.2500     -2.0000    433.4016      4.6415    124.2719
  1809.5000      0.0000    433.5392      4.6546    127.8523
  1809.7500      2.0000    438.6563      4.6386    134.1574
  1810.0000      0.0000    445.3261      4.6170    139.7395
  1810.2500      0.0000    454.9697      4.6208    142.2115
  1810.5000      0.0000    469.2554      4.6749    141.6957
  1810.7500      0.0000    485.4430      4.7682    139.3484
  1811.0000      0.0000    497.6634      4.8479    135.9957
  1811.2500      0.0000    501.7328      4.8658    132.4799
  1811.5000      0.0000    498.1034      4.8243    129.9357
  1811.7500      0.0000    491.3112      4.7623    129.0080
  1812.0000      0.0000    487.3925      4.7095    129.4290
  1812.2500      0.0000    491.0871      4.6661    130.6434
  1812.5000      0.0000    503.9814      4.6116    132.3680
  1812.7500      0.0000    524.3150      4.5206    134.5116
  1813.0000      0.0000    548.7079      4.3785    137.0096
  1813.2500      0.0000    574.3879      4.1949    139.8520
  1813.5000      0.0000    599.5043      3.9997    143.0638
  1813.7500      0.0000    622.2104      3.8240    146.3727
  1814.0000      0.0000    640.2665      3.6809    148.9147
  1814.2500      0.0000    650.1429      3.5702    149.6579
  1814.5000      0.0000    646.1520      3.4984    148.2452
  1814.7500      0.0000    624.2075      3.4866    145.2240
  1815.0000      0.0000    589.8181      3.5485    141.7339
  1815.2500      0.0000    560.6346      3.6658    139.3073
  1815.5000      0.0000    556.0280      3.7942    139.3401
  1815.7500      0.0000    581.3248      3.8923    141.9175
  1816.0000      0.0000    623.3693      3.9396    145.2507
  1816.2500      0.0000    661.8570      3.9375    146.7919
  1816.5000      0.0000    683.3283      3.9036    145.0152
  1816.7500      0.0000    684.7155      3.8641    140.1505
  1817.0000      0.0000    668.2831      3.8429    133.6816
  1817.2500      0.0000    637.6449      3.8585    127.6643
  1817.5000      0.0000    597.7598      3.9304    124.0465
  1817.7500      0.0000    554.3024      4.0724    123.5642
  1818.0000      0.0000    511.0645      4.2712    125.0808
  1818.2500      0.0000    469.7995      4.4805    126.6003
  1818.5000      0.0000    433.3001      4.6511    127.0826
  1818.7500      0.0000    406.2243      4.7643    127.1231
  1819.0000      0.0000    391.6311      4.8307    128.1296
  1819.2500      0.0000    388.0626      4.8638    130.8181
  1819.5000      0.0000    390.8662      4.8668    134.1561
  1819.7500      0.0000    395.7607      4.8393    135.8911
  1820.0000      0.0000    401.2087      4.7857    134.4617
  1820.2500      0.0000    408.8562      4.7137    130.4324
  1820.5000      0.0000    422.9554      4.6321    126.2165
  1820.7500      0.0000    448.3299      4.5509    124.5658
  1821.0000      0.0000    486.4554      4.4825    126.7839
  1821.2500      0.0000    532.3084      4.4406    131.8446
  1821.5000      0.0000    576.3078      4.4328    137.5381
  1821.7500      0.0000    610.6324      4.4528    142.7619
  1822.0000      0.0000    633.5443      4.4840    148.2319
  1822.2500      0.0000    648.1062      4.5128    154.7796
  1822.5000      0.0000    658.2821      4.5399    161.6031
  1822.7500      0.0000    666.5195      4.5750    166.6043
  1823.0000      0.0000    673.6195      4.6245    168.0728
  1823.2500      0.0000    679.5154      4.6847    165.6385
  1823.5000      0.0000    683.5024      4.7420    159.9295
  1823.7500      0.0000    683.5488      4.7768    151.9737
  1824.0000      0.0000    675.8360      4.7716    143.2091
  1824.2500      0.0000    656.4754      4.7194    135.8090
  1824.5000      0.0000    625.4505      4.6287    132.3971
  1824.7500      0.0000    589.2477      4.5192    134.5597
  1825.0000      0.0000    558.7452      4.4143    141.1211
  1825.2500      0.0000    543.8828      4.3301    148.4341
  1825.5000      0.0000    549.5973      4.2710    153.0188
  1825.7500      0.0000    574.1388      4.2375    153.6911
  1826.0000      0.0000    609.1785      4.2367    151.1631
  1826.2500      0.0000    643.3524      4.2789    146.6818
  1826.5000      0.0000    668.5588      4.3607    141.6109
  1826.7500      0.0000    683.4353      4.4574    137.2989
  1827.0000      0.0000    690.9936      4.5360    134.2737
  1827.2500      0.0000    694.2311      4.5747    131.8279
  1827.5000      0.0000    694.2331      4.5699    129.0367
  1827.7500      0.0000    690.4945      4.5297    125.9603
  1828.0000      0.0000    681.1333      4.4664    123.5733
  1828.2500      0.0000    663.1299      4.3972    122.8808
  1828.5000      0.0000    634.3202      4.3456    124.1002
  1828.7500      0.0000    596.3608      4.3345    126.1179
  1829.0000      0.0000    555.2141      4.3710    126.8685
  1829.2500      0.0000    518.0767      4.4348    125.1101
  1829.5000      0.0000    489.8763      4.4857    121.8689
  1829.7500      0.0000    471.9412      4.4939    119.5467
  1830.0000      0.0000    462.2669      4.4636    119.7796
  1830.2500      0.0000    456.5162      4.4276    122.6326
  1830.5000      0.0000    450.1193      4.4145    127.3351
  1830.7500      0.0000    440.6660      4.4274    132.9766
  1831.0000      0.0000    428.5281      4.4518    138.5809
  1831.2500      0.0000    415.5703      4.4762    143.1950
  1831.5000      0.0000    403.7602      4.4992    146.2560
  1831.7500      0.0000    394.4925      4.5224    147.8405
  1832.0000      0.0000    388.2755      4.5467    148.5140
  1832.2500      0.0000    384.8063      4.5730    148.8155
  1832.5000      0.0000    383.6084      4.6010    148.7841
  1832.7500      0.0000    384.6236      4.6227    147.9579
  1833.0000      0.0000    387.9881      4.6225    145.7177
  1833.2500      0.0000    393.1202      4.5864    141.6921
  1833.5000      0.0000    398.1482      4.5135    136.2029
  1833.7500      0.0000    400.5500      4.4201    130.3527
  1834.0000      0.0000    398.6580      4.3307    125.3251
  1834.2500      0.0000    392.7863      4.2644    121.4289
  1834.5000      0.0000    385.1320      4.2278    117.8513
  1834.7500      0.0000    378.6599      4.2213    113.3185
  1835.0000      0.0000    375.9422      4.2459    107.0709
  1835.2500      0.0000    378.6358      4.3002     99.5239
  1835.5000      0.0000    387.4799      4.3690     92.0830
