~Version Information
VERS.                      2.0: CWLS Log ASCII Standard - VERSION 2.0
WRAP.                       NO: One line per depth step
~Well Information Block
STRT.FT                 0.0000: 
STOP.FT              1871.2500: 
STEP.FT                 0.2500: 
NULL.                -999.2500: 
COMP.          Petrogulf Corporation: COMPANY
WELL.             Norton 9-14R: WELL
FLD.           Purgatorie River: FIELD
LOC.           725' FSL & 1103' FWL: LOCATION
STAT.                 Colorado: State
CNTY.               Las Animas: COUNTY
CTRY. USA : Country
SECT. 9 : Section
TOWN. 33S : Township
RANG. 67W : Range
SRVC.                Patterson: SERVICE COMPANY
DATE.          Thu Nov 10 13:05:53 2005: LOG DATE
API. 05-071-08444                         : UNIQUE WELL ID
~Curve Information Block
DEPT.FT            0 000 00 00: Depth
CCL.                          : Casing Collar Locator
TT3.usec                      : CBL 3' Travel Time
AMP3.mV                       : CBL 3' Amplitude
GR.GAPI                       : Gamma Ray
~Parameter Information Block
~A  Depth       CCL         TT3         AMP3         GR     
# ...
   502.5000      0.0000    330.1689      6.9162     85.0450
   502.7500      0.0000    328.4268      6.9627     85.3743
   503.0000      0.0000    327.8997      6.9408     84.5657
   503.2500      0.0000    327.7522      6.8868     83.1976
   503.5000      0.0000    327.6654      6.8739     82.3825
   503.7500      0.0000    327.5523      6.9180     82.5772
   504.0000      0.0000    327.4605      6.9762     83.1628
   504.2500      0.0000    327.4769      7.0155     83.1748
   504.5000      0.0000    327.6101      7.0330     82.1863
   504.7500      0.0000    327.7743      7.0231     80.4320
   505.0000      0.0000    327.8883      6.9634     78.4930
   505.2500      0.0000    327.9409      6.8629     77.1387
   505.5000      0.0000    327.9583      6.7727     77.0726
   505.7500      0.0000    327.9720      6.7204     78.4372
   506.0000      0.0000    328.0063      6.6958     80.6148
   506.2500      0.0000    328.0653      6.6846     82.5778
   506.5000      0.0000    328.1281      6.6593     83.4704
   506.7500      0.0000    328.1679      6.5794     83.0593
   507.0000      0.0000    328.1803      6.4575     81.8115
   507.2500      0.0000    328.1835      6.3816     80.5121
   507.5000      0.0000    328.1806      6.4393     79.7588
   507.7500      0.0000    328.1423      6.6213     79.7453
   508.0000      0.0000    328.1137      6.8118     80.2374
   508.2500      0.0000    328.5847      6.8999     80.5325
   508.5000      0.0000    331.6560      6.8635     79.6677
   508.7500      0.0000    342.7821      6.7107     77.0232
   509.0000      0.0000    368.0893      6.3931     72.8283
   509.2500      0.0000    401.8860      5.8605     68.0246
   509.5000      0.0000    421.7708      5.1841     63.6586
   509.7500      0.0000    413.9269      4.5489     60.4800
   510.0000      0.0000    393.2730      4.0956     58.9312
   510.2500      0.0000    381.5270      3.8180     59.1970
   510.5000      2.0000    383.7971      3.6441     61.1120
   510.7500      0.0000    393.1997      3.5347     64.0792
   511.0000     -2.0000    403.0625      3.4842     67.1465
   511.2500      0.0000    413.8067      3.4769     69.2847
   511.5000      0.0000    431.2427      3.4808     69.8578
   511.7500      0.0000    453.1305      3.5104     68.9607
   512.0000      0.0000    461.0812      3.6424     67.2353
   512.2500      0.0000    442.4830      3.9458     65.4151
   512.5000      0.0000    412.4517      4.3932     64.1259
   512.7500      0.0000    394.7498      4.8279     63.8735
   513.0000      0.0000    399.9453      5.1094     64.9965
   513.2500      0.0000    433.8882      5.2505     67.6460
   513.5000      0.0000    499.6809      5.3360     71.7154
   513.7500      0.0000    580.5520      5.4138     76.4604
   514.0000      0.0000    646.1408      5.4889     80.3534
   514.2500      0.0000    679.7344      5.5576     82.1070
   514.5000      0.0000    683.7955      5.6263     82.1030
   514.7500      0.0000    669.4989      5.6961     82.1502
   515.0000      0.0000    647.1713      5.7467     83.6092
   515.2500      0.0000    618.9567      5.7689     86.4593
   515.5000      0.0000    584.0950      5.7847     90.1423
   515.7500      0.0000    549.4287      5.8173     94.2278
   516.0000      0.0000    525.4246      5.8740     98.0795
   516.2500      0.0000    515.9798      5.9389    101.0186
   516.5000      0.0000    520.4387      5.9812    103.3165
   516.7500      0.0000    539.9426      5.9933    106.1854
   517.0000      0.0000    571.7563      5.9710    110.0911
   517.2500      0.0000    600.5405      5.8801    113.5829
   517.5000      0.0000    612.4121      5.7163    114.5639
   517.7500      0.0000    617.4741      5.5383    112.4384
   518.0000      0.0000    633.6333      5.3980    108.3480
   518.2500      0.0000    656.7586      5.3034    103.6367
   518.5000      0.0000    667.6467      5.2449     99.0197
   518.7500      0.0000    653.3523      5.2060     95.1801
   519.0000      0.0000    619.3266      5.1735     93.0639
   519.2500      0.0000    584.8583      5.1479     92.9735
   519.5000      0.0000    564.1111      5.1320     93.8320
   519.7500      0.0000    558.9610      5.1291     93.9622
   520.0000      0.0000    567.8777      5.1359     92.5556
   520.2500      0.0000    589.7287      5.1342     90.2721
   520.5000      0.0000    618.0516      5.1104     88.6299
   520.7500      0.0000    642.8779      5.0757     88.9714
   521.0000      0.0000    661.6056      5.0642     91.7734
   521.2500      0.0000    678.4001      5.1067     96.5847
   521.5000      0.0000    693.2054      5.1734    102.3654
   521.7500      0.0000    702.5897      5.1720    107.7966
   522.0000      0.0000    708.2594      5.0600    111.5618
   522.2500      0.0000    711.0034      4.9005    112.8327
   522.5000      0.0000    704.0057      4.7853    111.5114
   522.7500      0.0000    685.9612      4.7772    107.7985
   523.0000      0.0000    667.8248      4.8816    101.7507
   523.2500      0.0000    656.9493      5.0188     93.4981
   523.5000      0.0000    648.7744      5.1007     83.7296
   523.7500      0.0000    638.7587      5.1157     73.7333
   524.0000      0.0000    629.0478      5.0933     64.9656
   524.2500      0.0000    621.6923      5.0741     58.5877
   524.5000      0.0000    616.1558      5.1179     55.2479
   524.7500      0.0000    614.2974      5.2547     55.1098
   525.0000      0.0000    620.1287      5.4558     57.8912
   525.2500      0.0000    633.3048      5.6749     62.7227
   525.5000      0.0000    648.0815      5.8732     68.1124
   525.7500      0.0000    658.6342      6.0326     72.4917
   526.0000      0.0000    662.2161      6.1566     75.0979
   526.2500      0.0000    660.4258      6.2387     76.1607
   526.5000      0.0000    658.7121      6.2651     76.0899
   526.7500      0.0000    659.9882      6.2429     74.8758
   527.0000      0.0000    660.2984      6.2001     72.5833
   527.2500      0.0000    656.3224      6.1699     70.0654
   527.5000      0.0000    653.5914      6.1723     68.6775
   527.7500      0.0000    658.6378      6.1843     69.1467
   528.0000      0.0000    663.2437      6.1323     70.8154
   528.2500      0.0000    650.0775      5.9654     72.0585
   528.5000      0.0000    621.1954      5.7100     71.5690
   528.7500      0.0000    603.5308      5.3934     69.3646
   529.0000      0.0000    608.0821      5.0064     66.6373
   529.2500      0.0000    608.5752      4.5908     64.7398
   529.5000      0.0000    588.0430      4.2282     64.3617
   529.7500      0.0000    568.9440      3.9280     65.4418
   530.0000      0.0000    572.3221      3.6399     67.4593
   530.2500      0.0000    584.0747      3.3702     69.6845
   530.5000      0.0000    577.9476      3.1892     71.4681
   530.7500      0.0000    551.0566      3.1294     72.6027
   531.0000      0.0000    522.2616      3.1567     73.3761
   531.2500      0.0000    505.8439      3.2238     74.1430
   531.5000      0.0000    501.9334      3.2893     74.9137
   531.7500      0.0000    504.3271      3.3135     75.4299
   532.0000      0.0000    506.6495      3.2877     75.4241
   532.2500      0.0000    506.6970      3.2477     74.6983
   532.5000      0.0000    507.6036      3.2227     73.2395
   532.7500      0.0000    511.5331      3.2135     71.4512
   533.0000      0.0000    516.3027      3.2151     70.1513
   533.2500      0.0000    519.5558      3.1926     70.1128
   533.5000      0.0000    519.3314      3.1160     71.3442
   533.7500      0.0000    512.2018      3.0692     72.7613
   534.0000      0.0000    499.1887      3.1708     72.9305
   534.2500      0.0000    488.9098      3.3974     71.4189
   534.5000      0.0000    487.4235      3.6287     69.1919
   534.7500      0.0000    490.9248      3.8211     67.5278
   535.0000      0.0000    492.5728      4.0345     66.8555
   535.2500      0.0000    489.9536      4.2880     66.8493
   535.5000      0.0000    485.2961      4.5021     67.4399
   535.7500      0.0000    483.0876      4.6078     69.3253
