~Version Information
VERS.                      2.0: CWLS Log ASCII Standard - VERSION 2.0
WRAP.                       NO: One line per depth step
~Well Information Block
STRT.FT               370.0000: 
STOP.FT              1282.5000: 
STEP.FT                 0.1000: 
NULL.                -999.2500: 
COMP.          Pioneer Natural Resources: COMPANY
WELL.          Irish Eyes 33-21: WELL
FLD.           Purgatoire River: FIELD
LOC.           1379' FSL & 2544' FEL: LOCATION
PROV.                 Colorado: PROVINCE
CNTY.               Las Animas: COUNTRY
SRVC.                Patterson: SERVICE COMPANY
DATE.          Mon Jan 16 13:31:01 2006: LOG DATE
UWI.           05 071 08658 00: UNIQUE WELL ID
~Curve Information Block
DEPT.FT            0 000 00 00: Depth
DCAL.in                       : CDL Caliper
RHOB.g/cc                     : CDL Bulk Density
RHOC.g/cc                     : CDL Density Correction
DPOR.pu                       : CDL Density Porosity
GR.GAPI                       : Gamma Ray
NPOR.pu                       : Neutron Porosity
~Parameter Information Block
~A  Depth       DCAL        RHOB        RHOC        DPOR         GR         NPOR    
# ...
   850.0000      7.9505      2.5022      0.0099      8.9580     80.0337     22.6045
   850.1000      7.9505      2.4974      0.0060      9.2493     89.1994     23.4553
   850.2000      7.9505      2.4965     -0.0119      9.3048     96.2953     23.7556
   850.3000      7.9700      2.4910      0.0361      9.6373    102.1556     23.4818
   850.4000      7.9700      2.4863      0.0188      9.9210    111.1651     23.0088
   850.5000      7.9759      2.4917      0.0536      9.5948    122.2033     23.0012
   850.6000      7.9759      2.4886      0.1112      9.7847    135.0070     23.4678
   850.7000      7.9759      2.4592      0.0647     11.5613    152.8535     23.7322
   850.8000      7.9929      2.4214      0.0460     13.8553    166.7643     23.7171
   850.9000      7.9929      2.3891      0.0491     15.8093    164.8503     23.7516
   851.0000      8.0167      2.3444      0.0602     18.5194    154.4489     23.5008
   851.1000      8.0167      2.2800     -0.0105     22.4225    149.6361     22.7682
   851.2000      8.0167      2.2177      0.0184     26.1976    151.0205     22.3608
   851.3000      8.0149      2.1759     -0.0038     28.7362    153.7488     23.0838
   851.4000      8.0149      2.1656      0.0248     29.3559    157.2885     24.4746
   851.5000      8.0065      2.1912      0.0760     27.8080    159.9376     25.5521
   851.6000      8.0065      2.2439      0.1208     24.6124    158.0287     26.3070
   851.7000      8.0065      2.3132      0.1352     20.4115    149.5963     27.0387
   851.8000      7.9713      2.3850      0.2234     16.0615    136.7416     27.4208
   851.9000      7.9713      2.4419      0.2550     12.6094    120.7434     27.1116
   852.0000      7.9683      2.4865      0.2239      9.9076    106.4387     26.1915
   852.1000      7.9683      2.5326      0.2284      7.1181    101.4672     25.0167
   852.2000      7.9683      2.5712      0.2335      4.7785    100.7640     23.8535
   852.3000      7.9689      2.5893      0.1324      3.6811     95.9635     23.1372
   852.4000      7.9689      2.5960      0.1493      3.2721     89.0549     23.1436
   852.5000      7.9763      2.6064      0.0554      2.6432     85.0789     23.3163
   852.6000      7.9763      2.6242      0.0932      1.5652     84.3763     23.2188
   852.7000      7.9763      2.6436      0.0892      0.3863     84.8695     23.0245
   852.8000      7.9630      2.6710      0.0441     -1.2749     83.6325     22.8138
   852.9000      7.9630      2.7088      0.0942     -3.5610     79.1977     22.6932
   853.0000      7.9496      2.7315      0.1227     -4.9385     74.5376     22.6013
   853.1000      7.9496      2.7262      0.0314     -4.6185     71.8210     22.0985
   853.2000      7.9496      2.7070      0.0268     -3.4565     70.7988     21.3482
   853.3000      7.9858      2.6839      0.0010     -2.0528     68.6343     21.0666
   853.4000      7.9858      2.6615     -0.0667     -0.6987     64.4531     21.2208
   853.5000      7.9985      2.6342      0.0153      0.9592     64.1207     21.3561
   853.6000      7.9985      2.5981     -0.0942      3.1450     71.8762     21.2650
   853.7000      7.9985      2.5708     -0.0490      4.7990     80.6333     20.8214
   853.8000      8.0022      2.5572     -0.0682      5.6270     80.4598     20.2937
   853.9000      8.0022      2.5463     -0.0266      6.2847     73.3435     20.0363
   854.0000      7.9687      2.5347     -0.0469      6.9889     65.9173     20.0051
   854.1000      7.9687      2.5293     -0.0119      7.3161     58.5974     19.9583
   854.2000      7.9687      2.5369     -0.0024      6.8571     51.3391     19.9722
   854.3000      7.9672      2.5551      0.0222      5.7530     49.8025     20.1495
   854.4000      7.9672      2.5708      0.0586      4.7979     57.4518     20.0807
   854.5000      7.9457      2.5757      0.0076      4.5030     68.1611     19.4037
   854.6000      7.9457      2.5797      0.0083      4.2600     73.6457     18.7614
   854.7000      7.9457      2.5851      0.0706      3.9356     74.1681     19.1952
   854.8000      7.9593      2.5849      0.0295      3.9472     74.1138     20.1614
   854.9000      7.9593      2.5919      0.0375      3.5237     76.3592     20.4283
   855.0000      7.9509      2.6126      0.0675      2.2686     81.4399     20.0658
   855.1000      7.9509      2.6169      0.1265      2.0041     87.1526     19.9604
   855.2000      7.9509      2.5824      0.0266      4.0962     89.3082     20.1786
   855.3000      7.9374      2.5339     -0.0066      7.0353     86.5014     20.2778
   855.4000      7.9374      2.4993      0.0097      9.1329     84.1426     20.5730
   855.5000      7.9328      2.4760      0.0029     10.5425     86.5760     21.4926
   855.6000      7.9328      2.4532      0.0145     11.9280     92.0626     22.5699
   855.7000      7.9328      2.4299      0.0149     13.3380     96.7859     23.1043
   855.8000      7.9500      2.4181      0.0109     14.0570    100.6053     23.1038
   855.9000      7.9500      2.4343      0.0310     13.0700    105.9366     23.0271
   856.0000      7.9610      2.4779      0.0956     10.4292    113.0773     23.0927
   856.1000      7.9610      2.5179      0.1687      8.0067    116.4709     23.3489
   856.2000      7.9610      2.5308      0.1164      7.2214    111.8753     23.8173
   856.3000      7.9676      2.5314      0.1274      7.1905    106.7071     24.2213
   856.4000      7.9676      2.5374      0.1193      6.8240    108.3318     24.1885
   856.5000      7.9650      2.5437      0.1112      6.4411    112.9823     23.7011
   856.6000      7.9650      2.5429      0.0944      6.4933    116.2052     23.0526
   856.7000      7.9650      2.5436      0.0294      6.4463    118.9631     22.6870
   856.8000      7.9810      2.5505      0.0913      6.0286    120.8042     22.6111
   856.9000      7.9810      2.5484      0.1032      6.1569    120.3712     22.4531
   857.0000      7.9821      2.5300      0.0541      7.2727    117.3485     22.3686
   857.1000      7.9821      2.5043      0.0316      8.8322    113.0352     22.5188
   857.2000      7.9821      2.4772      0.0536     10.4710    110.5662     22.5600
   857.3000      7.9939      2.4569      0.0066     11.7016    111.9103     22.1757
   857.4000      7.9939      2.4486      0.0698     12.2039    116.1790     21.8430
   857.5000      7.9899      2.4414      0.0454     12.6422    120.4564     22.2893
   857.6000      7.9899      2.4322      0.0675     13.2027    122.9293     23.2574
   857.7000      7.9899      2.4331      0.0643     13.1461    124.8355     23.7778
   857.8000      8.0003      2.4518      0.0991     12.0112    127.6787     23.3757
   857.9000      8.0003      2.4836      0.1205     10.0839    131.9399     22.7422
   858.0000      7.9916      2.5239      0.1149      7.6446    136.1937     22.8046
   858.1000      7.9916      2.5675      0.0935      5.0003    137.2216     23.6483
   858.2000      7.9916      2.5998      0.1588      3.0448    134.2321     24.7914
   858.3000      7.9967      2.6078      0.1393      2.5559    132.3070     25.5728
   858.4000      7.9967      2.5961      0.1197      3.2694    133.1474     25.4668
   858.5000      8.0052      2.5791      0.0923      4.2981    129.4867     24.6029
   858.6000      8.0052      2.5651      0.0297      5.1462    121.8590     23.2729
   858.7000      8.0052      2.5579     -0.0038      5.5843    116.1260     22.0650
   858.8000      7.9994      2.5608      0.0498      5.4046    112.9886     22.0130
   858.9000      7.9994      2.5688      0.0193      4.9184    115.0713     23.1587
   859.0000      8.0053      2.5717      0.0702      4.7456    123.1588     24.1367
   859.1000      8.0053      2.5682      0.0543      4.9567    134.8275     24.1511
   859.2000      8.0053      2.5623      0.0381      5.3144    146.1036     24.0318
   859.3000      8.0256      2.5439      0.0680      6.4303    150.4055     24.3632
   859.4000      8.0256      2.5095      0.0134      8.5159    147.1770     24.7128
   859.5000      8.0166      2.4845     -0.0118     10.0275    142.2681     24.6075
