~Version Information
VERS.                      2.0: CWLS Log ASCII Standard - VERSION 2.0
WRAP.                       NO: One line per depth step
~Well Information Block
STRT.FT               615.0000: 
STOP.FT              2807.0000: 
STEP.FT                 0.1000: 
NULL.                -999.2500: 
COMP.          Pioneer Natural Resources: COMPANY
WELL.              Loews 41-32: WELL
FLD.           Purgatoire River: FIELD
LOC.           751' FNL & 128' FEL: LOCATION
CNTY.               Las Animas: COUNTY
SRVC.                Patterson: SERVICE COMPANY
DATE.          Mon Feb 13 07:19:27 2006: LOG DATE
UWI.           05 071 08693 00: UNIQUE WELL ID
STAT.                 Colorado: STATE
~Curve Information Block
DEPT.FT            0 000 00 00: Depth
DCAL.in                       : CDL Caliper
RHOB.g/cc                     : CDL Bulk Density
RHOC.g/cc                     : CDL Density Correction
DPOR.pu                       : CDL Density Porosity
GR.GAPI                       : Gamma Ray
NPOR.pu                       : Neutron Porosity
~Parameter Information Block
~A  Depth       DCAL        RHOB        RHOC        DPOR         GR         NPOR    
# ...
  2208.6000      8.1368      2.5584     -0.0056      5.5528    132.6664     30.4973
  2208.7000      8.1368      2.5646      0.0224      5.1780    135.4474     31.1438
  2208.8000      8.1348      2.5672      0.0371      5.0204    141.0702     31.1621
  2208.9000      8.1348      2.5602      0.0156      5.4432    144.7682     30.8439
  2209.0000      8.1343      2.5461     -0.0030      6.2997    146.2313     30.4863
  2209.1000      8.1343      2.5318     -0.0129      7.1647    147.7285     30.3921
  2209.2000      8.1343      2.5243     -0.0132      7.6182    148.3379     30.4307
  2209.3000      8.1242      2.5288      0.0096      7.3434    147.3917     30.1455
  2209.4000      8.1242      2.5460     -0.0077      6.3017    147.8290     29.8205
  2209.5000      8.1301      2.5669      0.0321      5.0351    147.1579     29.9559
  2209.6000      8.1301      2.5791      0.0319      4.2973    139.9138     29.8986
  2209.7000      8.1301      2.5866      0.0228      3.8416    128.5114     29.0942
  2209.8000      8.1332      2.5964      0.0484      3.2498    119.3073     28.2962
  2209.9000      8.1332      2.5982      0.0647      3.1377    115.8533     28.0762
  2210.0000      8.1449      2.5846      0.0261      3.9629    120.2908     28.2374
  2210.1000      8.1449      2.5657      0.0216      5.1081    133.0750     28.4434
  2210.2000      8.1449      2.5544     -0.0192      5.7913    149.2490     28.5203
  2210.3000      8.1330      2.5470     -0.0107      6.2432    159.3457     28.6600
  2210.4000      8.1330      2.5307     -0.0311      7.2284    157.0365     28.9139
  2210.5000      8.1312      2.5106     -0.0563      8.4507    149.2261     28.7903
  2210.6000      8.1312      2.4973     -0.0346      9.2540    146.5198     28.2788
  2210.7000      8.1312      2.4804     -0.0034     10.2801    146.5196     28.1566
  2210.8000      8.1295      2.4430     -0.0263     12.5458    141.3217     28.4494
  2210.9000      8.1295      2.3884     -0.0086     15.8548    134.3986     28.3406
  2211.0000      8.1289      2.3325     -0.0340     19.2437    134.1953     27.7992
  2211.1000      8.1289      2.2930     -0.0600     21.6342    134.7295     27.7551
  2211.2000      8.1289      2.2832     -0.0435     22.2306    127.4918     28.2636
  2211.3000      8.1277      2.2972      0.0255     21.3839    120.1305     28.5168
  2211.4000      8.1277      2.3154      0.0036     20.2805    119.9303     28.2263
  2211.5000      8.1253      2.3331      0.0315     19.2053    121.6572     27.7414
  2211.6000      8.1253      2.3606      0.0534     17.5395    118.8905     27.4411
  2211.7000      8.1253      2.4017      0.0991     15.0479    112.6883     27.1970
  2211.8000      8.1241      2.4531      0.1213     11.9322    108.0420     26.6725
  2211.9000      8.1241      2.5063      0.1177      8.7095    105.3783     25.7903
  2212.0000      8.1225      2.5482      0.0541      6.1676    101.7171     24.4794
  2212.1000      8.1225      2.5725      0.0763      4.6993     98.0934     22.9957
  2212.2000      8.1225      2.5739      0.0301      4.6119     95.3419     21.9843
  2212.3000      8.1151      2.5515      0.0368      5.9690     90.7645     21.4204
  2212.4000      8.1151      2.5259     -0.0099      7.5231     84.7231     20.9031
  2212.5000      8.1126      2.5277     -0.0146      7.4126     79.3392     20.3329
  2212.6000      8.1126      2.5569      0.0303      5.6439     75.6689     19.7430
  2212.7000      8.1126      2.5800      0.0708      4.2395     72.3988     19.2786
  2212.8000      8.1083      2.5767      0.0419      4.4423     68.3182     18.6767
  2212.9000      8.1083      2.5527      0.0582      5.8971     65.6837     18.0778
  2213.0000      8.1166      2.5204      0.0160      7.8549     65.1646     18.1227
  2213.1000      8.1166      2.4971     -0.0012      9.2658     62.0285     18.2755
  2213.2000      8.1166      2.4961     -0.0008      9.3273     55.3368     17.8254
  2213.3000      8.1248      2.5040      0.0460      8.8499     50.3340     17.2659
  2213.4000      8.1248      2.4990      0.0075      9.1488     49.6765     17.1167
  2213.5000      8.1295      2.4892     -0.0214      9.7442     50.2169     17.1671
  2213.6000      8.1295      2.4883      0.0044      9.7988     49.9739     17.0549
  2213.7000      8.1295      2.4878     -0.0076      9.8318     49.7872     16.8363
  2213.8000      8.1437      2.4783      0.0036     10.4067     49.2928     16.6816
  2213.9000      8.1437      2.4654     -0.0332     11.1857     47.3273     16.6215
  2214.0000      8.1508      2.4579     -0.0055     11.6417     44.1604     16.5871
  2214.1000      8.1508      2.4594     -0.0213     11.5538     41.8705     16.3195
  2214.2000      8.1508      2.4666      0.0234     11.1155     42.1047     15.9612
  2214.3000      8.1641      2.4715      0.0169     10.8198     45.6028     15.7487
  2214.4000      8.1641      2.4717      0.0278     10.8031     49.2753     15.1878
  2214.5000      8.1720      2.4670      0.0271     11.0909     47.4721     14.2473
  2214.6000      8.1720      2.4549     -0.0005     11.8241     42.2733     13.5704
  2214.7000      8.1720      2.4433     -0.0186     12.5263     38.7805     13.4400
  2214.8000      8.1829      2.4476     -0.0137     12.2669     37.9871     13.7117
  2214.9000      8.1829      2.4670      0.0118     11.0904     39.1075     14.2162
  2215.0000      8.1718      2.4804      0.0536     10.2781     39.7853     14.6563
  2215.1000      8.1718      2.4743      0.0178     10.6505     40.2580     14.9975
  2215.2000      8.1718      2.4581      0.0078     11.6333     42.6810     15.8468
  2215.3000      8.1604      2.4444      0.0209     12.4610     45.5556     17.4286
  2215.4000      8.1604      2.4379     -0.0107     12.8548     45.6731     19.0786
  2215.5000      8.1331      2.4364     -0.0070     12.9454     43.4805     20.3124
  2215.6000      8.1331      2.4247      0.0288     13.6564     43.4240     21.3242
  2215.7000      8.1331      2.3927     -0.0081     15.5938     47.7027     22.0395
  2215.8000      8.1200      2.3602     -0.0422     17.5626     52.7757     22.5206
  2215.9000      8.1200      2.3449     -0.0212     18.4884     56.5477     23.1318
  2216.0000      8.1205      2.3328      0.0031     19.2251     61.7502     23.8596
  2216.1000      8.1205      2.3095     -0.0100     20.6352     69.8697     24.8105
  2216.2000      8.1205      2.2903     -0.0462     21.8014     81.2976     26.1940
  2216.3000      8.1235      2.2924      0.0006     21.6750     93.2896     27.3672
  2216.4000      8.1235      2.3099      0.0396     20.6107    102.2125     27.9010
  2216.5000      8.1331      2.3378      0.0424     18.9240    108.1449     28.2561
  2216.6000      8.1331      2.3758      0.1433     16.6184    111.9460     28.5815
  2216.7000      8.1331      2.4110      0.1650     14.4823    115.6689     28.6691
  2216.8000      8.1311      2.4392      0.0682     12.7736    120.4728     28.3835
  2216.9000      8.1311      2.4740      0.0920     10.6670    122.7087     27.7587
  2217.0000      8.1303      2.5108      0.0900      8.4339    119.2752     27.2510
  2217.1000      8.1303      2.5228      0.1024      7.7090    114.4442     27.1886
  2217.2000      8.1303      2.5028     -0.0019      8.9204    114.8731     27.3268
  2217.3000      8.1318      2.4766      0.0208     10.5089    118.4095     27.6578
  2217.4000      8.1318      2.4668     -0.0062     11.1024    119.0569     28.3389
  2217.5000      8.1345      2.4779     -0.0091     10.4273    117.3708     28.7741
  2217.6000      8.1345      2.4956      0.0400      9.3605    117.6004     28.3257
  2217.7000      8.1345      2.5003     -0.0037      9.0714    122.8946     27.7182
  2217.8000      8.1427      2.4935     -0.0071      9.4861    130.5942     27.5247
  2217.9000      8.1427      2.4831     -0.0028     10.1127    134.7048     27.0823
  2218.0000      8.1364      2.4740     -0.0285     10.6667    133.0812     26.4285
  2218.1000      8.1364      2.4734     -0.0152     10.7026    129.0070     26.2735
