~Version Information
VERS.                      2.0: CWLS Log ASCII Standard - VERSION 2.0
WRAP.                       NO: One line per depth step
~Well Information Block
STRT.FT               525.0000: 
STOP.FT              2377.2500: 
STEP.FT                 0.2500: 
NULL.                -999.2500: 
COMP.          Pioneer Natural Resources: COMPANY
WELL.          Sparrowhawk 22-12: WELL
FLD.           Purgatoire River: FIELD
LOC.           2049' FNL & 2060' FWL--: LOCATION
CNTY.               Las Animas: COUNTY
SRVC.                Patterson: SERVICE COMPANY
DATE.          Thu Mar 23 10:52:44 2006: LOG DATE
UWI.           05 071 08484 00: UNIQUE WELL ID
STAT.                 Colorado: STATE
~Curve Information Block
DEPT.FT            0 000 00 00: Depth
SN.Ohm-m                      : IEL Short Normal
SP.mV                         : IEL Spontaneous Potential
DIR.Ohm-m                     : IEL Induction Resistivity
GR.GAPI                       : Gamma Ray
~Parameter Information Block
~A  Depth        SN          SP         DIR          GR     
# ...
  1965.5000     18.0928    133.0545     19.0852     44.4631
  1965.7500     18.0295    133.2895     18.9039     43.5985
  1966.0000     18.0071    133.5026     18.8314     41.8065
  1966.2500     18.0158    133.6931     18.8668     40.5803
  1966.5000     18.0459    133.8616     18.9973     39.4574
  1966.7500     18.0924    134.0107     19.1994     39.4008
  1967.0000     18.1545    134.1440     19.4409     40.0339
  1967.2500     18.2319    134.2660     19.6879     40.5115
  1967.5000     18.3242    134.3802     19.9161     40.8209
  1967.7500     18.4321    134.4892     20.1186     40.8346
  1968.0000     18.5553    134.5936     20.3027     41.1077
  1968.2500     18.6867    134.6925     20.4751     41.6747
  1968.5000     18.8114    134.7844     20.6279     43.1752
  1968.7500     18.9126    134.8676     20.7377     44.6661
  1969.0000     18.9797    134.9417     20.7799     47.6506
  1969.2500     19.0107    135.0076     20.7432     49.7457
  1969.5000     19.0074    135.0676     20.6345     51.7375
  1969.7500     18.9739    135.1252     20.4730     51.7651
  1970.0000     18.9171    135.1838     20.2829     50.1102
  1970.2500     18.8448    135.2467     20.0893     48.4111
  1970.5000     18.7603    135.3164     19.9165     45.6385
  1970.7500     18.6609    135.3943     19.7843     43.8504
  1971.0000     18.5446    135.4808     19.7023     41.7591
  1971.2500     18.4151    135.5759     19.6652     41.0820
  1971.5000     18.2788    135.6794     19.6518     41.1409
  1971.7500     18.1393    135.7908     19.6320     41.5464
  1972.0000     17.9932    135.9098     19.5779     42.2627
  1972.2500     17.8318    136.0358     19.4738     42.9389
  1972.5000     17.6471    136.1678     19.3200     44.7091
  1972.7500     17.4393    136.3044     19.1301     46.4266
  1973.0000     17.2191    136.4432     18.9241     49.3660
  1973.2500     17.0029    136.5809     18.7203     51.1804
  1973.5000     16.8061    136.7129     18.5284     52.8696
  1973.7500     16.6364    136.8335     18.3472     52.7729
  1974.0000     16.4925    136.9361     18.1670     50.3553
  1974.2500     16.3660    137.0137     17.9741     47.5864
  1974.5000     16.2447    137.0597     17.7567     43.0196
  1974.7500     16.1179    137.0690     17.5103     40.2911
  1975.0000     15.9834    137.0397     17.2427     36.8706
  1975.2500     15.8510    136.9729     16.9740     34.9418
  1975.5000     15.7390    136.8736     16.7290     32.6168
  1975.7500     15.6678    136.7499     16.5283     31.5793
  1976.0000     15.6510    136.6111     16.3812     30.8740
  1976.2500     15.6854    136.4668     16.2827     30.8391
  1976.5000     15.7415    136.3250     16.2140     31.0024
  1976.7500     15.7614    136.1914     16.1429     31.0434
  1977.0000     15.6749    136.0705     16.0278     30.9901
  1977.2500     15.4312    135.9668     15.8286     31.0965
  1977.5000     15.0275    135.8864     15.5235     32.2403
  1977.7500     14.5126    135.8384     15.1220     34.4583
  1978.0000     13.9622    135.8343     14.6616     41.9310
  1978.2500     13.4441    135.8860     14.1897     50.6530
  1978.5000     12.9964    136.0028     13.7437     69.1342
  1978.7500     12.6260    136.1885     13.3411     83.4339
  1979.0000     12.3208    136.4399     12.9817    103.7253
  1979.2500     12.0651    136.7465     12.6553    114.5228
  1979.5000     11.8506    137.0928     12.3518    125.4722
  1979.7500     11.6797    137.4613     12.0697    129.8102
  1980.0000     11.5644    137.8355     11.8206    133.7502
  1980.2500     11.5218    138.2021     11.6270    135.5823
  1980.5000     11.5691    138.5519     11.5156    137.4379
  1980.7500     11.7148    138.8790     11.5083    137.5612
  1981.0000     11.9527    139.1799     11.6175    135.1263
  1981.2500     12.2617    139.4516     11.8452    131.7822
  1981.5000     12.6137    139.6912     12.1842    125.1928
  1981.7500     12.9842    139.8950     12.6187    120.3022
  1982.0000     13.3618    140.0593     13.1253    112.2899
  1982.2500     13.7500    140.1810     13.6744    106.2152
  1982.5000     14.1617    140.2585     14.2354     95.9477
  1982.7500     14.6057    140.2919     14.7830     88.8518
  1983.0000     15.0736    140.2832     15.2997     79.4803
  1983.2500     15.5343    140.2346     15.7714     75.0720
  1983.5000     15.9413    140.1484     16.1804     71.9115
  1983.7500     16.2489    140.0255     16.5040     71.5575
  1984.0000     16.4323    139.8655     16.7228     71.5434
  1984.2500     16.4983    139.6680     16.8298     70.6845
  1984.5000     16.4804    139.4333     16.8324     67.1595
  1984.7500     16.4215    139.1644     16.7484     63.4008
  1985.0000     16.3545    138.8677     16.6031     56.5392
  1985.2500     16.2952    138.5523     16.4268     52.0056
  1985.5000     16.2471    138.2292     16.2527     46.9066
  1985.7500     16.2118    137.9094     16.1127     45.1759
  1986.0000     16.1955    137.6017     16.0340     44.5817
  1986.2500     16.2061    137.3113     16.0372     44.6599
  1986.5000     16.2471    137.0398     16.1335     44.2129
  1986.7500     16.3148    136.7853     16.3222     43.3173
  1987.0000     16.4025    136.5444     16.5902     41.5333
  1987.2500     16.5042    136.3140     16.9156     40.5866
  1987.5000     16.6162    136.0934     17.2745     40.3338
  1987.7500     16.7371    135.8853     17.6449     40.9460
  1988.0000     16.8695    135.6967     18.0077     41.9967
  1988.2500     17.0212    135.5379     18.3440     42.0079
  1988.5000     17.2007    135.4206     18.6348     40.5914
  1988.7500     17.4072    135.3553     18.8614     39.2323
  1989.0000     17.6256    135.3474     19.0103     38.1973
  1989.2500     17.8317    135.3947     19.0780     38.9273
  1989.5000     18.0032    135.4845     19.0732     42.1071
  1989.7500     18.1254    135.5943     19.0149     44.6922
  1990.0000     18.1925    135.6943     18.9250     47.1234
  1990.2500     18.2059    135.7524     18.8217     47.0124
  1990.5000     18.1728    135.7418     18.7166     44.3838
  1990.7500     18.1071    135.6473     18.6176     41.5761
  1991.0000     18.0286    135.4701     18.5362     36.8211
  1991.2500     17.9583    135.2281     18.4891     33.7972
  1991.5000     17.9129    134.9515     18.4916     30.3449
  1991.7500     17.8998    134.6752     18.5479     29.2289
  1992.0000     17.9163    134.4294     18.6460     29.6085
  1992.2500     17.9530    134.2318     18.7631     30.8599
  1992.5000     17.9989    134.0839     18.8744     32.8475
  1992.7500     18.0443    133.9721     18.9596     33.4510
  1993.0000     18.0771    133.8736     19.0022     32.8564
  1993.2500     18.0799    133.7650     18.9904     31.8728
  1993.5000     18.0336    133.6309     18.9209     30.6488
  1993.7500     17.9265    133.4708     18.8030     30.4312
  1994.0000     17.7622    133.3012     18.6517     31.0480
  1994.2500     17.5616    133.1531     18.4755     31.8766
  1994.5000     17.3549    133.0666     18.2683     33.3428
  1994.7500     17.1701    133.0826     18.0172     34.2758
  1995.0000     17.0233    133.2341     17.7178     35.3592
  1995.2500     16.9164    133.5406     17.3848     35.8619
  1995.5000     16.8392    134.0034     17.0453     36.6545
  1995.7500     16.7746    134.6056     16.7242     37.5023
  1996.0000     16.7046    135.3145     16.4370     39.3904
  1996.2500     16.6159    136.0860     16.1929     40.8808
  1996.5000     16.5020    136.8717     16.0014     43.1226
  1996.7500     16.3576    137.6252     15.8715     44.5104
  1997.0000     16.1712    138.3088     15.8012     46.1204
  1997.2500     15.9218    138.8988     15.7677     46.6019
  1997.5000     15.5869    139.3875     15.7281     46.4229
  1997.7500     15.1590    139.7836     15.6338     46.2784
  1998.0000     14.6549    140.1088     15.4510     47.8490
  1998.2500     14.1104    140.3918     15.1720     51.2190
  1998.5000     13.5651    140.6622     14.8095     60.7661
  1998.7500     13.0500    140.9439     14.3816     69.6820
