~Version Information
VERS.                      2.0: CWLS Log ASCII Standard - VERSION 2.0
WRAP.                       NO: One line per depth step
~Well Information Block
STRT.FT               800.0000: 
STOP.FT              3500.0000: 
STEP.FT                 0.2500: 
NULL.                -999.2500: 
COMP.          Pioneer Natural Resources: COMPANY
WELL.          Cordillera 34-7: WELL
FLD.           Purgatoire River: FIELD
LOC.           598' FSL & 1770' FEL--: LOCATION
PROV.                 Colorado: PROVINCE
CNTY.               Las Animas: COUNTRY
SRVC.                Patterson: SERVICE COMPANY
DATE.          Thu Oct 27 20:08:30 2005: LOG DATE
UWI.           05 071 08552 00: UNIQUE WELL ID
~Curve Information Block
DEPT.FT            0 000 00 00: Depth
SN.Ohm-m                      : IEL Short Normal
SP.mV                         : IEL Spontaneous Potential
DIR.Ohm-m                     : IEL Induction Resistivity
GR.GAPI                       : Gamma Ray
~Parameter Information Block
~A  Depth        SN          SP         DIR          GR     
# ...
   967.5000   2000.0000   2000.0000     27.6905     68.2162
   967.7500   2000.0000   2000.0000     28.0166     66.5289
   968.0000   2000.0000   2000.0000     28.3277     63.9820
   968.2500   2000.0000   2000.0000     28.6066     62.9481
   968.5000   2000.0000   2000.0000     28.8552     62.4576
   968.7500   2000.0000   2000.0000     29.0832     62.2979
   969.0000   2000.0000   2000.0000     29.2897     61.5810
   969.2500   2000.0000   2000.0000     29.4560     60.9375
   969.5000   2000.0000   2000.0000     29.5539     60.5905
   969.7500   2000.0000   2000.0000     29.5604     60.9989
   970.0000   2000.0000   2000.0000     29.4695     61.8626
   970.2500   2000.0000   2000.0000     29.2946     61.9048
   970.5000   2000.0000   2000.0000     29.0628     60.7665
   970.7500   2000.0000   2000.0000     28.8059     59.7325
   971.0000   2000.0000   2000.0000     28.5536     59.1649
   971.2500   2000.0000   2000.0000     28.3361     59.8476
   971.5000   2000.0000   2000.0000     28.1868     62.0244
   971.7500   2000.0000   2000.0000     28.1382     63.7041
   972.0000   2000.0000   2000.0000     28.2080     66.0023
   972.2500   2000.0000   2000.0000     28.3866     67.3063
   972.5000   2000.0000   2000.0000     28.6386     68.8054
   972.7500   2000.0000   2000.0000     28.9197     69.4583
   973.0000   2000.0000   2000.0000     29.1973     70.3262
   973.2500   2000.0000   2000.0000     29.4597     71.3240
   973.5000   2000.0000   2000.0000     29.7118     74.0251
   973.7500   2000.0000   2000.0000     29.9641     76.5490
   974.0000   2000.0000   2000.0000     30.2250     80.7801
   974.2500   2000.0000   2000.0000     30.4997     83.4089
   974.5000   2000.0000   2000.0000     30.7911     86.0547
   974.7500   2000.0000   2000.0000     31.1004     86.3496
   975.0000   2000.0000   2000.0000     31.4258     84.2079
   975.2500   2000.0000   2000.0000     31.7633     81.5495
   975.5000   2000.0000   2000.0000     32.1119     77.3487
   975.7500   2000.0000   2000.0000     32.4804     75.0964
   976.0000   2000.0000   2000.0000     32.8918     72.4857
   976.2500   2000.0000   2000.0000     33.3756     70.8402
   976.5000   2000.0000   2000.0000     33.9503     68.2508
   976.7500   2000.0000   2000.0000     34.6087     66.7008
   977.0000   2000.0000   2000.0000     35.3206     65.2997
   977.2500   2000.0000   2000.0000     36.0486     65.2110
   977.5000   2000.0000   2000.0000     36.7676     66.1515
   977.7500   2000.0000   2000.0000     37.4709     66.9621
   978.0000   2000.0000   2000.0000     38.1611     67.2075
   978.2500   2000.0000   2000.0000     38.8356     66.3022
   978.5000   2000.0000   2000.0000     39.4821     63.7976
   978.7500   2000.0000   2000.0000     40.0909     62.1020
   979.0000   2000.0000   2000.0000     40.6689     60.4645
   979.2500   2000.0000   2000.0000     41.2328     59.9720
   979.5000   2000.0000   2000.0000     41.7856     59.6494
   979.7500   2000.0000   2000.0000     42.2999     59.6360
   980.0000   2000.0000   2000.0000     42.7229     60.2978
   980.2500   2000.0000   2000.0000     43.0002     61.3434
   980.5000   2000.0000   2000.0000     43.1068     63.3138
   980.7500   2000.0000   2000.0000     43.0723     64.2290
   981.0000   2000.0000   2000.0000     42.9796     64.0764
   981.2500   2000.0000   2000.0000     42.9223     63.0648
   981.5000   2000.0000   2000.0000     42.9348     61.7473
   981.7500   2000.0000   2000.0000     42.9414     62.2540
   982.0000   2000.0000   2000.0000     42.7690     66.2578
   982.2500   2000.0000   2000.0000     42.2326     70.6251
   982.5000   2000.0000   2000.0000     41.2396     77.2562
   982.7500   2000.0000   2000.0000     39.8298     80.0568
   983.0000   2000.0000   2000.0000     38.1320     80.1305
   983.2500   2000.0000   2000.0000     36.2946     77.6535
   983.5000   2000.0000   2000.0000     34.4453     72.3793
   983.7500   2000.0000   2000.0000     32.6817     69.4220
   984.0000   2000.0000   2000.0000     31.0668     67.6486
   984.2500   2000.0000   2000.0000     29.6226     68.6555
   984.5000   2000.0000   2000.0000     28.3303     73.6638
   984.7500   2000.0000   2000.0000     27.1452     79.3317
   985.0000   2000.0000   2000.0000     26.0231     90.7078
   985.2500   2000.0000   2000.0000     24.9453     99.2078
   985.5000   2000.0000   2000.0000     23.9242    110.5990
   985.7500   2000.0000   2000.0000     22.9891    115.6866
   986.0000   2000.0000   2000.0000     22.1626    118.5647
   986.2500   2000.0000   2000.0000     21.4482    118.2171
   986.5000   2000.0000   2000.0000     20.8322    117.0456
   986.7500   2000.0000   2000.0000     20.2957    116.8628
   987.0000   2000.0000   2000.0000     19.8252    117.4575
   987.2500   2000.0000   2000.0000     19.4162    117.9836
   987.5000   2000.0000   2000.0000     19.0696    118.5168
   987.7500   2000.0000   2000.0000     18.7867    118.5659
   988.0000   2000.0000   2000.0000     18.5660    117.8567
   988.2500   2000.0000   2000.0000     18.4036    116.7955
   988.5000   2000.0000   2000.0000     18.2954    114.8877
   988.7500   2000.0000   2000.0000     18.2370    114.0781
   989.0000   2000.0000   2000.0000     18.2198    114.5646
   989.2500   2000.0000   2000.0000     18.2270    116.1122
   989.5000   2000.0000   2000.0000     18.2354    119.5045
   989.7500   2000.0000   2000.0000     18.2261    121.8192
   990.0000   2000.0000   2000.0000     18.1954    124.3540
   990.2500   2000.0000   2000.0000     18.1562    125.0216
   990.5000   2000.0000   2000.0000     18.1274    124.4994
   990.7500   2000.0000   2000.0000     18.1203    123.6429
   991.0000   2000.0000   2000.0000     18.1316    122.8042
   991.2500   2000.0000   2000.0000     18.1462    123.0129
   991.5000   2000.0000   2000.0000     18.1480    124.4544
   991.7500   2000.0000   2000.0000     18.1293    125.6806
   992.0000   2000.0000   2000.0000     18.0944    126.7507
   992.2500   2000.0000   2000.0000     18.0558    126.5482
   992.5000   2000.0000   2000.0000     18.0261    125.1570
   992.7500   2000.0000   2000.0000     18.0110    123.9712
   993.0000   2000.0000   2000.0000     18.0056    122.3595
   993.2500   2000.0000   2000.0000     17.9962    121.5597
   993.5000   2000.0000   2000.0000     17.9646    121.0827
   993.7500   2000.0000   2000.0000     17.8941    121.2799
   994.0000   2000.0000   2000.0000     17.7760    121.7006
   994.2500   2000.0000   2000.0000     17.6151    121.5150
   994.5000   2000.0000   2000.0000     17.4311    120.2379
   994.7500   2000.0000   2000.0000     17.2539    119.0406
   995.0000   2000.0000   2000.0000     17.1135    117.6158
   995.2500   2000.0000   2000.0000     17.0314    117.3761
   995.5000   2000.0000   2000.0000     17.0151    118.5048
   995.7500   2000.0000   2000.0000     17.0575    120.0892
   996.0000   2000.0000   2000.0000     17.1403    122.5393
   996.2500   2000.0000   2000.0000     17.2410    123.2678
   996.5000   2000.0000   2000.0000     17.3396    122.0966
   996.7500   2000.0000   2000.0000     17.4217    120.1546
   997.0000   2000.0000   2000.0000     17.4796    116.9836
   997.2500   2000.0000   2000.0000     17.5142    115.3487
   997.5000   2000.0000   2000.0000     17.5355    113.9700
   997.7500   2000.0000   2000.0000     17.5600    113.8546
   998.0000   2000.0000   2000.0000     17.6010    114.9948
   998.2500   2000.0000   2000.0000     17.6598    116.3457
   998.5000   2000.0000   2000.0000     17.7260    117.9582
   998.7500   2000.0000   2000.0000     17.7860    117.9294
   999.0000   2000.0000   2000.0000     17.8327    115.7678
   999.2500   2000.0000   2000.0000     17.8678    113.4645
   999.5000   2000.0000   2000.0000     17.8974    110.5104
   999.7500   2000.0000   2000.0000     17.9269    109.7459
  1000.0000   2000.0000   2000.0000     17.9600    110.5770
  1000.2500   2000.0000   2000.0000     18.0008    111.7759
  1000.5000   2000.0000   2000.0000     18.0541    113.0852
  1000.7500   2000.0000   2000.0000     18.1248    113.1990
