~Version Information
VERS.                      2.0: CWLS Log ASCII Standard - VERSION 2.0
WRAP.                       NO: One line per depth step
~Well Information Block
STRT.FT               670.0000: 
STOP.FT              2108.5000: 
STEP.FT                 0.1000: 
NULL.                -999.2500: 
COMP.          Petrogulf Corporation: COMPANY
WELL.           Montoya 12-44R: WELL
FLD.           Purgatorie River: FIELD
LOC.           713' FSL & 798' FEL: LOCATION
PROV.                 Colorado: PROVINCE
CNTY.               Las Animas: COUNTRY
SRVC.                Patterson: SERVICE COMPANY
DATE.          Mon Oct 03 07:50:59 2005: LOG DATE
UWI.           05-071-08538               : UNIQUE WELL ID
~Curve Information Block
DEPT.FT            0 000 00 00: Depth
DCAL.in                       : CDL Caliper
RHOB.g/cc                     : CDL Bulk Density
RHOC.g/cc                     : CDL Density Correction
DPOR.pu                       : CDL Density Porosity
GR.GAPI                       : Gamma Ray
NPOR.pu                       : Neutron Porosity
~Parameter Information Block
~A  Depth       DCAL        RHOB        RHOC        DPOR         GR         NPOR    
# ...
  1898.8000      7.9217      2.4568      0.0833     11.7086     72.5020     21.9460
  1898.9000      7.9217      2.4436      0.0707     12.5112     68.3237     21.5914
  1899.0000      7.9082      2.4395      0.0547     12.7596     64.5276     21.1725
  1899.1000      7.9082      2.4347      0.0543     13.0491     65.2569     20.8093
  1899.2000      7.9082      2.4195      0.0311     13.9716     68.5695     20.7283
  1899.3000      7.7785      2.4058     -0.0183     14.8021     69.4027     20.9947
  1899.4000      7.7785      2.4085      0.0093     14.6381     68.9282     21.3459
  1899.5000      7.6719      2.4217      0.0385     13.8390     71.5086     21.5563
  1899.6000      7.6719      2.4349      0.0392     13.0388     75.4398     21.7092
  1899.7000      7.6719      2.4500      0.0341     12.1187     76.9413     21.7601
  1899.8000      7.6593      2.4646      0.0732     11.2380     76.9213     21.3782
  1899.9000      7.6593      2.4733      0.0664     10.7083     78.0275     20.5950
  1900.0000      7.7118      2.4789      0.0675     10.3718     80.2847     19.8954
  1900.1000      7.7118      2.4775      0.1026     10.4559     79.0817     19.6955
  1900.2000      7.7118      2.4638      0.0654     11.2869     72.2446     19.9525
  1900.3000      7.8472      2.4424      0.0769     12.5825     65.1682     20.2361
  1900.4000      7.8472      2.4215      0.0321     13.8496     63.3537     20.3201
  1900.5000      7.8477      2.4148      0.0017     14.2532     66.2821     20.3957
  1900.6000      7.8477      2.4309      0.0423     13.2768     70.1001     20.3897
  1900.7000      7.8477      2.4572      0.0770     11.6876     72.3210     20.1243
  1900.8000      7.8677      2.4792      0.0890     10.3529     72.3537     20.0594
  1900.9000      7.8677      2.5004      0.0729      9.0652     70.9062     20.5139
  1901.0000      7.8744      2.5289      0.1026      7.3388     70.6737     21.2134
  1901.1000      7.8744      2.5562      0.0971      5.6854     75.4829     21.9146
  1901.2000      7.8744      2.5665      0.1043      5.0579     83.5562     22.2833
  1901.3000      7.9033      2.5609      0.0633      5.3978     88.2577     22.1339
  1901.4000      7.9033      2.5546      0.0969      5.7816     88.7622     21.9046
  1901.5000      7.9227      2.5507      0.0577      6.0196     90.7248     22.2164
  1901.6000      7.9227      2.5385      0.0562      6.7605     97.9385     22.9850
  1901.7000      7.9227      2.5161     -0.0100      8.1172    108.0183     23.5879
  1901.8000      7.9328      2.5008     -0.0108      9.0421    116.1285     23.9177
  1901.9000      7.9328      2.5070     -0.0092      8.6686    120.2205     24.3108
  1902.0000      7.9266      2.5277     -0.0081      7.4121    122.1953     24.7838
  1902.1000      7.9266      2.5470      0.0262      6.2405    125.5536     25.1807
  1902.2000      7.9266      2.5603      0.0228      5.4391    131.7271     25.4416
  1902.3000      7.9323      2.5726      0.0605      4.6895    137.9778     25.5333
  1902.4000      7.9323      2.5857      0.0585      3.8964    141.3836     25.5356
  1902.5000      7.9353      2.5980      0.0580      3.1486    141.2149     25.5576
  1902.6000      7.9353      2.6074      0.0665      2.5839    137.5070     25.5959
  1902.7000      7.9353      2.6090      0.0857      2.4835    132.5337     25.5656
  1902.8000      7.9217      2.6060      0.0471      2.6689    129.4258     25.4104
  1902.9000      7.9217      2.6087      0.0770      2.5036    128.5684     25.2500
  1903.0000      7.9214      2.6189      0.0717      1.8832    130.9986     25.0154
  1903.1000      7.9214      2.6265      0.1169      1.4247    135.1648     24.6075
  1903.2000      7.9214      2.6231      0.0837      1.6312    137.5243     24.2605
  1903.3000      7.9197      2.6123      0.0743      2.2839    140.3714     24.1417
  1903.4000      7.9197      2.5971      0.0690      3.2084    146.3549     24.0450
  1903.5000      7.9300      2.5734      0.0470      4.6395    152.5861     23.9107
  1903.6000      7.9300      2.5456      0.0243      6.3278    153.9020     24.1535
  1903.7000      7.9300      2.5259      0.0092      7.5231    147.4343     24.7513
  1903.8000      7.9496      2.5182      0.0276      7.9897    139.4971     25.1456
  1903.9000      7.9496      2.5175     -0.0045      8.0275    140.0170     25.2660
  1904.0000      7.9508      2.5246      0.0004      7.6013    146.8605     25.3857
  1904.1000      7.9508      2.5378      0.0496      6.7985    151.0022     25.4812
  1904.2000      7.9508      2.5448      0.0224      6.3754    150.4204     25.5821
  1904.3000      7.9496      2.5443      0.0198      6.4033    147.3465     25.8210
  1904.4000      7.9496      2.5503      0.0035      6.0404    143.9673     26.0797
  1904.5000      7.9571      2.5648      0.0578      5.1654    142.3691     26.1895
  1904.6000      7.9571      2.5799      0.0293      4.2461    143.1550     26.2989
  1904.7000      7.9571      2.5965      0.0408      3.2431    144.7920     26.4288
  1904.8000      7.9621      2.6078      0.0868      2.5582    144.5060     26.4078
  1904.9000      7.9621      2.6033      0.0811      2.8323    142.1949     26.3126
  1905.0000      7.9614      2.5930      0.0311      3.4533    139.5287     26.3095
  1905.1000      7.9614      2.5914      0.0425      3.5511    137.7767     26.2611
  1905.2000      7.9614      2.5937      0.0519      3.4113    139.5837     25.9850
  1905.3000      7.9587      2.5843      0.0545      3.9809    145.3260     25.6681
  1905.4000      7.9587      2.5591      0.0684      5.5099    148.9416     25.5672
  1905.5000      7.9558      2.5382      0.0281      6.7734    145.9034     25.7453
  1905.6000      7.9558      2.5446      0.0381      6.3887    141.9858     25.9569
  1905.7000      7.9558      2.5693      0.0839      4.8918    142.8077     25.9099
  1905.8000      7.9589      2.5862      0.0689      3.8639    144.6979     25.7996
  1905.9000      7.9589      2.5863      0.0636      3.8590    146.0650     25.8952
  1906.0000      7.9618      2.5765      0.0395      4.4529    147.9767     26.2333
  1906.1000      7.9618      2.5656      0.0570      5.1145    146.6054     26.8390
  1906.2000      7.9618      2.5575      0.0660      5.6035    143.1797     27.4116
  1906.3000      7.9578      2.5491      0.0753      6.1139    143.3238     27.6589
  1906.4000      7.9578      2.5363      0.0234      6.8909    145.6420     27.7765
  1906.5000      7.9559      2.5296      0.0190      7.2993    146.0684     27.8658
  1906.6000      7.9559      2.5376      0.0764      6.8119    145.1319     27.8271
  1906.7000      7.9559      2.5435      0.0747      6.4541    145.2423     27.7779
  1906.8000      7.9602      2.5382      0.0016      6.7735    145.4662     27.7974
  1906.9000      7.9602      2.5462     -0.0462      6.2912    142.0365     27.5738
  1907.0000      7.9568      2.5872      0.0081      3.8069    134.1420     27.0561
  1907.1000      7.9568      2.6410      0.0799      0.5447    127.8036     26.7135
  1907.2000      7.9568      2.6719      0.1042     -1.3273    129.0587     26.7386
  1907.3000      7.9557      2.6694      0.0709     -1.1768    132.3371     26.8014
  1907.4000      7.9557      2.6469      0.0556      0.1892    128.7338     26.6765
  1907.5000      7.9511      2.6175      0.0421      1.9681    120.7820     26.2665
  1907.6000      7.9511      2.5902     -0.0026      3.6222    114.4779     25.4673
  1907.7000      7.9511      2.5753     -0.0102      4.5282    109.3811     24.5497
  1907.8000      7.9468      2.5751     -0.0101      4.5398    103.7018     23.8728
  1907.9000      7.9468      2.5770      0.0143      4.4265     96.6780     23.4145
  1908.0000      7.9410      2.5695      0.0133      4.8784     89.7479     23.0198
  1908.1000      7.9410      2.5570     -0.0160      5.6390     84.4164     22.8277
  1908.2000      7.9410      2.5490     -0.0043      6.1191     79.3839     23.1265
  1908.3000      7.9501      2.5443      0.0356      6.4086     74.1023     23.6715
