~Version Information
VERS.                      2.0: CWLS Log ASCII Standard - VERSION 2.0
WRAP.                       NO: One line per depth step
~Well Information Block
STRT.FT               480.0000: 
STOP.FT              1946.0000: 
STEP.FT                 0.2500: 
NULL.                -999.2500: 
COMP.          XTO Energy Inc.: COMPANY
WELL.          Golden Eagle 19-15: WELL
FLD.           Purgatoire River: FIELD
LOC.           1121' FSL & 2332' FEL--: LOCATION
CNTY.               Las Animas: COUNTY
SRVC.                Patterson: SERVICE COMPANY
DATE.          Sun Mar 12 15:00:51 2006: LOG DATE
UWI.           05 071 08717 00: UNIQUE WELL ID
STAT.                 Colorado: STATE
~Curve Information Block
DEPT.FT            0 000 00 00: Depth
SP.mV                         : DIL Spontaneous Potential
RILD.Ohm-m                    : DIL Deep Resistivity
RILM.Ohm-m                    : DIL Medium Resistivity
RLL3.Ohm-m                    : DIL Shallow Resistivity
GR.GAPI                       : Gamma Ray
~Parameter Information Block
~A  Depth        SP         RILD        RILM        RLL3         GR     
# ...
  1627.0000     38.9859      9.1869     10.2591      9.9802     94.6178
  1627.2500     38.4266      9.2533     10.3124     10.2971     93.7482
  1627.5000     37.8450      9.3090     10.3578     10.6853     92.7142
  1627.7500     37.3350      9.3509     10.3916     11.0951     91.8222
  1628.0000     36.9365      9.3784     10.4098     11.4818     89.6559
  1628.2500     36.6185      9.3916     10.4082     11.8121     87.7671
  1628.5000     36.3215      9.3881     10.3839     12.0662     85.3202
  1628.7500     36.0177      9.3623     10.3353     12.2347     84.8535
  1629.0000     35.7317      9.3084     10.2613     12.3162     87.2096
  1629.2500     35.5152      9.2255     10.1599     12.3138     91.0068
  1629.5000     35.4096      9.1200     10.0283     12.2321     98.9745
  1629.7500     35.4226      9.0034      9.8652     12.0755    104.6314
  1630.0000     35.5268      8.8877      9.6730     11.8496    111.7734
  1630.2500     35.6716      8.7833      9.4592     11.5651    115.0334
  1630.5000     35.7956      8.6986      9.2366     11.2423    117.3998
  1630.7500     35.8382      8.6406      9.0216     10.9126    117.4094
  1631.0000     35.7629      8.6135      8.8324     10.6147    115.6694
  1631.2500     35.5792      8.6177      8.6868     10.3862    113.8955
  1631.5000     35.3394      8.6504      8.6005     10.2570    111.0743
  1631.7500     35.1071      8.7069      8.5854     10.2484    109.1062
  1632.0000     34.9258      8.7824      8.6482     10.3791    105.6778
  1632.2500     34.8087      8.8731      8.7885     10.6749    103.1186
  1632.5000     34.7479      8.9754      8.9976     11.1720     99.3097
  1632.7500     34.7282      9.0856      9.2589     11.9029     96.7224
  1633.0000     34.7377      9.2017      9.5514     12.8648     91.8536
  1633.2500     34.7710      9.3251      9.8528     13.9840     87.5966
  1633.5000     34.8275      9.4612     10.1405     15.1034     80.6354
  1633.7500     34.9112      9.6184     10.3925     16.0163     76.9602
  1634.0000     35.0320      9.8042     10.5932     16.5462     75.1388
  1634.2500     35.2080     10.0229     10.7420     16.6342     76.8576
  1634.5000     35.4659     10.2763     10.8587     16.3790     82.6382
  1634.7500     35.8392     10.5656     10.9776     16.0054     87.0220
  1635.0000     36.3586     10.8928     11.1340     15.7932     91.4638
  1635.2500     37.0355     11.2574     11.3524     16.0325     92.0785
  1635.5000     37.8454     11.6506     11.6442     17.0640     90.0516
  1635.7500     38.7268     12.0495     12.0142     19.3885     87.8947
  1636.0000     39.6029     12.4189     12.4723     23.7467     85.0025
  1636.2500     40.4132     12.7206     13.0407     31.0361     83.2414
  1636.5000     41.1368     12.9247     13.7499     42.0007     79.3781
  1636.7500     41.7930     13.0141     14.6207     56.7730     75.1855
  1637.0000     42.4209     12.9808     15.6362     74.4851     66.6472
  1637.2500     43.0530     12.8196     16.7068     93.1837     60.5584
  1637.5000     43.7004     12.5294     17.6446    110.1571     53.3537
  1637.7500     44.3589     12.1213     18.1788    122.5809     50.9513
  1638.0000     45.0231     11.6236     18.0509    128.2408     51.5585
  1638.2500     45.6941     11.0775     17.1668    126.0866     54.4285
  1638.5000     46.3776     10.5243     15.6816    116.4705     61.2755
  1638.7500     47.0760      9.9934     13.9155    101.0356     67.0121
  1639.0000     47.7824      9.4967     12.1798     82.2974     77.4463
  1639.2500     48.4783      9.0327     10.6660     63.0238     86.1808
  1639.5000     49.1355      8.5934      9.4426     45.5899    102.5412
  1639.7500     49.7204      8.1726      8.4996     31.5140    114.8650
  1640.0000     50.2026      7.7690      7.7928     21.3134    131.9179
  1640.2500     50.5659      7.3858      7.2695     14.6796    139.8445
  1640.5000     50.8135      7.0286      6.8810     10.8333    144.3237
  1640.7500     50.9634      6.7041      6.5875      8.8830    143.0963
  1641.0000     51.0417      6.4203      6.3599      8.0646    138.6515
  1641.2500     51.0771      6.1857      6.1799      7.8326    136.0604
  1641.5000     51.0990      6.0083      6.0380      7.8537    134.2353
  1641.7500     51.1318      5.8937      5.9320      7.9518    134.1810
  1642.0000     51.1889      5.8436      5.8641      8.0515    135.2409
  1642.2500     51.2681      5.8563      5.8387      8.1345    136.7671
  1642.5000     51.3546      5.9274      5.8611      8.2158    140.3662
  1642.7500     51.4281      6.0518      5.9361      8.3326    142.9184
  1643.0000     51.4723      6.2242      6.0675      8.5425    144.6854
  1643.2500     51.4788      6.4394      6.2590      8.9202    143.6993
  1643.5000     51.4450      6.6912      6.5155      9.5480    139.9650
  1643.7500     51.3707      6.9715      6.8436     10.4899    137.2842
  1644.0000     51.2631      7.2719      7.2507     11.7564    134.4767
  1644.2500     51.1445      7.5851      7.7406     13.2730    133.5854
  1644.5000     51.0508      7.9075      8.3098     14.8787    133.4981
  1644.7500     51.0157      8.2384      8.9440     16.3652    134.0246
  1645.0000     51.0472      8.5783      9.6185     17.5465    134.8568
  1645.2500     51.1169      8.9265     10.3030     18.3218    134.6682
  1645.5000     51.1762      9.2802     10.9674     18.6972    131.9635
  1645.7500     51.1857      9.6347     11.5847     18.7570    128.2705
  1646.0000     51.1345      9.9827     12.1314     18.6066    120.6873
  1646.2500     51.0348     10.3134     12.5856     18.3258    115.1366
  1646.5000     50.9038     10.6120     12.9281     17.9547    107.3895
  1646.7500     50.7491     10.8628     13.1467     17.5063    103.2271
  1647.0000     50.5652     11.0542     13.2397     16.9884     99.5717
  1647.2500     50.3360     11.1833     13.2178     16.4149     99.2758
  1647.5000     50.0365     11.2554     13.1017     15.8062    101.4860
  1647.7500     49.6388     11.2802     12.9190     15.1860    103.6943
  1648.0000     49.1395     11.2685     12.7008     14.5799    106.3360
  1648.2500     48.6013     11.2315     12.4785     14.0186    107.1999
  1648.5000     48.1532     11.1817     12.2789     13.5377    107.5050
  1648.7500     47.8994     11.1315     12.1212     13.1717    107.5961
  1649.0000     47.7876     11.0916     12.0143     12.9453    108.2147
  1649.2500     47.5848     11.0673     11.9587     12.8654    108.9370
  1649.5000     47.0282     11.0583     11.9492     12.9193    110.5396
  1649.7500     46.0370     11.0610     11.9784     13.0786    112.4166
  1650.0000     44.8015     11.0727     12.0372     13.3064    116.9535
  1650.2500     43.6750     11.0938     12.1156     13.5641    120.3536
  1650.5000     42.9635     11.1269     12.2035     13.8159    123.2397
  1650.7500     42.7759     11.1730     12.2926     14.0330    122.4713
  1651.0000     43.0266     11.2296     12.3777     14.1951    117.3573
  1651.2500     43.5484     11.2910     12.4563     14.2895    112.2314
  1651.5000     44.2023     11.3503     12.5271     14.3098    103.6329
  1651.7500     44.8890     11.4026     12.5893     14.2551     98.0529
  1652.0000     45.4724     11.4462     12.6433     14.1321     91.2247
  1652.2500     45.7385     11.4822     12.6915     13.9604     88.5191
  1652.5000     45.4960     11.5111     12.7386     13.7736     88.1253
  1652.7500     44.7400     11.5310     12.7893     13.6148     90.1617
  1653.0000     43.6839     11.5376     12.8452     13.5236     95.3704
  1653.2500     42.6145     11.5282     12.9030     13.5223     99.2613
  1653.5000     41.7254     11.5039     12.9552     13.6074    103.9673
  1653.7500     41.0672     11.4697     12.9944     13.7510    105.4529
  1654.0000     40.5996     11.4321     13.0165     13.9117    104.5771
  1654.2500     40.2643     11.3965     13.0207     14.0485    102.4921
  1654.5000     40.0220     11.3670     13.0064     14.1318     99.1549
  1654.7500     39.8524     11.3460     12.9700     14.1474     97.6563
