~Version Information
VERS.                      2.0: CWLS Log ASCII Standard - VERSION 2.0
WRAP.                       NO: One line per depth step
~Well Information Block
STRT.FT                -1.5000: 
STOP.FT              2898.5000: 
STEP.FT                 0.2500: 
NULL.                -999.2500: 
COMP.          Pioneer Natural Resources: COMPANY
WELL.          Hanginstone 21-27: WELL
FLD.           Purgatoire River: FIELD
LOC.           1186' FNL & 1606' FWL--: LOCATION
PROV.                 Colorado: PROVINCE
CNTY.               Las Animas: COUNTRY
SRVC.                Patterson: SERVICE COMPANY
DATE.          Mon Jan 23 11:03:53 2006: LOG DATE
UWI.           05 071 08632 00: UNIQUE WELL ID
~Curve Information Block
DEPT.FT            0 000 00 00: Depth
CCL.                          : Casing Collar Locator
TT3.usec                      : CBL 3' Travel Time
AMP3.mV                       : CBL 3' Amplitude
GR.GAPI                       : Gamma Ray
~Parameter Information Block
~A  Depth       CCL         TT3         AMP3         GR     
# ...
  1908.0000      0.0000    795.1761      4.3714    153.5902
  1908.2500      0.0000    801.1317      4.3259    147.5079
  1908.5000      0.0000    806.2471      4.2845    139.1300
  1908.7500      0.0000    809.7232      4.2536    128.3296
  1909.0000      0.0000    809.9293      4.2341    116.1339
  1909.2500      0.0000    806.8235      4.2198    104.5887
  1909.5000      0.0000    802.2382      4.2042     96.4646
  1909.7500      0.0000    798.1869      4.1855     93.7723
  1910.0000      0.0000    795.5175      4.1640     96.1501
  1910.2500      0.0000    794.0692      4.1433    101.3820
  1910.5000      0.0000    793.4410      4.1364    107.6575
  1910.7500      0.0000    793.3306      4.1592    114.7679
  1911.0000      0.0000    793.3986      4.2148    122.9484
  1911.2500      0.0000    793.0853      4.2891    131.0083
  1911.5000      0.0000    791.5756      4.3629    136.3020
  1911.7500      0.0000    788.0385      4.4207    136.9964
  1912.0000      0.0000    782.3130      4.4495    134.3389
  1912.2500      0.0000    775.4476      4.4390    132.3250
  1912.5000      0.0000    769.0753      4.3872    134.8543
  1912.7500      0.0000    763.9478      4.3031    142.9688
  1913.0000      0.0000    759.7755      4.2055    154.2838
  1913.2500      0.0000    756.7045      4.1211    164.5669
  1913.5000      0.0000    755.9219      4.0771    169.8432
  1913.7500      0.0000    758.2705      4.0831    167.7444
  1914.0000      0.0000    763.0176      4.1181    158.3515
  1914.2500      0.0000    768.2495      4.1483    144.6432
  1914.5000      0.0000    771.8515      4.1595    131.3389
  1914.7500      0.0000    772.2240      4.1679    121.9878
  1915.0000      0.0000    769.0328      4.2010    116.8212
  1915.2500      0.0000    763.5405      4.2732    113.6827
  1915.5000      0.0000    757.6525      4.3758    110.7358
  1915.7500      0.0000    752.7538      4.4802    107.7765
  1916.0000      0.0000    749.7262      4.5535    105.5997
  1916.2500      0.0000    749.4390      4.5809    105.0778
  1916.5000      0.0000    752.1066      4.5717    106.7585
  1916.7500      0.0000    755.6979      4.5388    110.6687
  1917.0000      0.0000    756.0916      4.4786    116.2538
  1917.2500      0.0000    750.2916      4.3854    122.3647
  1917.5000      0.0000    739.5238      4.2815    126.9802
  1917.7500      0.0000    728.2296      4.2125    127.3514
  1918.0000      0.0000    720.1342      4.2079    121.6460
  1918.2500      0.0000    715.8497      4.2603    110.8677
  1918.5000      0.0000    713.7664      4.3440     98.5482
  1918.7500      0.0000    712.1196      4.4375     88.3667
  1919.0000      0.0000    710.0268      4.5283     82.2593
  1919.2500      0.0000    707.3297      4.6065     80.1719
  1919.5000      0.0000    704.2133      4.6628     80.6162
  1919.7500      0.0000    701.2963      4.6917     81.6464
  1920.0000      0.0000    699.8444      4.6963     82.3108
  1920.2500      0.0000    701.0353      4.6887     83.3237
  1920.5000      0.0000    704.0584      4.6845     85.7608
  1920.7500      0.0000    704.6736      4.6936     89.2785
  1921.0000      0.0000    696.5615      4.7116     92.4342
  1921.2500      0.0000    675.9471      4.7237     94.6654
  1921.5000      0.0000    646.8871      4.7251     96.9830
  1921.7500      0.0000    622.2047      4.7373    100.6918
  1922.0000      0.0000    616.6910      4.7952    106.2025
  1922.2500      0.0000    636.3671      4.9098    112.8350
  1922.5000      0.0000    673.7004      5.0501    118.8438
  1922.7500      0.0000    714.0065      5.1659    121.9849
  1923.0000      0.0000    746.2934      5.2232    121.0884
  1923.2500      0.0000    767.9272      5.2226    117.0795
  1923.5000      0.0000    781.3800      5.1904    112.1914
  1923.7500      0.0000    789.5430      5.1541    108.5790
  1924.0000      0.0000    794.1849      5.1212    107.7851
  1924.2500      0.0000    796.4760      5.0816    110.6382
  1924.5000      0.0000    797.3576      5.0298    116.9173
  1924.7500      0.0000    797.3250      4.9753    125.4156
  1925.0000      0.0000    796.1101      4.9312    134.7776
  1925.2500      0.0000    792.3268      4.9025    144.0621
  1925.5000      0.0000    783.3225      4.8899    152.4319
  1925.7500      0.0000    765.9991      4.8931    158.8655
  1926.0000      0.0000    738.8509      4.9016    162.7237
  1926.2500      0.0000    703.6104      4.8903    164.5582
  1926.5000      0.0000    665.1442      4.8354    166.0965
  1926.7500      0.0000    630.2029      4.7364    169.1373
  1927.0000      0.0000    605.8231      4.6148    173.9895
  1927.2500      0.0000    596.9073      4.5015    178.7967
  1927.5000      0.0000    604.5213      4.4310    180.8782
  1927.7500      0.0000    627.1619      4.4307    179.0354
  1928.0000      0.0000    662.5646      4.4884    174.2498
  1928.2500      0.0000    706.3729      4.5377    168.1305
  1928.5000      0.0000    750.1859      4.5111    161.3606
  1928.7500      0.0000    784.2358      4.4067    153.9348
  1929.0000      0.0000    803.5843      4.2808    146.3486
  1929.2500      2.0000    810.8789      4.1854    139.9857
  1929.5000     -2.0000    812.3586      4.1305    136.4466
  1929.7500     -2.0000    811.7406      4.0967    136.7764
  1930.0000      2.0000    808.2335      4.0618    141.1771
  1930.2500      0.0000    798.9673      4.0185    148.7134
  1930.5000      0.0000    781.8771      3.9730    156.9686
  1930.7500      0.0000    757.1276      3.9313    162.7572
  1931.0000      0.0000    728.0858      3.8971    164.0874
  1931.2500      0.0000    701.1227      3.8885    161.4065
  1931.5000      0.0000    682.9161      3.9319    156.8369
  1931.7500      0.0000    677.0164      4.0258    152.5966
  1932.0000      0.0000    682.5534      4.1288    150.1627
  1932.2500      0.0000    694.9941      4.2016    150.0672
  1932.5000      0.0000    708.1187      4.2474    151.8544
  1932.7500      0.0000    717.5619      4.2973    154.4863
  1933.0000      0.0000    723.8703      4.3658    157.1239
  1933.2500      0.0000    731.0273      4.4343    159.5197
  1933.5000      0.0000    741.0757      4.4765    162.0395
  1933.7500      0.0000    750.9733      4.4900    165.6078
  1934.0000      0.0000    754.8561      4.4994    171.0928
  1934.2500      0.0000    748.7880      4.5279    178.1326
  1934.5000      0.0000    734.2183      4.5697    184.5580
  1934.7500      0.0000    718.0239      4.5882    187.3329
  1935.0000      0.0000    707.7484      4.5399    184.4844
  1935.2500      0.0000    704.8776      4.4015    176.2387
  1935.5000      0.0000    704.1066      4.1799    164.4608
  1935.7500      0.0000    700.4423      3.9097    151.4998
  1936.0000      0.0000    694.8990      3.6453    139.4548
  1936.2500      0.0000    692.3321      3.4474    129.4952
  1936.5000      0.0000    696.6002      3.3539    121.3726
  1936.7500      0.0000    709.0948      3.3544    114.1197
  1937.0000      0.0000    729.2131      3.4007    107.3848
  1937.2500      0.0000    753.5784      3.4432    101.7328
  1937.5000      0.0000    775.1234      3.4567     98.0183
  1937.7500      0.0000    785.3290      3.4415     96.9242
  1938.0000      0.0000    779.4932      3.4138     98.5466
  1938.2500      0.0000    760.7599      3.3961    101.7771
  1938.5000      0.0000    738.5561      3.4093    104.2747
  1938.7500      0.0000    721.8950      3.4675    103.5649
  1939.0000      0.0000    713.2271      3.5725     98.7179
  1939.2500      0.0000    708.5334      3.7093     91.3265
  1939.5000      0.0000    703.0001      3.8435     84.7623
  1939.7500      0.0000    695.6700      3.9277     81.9745
  1940.0000      0.0000    688.7680      3.9174     83.5589
  1940.2500      0.0000    684.3010      3.7952     87.7736
  1940.5000      0.0000    682.4128      3.5894     92.3303
  1940.7500      0.0000    682.1186      3.3605     96.1228
  1941.0000      0.0000    682.4579      3.1574     99.2807
  1941.2500      0.0000    683.0545      2.9965    101.9094
