~Version Information
VERS.                      2.0: CWLS Log ASCII Standard - VERSION 2.0
WRAP.                       NO: One line per depth step
~Well Information Block
STRT.FT               325.0000: 
STOP.FT              1014.5000: 
STEP.FT                 0.2500: 
NULL.                -999.2500: 
COMP.          Pioneer Natural Resources: COMPANY
WELL.                Doc 34-30: WELL
FLD.           Purgatoire River: FIELD
LOC.           454' FSL & 1386' FEL: LOCATION
CNTY.               Las Animas: COUNTY
SRVC.                Patterson: SERVICE COMPANY
DATE.          Wed Feb 15 20:26:19 2006: LOG DATE
UWI.           05 071 08694 00: UNIQUE WELL ID
STAT.                 Colorado: STATE
~Curve Information Block
DEPT.FT            0 000 00 00: Depth
SN.Ohm-m                      : IEL Short Normal
SP.mV                         : IEL Spontaneous Potential
DIR.Ohm-m                     : IEL Induction Resistivity
GR.GAPI                       : Gamma Ray
~Parameter Information Block
~A  Depth        SN          SP         DIR          GR     
# ...
   995.0000     27.4266     50.7026     30.0845     60.0643
   995.2500     27.0974     50.8539     29.4819     43.7185
   995.5000     26.5643     51.0026     28.6810     22.2818
   995.7500     25.7942     51.1494     27.7725     12.2760
   996.0000     24.9656     51.2828     26.8257      3.9448
   996.2500     24.2692     51.3871     25.8830      1.5609
   996.5000     23.7407     51.4526     24.9777      0.2961
   996.7500     23.2757     51.4829     24.1468      0.0804
   997.0000     22.7819     51.4934     23.4268      0.0071
   997.2500     22.2850     51.5013     22.8438      0.0000
   997.5000     21.8470     51.5148     22.4081   -999.2500
   997.7500     21.4568     51.5320     22.1103   -999.2500
   998.0000     21.0727     51.5467     21.9204   -999.2500
   998.2500     20.7193     51.5518     21.7926   -999.2500
   998.5000     20.4789     51.5411     21.6809   -999.2500
   998.7500     20.3792     51.5122     21.5537   -999.2500
   999.0000     20.3127     51.4681     21.4028   -999.2500
   999.2500     20.1219     51.4177     21.2397   -999.2500
   999.5000     19.8085     51.3712     21.0877   -999.2500
   999.7500     19.5612     51.3356     20.9698   -999.2500
  1000.0000     19.5245     51.3077     20.9015   -999.2500
  1000.2500     19.6556     51.2722     20.8887   -999.2500
  1000.5000     19.8356     51.2089     20.9344   -999.2500
  1000.7500     20.0091     51.1081     21.0454   -999.2500
  1001.0000     20.1465     50.9821     21.2345   -999.2500
  1001.2500     20.2104     50.8626     21.5165   -999.2500
  1001.5000     20.2592     50.7859     21.7431   -999.2500
  1001.7500     20.4074     50.7753     22.2263   -999.2500
  1002.0000     20.6400     50.8334     22.7970   -999.2500
  1002.2500     20.8308     50.9467     23.4188   -999.2500
  1002.5000     20.9028     51.0926     24.0324   -999.2500
  1002.7500     20.9025     51.2465     24.5624   -999.2500
  1003.0000     20.9501     51.3882     24.9379   -999.2500
  1003.2500     21.1004     51.5125     25.1190   -999.2500
  1003.5000     21.2921     51.6315     25.1212   -999.2500
  1003.7500     21.4382     51.7655     25.0265   -999.2500
  1004.0000     21.5029     51.9272     24.9895   -999.2500
  1004.2500     21.4908     52.1133     25.2460   -999.2500
  1004.5000     21.4008     52.3079     26.1276   -999.2500
  1004.7500     21.2341     52.4934     28.0900   -999.2500
  1005.0000     21.0159     52.6610     32.1808   -999.2500
  1005.2500     20.7504     52.8139     38.7128   -999.2500
  1005.5000     20.4334     52.9610     49.4108   -999.2500
  1005.7500     20.1130     53.1066     65.8824   -999.2500
  1006.0000     19.8113     53.2426     88.6561   -999.2500
  1006.2500     19.4817     53.3514    114.6984   -999.2500
  1006.5000     19.1582     53.4135    137.1985   -999.2500
  1006.7500     18.9605     53.4140    151.1586   -999.2500
  1007.0000     18.9082     53.3486    157.5193   -999.2500
  1007.2500     18.9232     53.2309    160.1466   -999.2500
  1007.5000     18.9481     53.0927    162.2776   -999.2500
  1007.7500     18.9759     52.9723    165.8091   -999.2500
  1008.0000     19.0218     52.8971 100000.0000   -999.2500
  1008.2500     19.0758     52.8722 100000.0000   -999.2500
  1008.5000     19.1046     52.8817 100000.0000   -999.2500
  1008.7500     19.1055     52.8983 100000.0000   -999.2500
  1009.0000     19.1275     52.8976 100000.0000   -999.2500
  1009.2500     19.2160     52.8667 100000.0000   -999.2500
  1009.5000     19.3412     52.8002 100000.0000   -999.2500
  1009.7500     19.4244     52.6480 100000.0000   -999.2500
  1010.0000     19.4516     52.1817 100000.0000   -999.2500
  1010.2500     19.5140     50.7918 100000.0000   -999.2500
  1010.5000     19.6922     47.4318 100000.0000   -999.2500
  1010.7500     19.8650     41.0956 100000.0000   -999.2500
  1011.0000     19.4784     31.8181 100000.0000   -999.2500
  1011.2500     17.4839     21.2630 100000.0000   -999.2500
  1011.5000     13.1986     11.9242 100000.0000   -999.2500
  1011.7500      7.6954      5.4948 100000.0000   -999.2500
  1012.0000      3.2416      2.0494 100000.0000   -999.2500
  1012.2500      0.9431      0.6119 100000.0000   -999.2500
  1012.5000      0.1841      0.1450 100000.0000   -999.2500
  1012.7500      0.0236      0.0268 100000.0000   -999.2500
  1013.0000      0.0019      0.0036 100000.0000   -999.2500
  1013.2500   -999.2500   -999.2500 100000.0000   -999.2500
  1013.5000   -999.2500   -999.2500 100000.0000   -999.2500
  1013.7500   -999.2500   -999.2500 100000.0000   -999.2500
  1014.0000   -999.2500   -999.2500 100000.0000   -999.2500
  1014.2500   -999.2500   -999.2500 100000.0000   -999.2500
  1014.5000   -999.2500   -999.2500 100000.0000   -999.2500
