~Version Information
VERS.                      2.0: CWLS Log ASCII Standard - VERSION 2.0
WRAP.                       NO: One line per depth step
~Well Information Block
STRT.FT                -6.5000: 
STOP.FT              1564.2500: 
STEP.FT                 0.2500: 
NULL.                -999.2500: 
COMP.          Pioneer Natural Resources: COMPANY
WELL.            Bluesky 44-17: WELL
FLD.           Purgatorie River: FIELD
LOC.           --39' FSL & 288' FEL------: LOCATION
STAT.                       CO: State
CNTY.               Las Animas: COUNTY
CTRY. USA : Country
SECT. 17 : Section
TOWN. 33S : Township
RANG. 66W : Range
SRVC.          Patterson Wireline: SERVICE COMPANY
DATE.          Tue Sep 13 13:24:14 2005: LOG DATE
API.           05 071 08511 00: UNIQUE WELL ID
~Curve Information Block
DEPT.FT            0 000 00 00: Depth
CCL.                          : Casing Collar Locator
TT3.usec                      : CBL 3' Travel Time
AMP3.mV                       : CBL 3' Amplitude
GR.GAPI                       : Gamma Ray
~Parameter Information Block
~A  Depth       CCL         TT3         AMP3         GR     
# ...
   194.5000      0.0000    373.6234     21.7529     48.3375
   194.7500      0.0000    372.9284     21.7393     49.0120
   195.0000      0.0000    373.9224     21.7198     50.1138
   195.2500      0.0000    376.0771     21.7125     51.9546
   195.5000      0.0000    378.1650     21.7311     54.6681
   195.7500      0.0000    379.2503     21.7752     58.0298
   196.0000      0.0000    378.8613     21.8340     61.3080
   196.2500      0.0000    376.5574     21.8998     63.3045
   196.5000      0.0000    371.8889     21.9741     63.0341
   196.7500      0.0000    365.0197     22.0611     60.8127
   197.0000      0.0000    357.1992     22.1589     58.4043
   197.2500      0.0000    350.2363     22.2580     57.6191
   197.5000      0.0000    345.3602     22.3446     58.8382
   197.7500      0.0000    342.6494     22.4048     61.0179
   198.0000      0.0000    341.4490     22.4296     62.6913
   198.2500      0.0000    341.0988     22.4187     62.6871
   198.5000      0.0000    341.3469     22.3793     60.4392
   198.7500      0.0000    342.4501     22.3161     56.4238
   199.0000      0.0000    345.0809     22.2284     52.2823
   199.2500      0.0000    349.9040     22.1176     49.8371
   199.5000      0.0000    356.8368     21.9928     49.7367
   199.7500      0.0000    364.6413     21.8650     51.2361
   200.0000      0.0000    371.5121     21.7374     53.1266
   200.2500      0.0000    376.2463     21.6064     54.5898
   200.5000      0.0000    378.8149     21.4680     55.3041
   200.7500      0.0000    379.9359     21.3205     55.2495
   201.0000      0.0000    380.3505     21.1614     54.7351
   201.2500      0.0000    380.5140     20.9890     54.5247
   201.5000      0.0000    380.7358     20.8091     55.5219
   201.7500      0.0000    381.7593     20.6343     58.1742
   202.0000      0.0000    385.8808     20.4736     62.3898
   202.2500      0.0000    398.5527     20.3220     67.9366
   202.5000      0.0000    428.6698     20.1622     74.4206
   202.7500      0.0000    484.4023     19.9753     80.8513
   203.0000      0.0000    564.7843     19.7534     85.7034
   203.2500      0.0000    655.0820     19.5054     87.7198
   203.5000      0.0000    733.9334     19.2505     86.6356
   203.7500      0.0000    787.6102     19.0000     83.1935
   204.0000      0.0000    818.2588     18.7413     78.5811
   204.2500      0.0000    840.3349     18.4454     73.7860
   204.5000      0.0000    868.9981     18.0965     69.3191
   204.7500      0.0000    907.4954     17.7135     65.3923
   205.0000      0.0000    943.6309     17.3383     62.1715
   205.2500      0.0000    961.9420     17.0020     59.8560
   205.5000      0.0000    961.0891     16.7070     58.7007
   205.7500      0.0000    956.7885     16.4417     58.9699
   206.0000      0.0000    966.8499     16.2031     60.7684
   206.2500      0.0000    995.2805     15.9995     64.0259
   206.5000      0.0000   1030.2285     15.8334     68.5945
   206.7500      0.0000   1054.5315     15.6875     73.9024
   207.0000      0.0000   1058.3136     15.5323     78.4609
   207.2500      0.0000   1044.4929     15.3467     80.3327
   207.5000      0.0000   1023.5856     15.1339     78.4415
   207.7500      0.0000   1002.9431     14.9203     73.3884
   208.0000      0.0000    981.4227     14.7389     66.9948
   208.2500      0.0000    954.4656     14.6109     61.0646
   208.5000      0.0000    921.7004     14.5406     56.3794
   208.7500      0.0000    887.4744     14.5216     52.6792
   209.0000      0.0000    855.5656     14.5450     49.3700
   209.2500      0.0000    826.3078     14.6000     46.0648
   209.5000      0.0000    799.2825     14.6723     42.7411
   209.7500      0.0000    776.9586     14.7441     39.9174
   210.0000      0.0000    764.3998     14.7978     38.5576
   210.2500      0.0000    765.6923     14.8216     39.1906
   210.5000      0.0000    780.3040     14.8146     41.0786
   210.7500      0.0000    801.4095     14.7865     42.6514
   211.0000      0.0000    817.9186     14.7509     42.8276
   211.2500      0.0000    820.8065     14.7164     41.7948
   211.5000      0.0000    809.3618     14.6834     40.7998
   211.7500      0.0000    791.1830     14.6455     41.3821
   212.0000      0.0000    775.8480     14.5942     44.3774
   212.2500      0.0000    768.4614     14.5230     49.2068
   212.5000      0.0000    767.8665     14.4302     54.0734
   212.7500      0.0000    769.3638     14.3232     56.9806
   213.0000      0.0000    768.9031     14.2153     56.8785
   213.2500      0.0000    765.7241     14.1163     54.3025
   213.5000      0.0000    761.9489     14.0278     51.1029
   213.7500      0.0000    759.8834     13.9477     49.3871
   214.0000      0.0000    759.7055     13.8774     50.4162
   214.2500      0.0000    759.8266     13.8209     53.9546
   214.5000      0.0000    759.1974     13.7795     58.2430
   214.7500      0.0000    758.9087     13.7479     60.9967
   215.0000      0.0000    761.6548     13.7141     61.1183
   215.2500      0.0000    769.5684     13.6653     59.4524
   215.5000      0.0000    781.9820     13.5969     57.5888
   215.7500      0.0000    795.1304     13.5141     56.1558
   216.0000      0.0000    804.3401     13.4142     54.7402
   216.2500      0.0000    806.8813     13.2568     53.2258
   216.5000      0.0000    803.1241     12.9470     52.4176
   216.7500      0.0000    796.0835     12.3774     53.1204
   217.0000      0.0000    790.7164     11.5395     55.1306
   217.2500      0.0000    793.2649     10.6084     57.5420
   217.5000      0.0000    808.8900      9.8653     59.7977
   217.7500      0.0000    837.3700      9.4943     61.9307
   218.0000      0.0000    871.6442      9.4735     63.7964
   218.2500      0.0000    903.6598      9.6529     64.6071
   218.5000      0.0000    931.8670      9.8836     63.7062
   218.7500      0.0000    959.7759     10.0770     61.6895
   219.0000      0.0000    987.4293     10.2109     60.2922
   219.2500      0.0000   1008.6190     10.3285     60.9226
   219.5000      0.0000   1015.9775     10.5394     63.4576
   219.7500      0.0000   1004.3452     10.9932     66.5538
   220.0000      0.0000    971.5980     11.7769     68.9082
   220.2500      0.0000    922.1981     12.7820     70.0714
   220.5000      0.0000    868.6050     13.7167     70.3160
   220.7500      0.0000    824.6884     14.3168     70.1254
   221.0000      0.0000    797.2505     14.5248     69.8437
   221.2500      0.0000    784.4997     14.4518     69.5573
   221.5000      0.0000    781.0157     14.2383     69.1466
   221.7500      0.0000    783.4074     13.9824     68.3460
   222.0000      0.0000    793.1657     13.7344     66.6195
   222.2500      0.0000    815.9446     13.5080     63.1545
   222.5000      0.0000    856.4005     13.3020     57.4701
   222.7500      0.0000    910.1332     13.1200     50.2529
   223.0000      0.0000    960.1593     12.9698     43.4120
   223.2500      0.0000    985.0657     12.8553     39.0503
   223.5000      0.0000    973.8259     12.7772     38.1299
   223.7500      0.0000    933.2869     12.7364     39.9514
   224.0000      0.0000    882.2631     12.7360     42.8785
   224.2500      0.0000    839.3393     12.7785     45.5465
   224.5000      0.0000    814.1255     12.8575     47.4219
   224.7500      0.0000    805.7025     12.9502     48.5262
   225.0000      0.0000    806.3484     13.0223     49.0594
   225.2500      0.0000    807.3143     13.0546     49.3397
   225.5000      0.0000    803.9409     13.0611     49.7425
   225.7500      0.0000    797.3309     13.0759     50.4029
   226.0000      0.0000    791.9630     13.1218     51.0621
   226.2500      0.0000    792.6074     13.1970     51.4359
   226.5000      0.0000    803.4319     13.2873     51.6829
   226.7500      0.0000    827.6852     13.3809     52.2142
   227.0000      0.0000    865.4175     13.4709     52.9880
   227.2500      0.0000    911.3627     13.5523     53.2897
   227.5000      0.0000    956.6724     13.6219     52.4593
   227.7500      0.0000    993.3433     13.6819     50.8448
