~Version Information
VERS.                      2.0: CWLS Log ASCII Standard - VERSION 2.0
WRAP.                       NO: One line per depth step
~Well Information Block
STRT.FT               -16.2500: 
STOP.FT               938.7500: 
STEP.FT                 0.2500: 
NULL.                -999.2500: 
COMP.          XTO Energy Inc.: COMPANY
WELL.          Golden Eagle 20-04: WELL
FLD.           Purgatrorie River: FIELD
LOC.           702' FNL & 487' FWL--: LOCATION
STAT.                       CO: PROVINCE
CNTY.               Las Animas: COUNTY
CTRY. USA : Country
SECT. 20 : Section 
TOWN. 33S : Township
RANG. 67W : Range
SRVC.          Patterson Wireline: SERVICE COMPANY
DATE.          Mon Dec 05 10:32:54 2005: LOG DATE
API.           05 071 08599 00: UNIQUE WELL ID
~Curve Information Block
DEPT.FT            0 000 00 00: Depth
CCL.                          : Casing Collar Locator
TT3.usec                      : CBL 3' Travel Time
AMP3.mV                       : CBL 3' Amplitude
GR.GAPI                       : Gamma Ray
~Parameter Information Block
~A  Depth       CCL         TT3         AMP3         GR     
# ...
   687.2500      0.0000    671.0574      2.0397     95.7236
   687.5000      0.0000    673.1343      2.1570    104.9749
   687.7500      0.0000    676.5891      2.3209    113.8503
   688.0000      0.0000    680.0213      2.5371    121.9640
   688.2500      0.0000    682.4360      2.8076    128.8381
   688.5000      0.0000    683.5270      3.1266    133.9311
   688.7500      0.0000    683.1877      3.4681    137.2143
   689.0000      0.0000    681.0831      3.7783    139.2371
   689.2500      0.0000    676.8994      3.9933    140.3685
   689.5000      0.0000    671.1981      4.0783    140.3421
   689.7500      0.0000    665.9417      4.0609    138.7227
   690.0000      0.0000    663.6622      4.0253    135.6601
   690.2500      0.0000    665.6071      4.0622    132.1897
   690.5000      0.0000    670.6928      4.2067    129.8376
   690.7500      0.0000    676.4311      4.4174    129.4213
   691.0000      0.0000    680.7820      4.6148    129.9001
   691.2500      0.0000    683.0489      4.7383    128.9537
   691.5000      0.0000    683.3652      4.7739    125.4013
   691.7500      0.0000    681.8906      4.7500    120.9981
   692.0000      0.0000    678.8082      4.7225    119.1969
   692.2500      0.0000    675.0175      4.7547    121.6831
   692.5000      0.0000    672.3510      4.8877    126.2850
   692.7500      0.0000    672.4482      5.1184    128.5815
   693.0000      0.0000    675.2135      5.4093    125.4942
   693.2500      0.0000    678.6625      5.7224    117.2716
   693.5000      0.0000    680.3904      6.0421    106.5234
   693.7500      0.0000    679.1682      6.3604     95.9571
   694.0000      0.0000    675.4677      6.6513     86.8760
   694.2500      0.0000    670.8011      6.8724     79.1234
   694.5000      0.0000    666.4268      7.0016     72.0980
   694.7500      0.0000    662.5709      7.0670     65.8558
   695.0000      0.0000    658.9558      7.1240     61.3440
   695.2500      0.0000    655.7518      7.1939     59.5209
   695.5000      0.0000    653.5475      7.2327     60.2271
   695.7500      0.0000    652.5703      7.1765     61.9641
   696.0000      0.0000    652.3760      7.0143     62.8298
   696.2500      0.0000    652.2832      6.8041     61.7614
   696.5000      0.0000    651.8917      6.6198     59.0377
   696.7500      0.0000    651.2182      6.4961     55.6988
   697.0000      0.0000    650.5206      6.4258     52.5093
   697.2500      0.0000    650.0625      6.3913     49.5371
   697.5000      0.0000    649.9963      6.3904     46.6729
   697.7500      0.0000    650.4252      6.4406     44.3132
   698.0000      0.0000    651.5433      6.5586     43.3759
   698.2500      0.0000    653.7131      6.7158     44.5710
   698.5000      0.0000    657.3697      6.8133     47.6576
   698.7500      0.0000    662.7028      6.7349     51.6226
   699.0000      0.0000    669.2438      6.4383     55.7573
   699.2500      0.0000    675.7432      5.9849     60.4021
   699.5000      0.0000    680.6408      5.4819     66.4314
   699.7500      0.0000    682.7674      5.0105     74.0571
   700.0000      0.0000    681.6604      4.5983     82.3353
   700.2500      0.0000    677.5746      4.2318     90.0179
   700.5000      0.0000    671.7141      3.8857     96.8174
   700.7500      0.0000    666.3760      3.5459    103.4354
   701.0000      0.0000    664.0702      3.2168    110.1487
   701.2500      0.0000    665.8168      2.9158    115.7129
   701.5000      0.0000    670.3193      2.6656    118.1079
   701.7500      0.0000    675.0532      2.4853    116.5574
   702.0000      0.0000    678.1305      2.3799    112.8139
   702.2500      0.0000    679.0870      2.3363    110.2845
   702.5000      0.0000    678.2152      2.3320    111.4862
   702.7500      0.0000    675.6098      2.3521    116.1280
   703.0000      0.0000    671.0573      2.3992    121.7066
   703.2500      0.0000    664.7640      2.4925    125.7626
   703.5000      0.0000    657.9218      2.6590    127.4164
   703.7500      0.0000    652.2374      2.9293    127.3208
   704.0000      0.0000    648.8651      3.3321    126.8674
   704.2500      0.0000    647.9484      3.8808    127.3473
   704.5000      0.0000    649.1412      4.5541    129.1250
   704.7500      0.0000    652.2861      5.2874    131.2632
   705.0000      0.0000    657.4276      5.9825    132.2985
   705.2500      0.0000    664.2119      6.5349    131.4083
   705.5000      0.0000    671.4771      6.8718    128.5542
   705.7500      0.0000    677.6914      6.9817    123.9923
   706.0000      0.0000    681.8698      6.9133    118.5693
   706.2500      0.0000    684.0011      6.7429    114.3748
   706.5000      0.0000    684.6599      6.5382    113.9901
   706.7500      0.0000    684.3528      6.3383    118.2620
   707.0000      0.0000    683.1117      6.1554    124.9136
   707.2500      0.0000    680.4672      5.9925    129.9984
   707.5000      0.0000    675.8646      5.8627    131.1153
   707.7500      0.0000    669.4340      5.7931    129.1494
   708.0000      0.0000    662.4998      5.8081    126.9204
   708.2500      0.0000    657.1636      5.9045    126.3823
   708.5000      0.0000    655.2296      6.0367    127.1334
   708.7500      0.0000    657.3298      6.1343    127.2167
   709.0000      0.0000    662.6176      6.1457    124.9327
   709.2500      0.0000    668.9518      6.0666    119.9679
   709.5000      0.0000    673.7323      5.9255    113.3459
   709.7500      0.0000    675.2295      5.7515    106.6906
   710.0000      0.0000    673.4720      5.5622    101.4464
   710.2500      0.0000    670.0032      5.3749     98.3847
   710.5000      0.0000    666.9371      5.2145     97.5323
   710.7500      0.0000    666.0861      5.1131     98.5890
   711.0000      0.0000    668.2514      5.1037    101.3923
   711.2500      0.0000    672.7386      5.2022    105.6177
   711.5000      0.0000    677.7410      5.3817    110.0519
   711.7500      0.0000    681.5908      5.5730    112.8949
   712.0000      0.0000    683.6243      5.7033    113.0754
   712.2500      0.0000    683.8758      5.7373    110.6828
   712.5000      0.0000    682.3054      5.6837    106.1926
   712.7500      0.0000    678.6249      5.5713    100.1705
   713.0000      0.0000    672.8853      5.4238     93.6171
   713.2500      0.0000    666.0131      5.2514     87.6464
   713.5000      0.0000    659.5214      5.0642     82.8516
   713.7500      0.0000    654.6434      4.8882     79.4786
   714.0000      0.0000    651.8489      4.7601     77.8957
   714.2500      0.0000    651.0856      4.6955     78.3619
   714.5000      0.0000    652.1285      4.6623     80.5068
   714.7500      0.0000    654.5214      4.5964     83.5323
   715.0000      0.0000    657.4755      4.4487     86.9777
   715.2500      0.0000    660.3538      4.2205     91.0938
   715.5000      0.0000    663.3593      3.9564     96.4829
   715.7500      0.0000    667.2283      3.7056    103.4403
   716.0000      0.0000    672.0107      3.4926    111.4030
   716.2500      0.0000    676.6000      3.3200    118.6903
   716.5000      0.0000    679.6302      3.1859    122.9608
   716.7500      0.0000    680.3513      3.0846    122.6152
   717.0000      0.0000    678.5563      2.9970    118.2940
   717.2500      0.0000    674.3614      2.8961    112.8097
   717.5000      0.0000    668.6599      2.7699    109.3038
   717.7500      0.0000    663.5530      2.6351    109.4566
   718.0000      0.0000    661.5337      2.5198    112.9413
   718.2500      0.0000    663.7287      2.4340    117.4744
   718.5000      0.0000    669.0329      2.3621    119.5636
   718.7500      0.0000    675.2161      2.2807    116.8588
   719.0000      0.0000    680.7339      2.1778    110.5176
   719.2500      0.0000    685.2108      2.0598    104.4939
   719.5000      0.0000    688.4868      1.9478    101.8794
   719.7500      0.0000    689.9736      1.8656    102.0804
   720.0000      0.0000    689.2618      1.8255    101.7060
   720.2500      0.0000    686.8678      1.8218     97.9748
   720.5000      0.0000    683.8950      1.8372     91.0890
