~Version Information
VERS.                      2.0: CWLS Log ASCII Standard - VERSION 2.0
WRAP.                       NO: One line per depth step
~Well Information Block
STRT.FT               -12.0000: 
STOP.FT              1266.5000: 
STEP.FT                 0.2500: 
NULL.                -999.2500: 
COMP.          Pioneer Natural Resources: COMPANY
WELL.          Hot Tomatoes 22-20: WELL
FLD.           Purgatorie River: FIELD
LOC.           2120' FNL & 2585' FWL: LOCATION
CNTY.               Las Animas: COUNTY
SRVC.                Patterson: SERVICE COMPANY
DATE.          Thu Mar 02 13:59:39 2006: LOG DATE
UWI.           05 071 08701 00: UNIQUE WELL ID
STAT.                       CO: STATE
~Curve Information Block
DEPT.FT            0 000 00 00: Depth
GR.GAPI                       : Gamma Ray
CCL.                          : Casing Collar Locator
TT3.usec                      : CBL 3' Travel Time
AMP3.mV                       : CBL 3' Amplitude
~Parameter Information Block
~A  Depth        GR         CCL         TT3         AMP3    
# ...
  1060.0000     86.0515      0.0000    577.1611      8.4285
  1060.2500     85.2214      0.0000    599.9061      8.4160
  1060.5000     83.9855      0.0000    626.8681      8.3787
  1060.7500     82.4904      0.0000    653.6902      8.2956
  1061.0000     81.2620      0.0000    674.8958      8.1887
  1061.2500     80.9997      0.0000    688.0637      8.1084
  1061.5000     82.4603      0.0000    694.0163      8.0884
  1061.7500     85.9584      0.0000    694.9384      8.1155
  1062.0000     90.7317      0.0000    693.0266      8.1480
  1062.2500     95.0861      0.0000    689.4348      8.1595
  1062.5000     97.3978      0.0000    683.2455      8.1629
  1062.7500     96.9670      0.0000    671.6224      8.1966
  1063.0000     94.1976      0.0000    652.2046      8.2918
  1063.2500     90.3807      0.0000    626.4727      8.4393
  1063.5000     87.0577      0.0000    600.0783      8.5774
  1063.7500     84.9579      0.0000    578.3570      8.6228
  1064.0000     83.4542      0.0000    562.4012      8.5393
  1064.2500     81.3822      0.0000    551.4775      8.3788
  1064.5000     78.4500      0.0000    547.7863      8.2439
  1064.7500     75.6988      0.0000    555.2339      8.2070
  1065.0000     74.6973      0.0000    573.0038      8.2635
  1065.2500     76.4181      0.0000    592.6505      8.3445
  1065.5000     80.7574      0.0000    602.7833      8.3707
  1065.7500     86.7798      0.0000    596.4064      8.3107
  1066.0000     93.0600      0.0000    575.2482      8.1863
  1066.2500     97.8383      0.0000    550.5796      7.9960
  1066.5000     99.5445      0.0000    539.4630      7.6606
  1066.7500     97.8310      0.0000    554.1393      7.1177
  1067.0000     93.8393      0.0000    591.0497      6.4549
  1067.2500     89.0969      0.0000    631.6915      5.8715
  1067.5000     84.5555      0.0000    655.8960      5.5059
  1067.7500     80.8762      1.6571    655.3017      5.3499
  1068.0000     78.8511      0.0000    637.4495      5.2989
  1068.2500     78.8999      0.0000    619.0032      5.2583
  1068.5000     80.5094      0.0000    612.5110      5.2316
  1068.7500     82.7668      0.0000    617.7452      5.3126
  1069.0000     85.4175      0.0000    626.7943      5.5581
  1069.2500     89.0323      0.0000    635.6085      5.8896
  1069.5000     93.9318      0.0000    646.4520      6.1882
  1069.7500     99.0171      0.0000    660.8082      6.4506
  1070.0000    102.0185      0.0000    675.5139      6.7775
  1070.2500    101.2605      0.0000    686.3928      7.2375
  1070.5000     97.3271      0.0000    692.1321      7.7910
  1070.7500     92.9925      0.0000    693.9055      8.3241
  1071.0000     91.1919      0.0000    693.1011      8.7225
  1071.2500     92.6445      0.0000    690.1575      8.9301
  1071.5000     95.5524      0.0000    684.9590      8.9631
  1071.7500     97.7898      0.0000    678.0013      8.8820
  1072.0000     98.9309      0.0000    671.0754      8.7467
  1072.2500     99.8548      0.0000    666.3350      8.5852
  1072.5000    101.0676      0.0000    664.2927      8.3947
  1072.7500    102.0188      0.0000    662.4868      8.1721
  1073.0000    101.7766      0.0000    656.1672      7.9419
  1073.2500     99.9231      0.0000    641.2018      7.7539
  1073.5000     96.9004      0.0000    618.3826      7.6524
  1073.7500     93.8371      0.0000    595.5829      7.6377
  1074.0000     92.1131      0.0000    583.2759      7.6527
  1074.2500     92.6258      0.0000    585.0350      7.6259
  1074.5000     94.9191      0.0000    592.3680      7.5444
  1074.7500     97.1337      0.0000    590.6413      7.4831
  1075.0000     97.3475      0.0000    571.0706      7.5551
  1075.2500     95.1129      0.0000    537.1711      7.8165
  1075.5000     91.3695      0.0000    500.3061      8.2021
  1075.7500     86.9089      0.0000    470.2693      8.5516
  1076.0000     81.6450      0.0000    450.1006      8.7214
  1076.2500     75.7576      0.0000    437.6654      8.6819
  1076.5000     70.7936      0.0000    429.8124      8.5086
  1076.7500     68.7298      0.0000    424.8311      8.2922
  1077.0000     70.1569      0.0000    422.5340      8.0662
  1077.2500     73.9318      0.0000    423.3758      7.8046
  1077.5000     78.3642      0.0000    427.6948      7.4665
  1077.7500     82.2471      0.0000    435.0496      7.0492
  1078.0000     84.8487      0.0000    443.8876      6.6174
  1078.2500     85.6026      0.0000    452.1034      6.2702
  1078.5000     84.5349      0.0000    458.2129      6.0602
  1078.7500     82.9115      0.0000    461.9629      5.9415
  1079.0000     82.5708      0.0000    463.9438      5.8073
  1079.2500     84.2447      0.0000    465.1239      5.5814
  1079.5000     87.0129      0.0000    467.1172      5.2777
  1079.7500     89.4263      0.0000    473.0431      4.9665
  1080.0000     90.5639      0.0000    487.7282      4.6887
  1080.2500     90.0566      0.0000    515.5781      4.4197
  1080.5000     87.8255      0.0000    556.3029      4.1130
  1080.7500     84.0752      0.0000    602.5112      3.7556
  1081.0000     79.4082      0.0000    643.2653      3.3675
  1081.2500     75.0362      0.0000    671.1359      2.9636
  1081.5000     72.8384      0.0000    685.7422      2.5397
  1081.7500     74.7525      0.0000    691.3787      2.1016
  1082.0000     81.7194      0.0000    692.9078      1.6911
  1082.2500     92.9900      0.0000    693.8986      1.3594
  1082.5000    105.9959      0.0000    696.9863      1.1177
  1082.7500    116.6662      0.0000    704.4257      0.9321
  1083.0000    120.7219      0.0000    717.3054      0.7733
  1083.2500    116.1185      0.0000    733.8034      0.6565
  1083.5000    104.8361      0.0000    749.0898      0.6387
  1083.7500     91.8282      0.0000    758.6164      0.7912
  1084.0000     81.7830      0.0000    761.5051      1.1676
  1084.2500     76.8333      0.0000    759.4806      1.7682
  1084.5000     76.9721      0.0000    753.2747      2.5212
  1084.7500     81.7152      0.0000    742.3898      3.3069
  1085.0000     90.7681      0.0000    728.1096      4.0088
  1085.2500    103.3892      0.0000    714.2297      4.5549
  1085.5000    117.6179      0.0000    704.1535      4.9264
  1085.7500    130.4619      0.0000    698.4852      5.1441
  1086.0000    139.3140      0.0000    695.5717      5.2409
  1086.2500    143.4766      0.0000    693.4103      5.2269
  1086.5000    144.0491      0.0000    691.0047      5.0885
  1086.7500    142.2585      0.0000    688.7166      4.8397
  1087.0000    138.3215      0.0000    687.6454      4.5568
  1087.2500    131.9031      0.0000    688.4037      4.3363
  1087.5000    122.9834      0.0000    690.4286      4.2197
  1087.7500    112.1115      0.0000    692.5448      4.1797
  1088.0000    100.5283      0.0000    693.9717      4.1666
  1088.2500     90.4353      0.0000    694.6498      4.1488
  1088.5000     84.5495      0.0000    694.8678      4.1105
  1088.7500     84.6200      0.0000    694.8387      4.0394
  1089.0000     90.2410      0.0000    694.4460      3.9325
  1089.2500     99.3355      0.0000    692.9390      3.8083
  1089.5000    109.6784      0.0000    688.4234      3.7077
  1089.7500    119.8060      0.0000    677.7259      3.6802
  1090.0000    128.7964      0.0000    657.7989      3.7634
  1090.2500    135.7091      0.0000    628.7039      3.9654
  1090.5000    139.5056      0.0000    595.3210      4.2588
  1090.7500    139.7476      0.0000    564.7037      4.5869
  1091.0000    137.3654      0.0000    540.6364      4.8771
  1091.2500    134.3118      0.0000    520.7684      5.0649
  1091.5000    132.0966      0.0000    499.1683      5.1213
  1091.7500    130.8696      0.0000    471.8337      5.0635
  1092.0000    130.1001      0.0000    440.3640      4.9394
  1092.2500    129.5521      0.0000    410.7683      4.8059
  1092.5000    129.0868      0.0000    388.8531      4.7105
  1092.7500    128.1983      0.0000    376.6915      4.6740
  1093.0000    126.5584      0.0000    372.7204      4.6845
  1093.2500    124.6206      0.0000    373.9518      4.7071
