~Version Information
VERS.                      2.0: CWLS Log ASCII Standard - VERSION 2.0
WRAP.                       NO: One line per depth step
~Well Information Block
STRT.FT               550.0000: 
STOP.FT              1498.5000: 
STEP.FT                 0.1000: 
NULL.                -999.2500: 
COMP.          Pioneer Natural Resources: COMPANY
WELL.          Surtees 23-34 Tr: WELL
FLD.           Purgatoire River: FIELD
LOC.           1559' FSL & 1997' FWL: LOCATION
PROV.                 Colorado: PROVINCE
CNTY.               Las Animas: COUNTRY
SRVC.                Patterson: SERVICE COMPANY
DATE.          Wed Jul 27 09:35:51 2005: LOG DATE
UWI.           05 071 08449 00: UNIQUE WELL ID
~Curve Information Block
DEPT.FT            0 000 00 00: Depth
DCAL.in                       : CDL Caliper
RHOB.g/cc                     : CDL Bulk Density
RHOC.g/cc                     : CDL Density Correction
DPOR.pu                       : CDL Density Porosity
GR.GAPI                       : Gamma Ray
NPOR.pu                       : Neutron Porosity
~Parameter Information Block
~A  Depth       DCAL        RHOB        RHOC        DPOR         GR         NPOR    
# ...
  1106.8000      7.9741      2.6608      0.1478     -0.6563    137.2452     25.3507
  1106.9000      7.9741      2.6764      0.2060     -1.5991    136.5699     25.6117
  1107.0000      7.9030      2.6610      0.1109     -0.6648    131.5991     25.6164
  1107.1000      7.9030      2.6227      0.1505      1.6550    122.8312     25.3825
  1107.2000      7.9030      2.5794      0.0554      4.2806    118.5749     24.8887
  1107.3000      7.9172      2.5547      0.0664      5.7734    122.1779     24.5230
  1107.4000      7.9172      2.5588      0.0414      5.5273    129.5602     24.7625
  1107.5000      7.9859      2.5812      0.0223      4.1715    134.3587     25.5056
  1107.6000      7.9859      2.6084      0.0729      2.5203    132.7092     26.1532
  1107.7000      7.9859      2.6328      0.0567      1.0417    126.2096     25.8303
  1107.8000      8.0083      2.6503      0.0682     -0.0171    122.5370     24.5145
  1107.9000      8.0083      2.6528      0.0809     -0.1683    125.3725     23.2714
  1108.0000      8.0539      2.6333      0.0656      1.0121    130.5038     22.8273
  1108.1000      8.0539      2.5978      0.0002      3.1666    134.5359     22.6988
  1108.2000      8.0539      2.5674     -0.0307      5.0088    136.1365     22.5488
  1108.3000      8.0654      2.5549      0.0090      5.7640    135.0601     22.7735
  1108.4000      8.0654      2.5511      0.0343      5.9933    133.7575     23.1973
  1108.5000      8.0801      2.5439      0.0185      6.4295    134.3504     23.8636
  1108.6000      8.0801      2.5310      0.0281      7.2093    135.7977     24.9338
  1108.7000      8.0801      2.5224     -0.0174      7.7357    135.8064     25.5572
  1108.8000      8.0924      2.5310      0.0212      7.2112    135.6610     25.0580
  1108.9000      8.0924      2.5538     -0.0029      5.8286    136.5291     24.0368
  1109.0000      8.1165      2.5759      0.0112      4.4900    135.0020     23.5013
  1109.1000      8.1165      2.5827      0.0540      4.0793    132.4795     23.6360
  1109.2000      8.1165      2.5708      0.0580      4.7977    132.1265     24.0146
  1109.3000      8.1258      2.5580      0.0122      5.5738    130.6236     24.3185
  1109.4000      8.1258      2.5688      0.0063      4.9186    127.8337     24.2267
  1109.5000      8.1160      2.5957      0.0722      3.2903    127.6973     23.4502
  1109.6000      8.1160      2.6088      0.0641      2.4953    127.3506     22.4307
  1109.7000      8.1160      2.6071      0.0522      2.5986    122.1451     21.7062
  1109.8000      8.1029      2.6073      0.0427      2.5880    114.8065     21.2041
  1109.9000      8.1029      2.6121      0.0620      2.2990    110.2590     20.7744
  1110.0000      8.1101      2.6206      0.0347      1.7804    108.2947     20.4107
  1110.1000      8.1101      2.6268      0.0986      1.4082    106.0927     20.2518
  1110.2000      8.1101      2.6175      0.0609      1.9704    101.9077     20.5326
  1110.3000      8.0525      2.5985      0.0231      3.1235     97.5094     20.9707
  1110.4000      8.0525      2.5867     -0.0087      3.8347     96.2232     21.5768
  1110.5000      7.9964      2.5905      0.0356      3.6052     99.1992     22.9431
  1110.6000      7.9964      2.6017      0.0967      2.9279    106.4566     24.2331
  1110.7000      7.9964      2.6025      0.0713      2.8760    114.8491     24.1145
  1110.8000      7.9806      2.5885      0.0616      3.7244    117.1534     23.4763
  1110.9000      7.9806      2.5780      0.0056      4.3643    113.2368     23.5409
  1111.0000      7.9856      2.5849      0.0656      3.9476    112.3709     23.8177
  1111.1000      7.9856      2.5975      0.0905      3.1834    118.3359     23.9268
  1111.2000      7.9856      2.6113      0.0266      2.3481    123.8435     24.2028
  1111.3000      7.9827      2.6337      0.0580      0.9855    121.8585     24.4406
  1111.4000      7.9827      2.6546      0.0942     -0.2799    114.6544     24.2440
  1111.5000      7.9931      2.6605      0.1043     -0.6371    107.1014     23.7120
  1111.6000      7.9931      2.6592      0.0868     -0.5548    101.6847     23.0432
  1111.7000      7.9931      2.6614      0.1263     -0.6896    100.8675     22.1959
  1111.8000      8.0044      2.6629      0.0870     -0.7834    101.4870     21.4580
  1111.9000      8.0044      2.6570      0.0975     -0.4245     98.4793     21.1000
  1112.0000      8.0094      2.6469      0.0796      0.1860     94.1008     20.7369
  1112.1000      8.0094      2.6431      0.0724      0.4171     89.5920     20.2605
  1112.2000      8.0094      2.6464      0.0823      0.2169     84.8580     19.9633
  1112.3000      8.0032      2.6420      0.1082      0.4833     81.8695     20.3266
  1112.4000      8.0032      2.6259      0.0053      1.4636     80.6983     21.8976
  1112.5000      7.9790      2.6131      0.0391      2.2383     81.2984     24.0709
  1112.6000      7.9790      2.6095      0.0201      2.4564     84.1087     25.0147
  1112.7000      7.9790      2.6116      0.0519      2.3302     87.4983     24.0973
  1112.8000      7.9649      2.6171      0.0570      1.9926     89.1348     22.8732
  1112.9000      7.9649      2.6216      0.0791      1.7185     87.3156     22.7106
  1113.0000      7.9758      2.6147      0.0349      2.1388     83.8868     22.8069
  1113.1000      7.9758      2.5929      0.0595      3.4604     82.8083     22.0168
  1113.2000      7.9758      2.5646      0.0135      5.1772     82.6521     21.1876
  1113.3000      8.0000      2.5428      0.0241      6.4997     81.3794     21.2487
  1113.4000      8.0000      2.5369      0.0183      6.8565     81.3520     21.5838
  1113.5000      8.1227      2.5444      0.0398      6.4025     83.0566     21.7870
  1113.6000      8.1227      2.5541      0.0188      5.8111     83.1082     22.3611
  1113.7000      8.1227      2.5567      0.0421      5.6576     79.4822     22.9179
  1113.8000      8.1285      2.5560      0.0390      5.6953     73.7027     22.1751
  1113.9000      8.1285      2.5669      0.0245      5.0355     69.8749     20.1143
  1114.0000      8.0772      2.5883      0.0803      3.7407     71.7090     18.1423
  1114.1000      8.0772      2.6050      0.0749      2.7267     77.2017     17.5205
  1114.2000      8.0772      2.6154      0.0768      2.0957     83.0936     18.4429
  1114.3000      8.0227      2.6269      0.0466      1.4011     89.1594     19.7893
  1114.4000      8.0227      2.6365      0.1415      0.8154     93.2104     20.4274
  1114.5000      7.9900      2.6334      0.1069      1.0041     94.0127     20.2210
  1114.6000      7.9900      2.6111      0.1793      2.3602     92.6897     19.5783
  1114.7000      7.9900      2.5808      0.0792      4.1947     89.8892     18.9906
  1114.8000      7.9435      2.5702      0.0627      4.8366     87.8625     18.8078
  1114.9000      7.9435      2.5841      0.1002      3.9938     90.2399     19.3424
  1115.0000      7.9160      2.5997      0.0881      3.0490     97.3906     20.5711
  1115.1000      7.9160      2.6041      0.1129      2.7821    106.0878     21.7535
  1115.2000      7.9160      2.6066      0.0641      2.6303    112.5295     22.6487
  1115.3000      7.9629      2.6177      0.1047      1.9554    117.3600     23.2426
  1115.4000      7.9629      2.6278      0.0852      1.3483    120.8310     22.9451
  1115.5000      8.0160      2.6266      0.0709      1.4166    122.0569     22.1402
  1115.6000      8.0160      2.6162      0.0919      2.0457    122.4373     22.2652
  1115.7000      8.0160      2.6014      0.0442      2.9437    119.6636     23.6492
  1115.8000      8.0355      2.5898      0.0514      3.6500    115.1444     25.0747
  1115.9000      8.0355      2.5839      0.0947      4.0063    117.0612     25.0021
  1116.0000      8.0504      2.5817      0.0518      4.1381    122.7642     23.1948
  1116.1000      8.0504      2.5857      0.0385      3.8945    119.9889     21.2280
  1116.2000      8.0504      2.5944      0.0279      3.3716    108.3238     20.0959
  1116.3000      8.0706      2.5977      0.0492      3.1703     98.3376     19.3941
