~Version Information
 VERS.                                  2.0 : CWLS LAS VERSION
 WRAP.                                   NO : WRAPING MODE
 SWARE .                 MController 2.5.0J : SOFTWARE VERSION
~Well Information
 WELL.YWAM 7-32R : WELL
 COMP.                Petrogulf Corporation : COMPANY
 FLD.                      Purgatoire River : FIELD
 LOC.                 SW/NE Sec 7 T33S R67W : LOCATION
 DATE.9/28/05 : DATE(S) LOGGED
 SRVC.       BLANCO Geological Services LLC : SERVICE COMPANY
 STAT.                                   CO : STATE
 CNTY.                           Las Animas : COUNTY
 CTRY.                                  USA : COUNTRY
 API.                       05-071-08518-00 : API NUMBER
 STRT.FT                               1.00 : START DEPTH
 STOP.FT                            2100.00 : STOP DEPTH
 STEP.FT                               1.00 : DEPTH INCREMENT
 NULL.                                -9999 : NULL VALUE
~Curve information
 DEPTH.FT                                   :
 ROP.MIN/FT                                 :
 GAS.UNITS                                  :
~ASCII Log data
# ...
      1801.0         0.50         29.8 
      1802.0         0.68         30.8 
      1803.0         0.77         30.2 
      1804.0         1.17         27.2 
      1805.0         0.77         22.4 
      1806.0         0.78         20.8 
      1807.0         0.90         21.7 
      1808.0         0.37         22.0 
      1809.0         0.33         22.3 
      1810.0         0.37         23.4 
      1811.0         0.47         24.6 
      1812.0         0.40         25.9 
      1813.0         0.35         27.2 
      1814.0         0.43         28.2 
      1815.0         0.47         29.3 
      1816.0         0.40         29.5 
      1817.0         0.33         29.3 
      1818.0         0.40         29.3 
      1819.0         0.53         28.4 
      1820.0         0.52         26.4 
      1821.0         3.35        101.6 
      1822.0         0.40         99.0 
      1823.0         0.50         78.2 
      1824.0         0.60         47.0 
      1825.0         0.67         32.4 
      1826.0         0.70         28.5 
      1827.0         0.55         27.9 
      1828.0         0.40         27.3 
      1829.0         0.40         27.5 
      1830.0         0.40         28.2 
      1831.0         0.43         28.9 
      1832.0         0.43         29.2 
      1833.0         0.37         28.9 
      1834.0         0.33         28.3 
      1835.0         0.48         27.4 
      1836.0         1.00         26.4 
      1837.0         1.20         25.1 
      1838.0         0.67         24.3 
      1839.0         0.45         24.4 
      1840.0         0.33         24.4 
      1841.0         0.43         25.0 
      1842.0         0.53         26.6 
      1843.0         0.50         26.3 
      1844.0         0.53         25.4 
      1845.0         0.53         25.8 
      1846.0         0.45         25.8 
      1847.0         0.43         26.3 
      1848.0         0.47         26.7 
      1849.0         0.33         26.9 
      1850.0         0.43         27.0 
      1851.0         5.50        136.7 
      1852.0         0.53         32.3 
      1853.0         0.63         36.8 
      1854.0         0.68         39.6 
      1855.0         0.50         40.9 
      1856.0         0.37         43.1 
      1857.0         0.37         45.1 
      1858.0         0.40         46.9 
      1859.0         0.30         47.2 
      1860.0         0.40         46.6 
      1861.0         0.47         43.1 
      1862.0         0.45         38.5 
      1863.0         0.50         30.9 
      1864.0         0.43         24.3 
      1865.0         0.40         22.3 
      1866.0         0.43         22.6 
      1867.0         0.43         23.0 
      1868.0         0.48         24.2 
      1869.0         0.33         24.6 
      1870.0         0.40         25.0 
      1871.0         0.43         25.5 
      1872.0         0.40         25.6 
      1873.0         0.37         25.5 
      1874.0         0.37         25.5 
      1875.0         0.43         25.8 
      1876.0         0.38         26.7 
      1877.0         0.50         26.9 
      1878.0         0.47         27.4 
      1879.0         0.47         26.9 
      1880.0         0.40         30.9 
      1881.0         2.92         99.9 
      1882.0         0.67         42.0 
      1883.0         0.78         25.8 
      1884.0         0.60         15.5 
      1885.0         0.53         19.6 
      1886.0         0.57         21.7 
      1887.0         0.47         24.0 
      1888.0         0.43         25.1 
      1889.0         0.40         25.3 
      1890.0         0.45         25.6 
      1891.0         0.47         27.0 
      1892.0         0.47         26.9 
      1893.0         0.40         26.2 
      1894.0         0.43         25.4 
      1895.0         0.40         25.3 
      1896.0         0.40         25.7 
      1897.0         0.42         25.9 
      1898.0         0.40         25.9 
      1899.0         0.47         26.9 
      1900.0         0.50         26.8 
      1901.0         0.50         27.9 
      1902.0         0.47         28.0 
      1903.0         0.50         26.7 
      1904.0         0.52         24.5 
      1905.0         0.53         22.9 
      1906.0         0.60         21.8 
      1907.0         0.57         21.5 
      1908.0         0.57         21.7 
      1909.0         0.50         23.1 
      1910.0         0.95         28.3 
      1911.0         3.12        139.1 
      1912.0         0.80         47.9 
      1913.0         0.73         25.1 
      1914.0         0.60         25.0 
      1915.0         0.60         26.5 
      1916.0         0.58         27.2 
      1917.0         0.53         26.6 
      1918.0         0.53         26.2 
      1919.0         0.60         26.4 
      1920.0         0.43         26.9 
      1921.0         0.50         27.0 
      1922.0         0.72         27.2 
      1923.0         0.80         27.1 
      1924.0         0.60         25.8 
      1925.0         0.50         24.8 
      1926.0         0.63         24.2 
      1927.0         0.62         25.0 
      1928.0         0.57         25.0 
      1929.0         0.63         24.1 
      1930.0         0.63         23.9 
      1931.0         0.73         23.7 
      1932.0         0.58         23.2 
      1933.0         0.57         23.7 
      1934.0         0.60         24.8 
      1935.0         0.60         24.7 
      1936.0         0.83         24.4 
      1937.0         0.68         23.2 
      1938.0         0.67         22.1 
      1939.0         0.70         21.9 
      1940.0         0.77         25.8 
      1941.0         3.02         94.1 
      1942.0         0.87         40.5 
      1943.0         0.88         18.8 
      1944.0         0.73         19.7 
      1945.0         0.63         19.1 
      1946.0         0.40         19.9 
      1947.0         0.53         21.6 
      1948.0         0.62         24.5 
      1949.0         0.57         24.8 
      1950.0         0.57         25.1 
      1951.0         0.53         25.2 
      1952.0         0.97         24.8 
      1953.0         0.78         24.0 
      1954.0         0.77         23.1 
      1955.0         0.80         22.5 
      1956.0         0.77         22.0 
      1957.0         0.72         22.4 
      1958.0         0.70         22.5 
      1959.0         0.60         23.3 
      1960.0         0.53         23.2 
      1961.0         0.47         23.0 
      1962.0         0.68         22.9 
      1963.0         0.63         22.3 
      1964.0         0.60         22.4 
      1965.0         0.53         22.1 
      1966.0         0.57         21.2 
      1967.0         0.53         20.7 
      1968.0         0.58         21.7 
      1969.0         1.10         22.7 
      1970.0         0.77         30.8 
      1971.0         2.65        125.3 
      1972.0         0.77         86.5 
      1973.0         0.97         31.0 
      1974.0         0.65         24.1 
      1975.0         0.50         25.5 
      1976.0         0.57         27.8 
      1977.0         0.50         29.0 
      1978.0         0.57         29.4 
      1979.0         0.60         29.0 
      1980.0         0.72         27.4 
      1981.0         0.27         27.3 
      1982.0         0.20         27.5 
      1983.0         0.23         27.6 
      1984.0         0.70         29.5 
      1985.0         1.07         35.8 
      1986.0         0.98         32.0 
      1987.0         0.37         26.5 
      1988.0         0.33         26.0 
      1989.0         0.50         25.0 
      1990.0         0.63         23.8 
      1991.0         0.82         24.5 
      1992.0         0.63         25.8 
      1993.0         1.00         25.7 
      1994.0         0.83         24.7 
      1995.0         0.62         23.2 
      1996.0         0.73         22.1 
      1997.0         0.63         22.2 
      1998.0         0.60         21.7 
      1999.0         0.70         21.3 
      2000.0         0.58         21.8 
