~Version Information
VERS.                      2.0: CWLS Log ASCII Standard - VERSION 2.0
WRAP.                       NO: One line per depth step
~Well Information Block
STRT.FT                -7.0000: 
STOP.FT              2517.5000: 
STEP.FT                 0.2500: 
NULL.                -999.2500: 
COMP.          Pioneer Natural Resources: COMPANY
WELL.          Horsefeathers 24-34: WELL
FLD.           Purgatoire River: FIELD
LOC.           183' FSL & 1570' FWL: LOCATION
CNTY.               Las Animas: COUNTY
SRVC.                         : SERVICE COMPANY
DATE.          Fri Mar 17 10:06:37 2006: LOG DATE
UWI.           05 071 08675 00: UNIQUE WELL ID
STAT.                       CO: STATE
~Curve Information Block
DEPT.FT            0 000 00 00: Depth
GR.GAPI                       : Gamma Ray
CCL.                          : Casing Collar Locator
TT3.usec                      : CBL 3' Travel Time
AMP3.mV                       : CBL 3' Amplitude
~Parameter Information Block
~A  Depth        GR         CCL         TT3         AMP3    
# ...
  1299.5000    124.4861      0.0000    689.2255      5.1387
  1299.7500    126.0676      0.0000    691.1565      5.0986
  1300.0000    125.9811      0.0000    692.0369      5.0870
  1300.2500    123.9927      0.0000    692.2298      5.1036
  1300.5000    121.3416      0.0000    691.8116      5.1361
  1300.7500    120.5735      0.0000    690.6524      5.1743
  1301.0000    123.6976      0.0000    688.8298      5.2128
  1301.2500    130.6666      0.0000    687.0153      5.2458
  1301.5000    139.6871      0.0000    686.2383      5.2638
  1301.7500    148.4026      0.0000    687.0244      5.2548
  1302.0000    154.6120      0.0000    688.8418      5.2120
  1302.2500    156.7966      0.0000    690.5372      5.1417
  1302.5000    154.7779      0.0000    691.1603      5.0631
  1302.7500    149.6902      0.0000    690.3689      4.9990
  1303.0000    143.1416      0.0000    688.4884      4.9647
  1303.2500    136.6169      0.0000    686.4902      4.9619
  1303.5000    131.3215      0.0000    685.5751      4.9811
  1303.7500    127.7061      0.0000    686.2929      5.0098
  1304.0000    125.1614      0.0000    688.0631      5.0393
  1304.2500    122.7538      0.0000    689.6841      5.0657
  1304.5000    120.2779      0.0000    690.1379      5.0889
  1304.7500    118.2142      0.0000    688.7804      5.1127
  1305.0000    116.6790      0.0000    685.2293      5.1433
  1305.2500    114.8329      0.0000    679.6732      5.1850
  1305.5000    111.6044      0.0000    673.2472      5.2361
  1305.7500    106.7667      0.0000    667.1270      5.2941
  1306.0000    101.0379      0.0000    660.8427      5.3635
  1306.2500     95.3366      0.0000    652.6833      5.4539
  1306.5000     90.2777      0.0000    642.4572      5.5674
  1306.7500     86.2889      0.0000    632.2944      5.6908
  1307.0000     83.7240      0.0000    624.3217      5.8039
  1307.2500     82.5146      0.0000    620.1280      5.8906
  1307.5000     81.7387      0.0000    622.6159      5.9433
  1307.7500     79.9346      0.0000    633.6463      5.9589
  1308.0000     76.2624      0.0000    648.1651      5.9370
  1308.2500     71.3022      0.0000    655.5182      5.8819
  1308.5000     66.4996      0.0000    649.7399      5.8031
  1308.7500     63.0642      0.0000    635.0406      5.7157
  1309.0000     61.6220      0.0000    617.9243      5.6370
  1309.2500     62.3715      0.0000    597.2357      5.5808
  1309.5000     64.9666      0.0000    567.0699      5.5521
  1309.7500     68.3945      0.0000    527.9376      5.5468
  1310.0000     71.3779      0.0000    489.5886      5.5535
  1310.2500     73.0753      0.0000    462.4924      5.5568
  1310.5000     73.5022      0.0000    450.2739      5.5407
  1310.7500     73.1565      0.0000    450.4446      5.4952
  1311.0000     72.1554      0.0000    458.6147      5.4213
  1311.2500     70.1750      0.0000    470.2223      5.3316
  1311.5000     67.5110      0.0000    480.3974      5.2449
  1311.7500     65.5828      0.0000    485.4820      5.1802
  1312.0000     65.8214      0.0000    486.6219      5.1523
  1312.2500     68.4136      0.0000    490.9816      5.1664
  1312.5000     72.3906      0.0000    506.9428      5.2124
  1312.7500     76.3815      0.0000    536.6967      5.2667
  1313.0000     79.0456      0.0000    573.8641      5.3067
  1313.2500     79.5021      0.0000    608.7748      5.3262
  1313.5000     77.9709      0.0000    635.6631      5.3346
  1313.7500     75.7776      0.0000    654.9575      5.3438
  1314.0000     74.2803      0.0000    670.2922      5.3572
  1314.2500     73.6173      0.0000    684.3121      5.3736
  1314.5000     72.6266      0.0000    696.2147      5.3951
  1314.7500     70.1432      0.0000    702.4531      5.4290
  1315.0000     66.1949      0.0000    700.5461      5.4819
  1315.2500     61.7663      0.0000    692.8096      5.5542
  1315.5000     57.8607      0.0000    685.7422      5.6361
  1315.7500     55.2214      0.0000    685.3394      5.7076
  1316.0000     54.6296      0.0000    693.0344      5.7446
  1316.2500     56.9122      0.0000    705.5218      5.7319
  1316.5000     62.5344      0.0000    717.8038      5.6720
  1316.7500     71.2780      0.0000    726.5276      5.5844
  1317.0000     82.3380      0.0000    731.1255      5.4933
  1317.2500     94.5368      0.0000    732.6466      5.4157
  1317.5000    106.3034      0.0000    732.0095      5.3559
  1317.7500    115.8573      0.0000    729.2148      5.3108
  1318.0000    122.1521      0.0000    723.6852      5.2780
  1318.2500    125.6908      0.0000    715.0391      5.2624
  1318.5000    127.9944      0.0000    703.1722      5.2731
  1318.7500    130.2685      0.0000    687.2178      5.3126
  1319.0000    132.6401      0.0000    664.6868      5.3690
  1319.2500    134.3015      0.0000    632.6474      5.4209
  1319.5000    134.2380      0.0000    590.6020      5.4514
  1319.7500    132.3194      0.0000    542.3999      5.4567
  1320.0000    129.8546      0.0000    495.1036      5.4428
  1320.2500    128.5942      0.0000    455.4967      5.4172
  1320.5000    129.1555      0.0000    427.1618      5.3862
  1320.7500    130.8067      0.0000    410.3121      5.3541
  1321.0000    132.5538      0.0000    403.3625      5.3221
  1321.2500    133.8659      0.0000    403.8773      5.2895
  1321.5000    134.6157      0.0000    408.6459      5.2580
  1321.7500    135.0170      0.0000    414.2660      5.2368
  1322.0000    135.5148      0.0000    418.3755      5.2395
  1322.2500    136.2294      0.0000    420.3232      5.2761
  1322.5000    136.6302      0.0000    420.6819      5.3466
  1322.7500    136.1177      0.0000    420.3255      5.4369
  1323.0000    134.7365      0.0000    419.8703      5.5226
  1323.2500    132.9749      0.0000    419.6624      5.5798
  1323.5000    130.9644      0.0000    420.1346      5.5985
  1323.7500    128.2097      0.0000    422.3851      5.5854
  1324.0000    124.0868      0.0000    428.8557      5.5559
  1324.2500    118.4518      0.0000    443.1726      5.5247
  1324.5000    111.8544      0.0000    467.8242      5.5015
  1324.7500    105.3585      0.0000    500.1405      5.4897
  1325.0000    100.0659      0.0000    530.5932      5.4855
  1325.2500     96.3669      0.0000    547.9080      5.4838
  1325.5000     93.4756      0.0000    548.8734      5.4835
  1325.7500     90.1766      0.0000    543.1056      5.4846
  1326.0000     86.4069      0.0000    545.8580      5.4818
  1326.2500     83.9394      0.0000    565.2041      5.4644
  1326.5000     85.2676      0.0000    596.6657      5.4229
  1326.7500     91.5839      0.0000    628.5892      5.3555
  1327.0000    101.4960      0.0000    650.2467      5.2729
  1327.2500    111.7182      0.0000    655.5532      5.1984
  1327.5000    119.3302      0.0000    642.4728      5.1542
  1327.7500    123.5383      0.0000    611.9576      5.1438
  1328.0000    125.5084      0.0000    569.0106      5.1488
  1328.2500    126.8793      0.0000    524.2233      5.1425
  1328.5000    128.6113      0.0000    491.3195      5.1030
  1328.7500    131.1063      0.0000    480.4603      5.0190
  1329.0000    134.8798      0.0000    493.4335      4.8978
  1329.2500    140.4358      0.0000    525.0756      4.7736
  1329.5000    147.4181      0.0000    567.8358      4.6955
  1329.7500    154.2431      0.0000    614.4279      4.6908
  1330.0000    158.5302      0.0000    657.9619      4.7455
  1330.2500    158.0458      0.0000    692.2012      4.8315
  1330.5000    151.9300      0.0000    712.9792      4.9375
  1330.7500    141.3708      0.0000    718.8713      5.0610
  1331.0000    128.9913     -1.3104    709.5894      5.1870
  1331.2500    117.5524      2.0000    684.9418      5.2926
  1331.5000    108.9884      0.0000    647.8558      5.3592
  1331.7500    104.0591      0.0000    607.2798      5.3757
  1332.0000    102.4731      0.0000    574.4666      5.3467
  1332.2500    103.1521      0.0000    555.4247      5.3023
  1332.5000    104.5652      0.0000    547.2417      5.2865
  1332.7500    105.4414      0.0000    541.5439      5.3310
