~Version Information
VERS.                      2.0: CWLS Log ASCII Standard - VERSION 2.0
WRAP.                       NO: One line per depth step
~Well Information Block
STRT.FT               345.0000: 
STOP.FT              2167.7000: 
STEP.FT                 0.1000: 
NULL.                -999.2500: 
COMP.          Pioneer Natural Resources: COMPANY
WELL.          Hemisphere 32-24: WELL
FLD.           Purgatoire River: FIELD
LOC.           1850' FNL & 2284' FEL--: LOCATION
PROV.                 Colorado: PROVINCE
CNTY.               Las Animas: COUNTRY
SRVC.                Patterson: SERVICE COMPANY
DATE.          Mon Aug 15 07:19:13 2005: LOG DATE
UWI.           05 071 08440 00: UNIQUE WELL ID
~Curve Information Block
DEPT.FT            0 000 00 00: Depth
DCAL.in                       : CDL Caliper
RHOB.g/cc                     : CDL Bulk Density
RHOC.g/cc                     : CDL Density Correction
DPOR.pu                       : CDL Density Porosity
NPOR.pu                       : Neutron Porosity
GR.GAPI                       : Gamma Ray
~Parameter Information Block
~A  Depth       DCAL        RHOB        RHOC        DPOR        NPOR         GR     
   345.0000      8.2106      2.3353     -0.2319     19.0755     42.9598     62.5032
   345.1000      8.2106      2.2973     -0.2865     21.3770     43.0028     67.5660
   345.2000      8.2106      2.2902     -0.2732     21.8079     43.1148     73.4601
   345.3000      8.2138      2.3141     -0.1950     20.3596     43.2140     78.4172
   345.4000      8.2138      2.3349     -0.2342     19.0960     43.1841     81.3290
   345.5000      8.2152      2.3376     -0.2166     18.9307     43.2030     81.8555
   345.6000      8.2152      2.3299     -0.2496     19.4026     43.2662     80.4630
   345.7000      8.2152      2.3164     -0.2512     20.2183     43.1333     79.3001
   345.8000      8.2134      2.2906     -0.2133     21.7841     42.9837     80.9727
   345.9000      8.2134      2.2569     -0.3180     23.8271     43.0748     84.9503
   346.0000      8.2119      2.2362     -0.2978     25.0763     43.2659     86.0082
   346.1000      8.2119      2.2359     -0.2709     25.0980     43.4246     82.2402
   346.2000      8.2119      2.2465     -0.2998     24.4572     43.4352     78.0346
   346.3000      8.2133      2.2575     -0.2587     23.7899     43.1467     77.4871
   346.4000      8.2133      2.2634     -0.2938     23.4330     42.7746     80.9150
   346.5000      8.2158      2.2705     -0.2694     23.0010     42.5892     86.7977
   346.6000      8.2158      2.2927     -0.2845     21.6537     42.5356     91.6636
   346.7000      8.2158      2.3348     -0.2576     19.1025     42.5283     91.5039
   346.8000      8.2164      2.3837     -0.2342     16.1364     42.5332     88.7252
   346.9000      8.2164      2.4235     -0.1633     13.7293     42.4670     87.9097
   347.0000      8.2156      2.4529     -0.2445     11.9426     42.3705     86.8948
   347.1000      8.2156      2.4800     -0.1939     10.3059     42.4230     83.0829
   347.2000      8.2156      2.4969     -0.2136      9.2787     42.6144     81.4224
   347.3000      8.2150      2.4867     -0.2292      9.8973     42.6269     87.1684
   347.4000      8.2150      2.4430     -0.2289     12.5425     42.3655     96.6378
   347.5000      8.2143      2.3742     -0.3077     16.7128     41.9457    103.8498
   347.6000      8.2143      2.2967     -0.2879     21.4145     41.2933    106.5486
   347.7000      8.2143      2.2226     -0.3149     25.9046     40.3197    105.3275
   347.8000      8.2128      2.1696     -0.3789     29.1126     39.1832    103.5067
   347.9000      8.2128      2.1530     -0.3072     30.1185     38.0734    105.8969
   348.0000      8.2111      2.1710     -0.3360     29.0289     36.9210    114.5290
   348.1000      8.2111      2.2192     -0.3191     26.1100     35.3867    121.4287
   348.2000      8.2111      2.2793     -0.2212     22.4649     33.3640    121.0592
   348.3000      8.2096      2.3179     -0.1321     20.1266     31.1344    118.6229
   348.4000      8.2096      2.3165     -0.1087     20.2119     29.1069    116.7757
   348.5000      8.2112      2.2799     -0.0889     22.4327     27.4894    116.7518
   348.6000      8.2112      2.2358     -0.0715     25.1032     26.0960    120.3204
   348.7000      8.2112      2.2261     -0.0120     25.6883     24.6953    124.9534
   348.8000      8.2168      2.2588      0.1872     23.7075     23.2720    129.9204
   348.9000      8.2168      2.2900      0.2276     21.8183     21.9475    135.9742
   349.0000      8.2185      2.2917      0.1372     21.7156     20.9711    138.0772
   349.1000      8.2185      2.2821      0.1503     22.2948     20.5302    135.2061
   349.2000      8.2185      2.2728      0.1655     22.8603     20.4738    134.7650
   349.3000      8.2050      2.2540      0.1466     24.0022     20.5396    138.2326
   349.4000      8.2050      2.2288      0.1042     25.5289     20.5469    140.6829
   349.5000      8.1794      2.2125      0.1013     26.5143     20.4022    139.4226
   349.6000      8.1794      2.2061      0.1379     26.9057     20.3232    135.4296
   349.7000      8.1794      2.2008      0.0987     27.2259     20.4166    130.1207
   349.8000      8.1511      2.1945      0.1008     27.6068     20.4400    123.8438
   349.9000      8.1511      2.1832      0.1100     28.2897     20.4604    116.6345
   350.0000      8.1254      2.1616      0.0764     29.5981     20.7861    110.7553
   350.1000      8.1254      2.1274      0.1051     31.6717     21.1218    107.9689
   350.2000      8.1254      2.0765      0.0623     34.7601     20.9935    104.0689
   350.3000      8.1092      2.0050      0.0370     39.0922     20.4508     96.7913
   350.4000      8.1092      1.9152     -0.0118     44.5321     19.6511     90.7980
   350.5000      8.1010      1.8172     -0.0678     50.4732     18.8585     88.5478
   350.6000      8.1010      1.7168     -0.0884     56.5602     18.3121     87.2168
   350.7000      8.1010      1.6112     -0.1087     62.9566     17.9312     84.0223
   350.8000      8.0918      1.5005     -0.1471     69.6675     17.4998     78.4202
   350.9000      8.0918      1.3917     -0.2217     76.2636     16.9367     73.1504
   351.0000      8.0780      1.2916     -0.2329     82.3250     16.5000     71.0116
   351.1000      8.0780      1.2029     -0.2954     87.7002     16.5224     70.4533
   351.2000      8.0780      1.1341     -0.3193     91.8741     16.9334     68.9858
   351.3000      8.0711      1.0998     -0.3248     93.9503     17.2805     67.6333
   351.4000      8.0711      1.1121     -0.3179     93.2055     17.4249     69.1027
   351.5000      8.0853      1.1749     -0.2736     89.4000     17.6289     73.2834
   351.6000      8.0853      1.2761     -0.1745     83.2676     17.8373     78.8284
   351.7000      8.0853      1.3917     -0.1348     76.2632     17.7262     84.7380
   351.8000      8.1345      1.5051     -0.0700     69.3870     17.2982     88.8138
   351.9000      8.1345      1.6116      0.0086     62.9358     16.7809     92.2749
   352.0000      8.2296      1.7168      0.0784     56.5597     16.3675     97.3817
   352.1000      8.2296      1.8337      0.2239     49.4724     16.3586    103.0836
   352.2000      8.2296      1.9620      0.3558     41.6940     16.7852    108.7840
   352.3000      8.3790      2.0808      0.4566     34.4953     17.2778    112.5344
   352.4000      8.3790      2.1708      0.4691     29.0395     17.6372    113.7007
   352.5000      8.6355      2.2305      0.4406     25.4241     17.9167    116.3620
   352.6000      8.6355      2.2645      0.4162     23.3628     18.1347    123.3748
   352.7000      8.6355      2.2747      0.3917     22.7434     18.3799    129.5621
   352.8000      9.0711      2.2709      0.3327     22.9767     18.7559    128.5526
   352.9000      9.0711      2.2734      0.3217     22.8270     19.0456    124.9339
   353.0000      9.6381      2.2928      0.3456     21.6499     19.0985    125.9953
   353.1000      9.6381      2.3213      0.3144     19.9233     18.9055    127.5462
   353.2000      9.6381      2.3499      0.2830     18.1902     18.5372    123.6399
   353.3000     10.1310      2.3847      0.2475     16.0802     18.3623    120.5506
   353.4000     10.1310      2.4340      0.3055     13.0913     18.4239    124.1340
   353.5000     10.4291      2.4884      0.3103      9.7911     18.3535    127.9139
   353.6000     10.4291      2.5263      0.3278      7.4961     18.1454    125.6670
   353.7000     10.4291      2.5274      0.3014      7.4316     18.0228    122.5021
   353.8000     10.6101      2.4880      0.2382      9.8158     17.8596    124.1558
   353.9000     10.6101      2.4228      0.1770     13.7725     17.4196    125.5210
   354.0000     10.7015      2.3467      0.1007     18.3812     16.8953    122.3097
   354.1000     10.7015      2.2661      0.0622     23.2691     16.6854    118.3160
   354.2000     10.7015      2.1732      0.0405     28.8962     16.6842    114.8619
   354.3000     10.7114      2.0442     -0.0215     36.7137     16.4663    113.4898
   354.4000     10.7114      1.8532     -0.0335     48.2919     15.7540    115.5126
   354.5000     10.6210      1.6199     -0.1806     62.4328     14.7554    118.6013
