~Version Information
VERS.                      2.0: CWLS Log ASCII Standard - VERSION 2.0
WRAP.                       NO: One line per depth step
~Well Information Block
STRT.FT               260.8000: 
STOP.FT              1942.0000: 
STEP.FT                 0.1000: 
NULL.                -999.2500: 
COMP.          XTO Energy Inc.: COMPANY
WELL.          Golden Eagle 19-11: WELL
FLD.           Purgatoire River: FIELD
LOC.           2351' FSL & 1926' FWL--: LOCATION
CNTY.               Las Animas: COUNTY
SRVC.                Patterson: SERVICE COMPANY
DATE.          Thu Mar 09 08:41:38 2006: LOG DATE
UWI.           05 071 08696 00: UNIQUE WELL ID
STAT.                 Colorado: STATE
~Curve Information Block
DEPT.FT            0 000 00 00: Depth
DCAL.in                       : CDL Caliper
RHOB.g/cc                     : CDL Bulk Density
RHOC.g/cc                     : CDL Density Correction
DPOR.pu                       : CDL Density Porosity
NPOR.pu                       : Neutron Porosity
GR.GAPI                       : Gamma Ray
~Parameter Information Block
~A  Depth       DCAL        RHOB        RHOC        DPOR        NPOR         GR     
# ...
   923.2000      7.9997      2.4749      0.0443     10.6127     22.1880    125.4809
   923.3000      8.0025      2.4306      0.0207     13.2988     22.1233    130.6073
   923.4000      8.0025      2.3801     -0.0173     16.3564     21.7606    135.5139
   923.5000      8.0010      2.3385     -0.0387     18.8794     21.4522    137.3436
   923.6000      8.0010      2.3136     -0.0440     20.3857     21.2688    136.6857
   923.7000      8.0010      2.3022     -0.0019     21.0771     20.7760    133.6643
   923.8000      7.9964      2.3016     -0.0214     21.1132     19.6933    126.4568
   923.9000      7.9964      2.3162     -0.0196     20.2309     18.3218    116.5169
   924.0000      7.9896      2.3379      0.0855     18.9168     17.0786    109.2448
   924.1000      7.9896      2.3492      0.0641     18.2282     16.0953    108.4135
   924.2000      7.9896      2.3510      0.1084     18.1187     15.3882    111.6880
   924.3000      7.9824      2.3577      0.0773     17.7157     15.0667    112.8783
   924.4000      7.9824      2.3759      0.1043     16.6108     15.1881    111.0948
   924.5000      7.9793      2.4041      0.0103     14.9021     15.5873    108.9780
   924.6000      7.9793      2.4450      0.0203     12.4225     16.1458    108.6795
   924.7000      7.9793      2.4897      0.0710      9.7137     16.9401    112.5683
   924.8000      7.9803      2.5145      0.0781      8.2114     17.8622    119.3589
   924.9000      7.9803      2.5175      0.0230      8.0297     18.7131    124.6046
   925.0000      7.9808      2.5157      0.0333      8.1401     19.3217    127.1951
   925.1000      7.9808      2.5107      0.0411      8.4431     19.4256    126.2699
   925.2000      7.9808      2.4992      0.0315      9.1419     19.2750    121.0573
   925.3000      7.9784      2.4946     -0.0373      9.4191     19.5658    115.2555
   925.4000      7.9784      2.5043      0.0352      8.8300     20.2504    112.0369
   925.5000      7.9774      2.5204      0.0183      7.8573     20.8052    114.5871
   925.6000      7.9774      2.5367      0.0462      6.8668     21.2619    123.4072
   925.7000      7.9774      2.5475      0.0448      6.2130     21.8482    131.3873
   925.8000      7.9796      2.5527      0.0068      5.8958     22.5113    134.0938
   925.9000      7.9796      2.5570      0.0456      5.6384     23.1043    131.4840
   926.0000      7.9802      2.5578      0.0161      5.5854     23.4221    125.4404
   926.1000      7.9802      2.5575     -0.0001      5.6054     23.4016    121.6064
   926.2000      7.9802      2.5568      0.0354      5.6482     23.1100    120.9772
   926.3000      7.9779      2.5491      0.0374      6.1167     22.7942    119.0117
   926.4000      7.9779      2.5412     -0.0111      6.5962     22.9111    115.3237
   926.5000      7.9769      2.5479      0.0228      6.1903     23.5643    115.0618
   926.6000      7.9769      2.5642      0.0311      5.1982     24.1209    120.1393
   926.7000      7.9769      2.5704      0.0555      4.8249     23.9475    125.3668
   926.8000      7.9775      2.5567      0.0721      5.6547     23.2179    126.4778
   926.9000      7.9775      2.5406      0.0172      6.6306     22.5305    124.4725
   927.0000      7.9800      2.5521      0.0017      5.9314     22.2632    121.5316
   927.1000      7.9800      2.5850      0.0722      3.9402     22.3399    119.6973
   927.2000      7.9800      2.5930      0.0867      3.4559     22.5072    122.5748
   927.3000      7.9872      2.5628      0.0048      5.2868     22.6323    128.1452
   927.4000      7.9872      2.5318     -0.0047      7.1623     22.6501    128.9538
   927.5000      7.9975      2.5277      0.0037      7.4105     22.6491    124.7095
   927.6000      7.9975      2.5495     -0.0030      6.0890     22.8321    120.6902
   927.7000      7.9975      2.5845      0.0235      3.9697     23.1483    119.7517
   927.8000      8.0016      2.6082      0.0882      2.5353     23.3124    119.8391
   927.9000      8.0016      2.6043      0.0583      2.7723     23.1326    117.8746
   928.0000      7.9972      2.5876      0.0432      3.7814     22.8954    114.2888
   928.1000      7.9972      2.5776      0.0760      4.3874     23.0534    111.4967
   928.2000      7.9972      2.5716      0.0915      4.7496     23.3462    110.4723
   928.3000      7.9920      2.5651     -0.0059      5.1436     23.3670    111.7657
   928.4000      7.9920      2.5579      0.0381      5.5794     23.1504    114.2803
   928.5000      7.9889      2.5436      0.0239      6.4485     22.9962    114.3960
   928.6000      7.9889      2.5304      0.0090      7.2508     23.1704    111.5276
   928.7000      7.9889      2.5344      0.0192      7.0060     23.4218    108.8382
   928.8000      7.9863      2.5513      0.0668      5.9825     23.5781    107.9533
   928.9000      7.9863      2.5618      0.0484      5.3460     23.8177    109.0357
   929.0000      7.9831      2.5598      0.0732      5.4672     24.0791    110.0784
   929.1000      7.9831      2.5562      0.0445      5.6847     24.1106    108.5652
   929.2000      7.9831      2.5646      0.0470      5.1728     23.7790    106.3507
   929.3000      7.9820      2.5853      0.0374      3.9202     23.3365    105.4244
   929.4000      7.9820      2.5996      0.0799      3.0522     23.0164    104.9028
   929.5000      7.9816      2.5956      0.0490      3.2979     22.7398    104.5986
   929.6000      7.9816      2.5903      0.0221      3.6211     22.6702    103.9577
   929.7000      7.9816      2.6013      0.0513      2.9527     23.1431    100.6983
   929.8000      7.9803      2.6173      0.0538      1.9814     23.9452     96.5740
   929.9000      7.9803      2.6182      0.0645      1.9302     24.5362     96.4190
   930.0000      7.9799      2.5989      0.0832      3.0998     24.7674    101.3634
   930.1000      7.9799      2.5697      0.0229      4.8639     24.8510    106.8723
   930.2000      7.9799      2.5493      0.0022      6.1046     24.9741    109.9838
   930.3000      7.9821      2.5433      0.0387      6.4644     25.2199    114.2250
   930.4000      7.9821      2.5461     -0.0092      6.2977     25.4127    118.2156
   930.5000      7.9890      2.5569      0.0051      5.6454     25.3481    118.7607
   930.6000      7.9890      2.5672      0.0303      5.0194     25.1189    119.2311
   930.7000      7.9890      2.5656      0.0400      5.1124     24.8439    120.8978
   930.8000      7.9987      2.5646      0.0266      5.1772     24.6437    122.5544
   930.9000      7.9987      2.5773      0.0250      4.4066     24.6444    125.2289
   931.0000      8.0037      2.5949      0.0407      3.3395     24.5514    125.5881
   931.1000      8.0037      2.6071      0.0524      2.6009     24.1538    118.4344
   931.2000      8.0037      2.6116      0.0285      2.3251     24.0114    110.4021
   931.3000      8.0053      2.6086      0.0500      2.5121     24.4362    111.6145
   931.4000      8.0053      2.5998      0.0178      3.0450     24.8996    117.7691
   931.5000      8.0079      2.5963     -0.0071      3.2559     25.0847    118.9136
   931.6000      8.0079      2.6065      0.0148      2.6392     25.3639    117.1838
   931.7000      8.0079      2.6243     -0.0094      1.5573     26.0021    119.0561
   931.8000      8.0110      2.6347      0.0321      0.9257     26.7408    122.4356
   931.9000      8.0110      2.6282     -0.0051      1.3212     27.0912    125.1416
   932.0000      8.0178      2.6142      0.0304      2.1697     26.9808    129.4952
   932.1000      8.0178      2.6022      0.0237      2.8981     26.7766    132.8475
   932.2000      8.0178      2.5933      0.0194      3.4359     26.5193    132.8829
   932.3000      8.0302      2.5887      0.0365      3.7137     25.9102    133.6126
   932.4000      8.0302      2.5843      0.0525      3.9847     24.9345    135.8101
   932.5000      8.0406      2.5736      0.0513      4.6290     23.8221    138.4313
   932.6000      8.0406      2.5627      0.0147      5.2910     23.0789    143.0733
   932.7000      8.0406      2.5600      0.0048      5.4523     23.2196    148.9797
