~Version Information
VERS.                      2.0: CWLS Log ASCII Standard - VERSION 2.0
WRAP.                       NO: One line per depth step
~Well Information Block
STRT.FT               245.0000: 
STOP.FT              1208.2000: 
STEP.FT                 0.1000: 
NULL.                -999.2500: 
COMP.          Pioneer Natural Resources: COMPANY
WELL.              Davida 34-8: WELL
FLD.           Purgatoire River: FIELD
LOC.           418' FSL & 1923' FEL--: LOCATION
CNTY.               Las Animas: COUNTY
SRVC.                Patterson: SERVICE COMPANY
DATE.          Mon Mar 20 08:22:01 2006: LOG DATE
UWI.           05 071 08722 00: UNIQUE WELL ID
STAT.                 Colorado: STATE
~Curve Information Block
DEPT.FT            0 000 00 00: Depth
DCAL.in                       : CDL Caliper
RHOB.g/cc                     : CDL Bulk Density
RHOC.g/cc                     : CDL Density Correction
DPOR.pu                       : CDL Density Porosity
NPOR.pu                       : Neutron Porosity
GR.GAPI                       : Gamma Ray
~Parameter Information Block
~A  Depth       DCAL        RHOB        RHOC        DPOR        NPOR         GR     
# ...
   801.8000      7.9473      2.5760      0.0958      4.4876     18.4130    102.8853
   801.9000      7.9473      2.6035      0.1214      2.8194     18.3770    101.0100
   802.0000      7.9396      2.6138      0.1259      2.1944     18.4632     96.7038
   802.1000      7.9396      2.6032      0.0937      2.8389     18.5492     88.5367
   802.2000      7.9396      2.5898      0.0783      3.6491     18.6751     82.3751
   802.3000      7.9354      2.5917      0.0703      3.5309     18.7347     80.7095
   802.4000      7.9354      2.6054      0.0873      2.7049     18.6276     78.5353
   802.5000      7.9330      2.6138      0.0819      2.1935     18.6361     73.4830
   802.6000      7.9330      2.6096      0.0804      2.4498     18.7946     68.9950
   802.7000      7.9330      2.5996      0.0494      3.0550     18.7507     66.4179
   802.8000      7.9313      2.5891      0.0790      3.6925     18.3553     64.4917
   802.9000      7.9313      2.5791      0.0164      4.2979     17.8174     63.8929
   803.0000      7.9332      2.5711      0.0504      4.7822     17.1633     66.5162
   803.1000      7.9332      2.5608      0.0401      5.4062     16.4545     70.9924
   803.2000      7.9332      2.5494      0.0724      6.0943     16.1502     71.7768
   803.3000      7.9367      2.5486      0.0253      6.1450     16.4309     66.6866
   803.4000      7.9367      2.5663      0.0095      5.0711     16.8884     60.2361
   803.5000      7.9372      2.5925      0.0751      3.4835     17.1397     58.3067
   803.6000      7.9372      2.6058      0.0687      2.6804     16.9980     59.7650
   803.7000      7.9372      2.5947      0.0598      3.3486     16.5356     58.4581
   803.8000      7.9349      2.5713      0.0038      4.7722     16.2735     55.6230
   803.9000      7.9349      2.5565      0.0177      5.6695     16.4745     55.1114
   804.0000      7.9318      2.5485      0.0369      6.1545     16.7179     55.8019
   804.1000      7.9318      2.5369      0.0348      6.8572     16.7641     57.2937
   804.2000      7.9318      2.5355     -0.0268      6.9382     16.8078     60.6303
   804.3000      7.9283      2.5502      0.0428      6.0481     16.7741     64.7025
   804.4000      7.9283      2.5564      0.0510      5.6703     16.5978     66.4479
   804.5000      7.9211      2.5505      0.0159      6.0303     16.4239     63.8187
   804.6000      7.9211      2.5521      0.0284      5.9306     16.1210     58.7790
   804.7000      7.9211      2.5571      0.1041      5.6329     15.6212     54.4555
   804.8000      7.9125      2.5491      0.0559      6.1149     15.3548     53.0521
   804.9000      7.9125      2.5352      0.0458      6.9602     15.4332     56.0256
   805.0000      7.9105      2.5297      0.0466      7.2928     15.5898     62.0775
   805.1000      7.9105      2.5353      0.0467      6.9487     15.8349     67.6356
   805.2000      7.9105      2.5521      0.0609      5.9359     16.0863     71.3620
   805.3000      7.9117      2.5770      0.0891      4.4260     15.9624     73.4822
   805.4000      7.9117      2.5936      0.0999      3.4154     15.4054     72.9739
   805.5000      7.9138      2.5948      0.0485      3.3468     14.8103     69.0925
   805.6000      7.9138      2.5991      0.0383      3.0834     14.4893     63.6118
   805.7000      7.9138      2.6109      0.0816      2.3707     14.5708     59.2840
   805.8000      7.9180      2.6047      0.0786      2.7450     14.9606     56.5758
   805.9000      7.9180      2.5768      0.0018      4.4377     15.3144     53.8435
   806.0000      7.9192      2.5492      0.0184      6.1075     15.5508     52.5607
   806.1000      7.9192      2.5228      0.0324      7.7075     15.8709     54.8432
   806.2000      7.9192      2.4885     -0.0142      9.7870     16.1689     57.6002
   806.3000      7.9172      2.4527     -0.0295     11.9583     16.1561     56.2591
   806.4000      7.9172      2.4217     -0.0232     13.8388     16.0411     51.0618
   806.5000      7.9179      2.4046     -0.0893     14.8737     16.2534     46.4903
   806.6000      7.9179      2.4183     -0.0406     14.0394     16.6791     46.1403
   806.7000      7.9179      2.4539      0.0061     11.8841     16.7955     48.9256
   806.8000      7.9171      2.4808      0.0353     10.2571     16.6197     51.2447
   806.9000      7.9171      2.4871      0.0263      9.8699     16.5061     50.8039
   807.0000      7.9010      2.4799      0.0188     10.3076     16.4108     48.7296
   807.1000      7.9010      2.4697      0.0852     10.9246     16.3090     47.9315
   807.2000      7.9010      2.4721      0.0565     10.7828     16.4826     49.2302
   807.3000      7.8756      2.4950      0.1153      9.3915     17.1752     50.6834
   807.4000      7.8756      2.5227      0.1254      7.7144     17.9498     50.2340
   807.5000      7.8646      2.5442      0.1230      6.4149     18.1005     48.9821
   807.6000      7.8646      2.5643      0.1408      5.1918     17.6323     49.9712
   807.7000      7.8646      2.5758      0.1134      4.4944     17.2034     54.3969
   807.8000      7.8725      2.5650      0.0961      5.1530     17.1642     60.3218
   807.9000      7.8725      2.5382      0.0724      6.7785     17.4021     62.4325
   808.0000      7.8844      2.5205      0.0604      7.8460     17.7046     59.5651
   808.1000      7.8844      2.5246      0.0885      7.6026     17.8537     59.4682
   808.2000      7.8844      2.5344      0.0677      7.0072     17.9445     65.4000
   808.3000      7.9024      2.5369      0.0644      6.8572     18.1887     72.0467
   808.4000      7.9024      2.5442      0.0640      6.4122     18.3747     78.4662
   808.5000      7.9320      2.5659      0.0886      5.0981     18.2593     86.5989
   808.6000      7.9320      2.5895      0.0678      3.6661     18.2166     93.6719
   808.7000      7.9320      2.6000      0.1296      3.0287     18.5738     98.0963
   808.8000      7.9524      2.5969      0.0842      3.2194     19.2388    100.5972
   808.9000      7.9524      2.5952      0.0770      3.3239     19.9236     99.9075
   809.0000      7.9583      2.6014      0.1080      2.9448     20.1892     95.7481
   809.1000      7.9583      2.6031      0.0796      2.8433     20.0684     92.9466
   809.2000      7.9583      2.5902      0.0568      3.6214     19.9926     95.2569
   809.3000      7.9589      2.5657      0.0557      5.1064     19.9992     99.9326
   809.4000      7.9589      2.5431     -0.0010      6.4763     19.9056    104.1281
   809.5000      7.9594      2.5352      0.0374      6.9561     19.7499    108.2358
   809.6000      7.9594      2.5429     -0.0052      6.4899     19.5288    112.4992
   809.7000      7.9594      2.5538      0.0365      5.8274     19.2887    114.7385
   809.8000      7.9614      2.5480      0.0509      6.1814     19.2273    112.0833
   809.9000      7.9614      2.5340     -0.0350      7.0325     19.3466    103.8572
   810.0000      7.9641      2.5397      0.0161      6.6872     19.5914     94.6514
   810.1000      7.9641      2.5583      0.0647      5.5576     20.0004     89.9315
   810.2000      7.9641      2.5661      0.0631      5.0874     20.4613     88.0164
   810.3000      7.9652      2.5624     -0.0012      5.3097     21.0298     84.4617
   810.4000      7.9652      2.5556      0.0198      5.7193     21.7287     80.8390
   810.5000      7.9648      2.5436      0.0243      6.4498     22.1047     80.8321
   810.6000      7.9648      2.5277      0.0210      7.4105     21.9464     82.5558
   810.7000      7.9648      2.5262     -0.0127      7.5033     21.6323     84.6124
   810.8000      7.9644      2.5457      0.0754      6.3229     21.5289     89.0781
   810.9000      7.9644      2.5620      0.0574      5.3350     21.6055     94.2422
   811.0000      7.9657      2.5617      0.0223      5.3510     21.6792     95.5828
   811.1000      7.9657      2.5555      0.0690      5.7273     21.6689     94.5502
   811.2000      7.9657      2.5530      0.0215      5.8785     21.6775     95.4346
   811.3000      7.9686      2.5545      0.0637      5.7898     21.7043     98.1350
