~Version Information
VERS.                      2.0: CWLS Log ASCII Standard - VERSION 2.0
WRAP.                       NO: One line per depth step
~Well Information Block
STRT.FT                -7.5000: 
STOP.FT              1517.5000: 
STEP.FT                 0.2500: 
NULL.                -999.2500: 
COMP.          Pioneer Natural Resources: COMPANY
WELL.          McClaren 13-34 Tr: WELL
FLD.           Purgatorie River: FIELD
LOC.           1934' FSL & 826' WL--: LOCATION
PROV.                       CO: PROVINCE
CNTY.               Las Animas: COUNTRY
SRVC.          Patterson Wireline: SERVICE COMPANY
DATE.          Fri Jul 15 13:10:35 2005: LOG DATE
UWI.           05 071 08437 00: UNIQUE WELL ID
~Curve Information Block
DEPT.FT            0 000 00 00: Depth
CCL.                          : Casing Collar Locator
TT3.usec                      : CBL 3' Travel Time
AMP3.mV                       : CBL 3' Amplitude
GR.GAPI                       : Gamma Ray
~Parameter Information Block
~A  Depth       CCL         TT3         AMP3         GR     
# ...
  1500.0000      0.0000    773.1328     10.0407     77.8786
  1500.2500      0.0000    772.0066      9.6859     80.9342
  1500.5000      0.0000    770.7825      9.2895     84.6568
  1500.7500      0.0000    769.3347      9.0084     89.3075
  1501.0000      0.0000    765.8792      8.9573     94.7619
  1501.2500      0.0000    758.4699      9.1532    100.7876
  1501.5000      0.0000    747.0059      9.5188    107.3043
  1501.7500      0.0000    733.2761      9.9326    113.9174
  1502.0000      0.0000    718.4467     10.2821    119.3775
  1502.2500      0.0000    700.0584     10.4882    122.1144
  1502.5000      0.0000    671.7376     10.5116    121.4804
  1502.7500      0.0000    627.6324     10.3550    118.1421
  1503.0000      0.0000    569.4611     10.0654    112.8737
  1503.2500      0.0000    509.4378      9.7298    104.9286
  1503.5000      0.0000    464.9456      9.4584     92.0688
  1503.7500      0.0000    449.1903      9.3469     73.0465
  1504.0000      0.0000    464.5755      9.4296     50.2451
  1504.2500      0.0000    500.7798      9.6628     28.9806
  1504.5000      0.0000    538.7299      9.9559     13.6897
  1504.7500      0.0000    562.1061     10.2255      5.2125
  1505.0000      0.0000    569.6158     10.4275      1.5829
  1505.2500      0.0000    574.8937     10.5505      0.3801
  1505.5000      0.0000    592.6442     10.5920      0.0714
  1505.7500      0.0000    625.6300     10.5458      0.0098
  1506.0000      0.0000    664.3986     10.4065      0.0000
  1506.2500      0.0000    696.1881     10.1804   -999.2500
  1506.5000      0.0000    712.6586      9.8904   -999.2500
  1506.7500      0.0000    711.1318      9.5719   -999.2500
  1507.0000      0.0000    691.3987      9.2648   -999.2500
  1507.2500      0.0000    653.7737      9.0074   -999.2500
  1507.5000      0.0000    601.8750      8.8352   -999.2500
  1507.7500      0.0000    546.5404      8.7778   -999.2500
  1508.0000      0.0000    503.5108      8.8400   -999.2500
  1508.2500      0.0000    483.3950      8.9677   -999.2500
  1508.5000      0.0000    480.9156      9.0115   -999.2500
  1508.7500      0.0000    473.2292      8.7286   -999.2500
  1509.0000      0.0000    432.9555      7.8836   -999.2500
  1509.2500      0.0000    349.5068      6.4429   -999.2500
  1509.5000      0.0000    239.9577      4.6921   -999.2500
  1509.7500      0.0000    136.6931      3.0917   -999.2500
  1510.0000      0.0000     63.5244      1.9704   -999.2500
  1510.2500      0.0000     23.7946      1.3636   -999.2500
  1510.5000      0.0000      7.1206      1.1089   -999.2500
  1510.7500      0.0000      1.6898      1.0258   -999.2500
  1511.0000      0.0000      0.3128      1.0048   -999.2500
  1511.2500      0.0000      0.0416      1.0006   -999.2500
  1511.5000      0.0000   -999.2500   -999.2500   -999.2500
  1511.7500      0.0000   -999.2500   -999.2500   -999.2500
  1512.0000      0.0000   -999.2500   -999.2500   -999.2500
  1512.2500      0.0000   -999.2500   -999.2500   -999.2500
  1512.5000      0.0000   -999.2500   -999.2500   -999.2500
  1512.7500      0.0000   -999.2500   -999.2500   -999.2500
  1513.0000      0.0000   -999.2500   -999.2500   -999.2500
  1513.2500      0.0000   -999.2500   -999.2500   -999.2500
  1513.5000      0.0000   -999.2500   -999.2500   -999.2500
  1513.7500      0.0000   -999.2500   -999.2500   -999.2500
  1514.0000      0.0000   -999.2500   -999.2500   -999.2500
  1514.2500      0.0000   -999.2500   -999.2500   -999.2500
  1514.5000      0.0000   -999.2500   -999.2500   -999.2500
  1514.7500      0.0000   -999.2500   -999.2500   -999.2500
  1515.0000      0.0000   -999.2500   -999.2500   -999.2500
  1515.2500      0.0000   -999.2500   -999.2500   -999.2500
  1515.5000      0.0000   -999.2500   -999.2500   -999.2500
  1515.7500      0.0000   -999.2500   -999.2500   -999.2500
  1516.0000      0.0000   -999.2500   -999.2500   -999.2500
  1516.2500      0.0000   -999.2500   -999.2500   -999.2500
  1516.5000      0.0000   -999.2500   -999.2500   -999.2500
  1516.7500      0.0000   -999.2500   -999.2500   -999.2500
  1517.0000   -999.2500   -999.2500   -999.2500   -999.2500
  1517.2500   -999.2500   -999.2500   -999.2500   -999.2500
  1517.5000   -999.2500   -999.2500   -999.2500   -999.2500
