~Version Information
 VERS.                                  2.0 : CWLS LAS VERSION
 WRAP.                                   NO : WRAPING MODE
 SWARE .                  MController 2.6.3 : SOFTWARE VERSION
~Well Information
 WELL.                          Lucky 21-36 : WELL
 COMP.    Pioneer Natural Resources USA Inc : COMPANY
 FLD.                      Purgatoire River : FIELD
 LOC.                NE/NW Sec 36 T32S R65W : LOCATION
 DATE.                           07/07/2008 : DATE(S) LOGGED
 SRVC.        Ismay Geological Services Ltd : SERVICE COMPANY
 STAT.                                   CO : STATE
 CNTY.                           Las Animas : COUNTY
 CTRY.                                  USA : COUNTRY
 API.                       05-071-08456-00 : API NUMBER
 STRT.FT                             441.00 : START DEPTH
 STOP.FT                            1450.00 : STOP DEPTH
 STEP.FT                               1.00 : DEPTH INCREMENT
 NULL.                                -9999 : NULL VALUE
~Curve information
 DEPTH.FT                                   :
 ROP.MIN/FT                                 :
 GAS.UNITS                                  :
~ASCII Log data
# ...
     1041.00         1.88          8.6 
     1042.00         0.27          7.9 
     1043.00         0.27          7.2 
     1044.00         0.23          8.1 
     1045.00         0.20          7.9 
     1046.00         0.20          7.4 
     1047.00         0.13          7.6 
     1048.00         0.17          6.9 
     1049.00         0.13          7.8 
     1050.00         0.13          8.0 
     1051.00         0.17          6.9 
     1052.00         0.18          8.3 
     1053.00         0.17          8.3 
     1054.00         0.13          8.3 
     1055.00         0.17          7.6 
     1056.00         0.17          8.4 
     1057.00         0.13          8.0 
     1058.00         0.17          7.8 
     1059.00         0.17          7.6 
     1060.00         0.17          8.0 
     1061.00         0.17          7.7 
     1062.00         0.17          7.7 
     1063.00         0.17          8.3 
     1064.00         0.17          8.3 
     1065.00         0.20          7.6 
     1066.00         0.20          8.1 
     1067.00         0.20          8.1 
     1068.00         0.20          7.9 
     1069.00         0.17          6.9 
     1070.00         0.13          8.1 
     1071.00         1.72          9.3 
     1072.00         0.47          9.4 
     1073.00         0.30          9.4 
     1074.00         0.30          8.9 
     1075.00         0.30          9.1 
     1076.00         0.30          9.2 
     1077.00         0.28          8.9 
     1078.00         0.27          9.2 
     1079.00         0.23          8.7 
     1080.00         0.23          8.4 
     1081.00         0.33         10.0 
     1082.00         0.27         10.4 
     1083.00         0.30         11.4 
     1084.00         0.27         12.1 
     1085.00         0.23         12.8 
     1086.00         0.23         12.8 
     1087.00         0.23         13.1 
     1088.00         0.20         13.4 
     1089.00         0.23         13.9 
     1090.00         0.20         14.4 
     1091.00         0.18         14.8 
     1092.00         0.23         14.6 
     1093.00         0.20         15.2 
     1094.00         0.20         14.8 
     1095.00         0.23         13.8 
     1096.00         0.23         12.8 
     1097.00         0.20         12.4 
     1098.00         0.20         12.5 
     1099.00         0.23         13.1 
     1100.00         0.23         13.1 
     1101.00         2.15         23.8 
     1102.00         0.23         22.5 
     1103.00         0.20         21.6 
     1104.00         0.17         20.8 
     1105.00         0.23         21.8 
     1106.00         0.20         23.7 
     1107.00         0.23         22.5 
     1108.00         0.27         22.3 
     1109.00         0.27         21.4 
     1110.00         0.27         21.1 
     1111.00         0.30         21.5 
     1112.00         0.28         20.7 
     1113.00         0.27         21.1 
     1114.00         0.27         20.7 
     1115.00         0.27         20.8 
     1116.00         0.30         21.4 
     1117.00         0.27         21.7 
     1118.00         0.30         21.6 
     1119.00         0.30         21.2 
     1120.00         0.30         21.1 
     1121.00         0.30         20.6 
     1122.00         0.30         20.8 
     1123.00         0.35         20.3 
     1124.00         0.30         19.9 
     1125.00         0.30         19.7 
     1126.00         0.27         20.4 
     1127.00         0.30         18.2 
     1128.00         0.33         16.1 
     1129.00         0.27         16.5 
     1130.00         0.33         16.9 
     1131.00         0.20         17.2 
     1132.00         2.35         31.5 
     1133.00         0.27         27.4 
     1134.00         0.27         29.7 
     1135.00         0.27         30.3 
     1136.00         0.27         31.6 
     1137.00         0.27         32.4 
     1138.00         0.23         31.8 
     1139.00         0.20         31.2 
     1140.00         0.25         31.5 
     1141.00         0.23         31.0 
     1142.00         0.27         30.4 
     1143.00         0.27         29.7 
     1144.00         0.33         31.0 
     1145.00         0.33         33.1 
     1146.00         0.30         35.4 
     1147.00         0.30         35.8 
     1148.00         0.33         38.0 
     1149.00         0.33         38.2 
     1150.00         0.30         39.8 
     1151.00         0.35         42.4 
     1152.00         0.30         43.2 
     1153.00         0.33         42.1 
     1154.00         0.27         41.0 
     1155.00         0.30         40.9 
     1156.00         0.27         40.2 
     1157.00         0.27         35.9 
     1158.00         0.30         30.6 
     1159.00         0.33         30.4 
     1160.00         0.33         31.7 
     1161.00         1.75         98.5 
     1162.00         0.43         79.3 
     1163.00         0.37         59.8 
     1164.00         0.33         55.5 
     1165.00         0.27         55.5 
     1166.00         0.27         53.2 
     1167.00         0.27         48.1 
     1168.00         0.32         44.8 
     1169.00         0.27         42.8 
     1170.00         0.30         42.6 
     1171.00         0.23         41.7 
     1172.00         0.27         43.3 
     1173.00         0.23         42.6 
     1174.00         0.23         43.5 
     1175.00         0.27         42.5 
     1176.00         0.27         42.7 
     1177.00         0.37         42.5 
     1178.00         0.40         39.6 
     1179.00         0.33         40.0 
     1180.00         0.35         47.8 
     1181.00         0.23         49.1 
     1182.00         0.27         54.2 
     1183.00         0.23         53.2 
     1184.00         0.20         47.0 
     1185.00         0.17         46.2 
     1186.00         0.20         34.2 
     1187.00         0.20         27.2 
     1188.00         0.20         27.8 
     1189.00         0.20         30.8 
     1190.00         0.27         32.9 
     1191.00         1.68         89.0 
     1192.00         0.43         86.9 
     1193.00         0.43         73.5 
     1194.00         0.33         57.7 
     1195.00         0.30         58.6 
     1196.00         0.33         58.6 
     1197.00         0.30         55.3 
     1198.00         0.33         51.3 
     1199.00         0.35         46.9 
     1200.00         0.37         42.4 
     1201.00         0.30         40.5 
     1202.00         0.37         37.5 
     1203.00         0.30         37.2 
     1204.00         0.30         37.5 
     1205.00         0.27         38.0 
     1206.00         0.23         38.0 
     1207.00         0.23         38.4 
     1208.00         0.20         38.2 
     1209.00         0.20         39.5 
     1210.00         0.23         40.6 
     1211.00         0.22         41.1 
     1212.00         0.20         39.8 
     1213.00         0.20         39.7 
     1214.00         0.20         40.4 
     1215.00         0.23         39.3 
     1216.00         0.27         35.9 
     1217.00         0.20         31.0 
     1218.00         0.20         29.3 
     1219.00         0.23         29.6 
     1220.00         0.23         31.3 
     1221.00         2.45        106.7 
     1222.00         0.30         63.1 
     1223.00         0.37         53.8 
     1224.00         0.33         54.1 
     1225.00         0.30         53.9 
     1226.00         0.27         50.9 
     1227.00         0.20         47.9 
     1228.00         0.27         46.3 
     1229.00         0.28         46.1 
     1230.00         0.27         45.5 
     1231.00         0.27         44.5 
     1232.00         0.30         43.1 
     1233.00         0.30         42.6 
     1234.00         0.30         43.4 
     1235.00         0.30         42.6 
     1236.00         0.30         42.1 
     1237.00         0.33         43.2 
     1238.00         0.30         47.6 
     1239.00         0.37         53.0 
     1240.00         0.32         52.9 
