~Version Information
VERS.                      2.0: CWLS Log ASCII Standard - VERSION 2.0
WRAP.                       NO: One line per depth step
~Well Information Block
STRT.FT               770.0000: 
STOP.FT              2171.0000: 
STEP.FT                 0.1000: 
NULL.                -999.2500: 
COMP.          Pioneer Natural Resources: COMPANY
WELL.              Kermit 32-7: WELL
FLD.           Purgatoire River: FIELD
LOC.           2002' FNL & 2103' FEL: LOCATION
PROV.                 Colorado: PROVINCE
CNTY.               Las Animas: COUNTRY
SRVC.                Patterson: SERVICE COMPANY
DATE.          Thu Jan 12 03:02:28 2006: LOG DATE
UWI.           05 071 08647 00: UNIQUE WELL ID
~Curve Information Block
DEPT.FT            0 000 00 00: Depth
DCAL.in                       : CDL Caliper
RHOB.g/cc                     : CDL Bulk Density
RHOC.g/cc                     : CDL Density Correction
DPOR.pu                       : CDL Density Porosity
GR.GAPI                       : Gamma Ray
NPOR.pu                       : Neutron Porosity
~Parameter Information Block
~A  Depth       DCAL        RHOB        RHOC        DPOR         GR         NPOR    
# ...
   952.4000      7.9559      2.7291      0.1563     -4.7915    112.2938     27.8491
   952.5000      7.9261      2.6686      0.0740     -1.1272    115.9445     27.3808
   952.6000      7.9261      2.6185      0.0442      1.9108    119.0500     27.2656
   952.7000      7.9261      2.5851      0.0438      3.9304    117.2780     26.9789
   952.8000      7.9442      2.5566     -0.0246      5.6596    110.0529     26.5770
   952.9000      7.9442      2.5294      0.0338      7.3079    103.4149     26.3409
   953.0000      8.0084      2.5129     -0.0376      8.3101    103.1254     26.1236
   953.1000      8.0084      2.5149      0.0293      8.1871    109.1106     25.6615
   953.2000      8.0084      2.5008      0.2004      9.0409    118.0858     25.0506
   953.3000      8.0135      2.4315      0.1394     13.2444    127.3632     24.7164
   953.4000      8.0135      2.3343      0.0825     19.1324    131.8215     24.7705
   953.5000      8.0212      2.2641      0.0059     23.3849    127.2221     24.9597
   953.6000      8.0212      2.2399      0.0546     24.8531    120.8700     25.1690
   953.7000      8.0212      2.2447      0.0367     24.5656    123.0377     25.1786
   953.8000      8.0286      2.2560      0.0631     23.8761    132.4024     25.0298
   953.9000      8.0286      2.2628      0.1471     23.4648    139.5667     25.0296
   954.0000      8.0115      2.2740      0.1492     22.7896    141.2104     25.2966
   954.1000      8.0115      2.3054      0.2170     20.8836    141.4499     25.8994
   954.2000      8.0115      2.3478      0.3079     18.3141    137.8542     26.7823
   954.3000      8.0089      2.3770      0.2825     16.5430    130.1427     27.9515
   954.4000      8.0089      2.3852      0.2319     16.0484    129.3315     29.1803
   954.5000      8.0647      2.3813      0.1334     16.2832    138.1337     29.8434
   954.6000      8.0647      2.3843      0.0665     16.1005    142.5083     29.9579
   954.7000      8.0647      2.4096      0.0597     14.5703    135.3279     30.2504
   954.8000      8.0424      2.4490      0.1459     12.1844    125.9237     30.9060
   954.9000      8.0424      2.4811      0.1544     10.2379    121.7627     31.5694
   955.0000      7.9932      2.5027      0.1289      8.9296    122.5633     31.7939
   955.1000      7.9932      2.5302      0.0909      7.2636    125.9616     31.2690
   955.2000      7.9932      2.5666      0.1383      5.0545    127.1114     30.5710
   955.3000      8.0039      2.5943      0.1595      3.3762    125.3422     30.3434
   955.4000      8.0039      2.6092      0.1221      2.4742    124.2530     30.4090
   955.5000      8.0002      2.6205      0.0957      1.7878    122.8285     30.2504
   955.6000      8.0002      2.6279      0.0835      1.3395    120.4428     29.6703
   955.7000      8.0002      2.6251      0.1153      1.5066    119.5675     28.8375
   955.8000      7.9301      2.6139      0.0394      2.1870    121.6567     27.9076
   955.9000      7.9301      2.6070      0.0444      2.6055    125.9618     27.2199
   956.0000      7.9218      2.6036      0.0938      2.8100    130.9955     27.0591
   956.1000      7.9218      2.5839      0.1216      4.0036    135.1694     26.7636
   956.2000      7.9218      2.5467      0.0556      6.2604    136.9452     25.9187
   956.3000      7.9149      2.5091      0.0239      8.5383    136.1658     25.2059
   956.4000      7.9149      2.4747      0.0510     10.6258    135.7293     25.1245
   956.5000      7.9155      2.4481     -0.0139     12.2340    139.7525     25.5267
   956.6000      7.9155      2.4382      0.0854     12.8372    144.7996     26.2575
   956.7000      7.9155      2.4337      0.0315     13.1065    143.6568     27.1905
   956.8000      7.9356      2.4314      0.0312     13.2455    135.7584     28.0180
   956.9000      7.9356      2.4420      0.0393     12.6039    127.0894     28.2829
   957.0000      7.9629      2.4599      0.0700     11.5208    119.7484     27.9402
   957.1000      7.9629      2.4767      0.0689     10.5043    114.8136     27.5564
   957.2000      7.9629      2.4984      0.1252      9.1874    117.0322     27.4814
   957.3000      8.0327      2.5168      0.1868      8.0713    124.3938     27.6864
   957.4000      8.0327      2.5161      0.1554      8.1175    132.5757     28.2090
   957.5000      8.0429      2.5073      0.1365      8.6486    139.8782     28.9251
   957.6000      8.0429      2.5084      0.1530      8.5795    144.1439     29.6402
   957.7000      8.0429      2.5223      0.0644      7.7390    144.2983     29.9801
   957.8000      8.0862      2.5489      0.0789      6.1277    141.6095     29.6325
   957.9000      8.0862      2.5788      0.0836      4.3169    137.1186     29.1880
   958.0000      8.0315      2.5955      0.0662      3.3044    132.4238     29.2522
   958.1000      8.0315      2.5975      0.0590      3.1804    130.6943     29.5532
   958.2000      8.0315      2.5841      0.0982      3.9957    133.7566     29.8010
   958.3000      8.0371      2.5479      0.0861      6.1906    139.7667     30.0623
   958.4000      8.0371      2.5060     -0.0247      8.7244    147.0854     30.3811
   958.5000      8.0356      2.4870      0.0032      9.8812    155.2612     30.7426
   958.6000      8.0356      2.4943     -0.0360      9.4388    162.9539     30.9711
   958.7000      8.0356      2.5173      0.0141      8.0419    166.9249     30.8462
   958.8000      8.0309      2.5367      0.0683      6.8673    166.8198     30.7293
   958.9000      8.0309      2.5326      0.0623      7.1146    163.3033     30.9772
   959.0000      8.0251      2.5114      0.0092      8.3981    152.6894     31.4379
   959.1000      8.0251      2.4995      0.0213      9.1213    137.4434     31.7222
   959.2000      8.0251      2.5123      0.0153      8.3428    127.5061     31.6251
   959.3000      8.0491      2.5378      0.0738      6.7981    125.9470     31.0554
   959.4000      8.0491      2.5566      0.0899      5.6619    127.4684     30.0603
   959.5000      8.0465      2.5847      0.0167      3.9550    128.1748     29.2014
   959.6000      8.0465      2.6535      0.1091     -0.2146    129.8337     28.8222
   959.7000      8.0465      2.7443      0.2901     -5.7135    133.1782     28.5612
   959.8000      8.0334      2.8057      0.3156     -9.4343    131.1716     28.0474
   959.9000      8.0334      2.8165      0.3334    -10.0929    122.9557     27.4242
   960.0000      7.9179      2.7877      0.3488     -8.3428    119.9719     27.0282
   960.1000      7.9179      2.7312      0.2879     -4.9184    124.4237     26.9752
   960.2000      7.9179      2.6519      0.2252     -0.1148    126.8709     27.0276
   960.3000      7.9023      2.5731      0.1104      4.6614    123.3025     26.9207
   960.4000      7.9023      2.5408      0.0420      6.6171    118.1876     27.1620
   960.5000      7.9166      2.5677      0.1417      4.9881    116.9235     28.1284
   960.6000      7.9166      2.6170      0.1717      2.0010    121.1621     28.9532
   960.7000      7.9166      2.6493      0.2130      0.0421    128.8956     28.9279
   960.8000      7.9999      2.6466      0.1825      0.2057    133.5327     28.5900
   960.9000      7.9999      2.6158      0.1674      2.0701    133.3039     28.5770
   961.0000      8.0298      2.5819      0.1062      4.1247    137.3985     28.7744
   961.1000      8.0298      2.5572      0.1470      5.6225    146.5424     28.9003
   961.2000      8.0298      2.5366      0.0586      6.8746    151.8323     28.7520
   961.3000      8.0464      2.5261      0.0798      7.5061    151.7600     28.3637
   961.4000      8.0464      2.5310      0.0949      7.2105    150.3839     28.1752
   961.5000      8.0372      2.5451      0.0820      6.3577    150.9178     28.4715
   961.6000      8.0372      2.5653      0.0941      5.1336    152.8957     28.8793
   961.7000      8.0372      2.5884      0.0396      3.7325    154.4819     29.0146
   961.8000      8.0369      2.6046      0.0947      2.7526    154.9038     28.9182
   961.9000      8.0369      2.6103      0.0652      2.4053    157.6428     28.8953
