~Version Information
VERS.                      2.0: CWLS Log ASCII Standard - VERSION 2.0
WRAP.                       NO: One line per depth step
~Well Information Block
STRT.FT                -5.2500: 
STOP.FT              1184.2500: 
STEP.FT                 0.2500: 
NULL.                -999.2500: 
COMP.          Pioneer Natural Resources: COMPANY
WELL.          Lucky Lady 42-29: WELL
FLD.           Purgatoire River: FIELD
LOC.           2482' FNL & 662' FEL: LOCATION
CNTY.               Las Animas: COUNTY
SRVC.                         : SERVICE COMPANY
DATE.          Tue Mar 14 14:47:22 2006: LOG DATE
UWI.           05 071 08659 00: UNIQUE WELL ID
STAT.                       CO: STATE
~Curve Information Block
DEPT.FT            0 000 00 00: Depth
GR.GAPI                       : Gamma Ray
CCL.                          : Casing Collar Locator
TT3.usec                      : CBL 3' Travel Time
AMP3.mV                       : CBL 3' Amplitude
~Parameter Information Block
~A  Depth        GR         CCL         TT3         AMP3    
# ...
   396.7500     63.8775      0.0000    770.5350      9.9399
   397.0000     64.5443      0.0000    770.0497      9.9904
   397.2500     65.4932      0.0000    769.7512     10.0603
   397.5000     65.9435      0.0000    769.6003     10.1037
   397.7500     65.2469      0.0000    769.3690     10.0671
   398.0000     63.4973      0.0000    768.6447      9.9439
   398.2500     61.5891      0.0000    766.9993      9.7799
   398.5000     60.6898      0.0000    764.4404      9.6274
   398.7500     61.4879      0.0000    761.7648      9.5122
   399.0000     63.6971      0.0000    760.0536      9.4427
   399.2500     66.1888      0.0000    759.4044      9.4269
   399.5000     67.7786      0.0000    758.5068      9.4660
   399.7500     68.1440      0.0000    756.1318      9.5407
   400.0000     67.9924      0.0000    752.9830      9.6149
   400.2500     68.1560      0.0000    751.3193      9.6592
   400.5000     68.6093      0.0000    752.3636      9.6717
   400.7500     68.5678      0.0000    754.5031      9.6734
   401.0000     67.4647      0.0000    754.4451      9.6842
   401.2500     65.6226      0.0000    750.1868      9.7037
   401.5000     64.0734      0.0000    743.0724      9.7139
   401.7500     63.8510      0.0000    737.0471      9.6967
   402.0000     65.2131      0.0000    735.1689      9.6336
   402.2500     67.3324      0.0000    736.4633      9.4839
   402.5000     69.0169      0.0000    737.0592      9.1913
   402.7500     69.9400      0.0000    735.0215      8.7496
   403.0000     70.8839      0.0000    733.3300      8.2532
   403.2500     72.6140      0.0000    736.8454      7.8443
   403.5000     74.8536      0.0000    746.2109      7.6065
   403.7500     76.6088      0.0000    755.6286      7.5318
   404.0000     77.1681      0.0000    757.4846      7.5681
   404.2500     76.4454      0.0000    749.1837      7.6570
   404.5000     74.6522      0.0000    735.5541      7.7448
   404.7500     72.1524      2.0000    725.3041      7.7970
   405.0000     69.5364      1.2912    724.9722      7.8082
   405.2500     67.4383      0.0000    734.7410      7.8014
   405.5000     66.2862      0.0000    748.9764      7.8303
   405.7500     66.3130      0.0000    760.9139      7.9641
   406.0000     67.4340      0.0000    767.2053      8.2286
   406.2500     68.9096      0.0000    768.4976      8.5658
   406.5000     69.5609      0.0000    766.5657      8.8812
   406.7500     68.6659      0.0000    761.6664      9.1195
   407.0000     66.4638      0.0000    752.6965      9.2765
   407.2500     63.7326      0.0000    739.4175      9.3635
   407.5000     61.1701      0.0000    724.0652      9.3882
   407.7500     59.2407      0.0000    710.4133      9.3594
   408.0000     58.2920      0.0000    701.3635      9.2938
   408.2500     58.4600      0.0000    697.6985      9.2089
   408.5000     59.3871      0.0000    698.6525      9.1112
   408.7500     60.3385      0.0000    702.6568      8.9959
   409.0000     60.9260      0.0000    707.4916      8.8633
   409.2500     61.6609      0.0000    711.1295      8.7297
   409.5000     63.4617      0.0000    713.4780      8.6177
   409.7500     66.5651      0.0000    716.5189      8.5422
   410.0000     70.0478      0.0000    721.6464      8.5073
   410.2500     72.4356      0.0000    727.7599      8.5063
   410.5000     72.8024      0.0000    733.3821      8.5224
   410.7500     71.4249      0.0000    739.7878      8.5342
   411.0000     69.4180      0.0000    749.9642      8.5304
   411.2500     67.6562      0.0000    764.5724      8.5190
   411.5000     66.0821      0.0000    780.6353      8.5183
   411.7500     64.1790      0.0000    794.2554      8.5385
   412.0000     61.9691      0.0000    803.3773      8.5737
   412.2500     60.1798      0.0000    808.0380      8.6099
   412.5000     59.4145      0.0000    809.0834      8.6381
   412.7500     59.5178      0.0000    807.0637      8.6584
   413.0000     59.8922      0.0000    802.0855      8.6776
   413.2500     60.2098      0.0000    794.5634      8.7053
   413.5000     60.5979      0.0000    785.9227      8.7539
   413.7500     61.1067      0.0000    778.2075      8.8368
   414.0000     61.2132      0.0000    772.8489      8.9588
   414.2500     60.2558      0.0000    769.9648      9.1069
   414.5000     58.4003      0.0000    768.7820      9.2547
   414.7500     56.7849      0.0000    768.4555      9.3832
   415.0000     56.6010      0.0000    768.4470      9.4970
   415.2500     58.2470      0.0000    768.4633      9.6120
   415.5000     61.2416      0.0000    768.3483      9.7258
   415.7500     64.5686      0.0000    768.0641      9.8094
   416.0000     67.1930      0.0000    767.6612      9.8310
   416.2500     68.6875      0.0000    767.1584      9.7840
   416.5000     69.3881      0.0000    766.3800      9.6883
   416.7500     69.7670      0.0000    764.8354      9.5753
   417.0000     69.8220      0.0000    761.9157      9.4753
   417.2500     69.2202      0.0000    757.6465      9.4141
   417.5000     67.7336      0.0000    753.4320      9.4110
   417.7500     65.3451      0.0000    751.4769      9.4736
   418.0000     62.2817      0.0000    752.7963      9.5910
   418.2500     59.2230      0.0000    755.9261      9.7297
   418.5000     57.1615      0.0000    757.8841      9.8443
   418.7500     56.7172      0.0000    756.1326      9.9064
   419.0000     57.6659      0.0000    749.8542      9.9266
   419.2500     59.1891      0.0000    740.3368      9.9396
   419.5000     60.4164      0.0000    730.3465      9.9749
   419.7500     60.8309      0.0000    722.3441     10.0450
   420.0000     60.5786      0.0000    717.2988     10.1515
   420.2500     60.3831      0.0000    715.7263     10.2825
   420.5000     60.7154      0.0000    718.9213     10.4043
   420.7500     61.0893      0.0000    727.6221     10.4750
   421.0000     60.6801      0.0000    739.8677     10.4787
   421.2500     59.6247      0.0000    751.6543     10.4405
   421.5000     59.1400      0.0000    759.8817     10.3991
   421.7500     60.2029      0.0000    763.9689     10.3696
   422.0000     62.5622      0.0000    764.8241     10.3409
   422.2500     65.2819      0.0000    763.1754     10.3027
   422.5000     68.0224      0.0000    759.2610     10.2661
   422.7500     71.6219      0.0000    753.6659     10.2543
   423.0000     77.5433      0.0000    747.7089     10.2771
   423.2500     86.9003      0.0000    742.5525     10.3203
   423.5000     99.7474      0.0000    738.2859     10.3573
   423.7500    114.7803      0.0000    734.4008     10.3697
   424.0000    129.5608      0.0000    730.9075     10.3624
   424.2500    141.4773      0.0000    728.4786     10.3592
   424.5000    149.0511      0.0000    727.8419     10.3803
   424.7500    152.5244      0.0000    729.5010     10.4221
   425.0000    153.2485      0.0000    733.6164     10.4646
   425.2500    152.5595      0.0000    739.4190     10.4952
   425.5000    151.1240      0.0000    744.8682     10.5159
   425.7500    149.0123      0.0000    747.7289     10.5333
   426.0000    146.1706      0.0000    747.5707     10.5520
   426.2500    142.6309      0.0000    746.4820     10.5767
   426.5000    138.2855      0.0000    747.1355     10.6113
   426.7500    133.1020      0.0000    749.7786     10.6536
   427.0000    128.0480      0.0000    751.5421     10.6940
   427.2500    125.1811      0.0000    749.1862     10.7201
   427.5000    126.0770      0.0000    742.2465     10.7247
   427.7500    130.4465      0.0000    733.1937     10.7107
   428.0000    136.6560      0.0000    725.1013     10.6867
   428.2500    143.1530      0.0000    719.6905     10.6587
   428.5000    148.9579      0.0000    717.1384     10.6240
   428.7500    153.2879      0.0000    717.0552     10.5686
   429.0000    155.5818      0.0000    719.3034     10.4746
   429.2500    156.0600      0.0000    723.7302     10.3455
   429.5000    155.6238      0.0000    729.4987     10.2223
   429.7500    154.5707      0.0000    735.4607     10.1639
   430.0000    151.7897      0.0000    741.1368     10.2048
