~Version Information
VERS.                      2.0: CWLS Log ASCII Standard - VERSION 2.0
WRAP.                       NO: One line per depth step
~Well Information Block
STRT.FT               970.0000: 
STOP.FT              1881.0000: 
STEP.FT                 0.1000: 
NULL.                -999.2500: 
COMP.          Petrogulf Corporation: COMPANY
WELL.             Norton 9-14R: WELL
FLD.           Purgatorie River: FIELD
LOC.           725' FSL & 1103' FWL: LOCATION
PROV.                 Colorado: PROVINCE
CNTY.               Las Animas: COUNTRY
SRVC.                Patterson: SERVICE COMPANY
DATE.          Fri Oct 07 07:52:23 2005: LOG DATE
UWI.                          : UNIQUE WELL ID
~Curve Information Block
DEPT.FT            0 000 00 00: Depth
DCAL.in                       : CDL Caliper
RHOB.g/cc                     : CDL Bulk Density
RHOC.g/cc                     : CDL Density Correction
DPOR.pu                       : CDL Density Porosity
GR.GAPI                       : Gamma Ray
NPOR.pu                       : Neutron Porosity
~Parameter Information Block
~A  Depth       DCAL        RHOB        RHOC        DPOR         GR         NPOR    
# ...
  1747.6000      7.8926      2.5688      0.1162      4.9223     70.7580     18.7694
  1747.7000      7.8926      2.5410      0.0504      6.6055     67.7133     19.0181
  1747.8000      7.9005      2.5200      0.0210      7.8778     65.8521     19.3469
  1747.9000      7.9005      2.5187      0.0590      7.9572     63.9388     19.6506
  1748.0000      7.9036      2.5203      0.0332      7.8625     63.4655     19.8570
  1748.1000      7.9036      2.5206      0.0302      7.8453     64.8554     19.8203
  1748.2000      7.9036      2.5306      0.0839      7.2388     66.2440     19.4694
  1748.3000      7.9016      2.5476      0.0913      6.2070     66.5536     18.8368
  1748.4000      7.9016      2.5670      0.0790      5.0280     66.8956     18.0477
  1748.5000      7.8772      2.5908      0.0871      3.5901     67.2241     17.5183
  1748.6000      7.8772      2.6084      0.1076      2.5199     64.1866     17.4493
  1748.7000      7.8772      2.6036      0.1136      2.8120     58.2939     17.6040
  1748.8000      7.8681      2.5782      0.0899      4.3513     54.5571     17.8485
  1748.9000      7.8681      2.5473      0.0557      6.2213     54.2657     18.0979
  1749.0000      7.8581      2.5239      0.0391      7.6398     54.1964     18.4351
  1749.1000      7.8581      2.5161      0.0502      8.1138     53.1220     18.9697
  1749.2000      7.8581      2.5235      0.0743      7.6642     53.7612     19.2820
  1749.3000      7.8296      2.5380      0.0346      6.7876     56.3455     19.0556
  1749.4000      7.8296      2.5518      0.0235      5.9524     57.8563     18.5862
  1749.5000      7.8549      2.5576      0.0511      5.5999     57.4827     18.0793
  1749.6000      7.8549      2.5511      0.0439      5.9962     57.5613     17.5747
  1749.7000      7.8549      2.5409      0.0219      6.6116     58.6580     17.0910
  1749.8000      7.9011      2.5364      0.0244      6.8829     58.0567     16.5905
  1749.9000      7.9011      2.5355      0.0352      6.9420     55.8559     16.2302
  1750.0000      7.9124      2.5327      0.0559      7.1086     55.1288     16.1604
  1750.1000      7.9124      2.5263      0.0283      7.4956     56.3776     16.2325
  1750.2000      7.9124      2.5218      0.0206      7.7681     59.3521     16.2646
  1750.3000      7.9219      2.5236     -0.0061      7.6602     63.3973     16.1482
  1750.4000      7.9219      2.5332      0.0163      7.0765     65.1987     15.8530
  1750.5000      7.9140      2.5549      0.0690      5.7662     64.3256     15.5230
  1750.6000      7.9140      2.5746      0.1129      4.5671     63.8419     15.1934
  1750.7000      7.9140      2.5682      0.0919      4.9570     65.2828     14.9870
  1750.8000      7.9153      2.5434      0.0328      6.4629     67.3107     15.1240
  1750.9000      7.9153      2.5328      0.0520      7.1008     68.7325     15.2377
  1751.0000      7.8772      2.5459      0.0852      6.3108     68.7661     15.2571
  1751.1000      7.8772      2.5668      0.0525      5.0423     66.0336     15.9710
  1751.2000      7.8772      2.5808      0.1109      4.1909     63.2085     17.4850
  1751.3000      7.8892      2.5791      0.0663      4.2974     63.7072     18.9871
  1751.4000      7.8892      2.5698      0.0441      4.8583     65.5512     19.8642
  1751.5000      7.9086      2.5691      0.0832      4.9053     66.2109     19.9073
  1751.6000      7.9086      2.5754      0.0931      4.5194     65.3623     19.4056
  1751.7000      7.9086      2.5820      0.0451      4.1199     63.3188     19.0215
  1751.8000      7.9268      2.5851      0.0860      3.9362     62.0099     19.1248
  1751.9000      7.9268      2.5766      0.0362      4.4461     62.5872     19.4452
  1752.0000      7.9455      2.5589      0.0788      5.5204     63.2929     19.4615
  1752.1000      7.9455      2.5467      0.0306      6.2615     63.5950     19.0639
  1752.2000      7.9455      2.5438      0.1099      6.4342     64.2884     18.4228
  1752.3000      7.9203      2.5349      0.0806      6.9729     64.3870     17.7716
  1752.4000      7.9203      2.5164      0.0583      8.0980     63.4264     17.2583
  1752.5000      7.8603      2.5039      0.0263      8.8576     63.1305     16.9367
  1752.6000      7.8603      2.5056      0.0599      8.7515     64.1254     16.8425
  1752.7000      7.8603      2.5143      0.0457      8.2214     64.1659     16.8121
  1752.8000      7.8238      2.5193      0.0489      7.9207     62.8309     16.7811
  1752.9000      7.8238      2.5177      0.0378      8.0191     61.8134     16.9772
  1753.0000      7.8454      2.5136      0.0826      8.2673     61.6287     17.3673
  1753.1000      7.8454      2.5059      0.0675      8.7335     61.5120     17.7466
  1753.2000      7.8454      2.4976      0.0095      9.2386     60.7731     17.9127
  1753.3000      7.8383      2.4999      0.0252      9.0955     60.0092     17.7575
  1753.4000      7.8383      2.5131      0.0367      8.2952     60.3590     17.4764
  1753.5000      7.8503      2.5259      0.0575      7.5212     60.6709     17.2245
  1753.6000      7.8503      2.5289      0.0990      7.3404     58.6703     17.1343
  1753.7000      7.8503      2.5259      0.0579      7.5242     54.8459     17.2005
  1753.8000      7.8153      2.5293      0.0792      7.3133     51.8199     17.2222
  1753.9000      7.8153      2.5344      0.1246      7.0040     50.7114     17.2835
  1754.0000      7.7938      2.5293      0.0972      7.3176     50.6013     17.7452
  1754.1000      7.7938      2.5274      0.0540      7.4328     50.8936     18.7166
  1754.2000      7.7938      2.5506      0.0892      6.0248     51.2629     19.7972
  1754.3000      7.7962      2.5876      0.1184      3.7808     51.2450     20.4231
  1754.4000      7.7962      2.6024      0.1163      2.8826     50.5656     20.4419
  1754.5000      7.7885      2.5853      0.1169      3.9227     50.0025     19.8829
  1754.6000      7.7885      2.5649      0.0737      5.1590     51.3659     18.8088
  1754.7000      7.7885      2.5642      0.1004      5.2023     53.0405     17.7109
  1754.8000      7.8011      2.5729      0.1218      4.6704     52.0590     17.1726
  1754.9000      7.8011      2.5755      0.0913      4.5154     50.6023     17.2263
  1755.0000      7.8093      2.5694      0.1204      4.8878     51.1251     17.3223
  1755.1000      7.8093      2.5544      0.0758      5.7926     53.5743     17.0586
  1755.2000      7.8093      2.5362      0.0550      6.8958     55.8536     16.5456
  1755.3000      7.8264      2.5283     -0.0118      7.3777     54.9866     15.9729
  1755.4000      7.8264      2.5312      0.0631      7.2007     52.5838     15.5648
  1755.5000      7.8292      2.5297      0.0608      7.2890     51.8307     15.4597
  1755.6000      7.8292      2.5233      0.0084      7.6800     52.3507     15.5213
  1755.7000      7.8292      2.5209      0.0612      7.8258     53.6233     15.6488
  1755.8000      7.8339      2.5209      0.0634      7.8242     55.8350     15.7930
  1755.9000      7.8339      2.5265      0.0299      7.4877     56.4250     15.9364
  1756.0000      7.8403      2.5433      0.0471      6.4679     53.5543     16.2799
  1756.1000      7.8403      2.5595      0.0452      5.4820     49.6690     16.8848
  1756.2000      7.8403      2.5567      0.0560      5.6554     46.5905     17.4091
  1756.3000      7.8569      2.5329      0.0275      7.0964     44.6554     17.5703
  1756.4000      7.8569      2.5027      0.0164      8.9266     44.6294     17.4462
  1756.5000      7.8868      2.4852     -0.0017      9.9852     46.3608     17.1763
  1756.6000      7.8868      2.4915      0.0113      9.6069     48.6527     17.0784
  1756.7000      7.8868      2.5094      0.0650      8.5184     50.7120     17.2691
  1756.8000      7.9001      2.5220      0.0519      7.7556     52.0567     17.5227
  1756.9000      7.9001      2.5308      0.0386      7.2244     52.8103     17.8143
  1757.0000      7.8999      2.5397      0.0527      6.6866     52.2242     18.4008
  1757.1000      7.8999      2.5449      0.0672      6.3678     49.8977     19.3458
