~Version Information
 VERS.                                  2.0 : CWLS LAS VERSION
 WRAP.                                   NO : WRAPING MODE
 SWARE .                  MController 2.5.1 : SOFTWARE VERSION
~Well Information
 WELL.                   Touchstone 11-32Tr : WELL
 COMP.  Pioneer Natural Resources USA, Inc. : COMPANY
 FLD.                      Purgatoire River : FIELD
 LOC.             NW/NW Sec. 32, T32S, R67W : LOCATION
 DATE.                02/24/2006-02/25/2006 : DATE(S) LOGGED
 SRVC.                  Entrada GeoSciences : SERVICE COMPANY
 STAT.                             Colorado : STATE
 CNTY.                           Las Animas : COUNTY
 CTRY.                        United States : COUNTRY
 API.                          05-071-08626 : API NUMBER
 STRT.FT                             393.00 : START DEPTH
 STOP.FT                            1800.00 : STOP DEPTH
 STEP.FT                               1.00 : DEPTH INCREMENT
 NULL.                                -9999 : NULL VALUE
~Curve information
 DEPTH.FT                                   :
 ROP.MIN/FT                                 :
 GAS.UNITS                                  :
~ASCII Log data
# ...
      593.00         0.27          7.0 
      594.00         0.23          7.0 
      595.00         0.22          7.0 
      596.00         0.20          7.0 
      597.00         0.33          7.0 
      598.00         0.30          7.0 
      599.00         0.23          7.0 
      600.00         0.23          7.0 
      601.00         0.17          7.0 
      602.00         0.22          7.0 
      603.00         0.17          7.0 
      604.00         0.20          7.0 
      605.00         0.20          7.0 
      606.00         0.23          7.0 
      607.00         0.20          7.0 
      608.00         0.23          7.0 
      609.00         0.23          7.0 
      610.00         0.23          7.0 
      611.00         0.30          7.0 
      612.00         0.23          7.0 
      613.00         0.23          7.0 
      614.00         0.27          7.0 
      615.00         0.23          7.0 
      616.00         0.17          7.0 
      617.00         0.22          7.0 
      618.00         0.20          7.0 
      619.00         0.23          7.0 
      620.00         0.20          7.0 
      621.00         0.23          7.0 
      622.00         0.20          7.0 
      623.00         0.20          7.0 
      624.00         0.23          7.0 
      625.00         0.20          7.0 
      626.00         0.37          7.0 
      627.00         0.27          7.0 
      628.00         0.17          7.0 
      629.00         0.23          7.0 
      630.00         0.27          7.0 
      631.00         0.27          7.0 
      632.00         0.27          7.0 
      633.00         0.23          7.0 
      634.00         0.20          7.0 
      635.00         0.23          7.0 
      636.00         0.25          7.0 
      637.00         0.23          7.0 
      638.00         0.23          7.0 
      639.00         0.23          7.0 
      640.00         0.23          7.0 
      641.00         0.20          7.0 
      642.00         0.23          7.0 
      643.00         0.23          7.0 
      644.00         0.27          7.0 
      645.00         0.27          7.0 
      646.00         0.30          7.0 
      647.00         0.30          7.0 
      648.00         0.37          7.0 
      649.00         0.32          7.0 
      650.00         0.23          7.0 
      651.00         0.23          7.0 
      652.00         0.23          7.0 
      653.00         0.23          7.0 
      654.00         0.23          7.0 
      655.00         0.27          7.0 
      656.00         0.38          7.0 
      657.00         0.37          7.0 
      658.00         0.33          7.0 
      659.00         0.33          7.0 
      660.00         0.30          7.0 
      661.00         0.27          7.0 
      662.00         0.40          7.0 
      663.00         0.33          7.0 
      664.00         0.33          7.0 
      665.00         0.23          7.0 
      666.00         0.27          7.0 
      667.00         0.38          7.0 
      668.00         0.33          7.0 
      669.00         0.40          7.0 
      670.00         0.37          7.0 
      671.00         0.33          7.0 
      672.00         0.23          7.0 
      673.00         0.23          7.0 
      674.00         0.27          7.0 
      675.00         0.23          7.0 
      676.00         0.27          7.0 
      677.00         0.27          7.0 
      678.00         0.28          7.0 
      679.00         0.27          7.0 
      680.00         0.23          7.0 
      681.00         0.23          7.0 
      682.00         0.23          7.0 
      683.00         0.33          7.0 
      684.00         0.30          7.0 
      685.00         0.27          7.0 
      686.00         0.33          7.0 
      687.00         0.20          7.0 
      688.00         0.30          7.0 
      689.00         0.27          7.0 
      690.00         0.33          7.0 
      691.00         0.23          7.0 
      692.00         0.20          7.0 
      693.00         0.30          7.0 
      694.00         0.30          7.0 
      695.00         0.32          7.0 
      696.00         0.27          7.0 
      697.00         0.27          7.0 
      698.00         0.30          7.0 
      699.00         0.30          7.0 
      700.00         0.30          7.0 
      701.00         0.27          7.0 
      702.00         0.20          7.0 
      703.00         0.23          7.0 
      704.00         0.20          7.0 
      705.00         0.23          7.0 
      706.00         0.30          7.0 
      707.00         0.28          7.0 
      708.00         0.27          7.0 
      709.00         0.23          7.0 
      710.00         0.23        147.7 
      711.00         0.23          7.4 
      712.00         0.20          7.2 
      713.00         0.20          7.4 
      714.00         0.20          8.0 
      715.00         0.20          7.7 
      716.00         0.27          8.1 
      717.00         0.33          8.7 
      718.00         0.23          9.1 
      719.00         0.20          7.8 
      720.00         0.17          9.0 
      721.00         0.10          8.1 
      722.00         0.17          7.6 
      723.00         0.17          6.4 
      724.00         0.20          7.1 
      725.00         0.30          6.9 
      726.00         0.23          6.0 
      727.00         0.23          6.8 
      728.00         0.23          6.5 
      729.00         0.32          6.8 
      730.00         0.27          6.8 
      731.00         0.23          6.7 
      732.00         0.23          6.3 
      733.00         0.23          7.1 
      734.00         0.33          6.9 
      735.00         0.33          7.3 
      736.00         0.27          7.5 
      737.00         0.23          7.0 
      738.00         0.20          8.9 
      739.00         0.23          8.4 
      740.00         0.20          7.8 
      741.00         0.27          6.8 
      742.00         0.25          7.3 
      743.00         0.23          6.2 
      744.00         0.27          7.8 
      745.00         0.20          6.0 
      746.00         0.30         10.7 
      747.00         0.23          6.8 
      748.00         0.33          7.2 
      749.00         0.23          7.3 
      750.00         0.20          5.9 
      751.00         0.20          5.6 
      752.00         0.20          7.4 
      753.00         0.20          7.8 
      754.00         0.23          8.3 
      755.00         0.17          8.2 
      756.00         0.20          8.2 
      757.00         0.23          7.8 
      758.00         0.20          7.1 
      759.00         0.20          7.9 
      760.00         0.22          8.0 
      761.00         0.20          8.2 
      762.00         0.20          5.7 
      763.00         0.27          7.3 
      764.00         0.20          7.1 
      765.00         0.20          6.4 
      766.00         0.23          6.3 
      767.00         0.17          5.4 
      768.00         0.20          6.3 
      769.00         0.23          7.4 
      770.00         0.23          7.2 
      771.00         0.27          5.8 
      772.00         0.27          6.5 
      773.00         0.27          7.4 
      774.00         0.27          6.9 
      775.00         0.28          5.9 
      776.00         0.27          7.4 
      777.00         0.27          7.4 
      778.00         0.23          8.5 
      779.00         0.23          8.5 
      780.00         0.20          8.3 
      781.00         0.23          7.8 
      782.00         0.20          6.6 
      783.00         0.23          6.8 
      784.00         0.20          5.8 
      785.00         0.32          7.1 
      786.00         0.23          6.4 
      787.00         0.23          6.8 
      788.00         0.23          6.9 
      789.00         0.27          5.9 
      790.00         0.27          6.1 
      791.00         0.30          5.9 
      792.00         0.33          6.2 
