~Version Information
VERS.                      2.0: CWLS Log ASCII Standard - VERSION 2.0
WRAP.                       NO: One line per depth step
~Well Information Block
STRT.FT               -10.2500: 
STOP.FT              2871.7500: 
STEP.FT                 0.2500: 
NULL.                -999.2500: 
COMP.          Pioneer Natural Resources: COMPANY
WELL.          Grey Goose 33-30: WELL
FLD.           Purgatorie River: FIELD
LOC.           2136' FSL & 2065' FEL--: LOCATION
STAT.                       CO: State
CNTY.               Las Animas: COUNTY
CTRY. USA : Country
SECT. 30  : Section
TOWN. 32S : Township
RANG. 67W : Range
SRVC.          Patterson Wireline: SERVICE COMPANY
DATE.          Tue Dec 06 12:24:57 2005: LOG DATE
API.            05 071 0854600: UNIQUE WELL ID
~Curve Information Block
DEPT.FT            0 000 00 00: Depth
CCL.                          : Casing Collar Locator
TT3.usec                      : CBL 3' Travel Time
AMP3.mV                       : CBL 3' Amplitude
GR.GAPI                       : Gamma Ray
~Parameter Information Block
~A  Depth       CCL         TT3         AMP3         GR     
# ...
   358.2500      0.0000    787.4566      5.8398     52.8600
   358.5000      0.0000    824.4689      5.7645     49.9024
   358.7500      0.0000    845.9902      5.7794     48.2642
   359.0000      0.0000    854.7844      5.8923     48.2314
   359.2500      2.0000    860.1972      6.0965     49.9040
   359.5000      0.0000    863.1265      6.3903     53.5009
   359.7500      0.0000    853.4579      6.7774     58.7877
   360.0000      0.0000    823.9539      7.2395     64.3381
   360.2500      0.0000    781.5164      7.6857     67.8897
   360.5000      0.0000    741.8414      7.9625     67.8471
   360.7500      0.0000    715.9888      7.9792     64.5452
   361.0000      0.0000    704.4825      7.8066     60.2387
   361.2500      0.0000    701.8895      7.6031     57.9754
   361.5000      0.0000    703.6672      7.4688     60.0295
   361.7500      0.0000    708.9963      7.4132     66.7156
   362.0000      0.0000    719.2758      7.4219     76.3256
   362.2500      0.0000    734.3150      7.4875     86.2379
   362.5000      0.0000    749.3634      7.5811     94.3356
   362.7500      0.0000    757.1726      7.6382     99.7371
   363.0000      0.0000    754.5394      7.5982    102.6555
   363.2500      0.0000    745.3685      7.4504    103.9172
   363.5000      0.0000    735.7258      7.2390    104.5232
   363.7500      0.0000    727.7945      7.0276    105.2239
   364.0000      0.0000    720.2484      6.8639    106.2207
   364.2500      0.0000    712.0842      6.7652    107.1613
   364.5000      0.0000    703.6482      6.7270    107.2977
   364.7500      0.0000    695.1799      6.7377    105.8984
   365.0000      0.0000    686.5073      6.7867    103.0196
   365.2500      0.0000    678.1088      6.8619     99.8361
   365.5000      0.0000    671.3278      6.9460     97.8090
   365.7500      0.0000    667.4080      7.0209     97.4863
   366.0000      0.0000    666.7703      7.0779     98.1053
   366.2500      0.0000    669.2742      7.1211     98.0451
   366.5000      0.0000    674.5947      7.1622     95.6895
   366.7500      0.0000    681.9936      7.2127     90.3265
   367.0000      0.0000    689.9848      7.2821     82.4975
   367.2500      0.0000    696.7909      7.3757     73.6445
   367.5000      0.0000    701.3372      7.4889     65.6068
   367.7500      0.0000    703.6873      7.6032     60.1178
   368.0000      0.0000    704.5715      7.6904     58.0460
   368.2500      0.0000    704.7080      7.7276     58.8456
   368.5000      0.0000    704.6072      7.7106     60.9866
   368.7500      0.0000    704.8056      7.6566     63.1351
   369.0000      0.0000    706.1219      7.5916     64.9444
   369.2500      0.0000    709.4285      7.5325     66.7125
   369.5000      0.0000    714.6839      7.4797     68.5057
   369.7500      0.0000    720.0037      7.4264     69.9008
   370.0000      0.0000    722.4255      7.3719     70.4125
   370.2500      0.0000    720.4002      7.3250     69.8137
   370.5000      0.0000    715.2833      7.2964     68.1450
   370.7500      0.0000    709.9243      7.2889     65.6374
   371.0000      0.0000    706.2319      7.2943     62.4561
   371.2500      0.0000    704.3943      7.3001     58.6034
   371.5000      0.0000    703.7268      7.3014     54.5389
   371.7500      0.0000    703.5772      7.3085     51.8339
   372.0000      0.0000    703.5937      7.3369     52.6296
   372.2500      0.0000    703.6254      7.3891     58.1024
   372.5000      0.0000    703.6040      7.4489     67.2449
   372.7500      0.0000    703.4877      7.4927     77.0363
   373.0000      0.0000    703.2620      7.5043     84.2438
   373.2500      0.0000    702.9356      7.4800     87.7068
   373.5000      0.0000    702.5358      7.4262     89.0143
   373.7500      0.0000    702.0758      7.3541     90.7891
   374.0000      0.0000    701.4606      7.2748     94.4363
   374.2500      0.0000    700.3549      7.1995     99.5925
   374.5000      0.0000    698.2021      7.1422    105.1042
   374.7500      0.0000    694.6894      7.1158    109.8284
   375.0000      0.0000    690.5054      7.1211    112.8873
   375.2500      0.0000    687.4571      7.1442    114.0380
   375.5000      0.0000    687.2205      7.1642    113.8257
   375.7500      0.0000    689.7426      7.1627    112.9844
   376.0000      0.0000    693.1540      7.1267    111.9502
   376.2500      0.0000    695.3622      7.0527    111.1924
   376.5000      0.0000    695.6471      6.9507    111.5336
   376.7500      0.0000    694.9388      6.8405    113.7374
   377.0000      0.0000    694.8127      6.7386    117.7888
   377.2500      0.0000    696.1021      6.6505    122.5017
   377.5000      0.0000    698.3390      6.5782    125.8580
   377.7500      0.0000    700.4685      6.5287    126.1837
   378.0000      0.0000    701.8708      6.5168    123.3881
   378.2500      0.0000    702.6069      6.5609    119.1961
   378.5000      0.0000    703.0029      6.6761    116.1413
   378.7500      0.0000    703.2840      6.8621    116.1171
   379.0000      0.0000    703.5146      7.0904    119.3298
   379.2500      0.0000    703.6848      7.3081    124.0835
   379.5000      0.0000    703.7859      7.4640    127.6659
   379.7500      0.0000    703.8439      7.5369    128.1032
   380.0000      0.0000    703.9000      7.5426    125.6528
   380.2500      0.0000    703.9713      7.5165    122.5900
   380.5000      0.0000    704.0301      7.4935    121.3439
   380.7500      0.0000    704.0289      7.4985    122.9121
   381.0000      0.0000    703.9446      7.5488    126.9523
   381.2500      0.0000    703.8002      7.6554    132.6493
   381.5000      0.0000    703.6478      7.8173    139.0640
   381.7500      0.0000    703.5344      8.0112    145.2195
   382.0000      0.0000    703.4756      8.1949    150.2727
   382.2500      0.0000    703.4561      8.3280    153.4033
   382.5000      0.0000    703.4462      8.3950    153.6509
   382.7500      0.0000    703.4224      8.4066    150.5543
   383.0000      0.0000    703.3740      8.3824    145.0292
   383.2500      0.0000    703.3013      8.3356    139.1115
   383.5000      0.0000    703.2161      8.2726    134.6681
   383.7500      0.0000    703.1443      8.1982    132.5137
   384.0000      0.0000    703.1130      8.1158    132.5371
   384.2500      0.0000    703.1236      8.0259    134.0440
   384.5000      0.0000    703.1439      7.9280    135.8216
   384.7500      0.0000    703.1301      7.8252    136.4869
   385.0000      0.0000    703.0506      7.7247    135.3961
   385.2500      0.0000    702.8884      7.6347    133.1878
   385.5000      0.0000    702.6404      7.5605    131.3599
   385.7500      0.0000    702.3353      7.5066    131.4804
   386.0000      0.0000    702.0472      7.4773    134.3120
   386.2500      0.0000    701.8703      7.4724    138.8780
   386.5000      0.0000    701.8611      7.4833    142.6045
   386.7500      0.0000    701.9999      7.4991    143.3790
   387.0000      0.0000    702.2102      7.5162    141.7706
   387.2500      0.0000    702.4138      7.5390    140.7366
   387.5000      0.0000    702.5695      7.5691    142.8356
   387.7500      0.0000    702.6692      7.5978    147.9273
   388.0000      0.0000    702.7151      7.6094    153.4449
   388.2500      0.0000    702.7047      7.5908    156.2482
   388.5000      0.0000    702.6329      7.5401    154.4364
   388.7500      0.0000    702.5024      7.4706    148.7654
   389.0000      0.0000    702.3297      7.4040    142.8671
   389.2500      0.0000    702.1390      7.3574    140.8341
   389.5000      0.0000    701.9517      7.3374    143.5552
   389.7500      0.0000    701.7831      7.3440    147.9460
   390.0000      0.0000    701.6489      7.3724    150.2579
   390.2500      0.0000    701.5707      7.4102    149.5023
   390.5000      0.0000    701.5755      7.4413    147.3246
   390.7500      0.0000    701.6857      7.4568    145.2666
   391.0000      0.0000    701.9011      7.4621    142.8855
   391.2500      0.0000    702.1880      7.4708    138.8235
   391.5000      0.0000    702.4868      7.4901    133.3866
