~Version Information
 VERS.                                  2.0 : CWLS LAS VERSION
 WRAP.                                   NO : WRAPING MODE
 SWARE .                 MController 2.5.0J : SOFTWARE VERSION
~Well Information
 WELL.                  Lorencito 8-1-34-67 : WELL
 COMP.                              Pioneer : COMPANY
 FLD.                      Purgatoire River : FIELD
 LOC.                    1567 FNL & 500 FEL : LOCATION
 DATE.                                  N/A : DATE(S) LOGGED
 SRVC.                                  N/A : SERVICE COMPANY
 STAT.                             Colorado : STATE
 CNTY.                           Las Animas : COUNTY
 CTRY.                                 USA  : COUNTRY
 API.                           05-071-08506 : API NUMBER
 STRT.FT                             201.00 : START DEPTH
 STOP.FT                            1673.00 : STOP DEPTH
 STEP.FT                               1.00 : DEPTH INCREMENT
 NULL.                                -9999 : NULL VALUE
~Curve information
 DEPTH.FT                                   :
 ROP.MIN/FT                                 :
 GAS.UNITS                                  :
~ASCII Log data
# ...
       801.0         5.57        108.1 
       802.0         0.23         37.8 
       803.0         0.27         36.6 
       804.0         0.33         34.8 
       805.0         0.37         33.1 
       806.0         0.30         33.8 
       807.0         0.27         36.4 
       808.0         0.30         37.8 
       809.0         0.27         36.8 
       810.0         0.33         35.9 
       811.0         0.23         33.1 
       812.0         0.25         32.0 
       813.0         0.30         32.0 
       814.0         0.27         31.3 
       815.0         0.23         31.1 
       816.0         0.20         29.9 
       817.0         0.23         30.4 
       818.0         0.20         30.0 
       819.0         0.17         29.9 
       820.0         0.20         29.4 
       821.0         0.23         28.9 
       822.0         0.20         27.5 
       823.0         0.20         28.2 
       824.0         0.23         28.9 
       825.0         0.27         30.1 
       826.0         0.23         30.7 
       827.0         0.22         30.6 
       828.0         0.27         30.7 
       829.0         0.23         31.0 
       830.0         0.37         30.4 
       831.0         5.55         30.1 
       832.0         0.75        181.3 
       833.0         0.60        170.3 
       834.0         0.40         71.4 
       835.0         0.33         44.8 
       836.0         0.37         37.5 
       837.0         0.37         40.0 
       838.0         0.37         40.2 
       839.0         0.42         37.6 
       840.0         0.30         33.6 
       841.0         0.47         31.9 
       842.0         0.43         30.8 
       843.0         0.47         31.7 
       844.0         0.43         31.5 
       845.0         0.37         30.8 
       846.0         0.50         30.1 
       847.0         0.55         29.4 
       848.0         0.40         29.6 
       849.0         0.37         30.1 
       850.0         0.57         29.8 
       851.0         0.43         29.1 
       852.0         0.33         29.9 
       853.0         0.37         30.4 
       854.0         0.27         30.3 
       855.0         0.45         29.6 
       856.0         0.67         29.0 
       857.0         0.73         30.1 
       858.0         0.50         30.4 
       859.0         0.37         30.7 
       860.0         0.40         31.0 
       861.0        14.45        143.4 
       862.0         0.33         45.7 
       863.0         0.27         37.4 
       864.0         0.23         36.8 
       865.0         0.27         38.1 
       866.0         0.23         38.4 
       867.0         0.20         37.9 
       868.0         0.20         36.4 
       869.0         0.20         35.6 
       870.0         0.27         35.2 
       871.0         0.22         34.3 
       872.0         0.17         34.3 
       873.0         0.20         33.5 
       874.0         0.17         32.9 
       875.0         0.20         32.7 
       876.0         0.20         31.3 
       877.0         0.20         31.7 
       878.0         0.20         30.8 
       879.0         0.17         30.1 
       880.0         0.17         30.2 
       881.0         0.20         30.5 
       882.0         0.23         31.0 
       883.0         0.17         30.9 
       884.0         0.20         30.9 
       885.0         0.27         32.7 
       886.0         0.27         33.6 
       887.0         0.32         33.4 
       888.0         0.30         37.0 
       889.0         0.20         38.3 
       890.0         0.23         38.5 
       891.0         7.27        158.5 
       892.0         0.33         37.1 
       893.0         0.27         37.1 
       894.0         0.33         38.0 
       895.0         0.30         37.7 
       896.0         0.30         36.9 
       897.0         0.35         35.0 
       898.0         0.30         32.6 
       899.0         0.37         33.3 
       900.0         0.27         33.5 
       901.0         0.27         33.0 
       902.0         0.27         32.6 
       903.0         0.37         31.8 
       904.0         0.27         31.5 
       905.0         0.30         31.3 
       906.0         0.27         31.2 
       907.0         0.30         30.3 
       908.0         0.23         31.0 
       909.0         0.38         30.8 
       910.0         0.33         30.3 
       911.0         0.30         30.6 
       912.0         0.23         30.7 
       913.0         0.30         30.6 
       914.0         0.27         30.3 
       915.0         0.30         30.6 
       916.0         0.27         30.8 
       917.0         0.33         30.9 
       918.0         0.30         30.9 
       919.0         0.30         31.1 
       920.0         0.22         30.9 
       921.0         3.28         69.9 
       922.0         0.47         72.2 
       923.0         0.37         56.2 
       924.0         0.20         44.8 
       925.0         0.20         42.2 
       926.0         0.17         40.3 
       927.0         0.27         39.5 
       928.0         0.27         38.3 
       929.0         0.27         38.4 
       930.0         0.20         38.1 
       931.0         0.17         38.0 
       932.0         0.20         37.5 
       933.0         0.23         36.2 
       934.0         0.28         35.0 
       935.0         0.27         33.8 
       936.0         0.27         32.8 
       937.0         0.27         32.5 
       938.0         0.27         31.9 
       939.0         0.20         31.5 
       940.0         0.27         31.6 
       941.0         0.23         31.2 
       942.0         0.27         31.0 
       943.0         0.47         30.9 
       944.0         0.23         30.6 
       945.0         0.20         30.5 
       946.0         0.20         30.2 
       947.0         0.18         30.1 
       948.0         0.20         29.1 
       949.0         0.13         27.7 
       950.0         0.17         29.9 
       951.0         3.72         50.3 
       952.0         0.37         62.0 
       953.0         0.47         57.6 
       954.0         0.43         43.2 
       955.0         0.27         40.8 
       956.0         0.27         37.5 
       957.0         0.37         37.8 
       958.0         0.38         38.3 
       959.0         0.33         37.0 
       960.0         0.30         35.2 
       961.0         0.23         33.7 
       962.0         0.27         33.1 
       963.0         0.23         32.7 
       964.0         0.27         32.3 
       965.0         0.23         31.0 
       966.0         0.30         30.3 
       967.0         0.27         29.9 
       968.0         0.33         31.2 
       969.0         0.25         32.0 
       970.0         0.27         32.1 
       971.0         0.27         32.2 
       972.0         0.37         31.9 
       973.0         0.37         31.4 
       974.0         0.37         30.6 
       975.0         0.40         30.2 
       976.0         0.37         30.0 
       977.0         0.33         30.2 
       978.0         0.30         30.8 
       979.0         0.38         30.7 
       980.0         0.40         30.3 
       981.0         6.80        206.5 
       982.0         0.47        128.8 
       983.0         0.50         63.1 
       984.0         0.63         43.9 
       985.0         0.57         41.3 
       986.0         0.52         34.9 
       987.0         0.40         32.2 
       988.0         0.40         32.0 
       989.0         0.40         32.0 
       990.0         0.37         32.6 
       991.0         0.43         32.4 
       992.0         0.37         32.0 
       993.0         0.40         31.5 
       994.0         0.38         31.0 
       995.0         0.40         30.3 
       996.0         0.43         30.0 
       997.0         0.47         30.5 
       998.0         0.53         31.2 
       999.0         0.50         31.5 
      1000.0         0.37         31.6 
