~Version Information
VERS.                      2.0: CWLS Log ASCII Standard - VERSION 2.0
WRAP.                       NO: One line per depth step
~Well Information Block
STRT.FT               625.0000: 
STOP.FT              2053.7500: 
STEP.FT                 0.2500: 
NULL.                -999.2500: 
COMP.          Pioneer Natural Resources: COMPANY
WELL.            Zink 44-10 Tr: WELL
FLD.           Purgatoire River: FIELD
LOC.           486' FSL & 554' FEL--: LOCATION
PROV.                 Colorado: PROVINCE
CNTY.               Las Animas: COUNTRY
SRVC.                Patterson: SERVICE COMPANY
DATE.          Sun Jul 24 06:18:01 2005: LOG DATE
UWI.           05 071 08446 00: UNIQUE WELL ID
~Curve Information Block
DEPT.FT            0 000 00 00: Depth
SN.Ohm-m                      : IEL Short Normal
SP.mV                         : IEL Spontaneous Potential
DIR.Ohm-m                     : IEL Induction Resistivity
GR.GAPI                       : Gamma Ray
~Parameter Information Block
~A  Depth        SN          SP         DIR          GR     
   625.0000   2000.0000   1979.0000 100000.0000     80.3601
   625.2500   2000.0000   1979.0000 100000.0000     85.5298
   625.5000   2000.0000   1979.0000 100000.0000     92.0526
   625.7500   2000.0000   1979.0000 100000.0000     93.8328
   626.0000   2000.0000   1979.0000 100000.0000     91.5438
   626.2500   2000.0000   1979.0000 100000.0000     87.7960
   626.5000   2000.0000   1979.0000 100000.0000     82.1261
   626.7500   2000.0000   1979.0000 100000.0000     79.9226
   627.0000   2000.0000   1979.0000 100000.0000     80.3828
   627.2500   2000.0000   1979.0000 100000.0000     83.2654
   627.5000   2000.0000   1979.0000 100000.0000     60.2417
   627.7500   2000.0000   1979.0000 100000.0000     63.8334
   628.0000   2000.0000   1979.0000 100000.0000     68.4108
   628.2500   2000.0000   1979.0000 100000.0000     70.4059
   628.5000   2000.0000   1979.0000 100000.0000     71.9738
   628.7500   2000.0000   1979.0000 100000.0000     72.6688
   629.0000   2000.0000   1979.0000 100000.0000     74.2146
   629.2500   2000.0000   1979.0000 100000.0000     75.6758
   629.5000   2000.0000   1979.0000 100000.0000     77.7848
   629.7500   2000.0000   1979.0000 100000.0000     78.7086
   630.0000   2000.0000   1979.0000 100000.0000     79.2713
   630.2500   2000.0000   1979.0000 100000.0000     79.1919
   630.5000   2000.0000   1979.0000 100000.0000     78.4515
   630.7500   2000.0000   1979.0000 100000.0000     77.8235
   631.0000   2000.0000   1979.0000 100000.0000     78.0403
   631.2500   2000.0000   1979.0000 100000.0000     79.8370
   631.5000   2000.0000   1979.0000 100000.0000     85.3497
   631.7500   2000.0000   1979.0000 100000.0000     90.2558
   632.0000   2000.0000   1979.0000 100000.0000     97.8603
   632.2500   2000.0000   1979.0000 100000.0000    102.4183
   632.5000   2000.0000   1979.0000 100000.0000    107.8409
   632.7500   2000.0000   1979.0000 100000.0000    110.1839
   633.0000   2000.0000   1979.0000 100000.0000    111.3895
   633.2500   2000.0000   1979.0000      8.0830    110.7901
   633.5000   2000.0000   1979.0000      4.6692    108.6051
   633.7500   2000.0000   1979.0000      4.5793    106.7529
   634.0000   2000.0000   1979.0000      6.4285    103.8316
   634.2500   2000.0000   1979.0000     14.9987    101.9675
   634.5000   2000.0000   1979.0000 100000.0000     99.5031
   634.7500   2000.0000   1979.0000 100000.0000     98.0761
   635.0000   2000.0000   1979.0000 100000.0000     96.2707
   635.2500   2000.0000   1979.0000 100000.0000     95.5024
   635.5000   2000.0000   1979.0000 100000.0000     95.6509
   635.7500   2000.0000   1979.0000    133.5514     96.9592
   636.0000   2000.0000   1979.0000     21.3921    100.9030
   636.2500   2000.0000   1979.0000     13.0539    104.5560
   636.5000   2000.0000   1979.0000     10.6505    110.3231
   636.7500   2000.0000   1979.0000      9.9947    113.4399
   637.0000   2000.0000   1979.0000     10.1202    115.8186
   637.2500   2000.0000   1979.0000     10.6232    115.6023
   637.5000   2000.0000   1979.0000     11.2279    112.9154
   637.7500   2000.0000   1979.0000     11.7158    110.2617
   638.0000   2000.0000   1979.0000     11.9771    107.0399
   638.2500   2000.0000   1979.0000     12.0706    106.6129
   638.5000   2000.0000   1979.0000     12.2005    109.2229
   638.7500   2000.0000   1979.0000     12.6261    112.4181
   639.0000   2000.0000   1979.0000     13.5917    117.4514
   639.2500   2000.0000   1979.0000     15.2759    120.1828
   639.5000   2000.0000   1979.0000     17.6556    122.7369
   639.7500   2000.0000   1979.0000     20.2099    123.1362
   640.0000   2000.0000   1979.0000     21.8393    121.4227
   640.2500   2000.0000   1979.0000     21.7367    118.9208
   640.5000   2000.0000   1979.0000     20.3116    114.3521
   640.7500   2000.0000   1979.0000     18.5661    111.7262
   641.0000   2000.0000   1979.0000     17.1547    109.7363
   641.2500   2000.0000   1979.0000     16.2815    110.0245
   641.5000   2000.0000   1979.0000     15.9213    112.5938
   641.7500   2000.0000   1979.0000     15.9562    115.2510
   642.0000   2000.0000   1979.0000     16.2239    119.7516
   642.2500   2000.0000   1979.0000     16.5510    122.7182
   642.5000   2000.0000   1979.0000     16.8000    126.8159
   642.7500   2000.0000   1979.0000     16.9081    129.2173
   643.0000   2000.0000   1979.0000     16.8831    132.0178
   643.2500   2000.0000   1979.0000     16.7697    133.1256
   643.5000   2000.0000   1979.0000     16.6168    133.3954
   643.7500   2000.0000   1979.0000     16.4626    132.5541
   644.0000   2000.0000   1979.0000     16.3305    129.7359
   644.2500   2000.0000   1979.0000     16.2301    127.1485
   644.5000   2000.0000   1979.0000     16.1597    123.5892
   644.7500   2000.0000   1979.0000     16.1117    122.3128
   645.0000   2000.0000   1979.0000     16.0791    122.5633
   645.2500   2000.0000   1979.0000     16.0606    123.6491
   645.5000   2000.0000   1979.0000     16.0608    124.9579
   645.7500   2000.0000   1979.0000     16.0856    124.8585
   646.0000   2000.0000   1979.0000     16.1362    123.2751
   646.2500   2000.0000   1979.0000     16.2074    121.9213
   646.5000   2000.0000   1979.0000     16.2909    120.6929
   646.7500   2000.0000   1979.0000     16.3814    120.8616
   647.0000   2000.0000   1979.0000     16.4771    122.8103
   647.2500   2000.0000   1979.0000     16.5732    125.0306
   647.5000   2000.0000   1979.0000     16.6570    128.8902
   647.7500   2000.0000   1979.0000     16.7128    131.2504
   648.0000   2000.0000   1979.0000     16.7344    133.8637
   648.2500   2000.0000   1979.0000     16.7342    134.9098
   648.5000   2000.0000   1979.0000     16.7371    135.5340
   648.7500   2000.0000   1979.0000     16.7672    135.3718
   649.0000   2000.0000   1979.0000     16.8370    134.3588
   649.2500   2000.0000   1979.0000     16.9455    133.3866
   649.5000   2000.0000   1979.0000     17.0808    132.2507
   649.7500   2000.0000   1979.0000     17.2263    132.1783
   650.0000   2000.0000   1979.0000     17.3672    133.3465
   650.2500   2000.0000   1979.0000     17.4960    134.7005
   650.5000   2000.0000   1979.0000     17.6109    136.7966
   650.7500   2000.0000   1979.0000     17.7104    137.9122
   651.0000   2000.0000   1979.0000     17.7879    139.1305
   651.2500   2000.0000   1979.0000     17.8337    139.8927
   651.5000   2000.0000   1979.0000     17.8413    141.5905
   651.7500   2000.0000   1979.0000     17.8138    143.2834
   652.0000   2000.0000   1979.0000     17.7619    145.9629
   652.2500   2000.0000   1979.0000     17.6971    146.8016
   652.5000   2000.0000   1979.0000     17.6233    144.9953
   652.7500   2000.0000   1979.0000     17.5340    141.7261
   653.0000   2000.0000   1979.0000     17.4176    135.6091
   653.2500   2000.0000   1979.0000     17.2681    132.3094
   653.5000   2000.0000   1979.0000     17.0930    130.3918
   653.7500   2000.0000   1979.0000     16.9117    131.1385
   654.0000   2000.0000   1979.0000     16.7451    133.6457
   654.2500   2000.0000   1979.0000     16.6045    134.9976
   654.5000   2000.0000   1979.0000     16.4860    135.3015
   654.7500   2000.0000   1979.0000     16.3747    134.4167
   655.0000   2000.0000   1979.0000     16.2545    132.3868
   655.2500   2000.0000   1979.0000     16.1167    131.0528
   655.5000   2000.0000   1979.0000     15.9625    129.3038
   655.7500   2000.0000   1979.0000     15.8025    128.2264
   656.0000   2000.0000   1979.0000     15.6535    126.8281
   656.2500   2000.0000   1979.0000     15.5369    126.2724
   656.5000   2000.0000   1979.0000     15.4763    126.2889
   656.7500   2000.0000   1979.0000     15.4947    126.7573
   657.0000   2000.0000   1979.0000     15.6100    127.5180
   657.2500   2000.0000   1979.0000     15.8319    127.5537
   657.5000   2000.0000   1979.0000     16.1603    126.0582
   657.7500   2000.0000   1979.0000     16.5885    123.7615
   658.0000   2000.0000   1979.0000     17.1084    118.6037
   658.2500   2000.0000   1979.0000     17.7139    114.5038
