~Version Information
VERS.                      2.0: CWLS Log ASCII Standard - VERSION 2.0
WRAP.                       NO: One line per depth step
~Well Information Block
STRT.FT                -7.5000: 
STOP.FT              1350.7500: 
STEP.FT                 0.2500: 
NULL.                -999.2500: 
COMP.          Pioneer Natural Resources: COMPANY
WELL.            Gamma 13-3 Tr: WELL
FLD.           Purgatorie River: FIELD
LOC.           2127' FSL & 738' FWL: LOCATION
STAT.                       CO: State
CNTY.               Las Animas: COUNTY
CTRY.                      USA: Country
SECT.                        3: Section
TOWN.                      33S: Township
RANG.                      67W: Range
SRVC.          Patterson Wireline: SERVICE COMPANY
DATE.          Fri Sep 23 13:24:40 2005: LOG DATE
API.           05 071 08524 00: API
~Curve Information Block
DEPT.FT            0 000 00 00: Depth
CCL.                          : Casing Collar Locator
TT3.usec                      : CBL 3' Travel Time
AMP3.mV                       : CBL 3' Amplitude
GR.GAPI                       : Gamma Ray
~Parameter Information Block
~A  Depth       CCL         TT3         AMP3         GR     
# ...
  1332.5000      0.0000    675.1196      9.3842    151.5290
  1332.7500      0.0000    659.5674      9.4099    148.7672
  1333.0000      0.0000    642.0621      9.4083    143.4464
  1333.2500      0.0000    629.7051      9.3794    137.7628
  1333.5000      0.0000    626.4796      9.3299    133.3863
  1333.7500      0.0000    630.8568      9.2625    130.2373
  1334.0000      0.0000    639.2859      9.1702    127.1694
  1334.2500      0.0000    650.5693      9.0438    123.7247
  1334.5000      0.0000    665.5815      8.8866    120.8920
  1334.7500      0.0000    683.4567      8.7189    119.8856
  1335.0000      0.0000    699.7952      8.5643    120.5401
  1335.2500      0.0000    709.4843      8.4316    121.4252
  1335.5000      0.0000    711.1985      8.3141    121.5281
  1335.7500      0.0000    708.5530      8.2070    121.3921
  1336.0000      0.0000    706.5244      8.1194    122.1902
  1336.2500      0.0000    707.4908      8.0707    123.2589
  1336.5000      0.0000    711.3695      8.0746    120.6222
  1336.7500      0.0000    718.2587      8.1244    109.0771
  1337.0000      0.0000    728.4772      8.1933     87.0139
  1337.2500      0.0000    739.6848      8.2540     59.1081
  1337.5000      0.0000    746.7682      8.2986     33.3583
  1337.7500      0.0000    746.4648      8.3369     15.3765
  1338.0000      0.0000    740.8760      8.3753      5.7197
  1338.2500      0.0000    734.8132      8.4043      1.7014
  1338.5000      0.0000    730.5948      8.4113      0.4018
  1338.7500      0.0000    727.0349      8.4038      0.0740
  1339.0000      0.0000    722.2505      8.4102      0.0097
  1339.2500      0.0000    714.1648      8.4552   -999.2500
  1339.5000      0.0000    697.9905      8.5412   -999.2500
  1339.7500      0.0000    667.8021      8.6519   -999.2500
  1340.0000      0.0000    624.6673      8.7701   -999.2500
  1340.2500      0.0000    581.8986      8.8841   -999.2500
  1340.5000      0.0000    557.9938      8.9843   -999.2500
  1340.7500      0.0000    561.9586      9.0594   -999.2500
  1341.0000      0.0000    584.7120      9.0982   -999.2500
  1341.2500      0.0000    603.8428      9.0864   -999.2500
  1341.5000      0.0000    597.0391      8.9920   -999.2500
  1341.7500      0.0000    553.6594      8.7421   -999.2500
  1342.0000      0.0000    477.0099      8.2156   -999.2500
  1342.2500      0.0000    378.4861      7.2964   -999.2500
  1342.5000      0.0000    271.9310      5.9984   -999.2500
  1342.7500      0.0000    172.3066      4.5450   -999.2500
  1343.0000      0.0000     93.4530      3.2674   -999.2500
  1343.2500      0.0000     42.2405      2.3902   -999.2500
  1343.5000      0.0000     15.5866      1.9205   -999.2500
  1343.7500      0.0000      4.6259      1.7246   -999.2500
  1344.0000      0.0000      1.0905      1.6610   -999.2500
  1344.2500      0.0000      0.2018      1.6449   -999.2500
  1344.5000      0.0000   -999.2500   -999.2500   -999.2500
  1344.7500      0.0000   -999.2500   -999.2500   -999.2500
  1345.0000      0.0000   -999.2500   -999.2500   -999.2500
  1345.2500      0.0000   -999.2500   -999.2500   -999.2500
  1345.5000      0.0000   -999.2500   -999.2500   -999.2500
  1345.7500      0.0000   -999.2500   -999.2500   -999.2500
  1346.0000      0.0000   -999.2500   -999.2500   -999.2500
  1346.2500      0.0000   -999.2500   -999.2500   -999.2500
  1346.5000      0.0000   -999.2500   -999.2500   -999.2500
  1346.7500      0.0000   -999.2500   -999.2500   -999.2500
  1347.0000      0.0000   -999.2500   -999.2500   -999.2500
  1347.2500      0.0000   -999.2500   -999.2500   -999.2500
  1347.5000      0.0000   -999.2500   -999.2500   -999.2500
  1347.7500      0.0000   -999.2500   -999.2500   -999.2500
  1348.0000      0.0000   -999.2500   -999.2500   -999.2500
  1348.2500      0.0000   -999.2500   -999.2500   -999.2500
  1348.5000      0.0000   -999.2500   -999.2500   -999.2500
  1348.7500      0.0000   -999.2500   -999.2500   -999.2500
  1349.0000      0.0000   -999.2500   -999.2500   -999.2500
  1349.2500      0.0000   -999.2500   -999.2500   -999.2500
  1349.5000      0.0000   -999.2500   -999.2500   -999.2500
  1349.7500      0.0000   -999.2500   -999.2500   -999.2500
  1350.0000      0.0000   -999.2500   -999.2500   -999.2500
  1350.2500   -999.2500   -999.2500   -999.2500   -999.2500
  1350.5000   -999.2500   -999.2500   -999.2500   -999.2500
  1350.7500   -999.2500   -999.2500   -999.2500   -999.2500
