~Version Information
VERS.                      2.0: CWLS Log ASCII Standard - VERSION 2.0
WRAP.                       NO: One line per depth step
~Well Information Block
STRT.FT               745.0000: 
STOP.FT              1985.0000: 
STEP.FT                 0.1000: 
NULL.                -999.2500: 
COMP.          Pioneer Natural Resources: COMPANY
WELL.          Lorencito 15-36-33-67: WELL
FLD.           Purgatoire River: FIELD
LOC.           38' FSL & 1446' FEL: LOCATION
STAT.                 Colorado: State
CNTY.               Las Animas: COUNTY
CTRY. USA : Country
SECT. 36 : Section
TOWN. 33S : Township
RANG. 67W : Range
SRVC.                Patterson: SERVICE COMPANY
DATE.          Thu Oct 13 10:16:17 2005: LOG DATE
API.           05 071 08515 00: UNIQUE WELL ID
~Curve Information Block
DEPT.FT            0 000 00 00: Depth
DCAL.in                       : CDL Caliper
RHOB.g/cc                     : CDL Bulk Density
RHOC.g/cc                     : CDL Density Correction
DPOR.pu                       : CDL Density Porosity
GR.GAPI                       : Gamma Ray
NPOR.pu                       : Neutron Porosity
~Parameter Information Block
~A  Depth       DCAL        RHOB        RHOC        DPOR         GR         NPOR    
# ...
  1071.4000      8.0834      2.1653      0.0017     29.3745    157.8666     24.1982
  1071.5000      8.0849      2.1896      0.0461     27.9005    147.6475     24.3279
  1071.6000      8.0849      2.2359      0.0884     25.0959    137.6020     24.5097
  1071.7000      8.0849      2.2926      0.1873     21.6605    127.2127     24.8388
  1071.8000      8.0838      2.3477      0.1971     18.3238    119.7282     25.0092
  1071.9000      8.0838      2.3992      0.2314     15.1975    117.3264     25.1564
  1072.0000      8.0842      2.4492      0.1846     12.1677    114.6541     25.5950
  1072.1000      8.0842      2.4953      0.1084      9.3739    108.3472     26.1022
  1072.2000      8.0842      2.5324      0.0489      7.1289    101.6508     26.1258
  1072.3000      8.0799      2.5554      0.0543      5.7336     98.6324     25.6191
  1072.4000      8.0799      2.5612      0.0190      5.3792     98.2514     25.1465
  1072.5000      8.0756      2.5609      0.0150      5.3989     95.7297     25.0007
  1072.6000      8.0756      2.5692      0.0468      4.8991     89.7479     24.5595
  1072.7000      8.0756      2.5835      0.0787      4.0273     83.7296     23.6176
  1072.8000      8.0638      2.5985      0.0581      3.1220     79.7837     22.9897
  1072.9000      8.0638      2.6155      0.1004      2.0900     77.3741     23.1260
  1073.0000      8.0335      2.6288      0.1151      1.2850     76.2434     23.7251
  1073.1000      8.0335      2.6269      0.0936      1.4022     78.5042     24.1957
  1073.2000      8.0335      2.6090      0.0572      2.4845     86.0253     24.2106
  1073.3000      8.0376      2.5855      0.0572      3.9085     96.0769     23.9634
  1073.4000      8.0376      2.5667     -0.0036      5.0475    103.2952     23.5715
  1073.5000      8.0638      2.5533      0.0201      5.8610    105.3897     23.2189
  1073.6000      8.0638      2.5404      0.0347      6.6425    106.5961     23.6891
  1073.7000      8.0638      2.5292      0.0477      7.3228    108.8961     25.1939
  1073.8000      8.0858      2.5200      0.0144      7.8816    112.2425     26.4787
  1073.9000      8.0858      2.5105      0.0183      8.4530    119.9628     26.6531
  1074.0000      8.0839      2.5035      0.0151      8.8761    130.7479     26.4378
  1074.1000      8.0839      2.5059     -0.0172      8.7310    137.6034     26.6242
  1074.2000      8.0839      2.5234      0.0306      7.6736    139.5664     26.9178
  1074.3000      8.0830      2.5453      0.0562      6.3438    142.0274     26.7814
  1074.4000      8.0830      2.5551      0.0428      5.7517    144.8588     26.5152
  1074.5000      8.0871      2.5525      0.0545      5.9069    146.4639     26.7428
  1074.6000      8.0871      2.5499      0.0203      6.0642    147.2780     27.6373
  1074.7000      8.0871      2.5578      0.0434      5.5866    148.6079     28.9555
  1074.8000      8.0874      2.5721      0.0571      4.7242    154.6329     30.0150
  1074.9000      8.0874      2.5848      0.0298      3.9528    162.9473     30.1369
  1075.0000      8.0844      2.5987      0.0396      3.1062    163.3307     29.4273
  1075.1000      8.0844      2.6094      0.0438      2.4588    156.5793     28.6589
  1075.2000      8.0844      2.6025      0.0536      2.8802    155.2799     28.2118
  1075.3000      8.0874      2.5802      0.0224      4.2326    160.4279     27.8396
  1075.4000      8.0874      2.5640     -0.0129      5.2127    160.6411     27.4749
  1075.5000      8.0891      2.5635      0.0113      5.2453    152.6489     27.1651
  1075.6000      8.0891      2.5626     -0.0072      5.2953    143.2517     26.9259
  1075.7000      8.0891      2.5533     -0.0177      5.8627    140.9413     26.6270
  1075.8000      8.0877      2.5496     -0.0403      6.0841    147.3916     26.0064
  1075.9000      8.0877      2.5562      0.0110      5.6856    154.1068     25.3861
  1076.0000      8.0872      2.5581      0.0062      5.5692    154.2181     25.4394
  1076.1000      8.0872      2.5518      0.0024      5.9503    149.4300     26.1091
  1076.2000      8.0872      2.5482     -0.0014      6.1727    142.6390     26.8661
  1076.3000      8.0889      2.5554     -0.0150      5.7362    137.3496     27.5361
  1076.4000      8.0889      2.5751      0.0005      4.5413    138.9054     28.0217
  1076.5000      8.0896      2.5975      0.0487      3.1814    147.5453     27.9926
  1076.6000      8.0896      2.6083      0.0497      2.5280    154.9168     27.6470
  1076.7000      8.0896      2.6055      0.0142      2.6955    151.1297     27.7819
  1076.8000      8.0884      2.5938      0.0324      3.4037    137.0950     28.4462
  1076.9000      8.0884      2.5755     -0.0060      4.5164    124.8919     28.9205
  1077.0000      8.0894      2.5601     -0.0278      5.4511    124.8324     28.8144
  1077.1000      8.0894      2.5593     -0.0315      5.4952    135.5398     28.2948
  1077.2000      8.0894      2.5694      0.0004      4.8832    146.9555     27.7640
  1077.3000      8.0879      2.5769     -0.0449      4.4327    149.3832     27.4693
  1077.4000      8.0879      2.5720      0.0285      4.7262    143.5850     27.4845
  1077.5000      8.0878      2.5524     -0.0151      5.9136    139.6979     27.7324
  1077.6000      8.0878      2.5411     -0.0601      6.5974    140.0654     27.7961
  1077.7000      8.0878      2.5609      0.0061      5.3987    136.9903     27.5977
  1077.8000      8.0871      2.5904     -0.0222      3.6143    129.4379     27.2877
  1077.9000      8.0871      2.5992      0.0266      3.0798    125.0696     26.8228
  1078.0000      8.0879      2.5890     -0.0186      3.6997    126.9089     26.4386
  1078.1000      8.0879      2.5801     -0.0070      4.2360    130.2799     26.4314
  1078.2000      8.0879      2.5840      0.0019      3.9993    131.6592     26.7008
  1078.3000      8.0880      2.5970      0.0274      3.2106    131.5901     26.8581
  1078.4000      8.0880      2.6043      0.0217      2.7671    130.5608     26.6761
  1078.5000      8.0851      2.5926      0.0228      3.4796    128.0258     26.1249
  1078.6000      8.0851      2.5679     -0.0225      4.9747    122.9152     25.4946
  1078.7000      8.0851      2.5516     -0.0558      5.9622    117.1639     25.4830
  1078.8000      8.0809      2.5556     -0.0283      5.7200    116.2478     26.3981
  1078.9000      8.0809      2.5732      0.0148      4.6541    122.2579     27.3613
  1079.0000      8.0836      2.5975      0.0064      3.1834    129.4978     27.4556
  1079.1000      8.0836      2.6245      0.0622      1.5441    133.7751     27.2570
  1079.2000      8.0836      2.6437      0.0766      0.3829    139.2167     27.3948
  1079.3000      8.0736      2.6493      0.0540      0.0425    147.3949     27.6296
  1079.4000      8.0736      2.6479      0.0515      0.1302    150.1236     27.7160
  1079.5000      8.0740      2.6465      0.0805      0.2127    141.5957     27.4494
  1079.6000      8.0740      2.6458      0.0437      0.2557    130.1992     26.7697
  1079.7000      8.0740      2.6375      0.0690      0.7548    125.0379     26.1224
  1079.8000      8.0851      2.6112      0.0363      2.3508    127.7309     26.0060
  1079.9000      8.0851      2.5741      0.0185      4.5993    137.7049     26.2288
  1080.0000      8.0873      2.5446     -0.0233      6.3849    147.4559     26.4739
  1080.1000      8.0873      2.5265     -0.0117      7.4867    151.5692     26.8973
  1080.2000      8.0873      2.5086     -0.0154      8.5707    156.4175     27.4770
  1080.3000      8.0890      2.4948     -0.0773      9.4068    161.1374     27.9877
  1080.4000      8.0890      2.5010     -0.0735      9.0326    158.7762     28.4483
  1080.5000      8.0898      2.5246     -0.0202      7.6029    153.2727     28.8112
  1080.6000      8.0898      2.5456     -0.0237      6.3302    151.7640     28.9364
  1080.7000      8.0898      2.5469      0.0216      6.2499    154.8388     29.0025
  1080.8000      8.0876      2.5327     -0.0310      7.1079    156.6879     29.1248
  1080.9000      8.0876      2.5287     -0.0366      7.3500    155.4433     28.9832
