~Version Information
VERS.                      2.0: CWLS Log ASCII Standard - VERSION 2.0
WRAP.                       NO: One line per depth step
~Well Information Block
STRT.FT                -8.2500: 
STOP.FT              2119.7500: 
STEP.FT                 0.2500: 
NULL.                -999.2500: 
COMP.          Pioneer Natural Resources: COMPANY
WELL.          Hemisphere 32-24: WELL
FLD.           Purgatorie River: FIELD
LOC.           1850' FNL & 2284' FEL--: LOCATION
PROV.                       CO: PROVINCE
CNTY.               Las Animas: COUNTRY
SRVC.          Patterson Wireline: SERVICE COMPANY
DATE.          Sat Aug 27 08:06:42 2005: LOG DATE
UWI.           05 071 08440 00: UNIQUE WELL ID
~Curve Information Block
DEPT.FT            0 000 00 00: Depth
CCL.                          : Casing Collar Locator
TT3.usec                      : CBL 3' Travel Time
AMP3.mV                       : CBL 3' Amplitude
GR.GAPI                       : Gamma Ray
~Parameter Information Block
~A  Depth       CCL         TT3         AMP3         GR     
# ...
   125.7500      0.0000   1024.5593      4.7681    101.3925
   126.0000      0.0000   1084.1046      4.4029    100.1867
   126.2500      0.0000   1120.2817      4.1368     96.9711
   126.5000      2.0000   1133.8275      3.9719     92.8692
   126.7500     -2.0000   1127.0150      3.8645     89.1870
   127.0000      0.0000   1096.9432      3.7773     86.3475
   127.2500      0.0000   1038.9094      3.7066     83.8573
   127.5000      0.0000    957.0192      3.6811     81.2007
   127.7500      0.0000    869.7614      3.7301     78.7737
   128.0000      0.0000    801.0295      3.8526     77.8587
   128.2500      0.0000    764.0674      4.0241     79.4970
   128.5000      0.0000    755.4151      4.2188     83.3672
   128.7500      0.0000    762.4938      4.4063     87.9265
   129.0000      0.0000    773.2530      4.5465     91.6516
   129.2500      0.0000    779.7661      4.6106     93.9895
   129.5000      0.0000    778.1389      4.6016     95.0516
   129.7500      0.0000    768.4715      4.5461     94.7412
   130.0000      0.0000    754.4054      4.4728     92.7824
   130.2500      0.0000    740.7978      4.4021     89.7815
   130.5000      0.0000    730.7256      4.3492     87.5598
   130.7500      0.0000    724.1512      4.3254     87.6815
   131.0000      0.0000    718.9698      4.3354     89.7650
   131.2500      0.0000    713.0925      4.3738     91.8459
   131.5000      0.0000    706.1924      4.4273     92.4787
   131.7500      0.0000    700.1805      4.4834     91.9888
   132.0000      0.0000    697.9394      4.5376     91.5954
   132.2500      0.0000    701.1525      4.5931     91.9001
   132.5000      0.0000    709.3954      4.6540     92.6489
   132.7500      0.0000    721.4100      4.7202     93.7331
   133.0000      0.0000    736.8469      4.7873     95.8407
   133.2500      0.0000    756.5846      4.8498     99.7413
   133.5000      0.0000    782.2888      4.9017    105.0842
   133.7500      0.0000    816.1733      4.9375    110.1793
   134.0000      0.0000    858.5804      4.9543    113.0675
   134.2500      0.0000    902.4098      4.9536    112.9202
   134.5000      0.0000    931.7888      4.9393    110.4176
   134.7500      0.0000    932.4268      4.9162    106.8508
   135.0000      0.0000    905.2925      4.8905    103.2757
   135.2500      0.0000    866.6810      4.8710    100.6660
   135.5000      0.0000    834.1117      4.8658    100.1292
   135.7500      0.0000    814.7549      4.8797    102.1156
   136.0000      0.0000    806.1851      4.9137    105.4613
   136.2500      0.0000    803.2987      4.9667    107.8711
   136.5000      0.0000    802.7838      5.0322    107.5713
   136.7500      0.0000    803.6262      5.0979    104.3016
   137.0000      0.0000    806.2305      5.1504     98.9322
   137.2500      0.0000    811.9321      5.1815     92.5388
   137.5000      0.0000    823.2582      5.1907     85.8642
   137.7500      0.0000    843.8487      5.1827     79.3621
   138.0000      0.0000    875.3365      5.1651     73.4664
   138.2500      0.0000    911.3051      5.1485     68.7484
   138.5000      0.0000    935.9399      5.1448     65.9838
   138.7500      0.0000    934.7449      5.1616     65.9717
   139.0000      0.0000    908.9887      5.1967     68.8667
   139.2500      0.0000    876.6516      5.2372     73.6388
   139.5000      0.0000    857.9317      5.2666     78.5498
   139.7500      0.0000    860.9952      5.2748     82.3087
   140.0000      0.0000    880.1661      5.2612     84.6525
   140.2500      0.0000    904.8712      5.2315     85.9331
   140.5000      0.0000    928.5924      5.1936     86.5548
   140.7500      0.0000    947.8898      5.1581     86.8774
   141.0000      0.0000    955.5131      5.1369     87.2080
   141.2500      0.0000    942.3765      5.1394     87.5772
   141.5000      0.0000    908.8647      5.1672     87.8095
   141.7500      0.0000    868.0894      5.2115     88.1413
   142.0000      0.0000    834.9711      5.2568     89.4542
   142.2500      0.0000    815.5246      5.2899     92.2817
   142.5000      0.0000    807.1559      5.3065     95.6320
   142.7500      0.0000    805.0452      5.3088     97.6472
   143.0000      0.0000    806.1155      5.3006     97.6654
   143.2500      0.0000    809.1895      5.2853     96.7221
   143.5000      0.0000    814.0420      5.2667     95.6987
   143.7500      0.0000    821.5170      5.2473     94.1996
   144.0000      0.0000    833.5830      5.2277     91.8526
   144.2500      0.0000    850.6083      5.2069     89.4949
   144.5000      0.0000    867.3193      5.1831     88.1037
   144.7500      0.0000    874.5481      5.1556     87.3917
   145.0000      0.0000    868.5616      5.1271     86.4533
   145.2500      0.0000    857.7606      5.1024     85.3109
   145.5000      0.0000    857.2878      5.0816     85.0360
   145.7500      0.0000    875.6244      5.0560     86.5750
   146.0000      0.0000    904.7313      5.0134     89.9229
   146.2500      0.0000    922.7001      4.9476     94.2235
   146.5000      0.0000    909.9963      4.8622     98.3206
   146.7500      0.0000    866.7604      4.7692    101.2726
   147.0000      0.0000    813.1019      4.6864    102.5418
   147.2500      0.0000    771.8939      4.6318    102.0160
   147.5000      0.0000    752.8616      4.6144    100.1460
   147.7500      0.0000    751.7091      4.6296     97.9128
   148.0000      0.0000    759.6316      4.6638     96.1812
   148.2500      0.0000    772.2257      4.7023     95.0143
   148.5000      0.0000    790.7236      4.7348     93.9557
   148.7500      0.0000    815.3790      4.7561     92.9783
   149.0000      0.0000    839.0188      4.7666     92.8026
   149.2500      0.0000    850.4831      4.7727     94.2038
   149.5000      0.0000    845.3945      4.7838     97.1258
   149.7500      0.0000    830.5082      4.8076    100.4147
   150.0000      0.0000    816.3544      4.8462    102.4486
   150.2500      0.0000    808.7205      4.8961    102.2632
   150.5000      0.0000    808.4896      4.9510    100.0988
   150.7500      0.0000    817.0085      5.0037     96.6830
   151.0000      0.0000    839.2711      5.0483     92.1796
   151.2500      0.0000    881.0618      5.0821     86.3744
   151.5000      0.0000    941.8677      5.1043     79.8745
   151.7500      0.0000   1010.7729      5.1149     74.5003
   152.0000      0.0000   1071.5730      5.1148     72.1389
   152.2500      0.0000   1113.3549      5.1064     73.3433
   152.5000      0.0000   1135.7158      5.0925     77.0657
   152.7500      0.0000   1145.0360      5.0734     81.5827
   153.0000      0.0000   1148.0614      5.0497     85.6297
   153.2500      0.0000   1148.8263      5.0250     88.8247
   153.5000      0.0000   1148.9769      5.0065     91.2756
   153.7500      0.0000   1149.0000      5.0000     92.9796
   154.0000      0.0000   1149.0000      5.0045     93.8269
   154.2500      0.0000   1149.0000      5.0130     94.1717
   154.5000      0.0000   1149.0000      5.0169     94.9050
   154.7500      0.0000   1149.0000      5.0092     96.5566
   155.0000      0.0000   1149.0000      4.9880     98.6598
   155.2500      0.0000   1149.0000      4.9590    100.4931
   155.5000      0.0000   1148.9769      4.9337    102.0232
   155.7500      0.0000   1148.8494      4.9203    103.5290
   156.0000      0.0000   1148.2352      4.9169    104.8229
   156.2500      0.0000   1145.9755      4.9143    105.5351
   156.5000      0.0000   1139.6608      4.9040    105.7433
   156.7500      0.0000   1126.5009      4.8842    105.8107
   157.0000      0.0000   1106.4817      4.8625    105.7328
   157.2500      0.0000   1085.2205      4.8530    104.8263
   157.5000      0.0000   1070.8274      4.8668    102.2084
   157.7500      0.0000   1065.8574      4.9024     97.8971
   158.0000      0.0000   1065.4109      4.9449     93.3393
   158.2500      0.0000   1065.7792      4.9790     90.3764
   158.5000      0.0000   1070.6830      4.9989     89.6515
   158.7500      0.0000   1084.9492      5.0073     90.3108
   159.0000      0.0000   1105.5918      5.0071     91.0980
