~Version Information
VERS.                      2.0: CWLS Log ASCII Standard - VERSION 2.0
WRAP.                       NO: One line per depth step
~Well Information Block
STRT.FT               585.0000: 
STOP.FT              2277.5000: 
STEP.FT                 0.1000: 
NULL.                -999.2500: 
COMP.          Pioneer Natural Resources: COMPANY
WELL.          Interceptor 43-13 Tr: WELL
FLD.           Purgatoire River: FIELD
LOC.           2006' FSL & 438' FEL: LOCATION
PROV.                 Colorado: PROVINCE
CNTY.               Las Animas: COUNTRY
SRVC.                Patterson: SERVICE COMPANY
DATE.          Mon Oct 17 07:15:06 2005: LOG DATE
UWI.           05 071 08549 00: UNIQUE WELL ID
~Curve Information Block
DEPT.FT            0 000 00 00: Depth
DCAL.in                       : CDL Caliper
RHOB.g/cc                     : CDL Bulk Density
RHOC.g/cc                     : CDL Density Correction
DPOR.pu                       : CDL Density Porosity
GR.GAPI                       : Gamma Ray
NPOR.pu                       : Neutron Porosity
~Parameter Information Block
~A  Depth       DCAL        RHOB        RHOC        DPOR         GR         NPOR    
# ...
  1929.0000      7.8778      2.6660      0.0348     -0.9691    109.5486     26.1884
  1929.1000      7.8778      2.6838      0.1175     -2.0458    106.2438     25.8279
  1929.2000      7.8778      2.6777      0.0802     -1.6778    103.8193     25.2249
  1929.3000      7.8883      2.6644      0.0431     -0.8723    102.5168     24.3754
  1929.4000      7.8883      2.6513      0.0826     -0.0770    101.0641     23.5286
  1929.5000      7.8788      2.6187      0.0299      1.8951     99.8066     23.2394
  1929.6000      7.8788      2.5699     -0.0229      4.8516    100.9827     23.2805
  1929.7000      7.8788      2.5444     -0.0947      6.4004    104.0853     23.0935
  1929.8000      7.8776      2.5665     -0.0333      5.0597    109.0211     22.9020
  1929.9000      7.8776      2.6124      0.0652      2.2783    119.7553     23.3715
  1930.0000      7.8558      2.6480      0.0699      0.1223    134.6446     24.1460
  1930.1000      7.8558      2.6690      0.1005     -1.1514    143.3705     24.4534
  1930.2000      7.8558      2.6757      0.1436     -1.5547    141.5610     24.2867
  1930.3000      7.8467      2.6608      0.0969     -0.6538    138.1454     24.1433
  1930.4000      7.8467      2.6427      0.0533      0.4396    141.4064     24.5542
  1930.5000      7.8356      2.6442      0.0635      0.3489    147.1218     25.1867
  1930.6000      7.8356      2.6552      0.0925     -0.3178    146.7446     25.0712
  1930.7000      7.8356      2.6554      0.0960     -0.3245    140.6099     24.3054
  1930.8000      7.8440      2.6361      0.1008      0.8397    136.6584     23.7071
  1930.9000      7.8440      2.6047      0.0655      2.7476    137.7987     23.5343
  1931.0000      7.8676      2.5886      0.0462      3.7229    140.4496     23.9183
  1931.1000      7.8676      2.6009      0.1230      2.9782    140.4879     24.9296
  1931.2000      7.8676      2.6241      0.1067      1.5713    138.0547     26.0907
  1931.3000      7.8687      2.6449      0.1112      0.3115    135.6696     26.8496
  1931.4000      7.8687      2.6597      0.1450     -0.5883    133.3455     27.0541
  1931.5000      7.8402      2.6669      0.1597     -1.0246    129.4131     26.7276
  1931.6000      7.8402      2.6650      0.1505     -0.9066    122.5219     26.0656
  1931.7000      7.8402      2.6599      0.0938     -0.5991    114.8123     25.4876
  1931.8000      7.8356      2.6726      0.0788     -1.3716    109.3079     25.1046
  1931.9000      7.8356      2.7139      0.0666     -3.8713    105.6288     24.7695
  1932.0000      7.8378      2.7546      0.1281     -6.3391    103.1542     24.4215
  1932.1000      7.8378      2.7560      0.0628     -6.4255     99.5056     23.7831
  1932.2000      7.8378      2.7071      0.1191     -3.4581     89.1183     22.6579
  1932.3000      7.8266      2.6048      0.1416      2.7395     75.9791     21.4085
  1932.4000      7.8266      2.4639      0.0536     11.2795     71.3475     20.6102
  1932.5000      7.8338      2.3401     -0.0467     18.7832     76.0070     20.3441
  1932.6000      7.8338      2.2732     -0.0532     22.8363     82.5927     20.2487
  1932.7000      7.8338      2.2451     -0.0865     24.5365     86.9980     20.2376
  1932.8000      7.8364      2.2356     -0.0937     25.1165     86.9348     20.4996
  1932.9000      7.8364      2.2621     -0.0175     23.5065     82.6126     20.9067
  1933.0000      7.8402      2.3401      0.1582     18.7840     78.7342     21.4720
  1933.1000      7.8402      2.4397      0.3023     12.7451     79.0041     22.5594
  1933.2000      7.8402      2.5173      0.3220      8.0405     84.8577     23.4751
  1933.3000      7.8283      2.5622      0.3134      5.3220     96.1258     23.4015
  1933.4000      7.8283      2.5858      0.2591      3.8897    107.7476     22.9768
  1933.5000      7.7343      2.6014      0.2171      2.9425    115.6588     22.8994
  1933.6000      7.7343      2.6251      0.1492      1.5075    120.6253     23.1231
  1933.7000      7.7343      2.6626      0.1856     -0.7610    125.1070     23.3587
  1933.8000      7.7359      2.6983      0.2270     -2.9244    128.5725     23.4669
  1933.9000      7.7359      2.7156      0.2321     -3.9750    126.3552     23.4313
  1934.0000      7.8134      2.7096      0.2273     -3.6130    120.8504     23.3760
  1934.1000      7.8134      2.6894      0.1625     -2.3880    119.7308     23.3969
  1934.2000      7.8134      2.6711      0.1488     -1.2769    123.7897     23.4835
  1934.3000      7.8325      2.6532      0.1548     -0.1926    127.8268     23.5709
  1934.4000      7.8325      2.6290      0.0813      1.2699    128.9921     23.4489
  1934.5000      7.8367      2.6079      0.0640      2.5538    127.5043     23.2908
  1934.6000      7.8367      2.5948      0.0659      3.3434    124.6184     23.4742
  1934.7000      7.8367      2.5871      0.0868      3.8108    123.6009     23.6398
  1934.8000      7.8326      2.5816      0.0865      4.1454    124.5950     23.4763
  1934.9000      7.8326      2.5764      0.0569      4.4617    125.4222     23.2559
  1935.0000      7.8546      2.5799      0.0568      4.2468    126.7661     23.1739
  1935.1000      7.8546      2.5952      0.1029      3.3238    128.7023     23.1644
  1935.2000      7.8546      2.6048      0.0590      2.7380    132.0703     23.1484
  1935.3000      7.8559      2.5958      0.0268      3.2872    136.8964     23.3449
  1935.4000      7.8559      2.5704      0.0692      4.8244    137.7260     23.9815
  1935.5000      7.8609      2.5432      0.0388      6.4745    134.4824     24.7110
  1935.6000      7.8609      2.5341      0.0559      7.0258    133.1084     25.2360
  1935.7000      7.8609      2.5433      0.0251      6.4677    135.8412     25.6992
  1935.8000      7.8621      2.5572      0.0380      5.6267    140.9009     25.8454
  1935.9000      7.8621      2.5650      0.0509      5.1543    144.0485     25.4328
  1936.0000      7.8943      2.5555      0.0684      5.7273    139.6692     25.0152
  1936.1000      7.8943      2.5308      0.0126      7.2242    130.7161     24.9592
  1936.2000      7.8943      2.5179      0.0032      8.0051    126.0950     25.1321
  1936.3000      7.8926      2.5340      0.0448      7.0325    126.1493     25.3343
  1936.4000      7.8926      2.5638      0.0912      5.2224    125.5884     25.2649
  1936.5000      7.8627      2.5851      0.1086      3.9344    122.2561     24.9931
  1936.6000      7.8627      2.5971      0.0857      3.2068    117.1558     24.8755
  1936.7000      7.8627      2.6145      0.1005      2.1514    115.3787     24.7926
  1936.8000      7.8522      2.6325      0.1551      1.0602    120.2929     24.6782
  1936.9000      7.8522      2.6343      0.1367      0.9498    126.2457     24.5839
  1937.0000      7.8346      2.6225      0.1056      1.6682    126.3802     24.1673
  1937.1000      7.8346      2.6094      0.0895      2.4633    123.8780     23.5358
  1937.2000      7.8346      2.6005      0.0638      2.9993    123.0813     23.2616
  1937.3000      7.8398      2.5969      0.0982      3.2173    120.9465     23.3407
  1937.4000      7.8398      2.5989      0.0707      3.0960    118.6488     23.6647
  1937.5000      7.8549      2.6036      0.1367      2.8130    120.7095     24.1811
  1937.6000      7.8549      2.6037      0.1350      2.8031    125.1526     24.3995
  1937.7000      7.8549      2.6026      0.1327      2.8736    128.0054     24.2548
  1937.8000      7.8729      2.6117      0.1260      2.3196    128.8050     24.4887
  1937.9000      7.8729      2.6309      0.1620      1.1562    129.5560     25.1710
  1938.0000      7.8886      2.6453      0.1762      0.2842    131.8780     25.3582
  1938.1000      7.8886      2.6463      0.1237      0.2231    134.4663     24.8705
  1938.2000      7.8886      2.6416      0.0960      0.5085    138.5045     24.4420
  1938.3000      7.8859      2.6385      0.1140      0.6990    146.5863     24.5659
  1938.4000      7.8859      2.6320      0.1163      1.0914    153.9542     25.0643
  1938.5000      7.9023      2.6200      0.1028      1.8161    151.9341     25.4332
