~Version Information
VERS.                      2.0: CWLS Log ASCII Standard - VERSION 2.0
WRAP.                       NO: One line per depth step
~Well Information Block
STRT.FT                 0.0000: 
STOP.FT              1871.2500: 
STEP.FT                 0.2500: 
NULL.                -999.2500: 
COMP.          Petrogulf Corporation: COMPANY
WELL.             Norton 9-14R: WELL
FLD.           Purgatorie River: FIELD
LOC.           725' FSL & 1103' FWL: LOCATION
STAT.                 Colorado: State
CNTY.               Las Animas: COUNTY
CTRY. USA : Country
SECT. 9 : Section
TOWN. 33S : Township
RANG. 67W : Range
SRVC.                Patterson: SERVICE COMPANY
DATE.          Thu Nov 10 13:05:53 2005: LOG DATE
API. 05-071-08444                         : UNIQUE WELL ID
~Curve Information Block
DEPT.FT            0 000 00 00: Depth
CCL.                          : Casing Collar Locator
TT3.usec                      : CBL 3' Travel Time
AMP3.mV                       : CBL 3' Amplitude
GR.GAPI                       : Gamma Ray
~Parameter Information Block
~A  Depth       CCL         TT3         AMP3         GR     
# ...
  1340.0000      0.0000    630.0526      7.0537    103.5136
  1340.2500      0.0000    598.5961      7.3711    110.3387
  1340.5000      0.0000    587.0317      7.6348    115.5795
  1340.7500      0.0000    594.5273      7.5910    117.1793
  1341.0000      0.0000    612.4427      7.2892    113.9780
  1341.2500      0.0000    637.3033      7.0425    106.5910
  1341.5000      0.0000    664.9769      7.1021     97.0836
  1341.7500      0.0000    683.4752      7.5345     87.9892
  1342.0000      0.0000    677.0065      8.1503     81.3275
  1342.2500      2.0000    640.0393      8.6187     77.9920
  1342.5000      0.0000    584.5250      8.7828     77.7558
  1342.7500     -2.0000    534.0938      8.7147     79.7326
  1343.0000      0.0000    514.3437      8.5163     82.7193
  1343.2500      0.0000    535.8659      8.2023     85.1953
  1343.5000      0.0000    581.2273      7.7768     85.4492
  1343.7500      0.0000    619.5208      7.3763     82.3866
  1344.0000      0.0000    636.0707      7.2360     76.5396
  1344.2500      0.0000    637.9504      7.4072     70.1472
  1344.5000      0.0000    636.6283      7.6180     65.9462
  1344.7500      0.0000    637.2425      7.5932     65.4935
  1345.0000      0.0000    637.8370      7.3670     68.1742
  1345.2500      0.0000    632.7637      7.1385     71.6999
  1345.5000      0.0000    619.8215      7.0039     73.8426
  1345.7500      0.0000    604.1126      6.9454     73.9344
  1346.0000      0.0000    594.3118      6.9419     72.8822
  1346.2500      0.0000    596.3812      6.9841     71.9822
  1346.5000      0.0000    609.9504      7.0473     71.7668
  1346.7500      0.0000    627.8443      7.1126     71.7986
  1347.0000      0.0000    641.0590      7.1743     71.3543
  1347.2500      0.0000    646.0109      7.2180     70.1321
  1347.5000      0.0000    644.7301      7.2202     68.3856
  1347.7500      0.0000    639.5977      7.1746     66.6135
  1348.0000      0.0000    631.3911      7.1189     65.1356
  1348.2500      0.0000    623.2791      7.1012     63.9046
  1348.5000      0.0000    620.8272      7.1111     62.7940
  1348.7500      0.0000    625.0128      7.1109     62.0532
  1349.0000      0.0000    632.7098      7.1202     62.4188
  1349.2500      0.0000    643.1212      7.1830     64.8441
  1349.5000      0.0000    654.7850      7.2754     70.0033
  1349.7500      0.0000    662.1786      7.3296     77.6929
  1350.0000      0.0000    663.0370      7.3170     86.6031
  1350.2500      0.0000    660.0978      7.2503     94.9938
  1350.5000      0.0000    654.4057      7.1552    101.8243
  1350.7500      0.0000    645.0452      7.0644    107.1501
  1351.0000      0.0000    634.5974      6.9959    111.5048
  1351.2500      0.0000    629.2508      6.9344    115.2448
  1351.5000      0.0000    631.2643      6.8535    118.4508
  1351.7500      0.0000    633.7112      6.7511    120.9759
  1352.0000      0.0000    627.4723      6.6487    122.5516
  1352.2500      0.0000    614.1842      6.5475    123.3800
  1352.5000      0.0000    606.0630      6.4309    124.7405
  1352.7500      0.0000    611.7775      6.3209    128.2772
  1353.0000      0.0000    627.7718      6.2682    134.1131
  1353.2500      0.0000    642.8164      6.2964    139.9909
  1353.5000      0.0000    647.0742      6.3756    142.9786
  1353.7500      0.0000    636.7911      6.4268    142.2477
  1354.0000      0.0000    615.1539      6.3806    139.8154
  1354.2500      0.0000    591.8635      6.2531    138.4162
  1354.5000      0.0000    578.0269      6.1359    138.9317
  1354.7500      0.0000    577.7944      6.0967    139.8559
  1355.0000      0.0000    587.5283      6.1185    138.9825
  1355.2500      0.0000    602.7909      6.1183    135.7193
  1355.5000      0.0000    620.5060      6.0033    131.8256
  1355.7500      0.0000    636.9738      5.7532    129.7189
  1356.0000      0.0000    649.0563      5.4404    130.1743
  1356.2500      0.0000    655.8206      5.1397    131.8662
  1356.5000      0.0000    658.5382      4.8687    132.5999
  1356.7500      0.0000    659.9169      4.6384    130.4117
  1357.0000      0.0000    662.6346      4.4826    124.1349
  1357.2500      0.0000    666.8845      4.3995    114.1164
  1357.5000      0.0000    669.1794      4.3347    102.7498
  1357.7500      0.0000    666.7598      4.2454     93.6906
  1358.0000      0.0000    661.9235      4.1622     89.7861
  1358.2500      0.0000    658.4085      4.1790     91.4183
  1358.5000      0.0000    656.9974      4.3651     96.5860
  1358.7500      0.0000    656.5774      4.6938    102.2891
  1359.0000      0.0000    656.0869      5.0798    106.0604
  1359.2500      0.0000    654.2087      5.4906    106.7424
  1359.5000      0.0000    648.8528      5.9766    104.1957
  1359.7500      0.0000    639.9874      6.5527     98.8321
  1360.0000      0.0000    632.7867      7.1033     91.8994
  1360.2500      0.0000    632.1320      7.4682     85.6907
  1360.5000      0.0000    636.1075      7.5900     82.4071
  1360.7500      0.0000    641.3832      7.5534     82.6953
  1361.0000      0.0000    647.2442      7.5083     85.7651
  1361.2500      0.0000    650.7601      7.5493     90.7330
  1361.5000      0.0000    646.8270      7.6443     97.2719
  1361.7500      0.0000    634.8812      7.6924    105.0100
  1362.0000      0.0000    623.4113      7.6485    112.9003
  1362.2500      0.0000    623.4627      7.5221    119.6084
  1362.5000      0.0000    634.8876      7.2950    124.3986
  1362.7500      0.0000    645.7947      6.9574    127.3852
  1363.0000      0.0000    645.4443      6.5849    129.1423
  1363.2500      0.0000    632.2054      6.3017    130.5495
  1363.5000      0.0000    614.2352      6.1929    132.6839
  1363.7500      0.0000    604.5127      6.2610    136.0266
  1364.0000      0.0000    610.0756      6.4233    139.6371
  1364.2500      0.0000    626.0943      6.5434    141.4783
  1364.5000      0.0000    641.4479      6.5231    139.7159
  1364.7500      0.0000    649.5184      6.3926    134.0253
  1365.0000      0.0000    653.0274      6.2827    126.0965
  1365.2500      0.0000    659.1107      6.2859    118.6912
  1365.5000      0.0000    672.9693      6.3746    113.6041
  1365.7500      0.0000    693.4846      6.4662    110.2781
  1366.0000      0.0000    709.7925      6.5283    106.5159
  1366.2500      0.0000    711.3274      6.5996    100.6374
  1366.5000      0.0000    704.5471      6.7165     92.9782
  1366.7500      0.0000    704.2913      6.8524     85.5285
  1367.0000      0.0000    712.0435      6.9520     80.5717
  1367.2500      0.0000    719.0998      6.9912     79.8107
  1367.5000      0.0000    720.9068      6.9652     84.1521
  1367.7500      0.0000    715.8471      6.8734     93.4886
  1368.0000      0.0000    699.5887      6.7545    106.3482
  1368.2500      0.0000    669.5581      6.6759    119.8980
  1368.5000      0.0000    632.3269      6.6627    130.7397
  1368.7500      0.0000    599.2115      6.6696    136.6395
  1369.0000      0.0000    578.2221      6.6346    138.2359
  1369.2500      0.0000    571.1107      6.5546    138.6952
  1369.5000      0.0000    572.5988      6.4879    140.8340
  1369.7500      0.0000    575.6165      6.4793    144.5125
  1370.0000      0.0000    577.2358      6.5101    147.2156
  1370.2500      0.0000    577.8057      6.5223    146.8884
  1370.5000      0.0000    578.0723      6.4744    143.6620
  1370.7500      0.0000    578.3573      6.3776    139.1715
  1371.0000      0.0000    578.7383      6.2979    135.1398
  1371.2500      0.0000    579.1459      6.3058    132.7094
  1371.5000      0.0000    579.4694      6.3896    132.2056
  1371.7500      0.0000    579.7730      6.4606    132.9268
  1372.0000      0.0000    580.4990      6.4677    133.4554
  1372.2500      0.0000    582.7019      6.4678    132.8142
  1372.5000      0.0000    587.9213      6.5894    131.4362
  1372.7500      0.0000    596.5804      6.9636    130.7224
  1373.0000      0.0000    607.0585      7.6443    131.5267
  1373.2500      0.0000    618.4144      8.5130    133.3598
