~Version Information
VERS.                      2.0: CWLS Log ASCII Standard - VERSION 2.0
WRAP.                       NO: One line per depth step
~Well Information Block
STRT.FT               505.0000: 
STOP.FT               772.0000: 
STEP.FT                 0.2500: 
NULL.                -999.2500: 
COMP.          Pioneer Natural Resources: COMPANY
WELL.                Zed 11-23: WELL
FLD.           Purgatoire River: FIELD
LOC.           641' FNL & 952' FWL: LOCATION
CNTY.               Las Animas: COUNTY
SRVC.                Patterson: SERVICE COMPANY
DATE.          Sun Feb 26 18:39:19 2006: LOG DATE
UWI.           05 071 08702 00: UNIQUE WELL ID
STAT.                 Colorado: STATE
~Curve Information Block
DEPT.FT            0 000 00 00: Depth
SN.Ohm-m                      : IEL Short Normal
SP.mV                         : IEL Spontaneous Potential
DIR.Ohm-m                     : IEL Induction Resistivity
GR.GAPI                       : Gamma Ray
~Parameter Information Block
~A  Depth        SN          SP         DIR          GR     
# ...
   605.5000   2000.0000   2000.0000     12.6173    129.3696
   605.7500   2000.0000   2000.0000     12.4694    133.2652
   606.0000   2000.0000   2000.0000     12.3835    137.9934
   606.2500   2000.0000   2000.0000     12.3708    140.2440
   606.5000   2000.0000   2000.0000     12.4389    141.9676
   606.7500   2000.0000   2000.0000     12.5867    141.9759
   607.0000   2000.0000   2000.0000     12.8027    140.4358
   607.2500   2000.0000   2000.0000     13.0702    138.3380
   607.5000   2000.0000   2000.0000     13.3754    133.1589
   607.7500   2000.0000   2000.0000     13.7137    128.1754
   608.0000   2000.0000   2000.0000     14.0927    118.7710
   608.2500   2000.0000   2000.0000     14.5293    111.7415
   608.5000   2000.0000   2000.0000     15.0461    100.9892
   608.7500   2000.0000   2000.0000     15.6669     94.2438
   609.0000   2000.0000   2000.0000     16.4141     86.0881
   609.2500   2000.0000   2000.0000     17.3044     82.7313
   609.5000   2000.0000   2000.0000     18.3408     81.1046
   609.7500   2000.0000   2000.0000     19.5008     81.7154
   610.0000   2000.0000   2000.0000     20.7286     83.7840
   610.2500   2000.0000   2000.0000     21.9450     85.5186
   610.5000     30.7819     48.1205     23.0742     89.6842
   610.7500     30.0774     48.2750     24.0687     95.3702
   611.0000     29.2954     48.2527     24.9097    112.5847
   611.2500     28.7527     48.0582     25.5880    131.6761
   611.5000     28.4893     47.7516     26.0899    171.1201
   611.7500     28.3625     47.4000     26.4047    201.4194
   612.0000     28.3912     47.0393     26.5448    243.4504
   612.2500     28.6267     46.6759     26.5607    263.2006
   612.5000     28.9438     46.3098     26.5360    274.0232
   612.7500     29.3201     45.9478     26.5666    269.1461
   613.0000     29.9982     45.6007     26.7375    251.2188
   613.2500     31.1556     45.2790     27.1082    238.1596
   613.5000     32.6902     44.9938     27.7075    224.6760
   613.7500     34.3084     44.7531     28.5291    221.5334
   614.0000     35.6238     44.5510     29.5246    224.8883
   614.2500     36.4490     44.3629     30.6031    231.0435
   614.5000     37.0024     44.1572     31.6468    242.9002
   614.7500     37.5252     43.9141     32.5462    250.5549
   615.0000     38.0105     43.6316     33.2273    260.0274
   615.2500     38.5054     43.3153     33.6448    266.6427
   615.5000     39.2075     42.9678     33.7602    285.2609
   615.7500     40.1447     42.5896     33.5566    309.6782
   616.0000     41.1740     42.1879     33.0926    369.6943
   616.2500     42.2421     41.7858     32.5299    421.0795
   616.5000     43.3319     41.4228     32.0732    494.7241
   616.7500     44.2801     41.1415     31.8716    527.0460
   617.0000     44.8270     40.9635     31.9565    534.2276
   617.2500     44.8292     40.8674     32.2535    510.7119
   617.5000     44.3625     40.7858     32.6416    444.3022
   617.7500     43.6008     40.6334     33.0146    389.8367
   618.0000     42.6745     40.3552     33.3080    311.6668
   618.2500     41.6685     39.9565     33.4903    270.4149
   618.5000     40.6614     39.4896     33.5466    231.0696
   618.7500     39.7517     39.0107     33.4746    218.1121
   619.0000     39.0266     38.5509     33.2934    209.8330
   619.2500     38.4934     38.1218     33.0472    206.5347
   619.5000     38.0031     37.7395     32.7955    199.9221
   619.7500     37.2730     37.4410     32.5924    193.6360
   620.0000     36.1825     37.2814     32.4583    180.8533
   620.2500     34.9713     37.3173     32.3644    169.5127
   620.5000     33.9822     37.5877     32.2428    148.6602
   620.7500     33.4065     38.0960     32.0170    134.2915
   621.0000     33.3721     38.8008     31.6339    117.3748
   621.2500     34.0024     39.6252     31.0767    111.2679
   621.5000     35.2202     40.4873     30.3636    109.6394
   621.7500     36.6486     41.3302     29.5460    111.8922
   622.0000     37.7697     42.1352     28.7053    116.8540
   622.2500     38.1341     42.9149     27.9363    119.4385
   622.5000     37.5667     43.6932     27.3167    119.9902
   622.7500     36.2036     44.4818     26.8770    117.8296
   623.0000     34.3188     45.2690     26.5863    112.8741
   623.2500     32.2716     46.0314     26.3633    110.7303
   623.5000     30.4511     46.7521     26.1136    112.7206
   623.7500     29.0788     47.4274     25.7716    118.0949
   624.0000     28.1167     48.0617     25.3233    129.9330
   624.2500     27.3743     48.6616     24.7979    137.4224
   624.5000     26.7555     49.2330     24.2438    142.5085
   624.7500     26.3056     49.7766     23.7090    139.9107
   625.0000     26.0093     50.2869     23.2330    127.7575
   625.2500     25.7871     50.7575     22.8479    116.3085
   625.5000     25.6397     51.1875     22.5831     98.4257
   625.7500     25.6294     51.5816     22.4658     88.0815
   626.0000     25.7953     51.9397     22.5149     77.1785
   626.2500     26.0709     52.2540     22.7292     73.3863
   626.5000     26.2678     52.5176     23.0816     71.8820
   626.7500     26.2891     52.7371     23.5252     72.4671
   627.0000     26.2607     52.9333     24.0080     73.9759
   627.2500     26.3353     53.1289     24.4847     74.9748
   627.5000     26.5355     53.3371     24.9170     76.4565
   627.7500     26.7552     53.5546     25.2701     77.4770
   628.0000     26.8294     53.7641     25.5169     78.9062
   628.2500     26.7235     53.9460     25.6508     79.6414
   628.5000     26.6045     54.0925     25.6921     80.0858
   628.7500     26.6484     54.2124     25.6803     79.6877
   629.0000     26.8558     54.3243     25.6566     77.9177
   629.2500     27.0891     54.4466     25.6513     76.3295
   629.5000     27.2698     54.5897     25.6820     74.4425
   629.7500     27.4090     54.7529     25.7621     73.9513
   630.0000     27.5011     54.9214     25.9098     74.3136
   630.2500     27.6005     55.0652     26.1488     74.9277
   630.5000     27.8190     55.1441     26.4992     75.7205
   630.7500     28.1423     55.1255     26.9626     75.9803
   631.0000     28.4571     55.0120     27.5134     76.1387
   631.2500     28.6860     54.8577     28.1009     76.2466
   631.5000     28.8148     54.7564     28.6622     76.2859
   631.7500     28.9348     54.8007     29.1432     75.9293
   632.0000     29.2350     55.0260     29.5206     74.4148
   632.2500     29.8214     55.3796     29.8150     72.8540
   632.5000     30.5633     55.7422     30.0829     70.4779
   632.7500     31.2818     55.9918     30.3928     69.3875
   633.0000     32.0337     56.0608     30.7987     68.7663
   633.2500     32.9298     55.9507     31.3265     68.7178
   633.5000     33.7827     55.7122     31.9742     68.3746
   633.7500     34.2828     55.4137     32.7222     67.7230
   634.0000     34.4272     55.1152     33.5437     66.4251
   634.2500     34.5573     54.8576     34.4085     65.8164
   634.5000     34.9898     54.6620     35.2745     66.0334
   634.7500     35.7176     54.5290     36.0772     67.1115
   635.0000     36.5223     54.4362     36.7339     69.9618
   635.2500     37.2240     54.3409     37.1705     72.3535
   635.5000     37.7347     54.1921     37.3532     75.7118
   635.7500     38.1114     53.9437     37.3073     77.1092
   636.0000     38.6032     53.5695     37.1099     77.1344
   636.2500     39.3625     53.0774     36.8618     75.8097
   636.5000     40.1901     52.5125     36.6457     72.8545
   636.7500     40.7984     51.9373     36.4909     71.2341
   637.0000     41.0985     51.4005     36.3606     70.9173
   637.2500     41.0827     50.9208     36.1746     72.4461
   637.5000     40.7351     50.4968     35.8549     76.3669
   637.7500     40.1158     50.1206     35.3744     78.8618
   638.0000     39.2790     49.7769     34.7796     80.6655
   638.2500     38.1798     49.4397     34.1732     80.4296
   638.5000     36.8418     49.0830     33.6563     79.2563
   638.7500     35.4414     48.7035     33.2669     78.9756
