~Version Information
VERS.                      2.0: CWLS Log ASCII Standard - VERSION 2.0
WRAP.                       NO: One line per depth step
~Well Information Block
STRT.FT                31.2500: 
STOP.FT               700.7500: 
STEP.FT                 0.2500: 
NULL.                -999.2500: 
COMP.          XTO Energy Inc.: COMPANY
WELL.          Golden Eagle 20-14: WELL
FLD.           Purgatrorie River: FIELD
LOC.           587' FSL & 2478' FWL--: LOCATION
STAT.                       CO: State
CNTY.               Las Animas: COUNTY
CTRY. USA : Country
SECT. 20 : Section
TOWN. 33S : Township
RANG. 67W : Range
SRVC.          Patterson Wireline: SERVICE COMPANY
DATE.          Sat Dec 10 15:54:00 2005: LOG DATE
API.           05 071 08614 00: UNIQUE WELL ID
~Curve Information Block
DEPT.FT            0 000 00 00: Depth
CCL.                          : Casing Collar Locator
TT3.usec                      : CBL 3' Travel Time
AMP3.mV                       : CBL 3' Amplitude
GR.GAPI                       : Gamma Ray
~Parameter Information Block
~A  Depth       CCL         TT3         AMP3         GR     
# ...
   366.2500      0.0000    890.2097      3.4132     96.8529
   366.5000      0.0000    890.8926      3.3635    102.9132
   366.7500      0.0000    889.8778      3.3716    110.3374
   367.0000      0.6036    886.7537      3.4401    115.5794
   367.2500      0.0000    882.2396      3.5337    115.8483
   367.5000      0.0000    878.1086      3.5902    110.6788
   367.7500      1.0019    876.2245      3.5560    101.8087
   368.0000      0.0000    877.3176      3.4204     92.0898
   368.2500      0.0000    880.6846      3.2214     84.3805
   368.5000      0.6708    884.8841      3.0193     80.5177
   368.7500      0.0000    888.4933      2.8592     80.6566
   369.0000      0.0000    890.4521      2.7503     83.4970
   369.2500      0.0000    890.0334      2.6766     87.1050
   369.5000      0.0000    886.8332      2.6199     89.6146
   369.7500      0.0000    881.2411      2.5692     89.6923
   370.0000      0.0000    874.9030      2.5134     86.9439
   370.2500      0.0000    869.5294      2.4453     82.2386
   370.5000      0.0000    864.2265      2.3743     77.6793
   370.7500      0.0000    854.8932      2.3245     75.7846
   371.0000      0.0000    837.8489      2.3137     78.1809
   371.2500      0.0000    814.0624      2.3448     84.8082
   371.5000      0.0000    789.1109      2.4176     94.3486
   371.7500      0.0000    769.3795      2.5353    105.2901
   372.0000      0.0000    758.7800      2.6868    116.4878
   372.2500      0.0000    757.9492      2.8312    127.0121
   372.5000      0.0000    764.6491      2.9182    135.9064
   372.7500      0.0000    774.4175      2.9308    142.2836
   373.0000      0.0000    782.1567      2.9008    145.6203
   373.2500      0.0000    784.5829      2.8861    145.9850
   373.5000      0.0000    781.8531      2.9404    143.8195
   373.7500      0.0000    777.1508      3.0969    139.4255
   374.0000      0.5579    774.8514      3.3576    133.0208
   374.2500      0.0000    778.1973      3.6875    125.3138
   374.5000      0.0000    787.4186      4.0245    117.3114
   374.7500      0.0000    799.8298      4.3057    109.4460
   375.0000      0.0000    812.3969      4.4960    101.5233
   375.2500      0.0000    824.2451      4.6052     93.5199
   375.5000      0.0000    835.9240      4.6774     86.0482
   375.7500      0.0000    846.5414      4.7573     80.1225
   376.0000      0.0000    853.2817      4.8627     76.6474
   376.2500      0.0000    854.1636      4.9859     75.7878
   376.5000      0.0000    849.8368      5.1134     76.6238
   376.7500      0.0000    842.1221      5.2359     77.6301
   377.0000      0.0000    831.9611      5.3437     77.6744
   377.2500      0.0000    819.5822      5.4234     76.7299
   377.5000      0.0000    806.0815      5.4647     75.7368
   377.7500      0.0000    793.9128      5.4691     75.5643
   378.0000      0.0000    785.4842      5.4518     75.8852
   378.2500      0.0000    781.3743      5.4379     75.4283
   378.5000      0.0000    780.0606      5.4527     73.6469
   378.7500      0.0000    779.4221      5.5067     71.7036
   379.0000      0.0000    778.5567      5.5857     71.4205
   379.2500      0.0000    778.5076      5.6549     73.4975
   379.5000      0.0000    781.4274      5.6792     76.8350
   379.7500      0.0000    788.7960      5.6431     79.2506
   380.0000      0.0000    800.2087      5.5553     78.9981
   380.2500      0.0000    813.6556      5.4362     76.1859
   380.5000      0.0000    826.4118      5.3006     72.8481
   380.7500      0.0000    835.8218      5.1515     71.2950
   381.0000      0.0000    840.5760      4.9854     72.5448
   381.2500      0.0000    841.9941      4.8057     76.4749
   381.5000      0.0000    843.3057      4.6309     82.6795
   381.7500      0.0000    847.2509      4.4937     90.3611
   382.0000      0.0000    854.3319      4.4261     97.6450
   382.2500      0.0000    862.3026      4.4400    101.7925
   382.5000      0.0000    866.8096      4.5163    100.6169
   382.7500      0.0000    864.0949      4.6117     93.9048
   383.0000      0.0000    854.4074      4.6808     83.5488
   383.2500      0.0000    842.1332      4.6996     72.4629
   383.5000      0.0000    831.4913      4.6772     63.3784
   383.7500      0.0000    822.6309      4.6448     58.0653
   384.0000      0.0000    813.0138      4.6310     56.8303
   384.2500      0.0000    801.7626      4.6464     58.4661
   384.5000      0.0000    790.9270      4.6907     61.0203
   384.7500      0.0000    782.8539      4.7664     62.9740
   385.0000      0.0000    777.9106      4.8735     63.8491
   385.2500      0.0000    774.8417      4.9927     63.8371
   385.5000      0.0000    772.2511      5.0835     63.1961
   385.7500      0.0000    769.5800      5.1086     62.1899
   386.0000      0.0000    767.3115      5.0586     61.3817
   386.2500      0.0000    766.3359      4.9561     61.6030
   386.5000      0.0000    766.6713      4.8368     63.4687
   386.7500      0.0000    766.8080      4.7313     66.9442
   387.0000      0.0000    764.7899      4.6621     71.3986
   387.2500      0.0000    760.3262      4.6439     76.0457
   387.5000      0.0000    755.9317      4.6760     80.3982
   387.7500      0.0000    755.9009      4.7378     84.3758
   388.0000      0.0000    763.7380      4.8061     88.0786
   388.2500      0.0000    779.7434      4.8750     91.7284
   388.5000      0.0000    800.3611      4.9522     95.9364
   388.7500      0.0000    820.0388      5.0414    101.5033
   389.0000      0.0000    834.6002      5.1308    108.4221
   389.2500      0.0000    842.9845      5.1975    115.2788
   389.5000      0.0000    845.5027      5.2192    120.1911
   389.7500      0.0000    841.5079      5.1931    122.3529
   390.0000      0.0000    830.4821      5.1412    122.4055
   390.2500      0.0000    815.1439      5.0886    121.5118
   390.5000      0.0000    801.7511      5.0333    120.5465
   390.7500      0.0000    796.6973      4.9497    120.0984
   391.0000      0.0000    802.7946      4.8267    120.4722
   391.2500      0.0000    817.8874      4.6909    121.1418
   391.5000      0.0000    836.3348      4.5886    120.5576
   391.7500      0.0000    852.7715      4.5487    117.1978
   392.0000      0.0000    865.2419      4.5679    111.1755
   392.2500      0.0000    874.6538      4.6217    104.6658
   392.5000      0.0000    881.9116      4.6808    100.3802
   392.7500      0.0000    886.5414      4.7172     99.4116
   393.0000      0.0000    887.3771      4.7083    100.5524
   393.2500      0.0000    883.4800      4.6453    101.4765
   393.5000      0.0000    875.0707      4.5377    100.1978
   393.7500      0.0000    864.7710      4.4080     95.6901
   394.0000      0.0000    857.3391      4.2794     88.1770
   394.2500      0.0000    856.3735      4.1707     79.2621
   394.5000      0.0000    860.7048      4.0958     71.0622
   394.7500      0.0000    864.7933      4.0644     64.6588
   395.0000      0.0000    862.9906      4.0776     59.6444
   395.2500      0.0000    853.3705      4.1240     55.2643
   395.5000      0.0000    837.8397      4.1836     51.6475
   395.7500      0.0000    819.1083      4.2374     49.7969
   396.0000      0.0000    798.0500      4.2745     50.5076
   396.2500      0.0000    774.5494      4.2952     53.3630
   396.5000      0.0000    750.3683      4.3140     56.8487
   396.7500      0.0000    729.5621      4.3602     59.4640
   397.0000      0.0000    715.6498      4.4669     60.8438
   397.2500      0.0000    709.4750      4.6486     62.1403
   397.5000      0.0000    709.9909      4.8842     65.4212
   397.7500      0.0000    715.8975      5.1242     72.1842
   398.0000      0.0000    725.9597      5.3159     82.0787
   398.2500      0.0000    738.6156      5.4278     93.2799
   398.5000      0.0000    752.2511      5.4581    104.1649
   398.7500      0.0000    765.8759      5.4260    114.1670
   399.0000      0.0000    779.3247      5.3563    122.9851
   399.2500      0.0000    793.0356      5.2736    129.7574
   399.5000      0.0000    807.4799      5.2090    133.8436
