~Version Information
VERS.                      2.0: CWLS Log ASCII Standard - VERSION 2.0
WRAP.                       NO: One line per depth step
~Well Information Block
STRT.FT                 0.0000: 
STOP.FT              2792.7500: 
STEP.FT                 0.2500: 
NULL.                -999.2500: 
COMP.          Pioneer Natural Resources: COMPANY
WELL.          Black Cat 13-32: WELL
FLD.           Purgatorie River: FIELD
LOC.           1865' FSL & 1120' FWL: LOCATION
PROV.                 Colorado: PROVINCE
CNTY.               Las Animas: COUNTRY
SRVC.                Patterson: SERVICE COMPANY
DATE.          Fri Aug 19 09:19:21 2005: LOG DATE
UWI.                          : UNIQUE WELL ID
~Curve Information Block
DEPT.FT            0 000 00 00: Depth
CCL.                          : Casing Collar Locator
TT3.usec                      : CBL 3' Travel Time
AMP3.mV                       : CBL 3' Amplitude
GR.GAPI                       : Gamma Ray
~Parameter Information Block
~A  Depth       CCL         TT3         AMP3         GR     
# ...
   368.5000      0.0000    854.6201      3.3414    102.3646
   368.7500      0.0000    857.4119      3.3214    101.8270
   369.0000      0.0000    855.6407      3.3236    101.6389
   369.2500      0.0000    851.6243      3.3439    101.8026
   369.5000      0.0000    848.6970      3.3684    101.4022
   369.7500      0.0000    847.2590      3.3918    100.4476
   370.0000      0.0000    846.1813      3.4184    100.0771
   370.2500      0.0000    844.5392      3.4522    101.0683
   370.5000      0.0000    841.5483      3.4921    102.8600
   370.7500      0.0000    838.1003      3.5317    104.2295
   371.0000      0.0000    838.7014      3.5635    104.4988
   371.2500      0.0000    847.4755      3.5861    103.8182
   371.5000      0.0000    861.0390      3.6201    102.6920
   371.7500      0.0000    870.2178      3.6948    101.6530
   372.0000      0.0000    872.1121      3.7993    101.0444
   372.2500      0.0000    876.3934      3.8839    100.6523
   372.5000      0.0000    898.9983      3.9224     99.9941
   372.7500      0.0000    958.3363      3.9352     99.2745
   373.0000      0.0000   1063.2524      3.9615     99.3695
   373.2500      0.0000   1183.4807      4.0298    100.3863
   373.5000      0.0000   1260.8506      4.1409    100.8982
   373.7500      0.0000   1274.3796      4.2657     99.3467
   374.0000      0.0000   1257.5114      4.3638     95.9352
   374.2500      0.0000   1231.3413      4.4166     92.4998
   374.5000      0.0000   1172.8898      4.4423     90.5318
   374.7500      0.0000   1076.7233      4.4691     89.8106
   375.0000      0.0000    981.9033      4.5123     89.0116
   375.2500      0.0000    915.7291      4.5786     87.2018
   375.5000      0.0000    865.4125      4.6693     84.5222
   375.7500      0.0000    812.1220      4.7791     81.7377
   376.0000      0.0000    765.4899      4.9045     79.4989
   376.2500      0.0000    749.0015      5.0501     78.0232
   376.5000      0.0000    756.8713      5.2109     77.2128
   376.7500      0.0000    759.1973      5.3586     76.8534
   377.0000      0.0000    748.3131      5.4609     76.8172
   377.2500      0.0000    740.7088      5.5023     77.3400
   377.5000      0.0000    742.6171      5.4898     79.1917
   377.7500      0.0000    745.8773      5.4505     83.3544
   378.0000      0.0000    744.6241      5.4025     90.1518
   378.2500      0.0000    739.8533      5.3394     98.5612
   378.5000      0.0000    734.8381      5.2557    106.7398
   378.7500      0.0000    728.9100      5.1549    113.5663
   379.0000      0.0000    717.3076      5.0392    119.3626
   379.2500      0.0000    700.3843      4.9147    124.8050
   379.5000      0.0000    685.9824      4.7976    129.5977
   379.7500      0.0000    680.7073      4.6997    132.6439
   380.0000      0.0000    686.5160      4.6269    133.0529
   380.2500      0.0000    702.5604      4.5914    130.6940
   380.5000      0.0000    723.4444      4.5952    126.3420
   380.7500      0.0000    741.2595      4.6219    121.5905
   381.0000      0.0000    753.0934      4.6518    118.0031
   381.2500      0.0000    760.2609      4.6666    115.7426
   381.5000      0.0000    761.0250      4.6669    113.1929
   381.7500      0.0000    751.8503      4.6711    108.4395
   382.0000      0.0000    734.8755      4.6767    101.3977
   382.2500      0.0000    718.3213      4.6740     94.4170
   382.5000      0.0000    708.8897      4.6728     90.6673
   382.7500      0.0000    705.8346      4.6745     91.7865
   383.0000      0.0000    703.4979      4.6728     96.6733
   383.2500      0.0000    698.8203      4.6742    102.1577
   383.5000      0.0000    691.9757      4.6846    105.1719
   383.7500      0.0000    680.0316      4.7140    104.9160
   384.0000      0.0000    662.1168      4.7663    103.0385
   384.2500      0.0000    646.8342      4.8052    101.8357
   384.5000      0.0000    641.1678      4.8071    102.6038
   384.7500      0.0000    641.5312      4.8025    105.2749
   385.0000      0.0000    643.4498      4.8052    108.7608
   385.2500      0.0000    648.7969      4.7983    111.6521
   385.5000      0.0000    658.4204      4.7895    113.2160
   385.7500      0.0000    668.0566      4.7875    113.8826
   386.0000      0.0000    675.2615      4.7764    114.6513
   386.2500      0.0000    682.5407      4.7676    116.1073
   386.5000      0.0000    690.9325      4.8029    118.0953
   386.7500      0.0000    695.7355      4.8764    120.1068
   387.0000      0.0000    694.5310      4.9381    121.6158
   387.2500      0.0000    694.9332      4.9745    122.0447
   387.5000      0.0000    705.2951      5.0008    120.9217
   387.7500      0.0000    722.1686      5.0060    118.5796
   388.0000      0.0000    734.5585      4.9795    116.4749
   388.2500      0.0000    737.4479      4.9403    116.1862
   388.5000      0.0000    734.2679      4.9010    117.8685
   388.7500      0.0000    727.4411      4.8554    119.9923
   389.0000      0.0000    716.7356      4.8218    120.8361
   389.2500      0.0000    707.5211      4.8335    120.0481
   389.5000      0.0000    707.1330      4.8752    118.5841
   389.7500      0.0000    714.9080      4.8981    117.4261
   390.0000      0.0000    724.5556      4.9002    116.8505
   390.2500      0.0000    731.1443      4.9144    116.7734
   390.5000      0.0000    735.1855      4.9401    117.3801
   390.7500      0.0000    739.9470      4.9555    119.3799
   391.0000      0.0000    745.2418      4.9724    123.3855
   391.2500      0.0000    748.8337      5.0298    128.4478
   391.5000      0.0000    750.4436      5.1393    131.5571
   391.7500      0.0000    750.6965      5.2583    129.7427
   392.0000      0.0000    748.4885      5.3340    122.8333
   392.2500      0.0000    740.4222      5.3603    113.6067
   392.5000      0.0000    724.1673      5.3601    105.4577
   392.7500      0.0000    703.6670      5.3344    100.3873
   393.0000      0.0000    687.1287      5.2736     98.7209
   393.2500      0.0000    678.5861      5.2037     99.7392
   393.5000      0.0000    676.2081      5.1769    102.2889
   393.7500      0.0000    677.8752      5.2114    105.2531
   394.0000      0.0000    683.7164      5.2696    107.8602
   394.2500      0.0000    692.4539      5.2949    109.5770
   394.5000      0.0000    699.0920      5.2596    109.8425
   394.7500      0.0000    701.7022      5.1853    108.2636
   395.0000      0.0000    705.3466      5.1127    105.2151
   395.2500      0.0000    713.2984      5.0583    101.9742
   395.5000      0.0000    722.6484      5.0146    100.0941
   395.7500      0.0000    729.9123      4.9739    100.7420
   396.0000      0.0000    735.6339      4.9330    104.4919
   396.2500      0.0000    742.0032      4.8889    111.0953
   396.5000      0.0000    747.8223      4.8366    119.1077
   396.7500      0.0000    752.0966      4.7776    126.3637
   397.0000      0.0000    753.4291      4.7327    131.5466
   397.2500      0.0000    746.6920      4.7183    135.1130
   397.5000      0.0000    736.5715      4.7136    138.2747
   397.7500      0.0000    738.3635      4.6980    141.3447
   398.0000      0.0000    753.1181      4.6931    143.4637
   398.2500      0.0000    764.2922      4.7276    143.7533
   398.5000      0.0000    761.4445      4.7914    142.3995
   398.7500      0.0000    747.3299      4.8517    140.5483
   399.0000      0.0000    727.0063      4.8894    139.3414
   399.2500      0.0000    706.0504      4.9043    139.2187
   399.5000      0.0000    693.0977      4.8992    139.9132
   399.7500      0.0000    693.9919      4.8772    140.6471
   400.0000      0.0000    704.2979      4.8491    140.4081
   400.2500      0.0000    710.3103      4.8359    138.4176
   400.5000      0.0000    703.3992      4.8511    134.4730
   400.7500      0.0000    690.1664      4.8728    128.9087
   401.0000      0.0000    680.7195      4.8622    122.3319
   401.2500      0.0000    676.6339      4.7920    115.3298
   401.5000      0.0000    674.2349      4.6003    108.3998
   401.7500      0.0000    670.6082      4.2419    102.0755
