~Version Information
VERS.                      2.0: CWLS Log ASCII Standard - VERSION 2.0
WRAP.                       NO: One line per depth step
~Well Information Block
STRT.FT               588.7000: 
STOP.FT              1820.2000: 
STEP.FT                 0.1000: 
NULL.                -999.2500: 
COMP.          Pioneer Natural Resources: COMPANY
WELL.           Loews 41-32 Tr: WELL
FLD.           Purgatoire River: FIELD
LOC.           706' FNL & 224' FEL--: LOCATION
CNTY.               Las Animas: COUNTY
SRVC.                Patterson: SERVICE COMPANY
DATE.          Tue Feb 21 10:23:46 2006: LOG DATE
UWI.           05 071 08690 00: UNIQUE WELL ID
STAT.                 Colorado: STATE
~Curve Information Block
DEPT.FT            0 000 00 00: Depth
DCAL.in                       : CDL Caliper
RHOB.g/cc                     : CDL Bulk Density
RHOC.g/cc                     : CDL Density Correction
DPOR.pu                       : CDL Density Porosity
GR.GAPI                       : Gamma Ray
~Parameter Information Block
~A  Depth       DCAL        RHOB        RHOC        DPOR         GR     
# ...
  1395.1000      7.9286      2.5660      0.0549      5.0938     78.0140
  1395.2000      7.9286      2.5677      0.0789      4.9892     75.4430
  1395.3000      7.9313      2.5673      0.0383      5.0142     73.6518
  1395.4000      7.9313      2.5601      0.0560      5.4492     74.5928
  1395.5000      7.9341      2.5537      0.0209      5.8381     79.7439
  1395.6000      7.9341      2.5635      0.0266      5.2425     84.6636
  1395.7000      7.9341      2.5801      0.1103      4.2354     85.2371
  1395.8000      7.9347      2.5737      0.0760      4.6237     84.9556
  1395.9000      7.9347      2.5489      0.0145      6.1286     85.5656
  1396.0000      7.9339      2.5482     -0.0216      6.1697     84.5385
  1396.1000      7.9339      2.5877      0.0724      3.7729     84.4172
  1396.2000      7.9339      2.6294      0.1121      1.2485     89.0611
  1396.3000      7.9326      2.6356      0.1102      0.8739     96.0048
  1396.4000      7.9326      2.6157      0.0376      2.0775     99.1244
  1396.5000      7.9279      2.5993      0.0299      3.0754     96.9151
  1396.6000      7.9279      2.5894      0.0681      3.6717     93.3852
  1396.7000      7.9279      2.5806      0.0091      4.2043     90.7683
  1396.8000      7.9183      2.5813      0.0471      4.1643     88.4411
  1396.9000      7.9183      2.5884      0.0685      3.7310     84.9221
  1397.0000      7.9077      2.5959      0.0219      3.2806     80.8196
  1397.1000      7.9077      2.6108      0.0591      2.3768     77.3476
  1397.2000      7.9077      2.6296      0.0923      1.2373     74.4221
  1397.3000      7.9014      2.6360      0.0870      0.8501     73.9937
  1397.4000      7.9014      2.6271      0.0363      1.3869     76.9897
  1397.5000      7.9035      2.6093      0.0978      2.4675     80.3266
  1397.6000      7.9035      2.5865      0.0898      3.8494     81.4190
  1397.7000      7.9035      2.5737      0.0548      4.6222     82.0103
  1397.8000      7.9196      2.5804      0.0418      4.2172     85.2429
  1397.9000      7.9196      2.5869      0.1072      3.8212     91.4195
  1398.0000      7.9454      2.5776      0.0417      4.3908     98.6743
  1398.1000      7.9454      2.5685      0.0327      4.9416    103.7360
  1398.2000      7.9454      2.5707      0.0700      4.8060    105.7306
  1398.3000      7.9644      2.5721      0.0662      4.7217    107.6758
  1398.4000      7.9644      2.5660      0.0749      5.0910    111.5548
  1398.5000      7.9724      2.5596      0.0211      5.4796    116.4524
  1398.6000      7.9724      2.5591      0.0549      5.5098    121.6039
  1398.7000      7.9724      2.5619      0.0508      5.3402    128.2413
  1398.8000      7.9753      2.5628      0.1158      5.2862    132.5552
  1398.9000      7.9753      2.5526      0.0930      5.9032    131.3167
  1399.0000      7.9768      2.5317      0.0321      7.1706    129.6180
  1399.1000      7.9768      2.5153      0.0162      8.1634    129.4077
  1399.2000      7.9768      2.5103      0.0289      8.4691    128.7906
  1399.3000      7.9784      2.5145      0.0478      8.2102    129.7013
  1399.4000      7.9784      2.5263      0.0683      7.4959    134.5254
  1399.5000      7.9769      2.5426      0.0864      6.5119    139.4087
  1399.6000      7.9769      2.5651      0.0700      5.1473    139.7649
  1399.7000      7.9769      2.5886      0.1152      3.7231    138.8967
  1399.8000      7.9740      2.5930      0.0911      3.4565    137.1234
  1399.9000      7.9740      2.5746      0.0699      4.5671    129.6344
  1400.0000      7.9764      2.5503      0.0603      6.0400    119.1202
  1400.1000      7.9764      2.5341      0.0920      7.0232    112.3847
  1400.2000      7.9764      2.5331      0.0584      7.0825    111.7751
  1400.3000      7.9850      2.5436      0.0872      6.4479    115.3230
  1400.4000      7.9850      2.5443      0.0852      6.4046    120.2226
  1400.5000      7.9920      2.5157      0.1025      8.1403    122.2834
  1400.6000      7.9920      2.4658      0.0554     11.1651    119.7413
  1400.7000      7.9920      2.4321     -0.0374     13.2034    116.0403
  1400.8000      7.9942      2.4339      0.0117     13.0985    114.7540
  1400.9000      7.9942      2.4459      0.0119     12.3699    114.4081
  1401.0000      7.9937      2.4484      0.0139     12.2166    115.3858
  1401.1000      7.9937      2.4476      0.0254     12.2644    119.7019
  1401.2000      7.9937      2.4495      0.0234     12.1527    123.7157
  1401.3000      7.9955      2.4606      0.0341     11.4810    124.2474
  1401.4000      7.9955      2.4924      0.0598      9.5546    122.6554
  1401.5000      7.9990      2.5455      0.0806      6.3349    121.3527
  1401.6000      7.9990      2.6048      0.1634      2.7404    119.8084
  1401.7000      7.9990      2.6448      0.1903      0.3151    116.5676
  1401.8000      8.0016      2.6502      0.1368     -0.0114    115.2121
  1401.9000      8.0016      2.6275      0.1454      1.3623    118.3514
  1402.0000      8.0047      2.5893      0.0762      3.6773    122.1022
  1402.1000      8.0047      2.5452      0.0682      6.3539    121.6646
  1402.2000      8.0047      2.5007      0.0669      9.0514    118.5600
  1402.3000      8.0077      2.4603      0.0269     11.4953    115.9816
  1402.4000      8.0077      2.4345     -0.0086     13.0631    114.2806
  1402.5000      8.0091      2.4264      0.0380     13.5485    115.4023
  1402.6000      8.0091      2.4234      0.0299     13.7358    121.9720
  1402.7000      8.0091      2.4150      0.0579     14.2395    129.2950
  1402.8000      8.0155      2.4005      0.0937     15.1218    131.4554
  1402.9000      8.0155      2.3826      0.0759     16.2034    131.7026
  1403.0000      8.0273      2.3687      0.0910     17.0473    134.0464
  1403.1000      8.0273      2.3681      0.0959     17.0868    137.4727
  1403.2000      8.0273      2.3889      0.1126     15.8267    140.2213
  1403.3000      8.0373      2.4351      0.1586     13.0239    141.8094
  1403.4000      8.0373      2.4945      0.2326      9.4212    142.4378
  1403.5000      8.0532      2.5311      0.2951      7.2038    141.6461
  1403.6000      8.0532      2.5173      0.2636      8.0408    140.6973
  1403.7000      8.0532      2.4738      0.1479     10.6796    141.4102
  1403.8000      8.0529      2.4432      0.1359     12.5353    141.7309
  1403.9000      8.0529      2.4347      0.1488     13.0512    139.5256
  1404.0000      8.0112      2.4374      0.1112     12.8838    136.5616
  1404.1000      8.0112      2.4511      0.1714     12.0565    133.5501
  1404.2000      8.0112      2.4814      0.1474     10.2199    132.0031
  1404.3000      7.9662      2.5285      0.1714      7.3652    134.6445
  1404.4000      7.9662      2.5712      0.2250      4.7739    139.0138
  1404.5000      7.9422      2.5807      0.2576      4.1989    141.7255
  1404.6000      7.9422      2.5626      0.1721      5.2954    143.5592
  1404.7000      7.9422      2.5495      0.1623      6.0892    145.0204
  1404.8000      7.9374      2.5526      0.1867      5.9042    145.5254
  1404.9000      7.9374      2.5639      0.1423      5.2209    145.8362
  1405.0000      7.9402      2.5783      0.1766      4.3449    145.7257
  1405.1000      7.9402      2.5877      0.1692      3.7773    141.2549
  1405.2000      7.9402      2.5810      0.1950      4.1840    132.3457
  1405.3000      7.9421      2.5575      0.1376      5.6042    126.5615
  1405.4000      7.9421      2.5351      0.0675      6.9632    126.5853
  1405.5000      7.9439      2.5263      0.0454      7.4975    128.9399
  1405.6000      7.9439      2.5242      0.0330      7.6262    132.2315
  1405.7000      7.9439      2.5204      0.0580      7.8546    134.0627
  1405.8000      7.9456      2.5164      0.0487      8.0955    131.2832
  1405.9000      7.9456      2.5231      0.0354      7.6896    125.8112
  1406.0000      7.9449      2.5451      0.1027      6.3595    120.9930
  1406.1000      7.9449      2.5672      0.0977      5.0187    118.3154
  1406.2000      7.9449      2.5726      0.1051      4.6883    120.1686
