~Version Information
VERS.                      2.0: CWLS Log ASCII Standard - VERSION 2.0
WRAP.                       NO: One line per depth step
~Well Information Block
STRT.FT                 0.0000: 
STOP.FT              1877.2500: 
STEP.FT                 0.2500: 
NULL.                -999.2500: 
COMP.          Pioneer Natural Resources: COMPANY
WELL.            Corazon 13-10: WELL
FLD.           Purgatoire River: FIELD
LOC.           2510' FSL & 439' FWL--------: LOCATION
PROV.                 Colorado: PROVINCE
CNTY.               Las Animas: COUNTRY
SRVC.                         : SERVICE COMPANY
DATE.          Mon Dec 19 14:34:49 2005: LOG DATE
UWI.                          : UNIQUE WELL ID
~Curve Information Block
DEPT.FT            0 000 00 00: Depth
CCL.                          : Casing Collar Locator
TT3.usec                      : CBL 3' Travel Time
AMP3.mV                       : CBL 3' Amplitude
AMP5.mV                       : CBL 5' Amplitude
GR.GAPI                       : Gamma Ray
~Parameter Information Block
~A  Depth       CCL         TT3         AMP3        AMP5         GR     
# ...
  1120.0000      0.0000    743.7241      5.4279      0.6133     78.0995
  1120.2500      0.0000    734.1295      5.3463      0.5400     90.5793
  1120.5000      0.0000    717.1880      5.2903      0.4934    107.3580
  1120.7500      0.0000    694.2438      5.2538      0.4978    125.9032
  1121.0000      0.0000    670.4422      5.2336      0.5466    141.6537
  1121.2500      0.0000    652.1443      5.2354      0.6037    149.9711
  1121.5000      0.0000    643.0594      5.2686      0.6284    148.5134
  1121.7500      0.0000    642.9111      5.3392      0.6022    138.0907
  1122.0000      0.0000    648.7308      5.4490      0.5406    121.8538
  1122.2500      0.0000    656.4841      5.5942      0.4841    103.9429
  1122.5000      0.0000    662.6222      5.7599      0.4703     88.1447
  1122.7500      0.0000    665.9762      5.9179      0.5095     76.7125
  1123.0000      0.0000    668.5573      6.0371      0.5811     69.9650
  1123.2500      0.0000    673.9435      6.1029      0.6517     67.1161
  1123.5000      0.0000    684.5715      6.1253      0.6932     67.6108
  1123.7500      0.0000    700.2126      6.1245      0.6933     71.6404
  1124.0000      0.0000    718.2574      6.1097      0.6576     79.5152
  1124.2500      0.0000    735.1654      6.0755      0.6056     90.5996
  1124.5000      0.0000    748.2637      6.0143      0.5624    102.5788
  1124.7500      0.0000    756.8064      5.9283      0.5470    111.6901
  1125.0000      0.0000    761.2366      5.8311      0.5646    114.4169
  1125.2500      0.0000    761.5427      5.7414      0.6057    109.6903
  1125.5000      0.0000    757.2308      5.6730      0.6546     99.4332
  1125.7500      0.0000    749.1774      5.6277      0.7010     86.9077
  1126.0000      0.0000    740.2925      5.5963      0.7434     74.8442
  1126.2500      0.0000    733.1977      5.5730      0.7833     64.9297
  1126.5000      0.0000    727.5999      5.5650      0.8196     58.0846
  1126.7500      0.0000    720.9328      5.5838      0.8472     54.5742
  1127.0000      0.0000    711.6934      5.6262      0.8551     54.1211
  1127.2500      0.0000    701.6174      5.6711      0.8274     56.4875
  1127.5000      0.0000    694.4749      5.6938      0.7554     62.0976
  1127.7500      0.0000    692.7728      5.6807      0.6520     71.8201
  1128.0000      0.0000    695.3145      5.6348      0.5540     85.9461
  1128.2500      0.0000    697.6714      5.5741      0.5021    103.3488
  1128.5000      0.0000    695.0655      5.5223      0.5108    121.5474
  1128.7500      0.0000    685.2629      5.4971      0.5583    137.4555
  1129.0000      0.0000    669.9810      5.5054      0.6066    148.4014
  1129.2500      0.0000    655.1460      5.5427      0.6284    153.2906
  1129.5000      0.0000    649.3824      5.5955      0.6177    153.3520
  1129.7500      0.0000    659.1030      5.6472      0.5836    151.4490
  1130.0000      0.0000    682.3674      5.6874      0.5436    150.1237
  1130.2500      0.0000    707.9786      5.7157      0.5167    150.0833
  1130.5000      0.0000    722.5154      5.7388      0.5172    150.3439
  1130.7500      0.0000    719.4071      5.7681      0.5492    149.7679
  1131.0000      0.0000    701.8362      5.8167      0.6034    148.5245
  1131.2500      0.0000    678.2230      5.8903      0.6567    147.9268
  1131.5000      0.0000    656.8438      5.9770      0.6801    148.9286
  1131.7500      0.0000    644.6811      6.0527      0.6526    151.2430
  1132.0000      0.0000    647.4840      6.0989      0.5749    153.9138
  1132.2500      0.0000    666.0674      6.1121      0.4724    156.1092
  1132.5000      0.0000    692.5284      6.0953      0.3849    157.1795
  1132.7500      0.0000    714.3444      6.0512      0.3472    156.6863
  1133.0000      0.0000    724.3069      5.9875      0.3679    154.9513
  1133.2500      0.0000    725.0693      5.9245      0.4235    153.2447
  1133.5000      0.0000    723.7322      5.8851      0.4730    152.8940
  1133.7500      0.0000    724.2585      5.8782      0.4857    154.1843
  1134.0000      0.0000    725.8466      5.8938      0.4656    156.2666
  1134.2500      0.0000    726.5800      5.9149      0.4514    158.0008
  1134.5000      0.0000    726.8091      5.9332      0.4880    158.7886
  1134.7500      0.0000    728.7949      5.9562      0.5926    158.8295
  1135.0000      0.0000    733.5065      5.9987      0.7427    158.7699
  1135.2500      0.0000    738.9075      6.0635      0.8898    159.1145
  1135.5000      0.0000    742.4786      6.1322      0.9827    159.8994
  1135.7500      0.0000    744.5573      6.1786      0.9882    160.7288
  1136.0000      0.0000    747.2798      6.1907      0.9090    160.9064
  1136.2500      0.0000    750.3701      6.1798      0.7941    159.5971
  1136.5000      0.0000    750.1142      6.1706      0.7173    156.2010
  1136.7500      0.0000    743.1959      6.1848      0.7307    150.7914
  1137.0000      0.0000    730.0959      6.2316      0.8291    144.1606
  1137.2500      0.0000    713.9891      6.3054      0.9613    137.4527
  1137.5000      0.0000    697.4451      6.3870      1.0700    131.9004
  1137.7500      0.0000    681.1857      6.4485      1.1213    128.8226
  1138.0000      0.0000    665.0723      6.4693      1.1119    129.2832
  1138.2500      0.0000    649.1703      6.4512      1.0619    133.3065
  1138.5000      0.0000    634.5947      6.4191      0.9979    139.5802
  1138.7500      0.0000    624.1874      6.4028      0.9321    146.1440
  1139.0000      0.0000    621.0646      6.4189      0.8613    151.3327
  1139.2500      0.0000    625.0955      6.4676      0.7854    154.1658
  1139.5000      0.0000    631.9006      6.5407      0.7177    154.2890
  1139.7500      0.0000    637.2064      6.6278      0.6716    151.8383
  1140.0000      0.0000    642.1053      6.7137      0.6475    147.2752
  1140.2500      0.0000    652.5305      6.7804      0.6372    141.4535
  1140.5000      0.0000    672.4246      6.8163      0.6353    136.0060
  1140.7500      0.0000    698.0576      6.8205      0.6417    133.1965
  1141.0000      0.0000    720.5858      6.7962      0.6537    134.6881
  1141.2500      0.0000    733.9563      6.7473      0.6582    140.3545
  1141.5000      0.0000    738.8541      6.6800      0.6361    148.3681
  1141.7500      0.0000    739.6884      6.6042      0.5795    156.1274
  1142.0000      0.0000    739.9727      6.5290      0.5018    161.0937
  1142.2500      0.0000    740.4599      6.4586      0.4299    161.6932
  1142.5000      0.0000    739.5610      6.3942      0.3857    158.2983
  1142.7500      0.0000    734.6379      6.3393      0.3772    153.1689
  1143.0000      0.0000    723.7593      6.3020      0.4027    148.8847
  1143.2500      0.0000    707.8610      6.2822      0.4541    146.7386
  1143.5000      0.0000    692.2972      6.2475      0.5170    146.5778
  1143.7500      0.0000    685.4751      6.1284      0.5738    147.6783
  1144.0000      0.0000    693.3273      5.8647      0.6115    149.3845
  1144.2500      0.0000    713.5237      5.4774      0.6260    150.9356
  1144.5000      0.0000    735.9561      5.0762      0.6187    151.0097
  1144.7500      0.0000    750.5955      4.7758      0.5953    148.2269
  1145.0000      0.0000    755.4240      4.6108      0.5662    142.7223
  1145.2500      0.0000    756.9717      4.5388      0.5426    136.9665
  1145.5000      2.0000    763.5361      4.5005      0.5308    134.4864
  1145.7500      0.0000    776.9283      4.4695      0.5325    137.5323
  1146.0000      0.0000    789.3114      4.4737      0.5473    145.5617
  1146.2500      0.0000    788.4291      4.5861      0.5691    155.4085
  1146.5000      0.0000    767.8987      4.8685      0.5819    163.0191
  1146.7500      0.0000    733.3213      5.2942      0.5708    165.8042
  1147.0000      0.0000    698.3229      5.7422      0.5434    164.0922
  1147.2500      0.0000    674.9069      6.0899      0.5324    160.5948
  1147.5000      0.0000    666.8411      6.2980      0.5711    158.1704
  1147.7500      0.0000    669.7447      6.3981      0.6654    157.5789
