~Version Information
VERS.                      2.0: CWLS Log ASCII Standard - VERSION 2.0
WRAP.                       NO: One line per depth step
~Well Information Block
STRT.FT               615.0000: 
STOP.FT              2815.0000: 
STEP.FT                 0.2500: 
NULL.                -999.2500: 
COMP.          Pioneer Natural Resources: COMPANY
WELL.              Loews 41-32: WELL
FLD.           Purgatoire River: FIELD
LOC.           751' FNL & 128' FEL: LOCATION
CNTY.               Las Animas: COUNTY
SRVC.                Patterson: SERVICE COMPANY
DATE.          Sun Feb 12 02:27:11 2006: LOG DATE
UWI.           05 071 08693 00: UNIQUE WELL ID
STAT.                 Colorado: STATE
~Curve Information Block
DEPT.FT            0 000 00 00: Depth
SN.Ohm-m                      : IEL Short Normal
SP.mV                         : IEL Spontaneous Potential
DIR.Ohm-m                     : IEL Induction Resistivity
GR.GAPI                       : Gamma Ray
~Parameter Information Block
~A  Depth        SN          SP         DIR          GR     
# ...
  1050.5000   2000.0000   2000.0000     13.2542    150.3192
  1050.7500   2000.0000   2000.0000     13.1819    148.2289
  1051.0000   2000.0000   2000.0000     13.1301    143.7312
  1051.2500   2000.0000   2000.0000     13.1165    141.1367
  1051.5000   2000.0000   2000.0000     13.1578    139.2602
  1051.7500   2000.0000   2000.0000     13.2702    139.1453
  1052.0000   2000.0000   2000.0000     13.4640    139.1903
  1052.2500   2000.0000   2000.0000     13.7363    138.6198
  1052.5000   2000.0000   2000.0000     14.0672    136.3804
  1052.7500   2000.0000   2000.0000     14.4252    133.8265
  1053.0000   2000.0000   2000.0000     14.7793    128.1944
  1053.2500   2000.0000   2000.0000     15.1123    123.5805
  1053.5000   2000.0000   2000.0000     15.4292    117.1820
  1053.7500   2000.0000   2000.0000     15.7563    114.3893
  1054.0000   2000.0000   2000.0000     16.1339    112.8582
  1054.2500   2000.0000   2000.0000     16.6033    112.9561
  1054.5000   2000.0000   2000.0000     17.1964    113.3847
  1054.7500   2000.0000   2000.0000     17.9300    113.4281
  1055.0000   2000.0000   2000.0000     18.8033    113.0143
  1055.2500   2000.0000   2000.0000     19.7935    112.5187
  1055.5000   2000.0000   2000.0000     20.8549    111.7136
  1055.7500   2000.0000   2000.0000     21.9267    111.1975
  1056.0000   2000.0000   2000.0000     22.9474    110.1576
  1056.2500   2000.0000   2000.0000     23.8656    109.1041
  1056.5000   2000.0000   2000.0000     24.6434    107.3431
  1056.7500   2000.0000   2000.0000     25.2602    106.5475
  1057.0000   2000.0000   2000.0000     25.7212    106.2709
  1057.2500   2000.0000   2000.0000     26.0595    106.3867
  1057.5000   2000.0000   2000.0000     26.3274    106.4203
  1057.7500   2000.0000   2000.0000     26.5841    106.5001
  1058.0000   2000.0000   2000.0000     26.8824    107.8850
  1058.2500   2000.0000   2000.0000     27.2517    110.3992
  1058.5000   2000.0000   2000.0000     27.6850    116.6351
  1058.7500   2000.0000   2000.0000     28.1497    121.3569
  1059.0000   2000.0000   2000.0000     28.6224    126.1634
  1059.2500   2000.0000   2000.0000     29.1210    126.3011
  1059.5000   2000.0000   2000.0000     29.6942    121.3806
  1059.7500   2000.0000   2000.0000     30.3751    115.7542
  1060.0000   2000.0000   2000.0000     31.1373    106.7238
  1060.2500   2000.0000   2000.0000     31.8934    101.6643
  1060.5000   2000.0000   2000.0000     32.5462     96.1852
  1060.7500   2000.0000   2000.0000     33.0544     93.5503
  1061.0000   2000.0000   2000.0000     33.4553     90.2411
  1061.2500   2000.0000   2000.0000     33.8237     88.2393
  1061.5000   2000.0000   2000.0000     34.2161     85.5243
  1061.7500   2000.0000   2000.0000     34.6550     83.7351
  1062.0000   2000.0000   2000.0000     35.1459     80.2379
  1062.2500   2000.0000   2000.0000     35.6852     76.9055
  1062.5000   2000.0000   2000.0000     36.2392     70.6156
  1062.7500   2000.0000   2000.0000     36.7226     66.2955
  1063.0000   2000.0000   2000.0000     37.0185     61.0084
  1063.2500   2000.0000   2000.0000     37.0505     58.6793
  1063.5000   2000.0000   2000.0000     36.8494     56.8253
  1063.7500   2000.0000   2000.0000     36.5375     56.3678
  1064.0000   2000.0000   2000.0000     36.2259     56.6077
  1064.2500   2000.0000   2000.0000     35.9177     57.5952
  1064.5000   2000.0000   2000.0000     35.5090     60.9048
  1064.7500   2000.0000   2000.0000     34.8910     64.4304
  1065.0000   2000.0000   2000.0000     34.0540     71.1641
  1065.2500   2000.0000   2000.0000     33.0883     76.0559
  1065.5000   2000.0000   2000.0000     32.1011     83.1069
  1065.7500   2000.0000   2000.0000     31.1540     87.3786
  1066.0000   2000.0000   2000.0000     30.2647     93.4825
  1066.2500   2000.0000   2000.0000     29.4387     97.9183
  1066.5000   2000.0000   2000.0000     28.6814    106.0410
  1066.7500   2000.0000   2000.0000     27.9969    112.3939
  1067.0000   2000.0000   2000.0000     27.3935    121.6499
  1067.2500   2000.0000   2000.0000     26.8974    125.9546
  1067.5000   2000.0000   2000.0000     26.5485    127.0977
  1067.7500   2000.0000   2000.0000     26.3730    123.9701
  1068.0000   2000.0000   2000.0000     26.3534    115.0787
  1068.2500   2000.0000   2000.0000     26.4234    107.9105
  1068.5000   2000.0000   2000.0000     26.4971     97.4412
  1068.7500   2000.0000   2000.0000     26.5188     91.3015
  1069.0000   2000.0000   2000.0000     26.4990     83.9339
  1069.2500   2000.0000   2000.0000     26.5023     80.5874
  1069.5000   2000.0000   2000.0000     26.5962     78.4360
  1069.7500   2000.0000   2000.0000     26.8028     78.9190
  1070.0000   2000.0000   2000.0000     27.0861     81.8294
  1070.2500   2000.0000   2000.0000     27.3714     84.6909
  1070.5000   2000.0000   2000.0000     27.5735     89.8277
  1070.7500   2000.0000   2000.0000     27.6212     93.6723
  1071.0000   2000.0000   2000.0000     27.4825     99.4650
  1071.2500   2000.0000   2000.0000     27.1814    102.7207
  1071.5000   2000.0000   2000.0000     26.7891    105.9349
  1071.7500   2000.0000   2000.0000     26.3830    107.0487
  1072.0000   2000.0000   2000.0000     26.0043    107.9382
  1072.2500   2000.0000   2000.0000     25.6453    108.4420
  1072.5000   2000.0000   2000.0000     25.2735    109.3767
  1072.7500   2000.0000   2000.0000     24.8676    109.9366
  1073.0000   2000.0000   2000.0000     24.4366    109.8186
  1073.2500   2000.0000   2000.0000     24.0055    108.6268
  1073.5000   2000.0000   2000.0000     23.5857    105.1080
  1073.7500   2000.0000   2000.0000     23.1602    102.0322
  1074.0000   2000.0000   2000.0000     22.6991     97.4371
  1074.2500   2000.0000   2000.0000     22.1939     95.1208
  1074.5000   2000.0000   2000.0000     21.6733     93.9454
  1074.7500   2000.0000   2000.0000     21.1842     95.1215
  1075.0000   2000.0000   2000.0000     20.7535     99.7284
  1075.2500   2000.0000   2000.0000     20.3668    104.0717
  1075.5000   2000.0000   2000.0000     19.9790    110.7729
  1075.7500   2000.0000   2000.0000     19.5464    114.4899
  1076.0000   2000.0000   2000.0000     19.0546    118.5300
  1076.2500   2000.0000   2000.0000     18.5200    120.5264
  1076.5000   2000.0000   2000.0000     17.9706    123.1727
  1076.7500   2000.0000   2000.0000     17.4262    124.9254
  1077.0000   2000.0000   2000.0000     16.8937    127.6209
  1077.2500   2000.0000   2000.0000     16.3761    129.3771
  1077.5000   2000.0000   2000.0000     15.8802    131.7581
  1077.7500   2000.0000   2000.0000     15.4165    133.3152
  1078.0000   2000.0000   2000.0000     14.9942    136.4294
  1078.2500   2000.0000   2000.0000     14.6185    139.3501
  1078.5000   2000.0000   2000.0000     14.2926    144.3119
  1078.7500   2000.0000   2000.0000     14.0188    147.1705
  1079.0000   2000.0000   2000.0000     13.7976    150.0588
  1079.2500   2000.0000   2000.0000     13.6270    151.2045
  1079.5000   2000.0000   2000.0000     13.5022    152.1114
  1079.7500   2000.0000   2000.0000     13.4180    152.2422
  1080.0000   2000.0000   2000.0000     13.3702    151.8626
  1080.2500   2000.0000   2000.0000     13.3584    151.1992
  1080.5000   2000.0000   2000.0000     13.3875    149.0784
  1080.7500   2000.0000   2000.0000     13.4666    146.7212
  1081.0000   2000.0000   2000.0000     13.6045    142.4629
  1081.2500   2000.0000   2000.0000     13.8041    139.8682
  1081.5000   2000.0000   2000.0000     14.0588    136.7791
  1081.7500   2000.0000   2000.0000     14.3557    134.8524
  1082.0000   2000.0000   2000.0000     14.6793    131.3627
  1082.2500   2000.0000   2000.0000     15.0145    128.5193
  1082.5000   2000.0000   2000.0000     15.3450    123.4481
  1082.7500   2000.0000   2000.0000     15.6537    119.3849
  1083.0000   2000.0000   2000.0000     15.9282    112.5443
  1083.2500   2000.0000   2000.0000     16.1696    108.4724
  1083.5000   2000.0000   2000.0000     16.3961    105.7881
  1083.7500   2000.0000   2000.0000     16.6356    107.4551
