~Version Information
VERS.                      2.0: CWLS Log ASCII Standard - VERSION 2.0
WRAP.                       NO: One line per depth step
~Well Information Block
STRT.FT               460.0000: 
STOP.FT              2824.0000: 
STEP.FT                 0.2500: 
NULL.                -999.2500: 
COMP.          Pioneer Natural Resources: COMPANY
WELL.           Dolzanie 34-12: WELL
FLD.           Purgatoire River: FIELD
LOC.           1001' FSL & 1750' FEL--: LOCATION
PROV.                 Colorado: PROVINCE
CNTY.               Las Animas: COUNTRY
SRVC.                Patterson: SERVICE COMPANY
DATE.          Wed Jul 20 07:51:58 2005: LOG DATE
UWI.           05 071 08439 00: UNIQUE WELL ID
~Curve Information Block
DEPT.FT            0 000 00 00: Depth
DIR.Ohm-m                     : IEL Induction Resistivity
SN.Ohm-m                      : IEL Short Normal
SP.mV                         : IEL Spontaneous Potential
GR.GAPI                       : Gamma Ray
~Parameter Information Block
~A  Depth       DIR          SN          SP          GR     
# ...
  1699.5000      8.2673      9.7610     -3.0102    128.3615
  1699.7500      8.3659      9.7302     -2.8873    129.5619
  1700.0000      8.4415      9.7270     -2.7836    131.5132
  1700.2500      8.4976      9.7832     -2.7179    131.9074
  1700.5000      8.5458      9.9208     -2.7143    129.0877
  1700.7500      8.6029     10.1567     -2.8003    124.4422
  1701.0000      8.6896     10.5101     -3.0036    114.4504
  1701.2500      8.8279     11.0049     -3.3503    107.2110
  1701.5000      9.0387     11.6606     -3.8627     98.0111
  1701.7500      9.3377     12.4708     -4.5563     93.7821
  1702.0000      9.7334     13.3843     -5.4367     89.3908
  1702.2500     10.2269     14.3071     -6.4949     86.0722
  1702.5000     10.8167     15.1445     -7.7025     78.0807
  1702.7500     11.5043     15.8827     -9.0083     71.0958
  1703.0000     12.3000     16.6705    -10.3376     61.7347
  1703.2500     13.2219     17.8249    -11.5967     58.5572
  1703.5000     14.2875     19.6873    -12.6809     60.0113
  1703.7500     15.4919     22.3510    -13.4864     64.4027
  1704.0000     16.7752     25.4288    -13.9223     73.0988
  1704.2500     17.9877     28.0939    -13.9209     78.3402
  1704.5000     18.8871     29.4598    -13.4440     83.0919
  1704.7500     19.2100     29.0538    -12.4854     84.0499
  1705.0000     18.8097     27.0366    -11.0699     84.0179
  1705.2500     17.7569     24.0400     -9.2506     84.6791
  1705.5000     16.3024     20.8054     -7.1050     88.7666
  1705.7500     14.7382     17.8873     -4.7301     93.6103
  1706.0000     13.2811     15.5418     -2.2366    102.3708
  1706.2500     12.0375     13.7715      0.2592    108.0182
  1706.5000     11.0254     12.4421      2.6447    114.9858
  1706.7500     10.2131     11.4033      4.8208    118.2453
  1707.0000      9.5521     10.5656      6.7112    120.4562
  1707.2500      8.9990      9.9133      8.2689    120.2186
  1707.5000      8.5235      9.4663      9.4794    118.8833
  1707.7500      8.1089      9.2317     10.3598    118.5337
  1708.0000      7.7468      9.1730     10.9553    119.4440
  1708.2500      7.4339      9.2075     11.3325    120.3656
  1708.5000      7.1701      9.2320     11.5707    120.8751
  1708.7500      6.9844      9.1668     11.7516    120.4875
  1709.0000      6.8219      8.9930     11.9495    119.5666
  1709.2500      6.7103      8.7542     12.2215    119.0160
  1709.5000      6.6433      8.5224     12.6019    117.7837
  1709.7500      6.6096      8.3550     13.1020    116.4307
  1710.0000      6.5958      8.2655     13.7153    114.7237
  1710.2500      6.5913      8.2181     14.4267    115.0372
  1710.5000      6.5902      8.1432     15.2216    118.4540
  1710.7500      6.5938      7.9682     16.0910    121.7417
  1711.0000      6.6136      7.6533     17.0288    125.5035
  1711.2500      6.6785      7.2167     18.0245    126.2278
  1711.5000      6.8475      6.7370     19.0524    124.8908
  1711.7500      7.2257      6.3284     20.0647    123.4112
  1712.0000      7.9911      6.1037     20.9919    122.1876
  1712.2500      9.4004      6.1411     21.7514    122.5657
  1712.5000     12.1541      6.4595     22.2635    124.8981
  1712.7500     17.5746      6.9994     22.4682    127.4877
  1713.0000     29.2741      7.6269     22.3377    132.4025
  1713.2500     59.7070      8.1801     21.8832    135.4670
  1713.5000    188.5720      8.5441     21.1529    137.4435
  1713.7500 100000.0000      8.6989     20.2246    136.1863
  1714.0000 100000.0000      8.7053     19.1935    131.3138
  1714.2500 100000.0000      8.6498     18.1586    127.5996
  1714.5000 100000.0000      8.5941     17.2067    123.7637
  1714.7500 100000.0000      8.5573     16.3966    122.9473
  1715.0000 100000.0000      8.5246     15.7446    124.1099
  1715.2500 100000.0000      8.4707     15.2172    126.1283
  1715.5000 100000.0000      8.3776     14.7345    130.3490
  1715.7500 100000.0000      8.2395     14.1878    133.3700
  1716.0000 100000.0000      8.0513     13.4665    137.0210
  1716.2500 100000.0000      7.7823     12.4901    138.4491
  1716.5000 100000.0000      7.3418     11.2331    139.0932
  1716.7500 100000.0000      6.5698      9.7348    138.6549
  1717.0000 100000.0000      5.3149      8.0893    136.5757
  1717.2500 100000.0000      3.5985      6.4214    134.0220
  1717.5000 100000.0000      1.7096      4.8558    128.3664
  1717.7500 100000.0000      0.0676      3.4906    123.7837
  1718.0000 100000.0000     -1.0514      2.3815    117.2450
  1718.2500 100000.0000     -1.6474      1.5401    114.2918
  1718.5000 100000.0000     -1.8950      0.9431    113.4779
  1718.7500 100000.0000     -1.9752      0.5463    115.3493
  1719.0000 100000.0000     -1.9954      0.2993    119.9881
  1719.2500 100000.0000     -1.9994      0.1549    122.7260
  1719.5000 100000.0000      0.0000      0.0757    124.3219
  1719.7500 100000.0000      0.0000      0.0348    123.7049
  1720.0000 100000.0000      0.0000      0.0150    122.2501
  1720.2500   4411.2119      0.0000      0.0058    122.3849
  1720.5000   2635.2119      0.0000      0.0020    125.1980
  1720.7500   2258.3650      0.0000      0.0005    128.1443
  1721.0000   2149.8018      0.0000      0.0000    131.9743
  1721.2500   2119.1448      0.0000      0.0000    132.9472
  1721.5000   2111.4285      0.0000      0.0000    131.0315
  1721.7500 100000.0000      0.0000      0.0000    127.7679
  1722.0000      0.0000      0.0000      0.0000    121.3387
  1722.2500      0.0000      0.0000      0.0000    116.7544
  1722.5000      0.0000      0.0000      0.0000    109.9588
  1722.7500      0.0000      0.0000      0.0000    105.9115
  1723.0000      0.0000      0.0000      0.0000    102.2992
  1723.2500      0.0000      0.0000      0.0000    102.5598
  1723.5000      0.0000      0.0000      0.0000    106.9210
  1723.7500      0.0000      0.0000      0.0000    111.0573
  1724.0000      0.0000      0.0000      0.0000    115.1933
  1724.2500      0.0000      0.0000      0.0000    114.3679
  1724.5000      0.0000      0.0000      0.0000    106.0554
  1724.7500      0.0000      0.0000      0.0000     96.6181
  1725.0000      0.0000      0.0000      0.0000     80.3208
  1725.2500      0.0000      0.0000      0.0000     70.4346
  1725.5000      0.0000      0.0000      0.0000     60.1077
  1725.7500      0.0000      0.0000      0.0000     57.1116
  1726.0000      0.0000      0.0000      0.0000     58.4164
  1726.2500      0.0000      0.0000      0.0000     62.3587
  1726.5000      0.0000      0.0000      0.0000     70.9039
  1726.7500      0.0000      0.0000      0.0000     77.3028
  1727.0000      0.0000      0.0000      0.0000     86.6929
  1727.2500      0.0000      0.0000      0.0000     92.3913
  1727.5000      0.0000      0.0000      0.0000     99.9237
  1727.7500      0.0000      0.0000      0.0000    104.3742
  1728.0000      0.0000      0.0000      0.0000    110.1240
  1728.2500      0.0000      0.0000      0.0000    112.9910
  1728.5000      0.0000      0.0000      0.0000    115.2628
  1728.7500      0.0000      0.0000      0.0000    115.4005
  1729.0000      0.0000      0.0000      0.0000    113.9848
  1729.2500      0.0000      0.0000      0.0000    112.5148
  1729.5000      0.0000      0.0000      0.0000    111.3862
  1729.7500      0.0000      0.0000      0.0000    112.7012
  1730.0000      0.0000      0.0000      0.0000    118.5717
  1730.2500      0.0000      0.0000      0.0000    123.8885
  1730.5000      0.0000      0.0000      0.0000    130.2435
  1730.7500      0.0000      0.0000      0.0000    131.7920
  1731.0000      0.0000      0.0000      0.0000    130.0131
  1731.2500      0.0000      0.0000      0.0000    127.2395
  1731.5000      0.0000      0.0000      0.0000    122.8359
  1731.7500      0.0000      0.0000      0.0000    120.4418
  1732.0000      0.0000      0.0000      0.0000    117.8416
  1732.2500      0.0000      0.0000      0.0000    116.4764
  1732.5000      0.0000      0.0000      0.0000    114.2947
  1732.7500      0.0000      0.0000      0.0000    112.6107
