~Version Information
VERS.                      2.0: CWLS Log ASCII Standard - VERSION 2.0
WRAP.                       NO: One line per depth step
~Well Information Block
STRT.FT               890.0000: 
STOP.FT              2097.0000: 
STEP.FT                 0.2500: 
NULL.                -999.2500: 
COMP.          Pioneer Natural Resources: COMPANY
WELL.          Greenwood 43-29 Tr: WELL
FLD.           Purgatoire River: FIELD
LOC.           1478' FSL & 744' FEL: LOCATION
STAT.                 Colorado: State
CNTY.               Las Animas: COUNTY
CTRY. USA : Country
SECT. 29 : Section
TOWN. 32S : Township
RANG. 67W : Range
SRVC.                Patterson: SERVICE COMPANY
DATE.          Wed Aug 31 08:07:28 2005: LOG DATE
API.           05 071 08478 00: UNIQUE WELL ID
~Curve Information Block
DEPT.FT            0 000 00 00: Depth
SN.Ohm-m                      : IEL Short Normal
SP.mV                         : IEL Spontaneous Potential
DIR.Ohm-m                     : IEL Induction Resistivity
GR.GAPI                       : Gamma Ray
~Parameter Information Block
~A  Depth        SN          SP         DIR          GR     
# ...
  1526.5000     23.3049   -184.1585     20.3198     96.9379
  1526.7500     22.8788   -184.1473     19.6020     96.6185
  1527.0000     22.3263   -184.1439     18.9567     99.9496
  1527.2500     21.6158   -184.1604     18.4485    104.0519
  1527.5000     20.8098   -184.2045     18.0799    110.8615
  1527.7500     20.1471   -184.2711     17.8128    114.8660
  1528.0000     19.8249   -184.3342     17.6069    120.1342
  1528.2500     19.7154   -184.3574     17.4443    123.7066
  1528.5000     19.5561   -184.3224     17.3275    128.9885
  1528.7500     19.2436   -184.2453     17.2600    131.5290
  1529.0000     18.8170   -184.1624     17.2336    132.6959
  1529.2500     18.4135   -184.1052     17.2333    131.9995
  1529.5000     18.2061   -184.0853     17.2540    129.9812
  1529.7500     18.2762   -184.0968     17.3123    128.2596
  1530.0000     18.6027   -184.1268     17.4411    124.6625
  1530.2500     19.1226   -184.1677     17.6750    121.3421
  1530.5000     19.7916   -184.2261     18.0377    115.3174
  1530.7500     20.5929   -184.3203     18.5393    111.1928
  1531.0000     21.4932   -184.4662     19.1774    105.9676
  1531.2500     22.4933   -184.6601     19.9416    103.5305
  1531.5000     23.6830   -184.8719     20.8192    101.4407
  1531.7500     25.1349   -185.0593     21.8035    100.6936
  1532.0000     26.7878   -185.1939     22.8992     99.3890
  1532.2500     28.5207   -185.2772     24.1149     97.7246
  1532.5000     30.2747   -185.3357     25.4445     93.5815
  1532.7500     32.0028   -185.4069     26.8464     90.0746
  1533.0000     33.5985   -185.5272     28.2439     85.0684
  1533.2500     35.0173   -185.7216     29.5536     82.6563
  1533.5000     36.4297   -185.9926     30.7299     80.6440
  1533.7500     38.0956   -186.3167     31.7798     79.7477
  1534.0000     40.0704   -186.6571     32.7341     77.6966
  1534.2500     42.1225   -186.9811     33.6032     75.5364
  1534.5000     43.8856   -187.2710     34.3613     71.4378
  1534.7500     45.1154   -187.5242     34.9647     68.4589
  1535.0000     45.8684   -187.7466     35.3746     64.1279
  1535.2500     46.3437   -187.9387     35.5631     61.7089
  1535.5000     46.6425   -188.0857     35.5088     59.5019
  1535.7500     46.7305   -188.1626     35.2021     59.2294
  1536.0000     46.4830   -188.1502     34.6496     60.6614
  1536.2500     45.7514   -188.0484     33.8690     62.8224
  1536.5000     44.4909   -187.8760     32.8825     67.8837
  1536.7500     42.8576   -187.6623     31.7199     72.2693
  1537.0000     41.0145   -187.4349     30.4294     79.2648
  1537.2500     38.8447   -187.2114     29.0735     83.3018
  1537.5000     36.1628   -186.9982     27.7096     87.3122
  1537.7500     33.1117   -186.7943     26.3744     88.7081
  1538.0000     30.0501   -186.5914     25.0880     90.2982
  1538.2500     27.2844   -186.3751     23.8669     91.9533
  1538.5000     25.0403   -186.1308     22.7305     95.7932
  1538.7500     23.3929   -185.8520     21.6966     98.8083
  1539.0000     22.1903   -185.5499     20.7760    102.9784
  1539.2500     21.2351   -185.2586     19.9723    105.2329
  1539.5000     20.4908   -185.0311     19.2812    107.8538
  1539.7500     19.9847   -184.9174     18.6877    109.1451
  1540.0000     19.6228   -184.9361     18.1652    110.3399
  1540.2500     19.2700   -185.0582     17.6817    110.6036
  1540.5000     18.9378   -185.2187     17.2125    110.0571
  1540.7500     18.6767   -185.3517     16.7509    108.8466
  1541.0000     18.3561   -185.4240     16.3074    105.5895
  1541.2500     17.8242   -185.4439     15.9008    102.8768
  1541.5000     17.1814   -185.4416     15.5456     99.7576
  1541.7500     16.6605   -185.4404     15.2473     99.4842
  1542.0000     16.3342   -185.4444     15.0055    102.7010
  1542.2500     16.0935   -185.4481     14.8201    106.7448
  1542.5000     15.8400   -185.4531     14.6925    113.4810
  1542.7500     15.5732   -185.4759     14.6199    117.0940
  1543.0000     15.3262   -185.5349     14.5890    119.9492
  1543.2500     15.1163   -185.6320     14.5770    120.2029
  1543.5000     14.9740   -185.7461     14.5593    119.0473
  1543.7500     14.9227   -185.8465     14.5180    117.7996
  1544.0000     14.9007   -185.9120     14.4473    115.8862
  1544.2500     14.7808   -185.9414     14.3535    115.0428
  1544.5000     14.5190   -185.9495     14.2505    115.3608
  1544.7500     14.2406   -185.9536     14.1537    116.7921
  1545.0000     14.1134   -185.9592     14.0734    119.6631
  1545.2500     14.1718   -185.9557     14.0102    120.9496
  1545.5000     14.3124   -185.9252     13.9546    120.8067
  1545.7500     14.4110   -185.8584     13.8919    119.5362
  1546.0000     14.3898   -185.7623     13.8127    116.9538
  1546.2500     14.2190   -185.6529     13.7199    115.3509
  1546.5000     13.9448   -185.5403     13.6284    114.0114
  1546.7500     13.7008   -185.4196     13.5561    114.3538
  1547.0000     13.6132   -185.2784     13.5121    116.9665
  1547.2500     13.6581   -185.1141     13.4907    119.6274
  1547.5000     13.6731   -184.9468     13.4734    123.7822
  1547.7500     13.5499   -184.8094     13.4369    126.2566
  1548.0000     13.3257   -184.7186     13.3629    129.5293
  1548.2500     13.0760   -184.6583     13.2456    131.5469
  1548.5000     12.8236   -184.6017     13.0920    134.0981
  1548.7500     12.5936   -184.5460     12.9188    134.9987
  1549.0000     12.4885   -184.5191     12.7462    134.4899
  1549.2500     12.5874   -184.5538     12.5927    133.1589
  1549.5000     12.8184   -184.6621     12.4728    130.9403
  1549.7500     13.0334   -184.8290     12.3959    129.8883
  1550.0000     13.1332   -185.0301     12.3666    129.1564
  1550.2500     13.0982   -185.2602     12.3853    129.2021
  1550.5000     12.9867   -185.5444     12.4495    130.2059
  1550.7500     12.8906   -185.9127     12.5532    131.5720
  1551.0000     12.8276   -186.3600     12.6845    134.4212
  1551.2500     12.7296   -186.8351     12.8227    136.3971
  1551.5000     12.5929   -187.2723     12.9400    138.4006
  1551.7500     12.5295   -187.6306     13.0101    138.6658
  1552.0000     12.6335   -187.9070     13.0183    137.5452
  1552.2500     12.8903   -188.1268     12.9678    136.1428
  1552.5000     13.1845   -188.3306     12.8767    133.5778
  1552.7500     13.3714   -188.5655     12.7691    131.7199
  1553.0000     13.4188   -188.8754     12.6660    128.9903
  1553.2500     13.4395   -189.2886     12.5798    127.4214
  1553.5000     13.5005   -189.8110     12.5134    125.8560
  1553.7500     13.5186   -190.4251     12.4627    125.5857
  1554.0000     13.4235   -191.0908     12.4209    126.5366
  1554.2500     13.2525   -191.7505     12.3829    127.8763
  1554.5000     13.0659   -192.3447     12.3461    130.2027
  1554.7500     12.8814   -192.8376     12.3087    131.5490
  1555.0000     12.6650   -193.2354     12.2674    132.6823
  1555.2500     12.3606   -193.5837     12.2201    132.5127
  1555.5000     11.9638   -193.9443     12.1724    130.7493
  1555.7500     11.5939   -194.3629     12.1402    129.1496
  1556.0000     11.4393   -194.8500     12.1459    127.9111
  1556.2500     11.5531   -195.3839     12.2086    128.6137
  1556.5000     11.8022   -195.9272     12.3368    131.6322
  1556.7500     12.0840   -196.4453     12.5272    133.9332
  1557.0000     12.4425   -196.9176     12.7713    135.9330
  1557.2500     12.9375   -197.3368     13.0641    135.9658
  1557.5000     13.5409   -197.6989     13.4101    135.2888
  1557.7500     14.1954   -197.9892     13.8215    135.3779
  1558.0000     14.8906   -198.1751     14.3108    136.7148
  1558.2500     15.6573   -198.2110     14.8842    137.6445
  1558.5000     16.4975   -198.0532     15.5414    137.4207
  1558.7500     17.3369   -197.6848     16.2820    135.7964
  1559.0000     18.1142   -197.1383     17.1107    131.7383
  1559.2500     18.8898   -196.4933     18.0314    128.5724
  1559.5000     19.7773   -195.8394     19.0342    123.6522
  1559.7500     20.8278   -195.2311     20.0879    120.1359
