~Version Information
VERS.                      2.0: CWLS Log ASCII Standard - VERSION 2.0
WRAP.                       NO: One line per depth step
~Well Information Block
STRT.FT                -7.0000: 
STOP.FT              1155.0000: 
STEP.FT                 0.2500: 
NULL.                -999.2500: 
COMP.          Pioneer Natural Resources: COMPANY
WELL.          Whitecoat 14-36: WELL
FLD.           Purgatorie River: FIELD
LOC.           606' FSL & 260' FWL--: LOCATION
PROV.                       CO: PROVINCE
CNTY.               Las Animas: COUNTRY
SRVC.          Patterson Wireline: SERVICE COMPANY
DATE.          Mon Dec 12 12:56:49 2005: LOG DATE
UWI.           08 071 08593 00: UNIQUE WELL ID
~Curve Information Block
DEPT.FT            0 000 00 00: Depth
CCL.                          : Casing Collar Locator
TT3.usec                      : CBL 3' Travel Time
AMP3.mV                       : CBL 3' Amplitude
GR.GAPI                       : Gamma Ray
~Parameter Information Block
~A  Depth       CCL         TT3         AMP3         GR     
# ...
  1132.0000      0.0000    709.1862      4.6033     95.5562
  1132.2500      0.0000    710.1818      4.6185     94.6134
  1132.5000      0.0000    708.5669      4.6028     95.0026
  1132.7500      0.0000    706.2435      4.5825     95.9122
  1133.0000      0.0000    704.4149      4.5798     97.1642
  1133.2500      0.0000    702.9756      4.5907     99.3225
  1133.5000      0.0000    701.1149      4.5845    102.6280
  1133.7500      0.0000    698.3991      4.5253    106.0793
  1134.0000      0.0000    695.6127      4.3956    107.7403
  1134.2500      0.0000    694.7073      4.2041    105.8977
  1134.5000      0.0000    697.5433      3.9828    100.2031
  1134.7500      0.0000    704.0853      3.7820     92.3316
  1135.0000      0.0000    711.6522      3.6541     85.5533
  1135.2500      0.0000    716.5093      3.6304     83.0004
  1135.5000      0.0000    716.6460      3.7184     85.6408
  1135.7500      0.0000    712.7132      3.9205     91.6179
  1136.0000      0.0000    706.1656      4.2303     97.5982
  1136.2500      0.0000    697.6937      4.5976    101.1396
  1136.5000      0.0000    688.2323      4.9152    102.0311
  1136.7500      0.0000    680.3054      5.0641    101.5148
  1137.0000      0.0000    676.6619      4.9803    100.5050
  1137.2500      0.0000    677.5576      4.6882     98.8907
  1137.5000      0.0000    680.5063      4.2841     96.3965
  1137.7500      0.0000    682.8486      3.8881     93.5459
  1138.0000      0.0000    683.7242      3.5924     91.6820
  1138.2500      0.0000    683.6749      3.4366     92.3901
  1138.5000      0.0000    683.4977      3.4151     96.7687
  1138.7500      0.0000    683.9260      3.5003    104.6648
  1139.0000      0.0000    685.7544      3.6585    114.3592
  1139.2500      0.0000    689.4234      3.8554    123.2661
  1139.5000      0.0000    694.1358      4.0560    129.3082
  1139.7500      0.0000    697.7742      4.2274    131.8012
  1140.0000      0.0000    698.3727      4.3441    130.9462
  1140.2500      0.0000    695.8663      4.3934    126.5503
  1140.5000      0.0000    692.0238      4.3802    117.5921
  1140.7500      0.0000    688.7062      4.3302    103.1932
  1141.0000      0.0000    686.5640      4.2845     83.7791
  1141.2500      0.0000    685.2444      4.2716     61.4434
  1141.5000      0.0000    684.2465      4.2792     39.5905
  1141.7500      0.0000    683.3913      4.2671     21.7745
  1142.0000      0.0000    682.7997      4.2155      9.9628
  1142.2500      0.0000    682.7286      4.1454      3.7170
  1142.5000      0.0000    683.4697      4.0856      1.1141
  1142.7500      0.0000    685.2305      4.0369      0.2649
  1143.0000      0.0000    687.8387      3.9825      0.0493
  1143.2500      0.0000    690.5031      3.9212      0.0068
  1143.5000      0.0000    692.2253      3.8779   -999.2500
  1143.7500      0.0000    692.8292      3.8809   -999.2500
  1144.0000      0.0000    693.4228      3.9347   -999.2500
  1144.2500      0.0000    695.3568      4.0133   -999.2500
  1144.5000      0.0000    698.5609      4.0823   -999.2500
  1144.7500      0.0000    701.1662      4.1282   -999.2500
  1145.0000      0.0000    701.0410      4.1640   -999.2500
  1145.2500      0.0000    697.6358      4.2078   -999.2500
  1145.5000      0.0000    691.5969      4.2565   -999.2500
  1145.7500      0.0000    681.6475      4.2790   -999.2500
  1146.0000      0.0000    660.7237      4.2173   -999.2500
  1146.2500      0.0000    615.2591      3.9835   -999.2500
  1146.5000      0.0000    532.0021      3.4890   -999.2500
  1146.7500      0.0000    411.2788      2.7278   -999.2500
  1147.0000      0.0000    274.5214      1.8373   -999.2500
  1147.2500      0.0000    153.8084      1.0363   -999.2500
  1147.5000      0.0000     70.8255      0.4793   -999.2500
  1147.7500      0.0000     26.4005      0.1792   -999.2500
  1148.0000      0.0000      7.8792      0.0536   -999.2500
  1148.2500      0.0000      1.8658      0.0127   -999.2500
  1148.5000      0.0000      0.3453      0.0024   -999.2500
  1148.7500      0.0000   -999.2500   -999.2500   -999.2500
  1149.0000      0.0000   -999.2500   -999.2500   -999.2500
  1149.2500      0.0000   -999.2500   -999.2500   -999.2500
  1149.5000      0.0000   -999.2500   -999.2500   -999.2500
  1149.7500      0.0000   -999.2500   -999.2500   -999.2500
  1150.0000      0.0000   -999.2500   -999.2500   -999.2500
  1150.2500      0.0000   -999.2500   -999.2500   -999.2500
  1150.5000      0.0000   -999.2500   -999.2500   -999.2500
  1150.7500      0.0000   -999.2500   -999.2500   -999.2500
  1151.0000      0.0000   -999.2500   -999.2500   -999.2500
  1151.2500      0.0000   -999.2500   -999.2500   -999.2500
  1151.5000      0.0000   -999.2500   -999.2500   -999.2500
  1151.7500      0.0000   -999.2500   -999.2500   -999.2500
  1152.0000      0.0000   -999.2500   -999.2500   -999.2500
  1152.2500      0.0000   -999.2500   -999.2500   -999.2500
  1152.5000      0.0000   -999.2500   -999.2500   -999.2500
  1152.7500      0.0000   -999.2500   -999.2500   -999.2500
  1153.0000      0.0000   -999.2500   -999.2500   -999.2500
  1153.2500      0.0000   -999.2500   -999.2500   -999.2500
  1153.5000      0.0000   -999.2500   -999.2500   -999.2500
  1153.7500      0.0000   -999.2500   -999.2500   -999.2500
  1154.0000      0.0000   -999.2500   -999.2500   -999.2500
  1154.2500      0.0000   -999.2500   -999.2500   -999.2500
  1154.5000   -999.2500   -999.2500   -999.2500   -999.2500
  1154.7500   -999.2500   -999.2500   -999.2500   -999.2500
  1155.0000   -999.2500   -999.2500   -999.2500   -999.2500
