~Version Information
 VERS.                                  2.0 : CWLS LAS VERSION
 WRAP.                                   NO : WRAPING MODE
 SWARE .                 MController 2.5.0J : SOFTWARE VERSION
~Well Information
 WELL.                       Parsons 15-23R : WELL
 COMP.                Petrogulf Corporation : COMPANY
 FLD.                      Purgatoire River : FIELD
 LOC.                NE/SW Sec 15 T33S R67W : LOCATION
 DATE.                             09/12/05 : DATE(S) LOGGED
 SRVC.       Blanco Geological Services LLC : SERVICE COMPANY
 STAT.                             Colorado : STATE
 CNTY.                           Las Animas : COUNTY
 CTRY.                                  USA : COUNTRY
 API.                       05-071-08441-00 : API NUMBER
 STRT.FT                             423.00 : START DEPTH
 STOP.FT                            1250.00 : STOP DEPTH
 STEP.FT                               1.00 : DEPTH INCREMENT
 NULL.                                -9999 : NULL VALUE
~Curve information
 DEPTH.FT                                   :
 ROP.MIN/FT                                 :
 GAS.UNITS                                  :
~ASCII Log data
       423.0     -9999.00          4.9 
       424.0         3.75          5.4 
       425.0         0.27          5.2 
       426.0         0.93          5.0 
       427.0         0.35          4.9 
       428.0         0.30          4.9 
       429.0         0.80          5.3 
       430.0         0.37          5.0 
       431.0         0.17          5.0 
       432.0         0.10          5.0 
       433.0         0.13          5.0 
       434.0         0.10          4.7 
       435.0         0.13          4.9 
       436.0         0.07          4.6 
       437.0         0.10          4.7 
       438.0         0.10          4.8 
       439.0         0.10          4.9 
       440.0         0.08          4.9 
       441.0         0.10          5.0 
       442.0         0.17          4.7 
       443.0         2.10          5.3 
       444.0         0.10          5.0 
       445.0         0.10          4.9 
       446.0         0.13          5.0 
       447.0         0.07          5.0 
       448.0         0.12          5.1 
       449.0         0.07          5.4 
       450.0         0.07          4.9 
       451.0         0.10          5.0 
       452.0         0.10          5.2 
       453.0         0.10          5.0 
       454.0         0.07          5.0 
       455.0         0.17          5.0 
       456.0         0.20          5.1 
       457.0         0.17          5.1 
       458.0         0.10          5.1 
       459.0         0.07          4.8 
       460.0         0.10          4.8 
       461.0         0.10          5.2 
       462.0         0.07          4.8 
       463.0         0.10          5.0 
       464.0         0.20          5.3 
       465.0         0.10          5.0 
       466.0         0.07          5.1 
       467.0         0.13          5.2 
       468.0         0.27          5.6 
       469.0         0.20          5.6 
       470.0         0.10          5.4 
       471.0         0.22          5.1 
       472.0         0.17          5.5 
       473.0         0.20          5.0 
       474.0         1.73          5.4 
       475.0         0.23          5.3 
       476.0         0.27          5.2 
       477.0         0.32          5.1 
       478.0         0.23          5.2 
       479.0         0.23          5.1 
       480.0         0.20          4.9 
       481.0         0.20          5.0 
       482.0         0.20          5.0 
       483.0         0.23          5.0 
       484.0         0.20          4.8 
       485.0         0.20          5.0 
       486.0         0.20          5.0 
       487.0         0.17          4.7 
       488.0         0.17          4.9 
       489.0         0.17          4.8 
       490.0         0.17          4.9 
       491.0         0.17          4.7 
       492.0         0.18          5.2 
       493.0         0.20          5.0 
       494.0         0.13          5.3 
       495.0         0.13          5.1 
       496.0         0.17          5.0 
       497.0         0.13          4.3 
       498.0         0.13          4.3 
       499.0         0.10          4.5 
       500.0         0.20          4.4 
       501.0         0.13          4.7 
       502.0         0.17          4.5 
       503.0         0.13          4.5 
       504.0         0.17          4.5 
       505.0         1.88        202.7 
       506.0         0.17        220.4 
       507.0         0.17        229.2 
       508.0         0.10        231.8 
       509.0         0.10        232.2 
       510.0         0.10        232.2 
       511.0         0.13        231.8 
       512.0         0.17        230.3 
       513.0         0.17        226.7 
       514.0         0.20        222.5 
       515.0         0.20        218.2 
       516.0         0.17        215.7 
       517.0         0.20        214.8 
       518.0         0.20        213.7 
       519.0         0.17        212.9 
       520.0         0.17        211.4 
       521.0         0.22        210.4 
       522.0         0.17        209.1 
       523.0         0.17        208.8 
       524.0         0.20        211.6 
       525.0         0.17        216.0 
       526.0         0.20        219.3 
       527.0         0.17        219.6 
       528.0         0.13        216.3 
       529.0         0.10        212.9 
       530.0         0.10        210.9 
       531.0         0.10        211.8 
       532.0         0.13        216.4 
       533.0         0.13        236.2 
       534.0         0.10        294.6 
       535.0         1.02       1445.5 
       536.0         0.23        986.6 
       537.0         0.27        829.5 
       538.0         0.23        700.6 
       539.0         0.20        627.6 
       540.0         0.17        591.8 
       541.0         0.20        565.4 
       542.0         0.17        548.0 
       543.0         0.20        537.2 
       544.0         0.20        527.0 
       545.0         0.20        518.8 
       546.0         0.17        514.3 
       547.0         0.17        511.1 
       548.0         0.20        508.3 
       549.0         0.25        507.3 
       550.0         0.20        505.7 
       551.0         0.20        507.0 
       552.0         0.20        505.7 
       553.0         0.20        506.4 
       554.0         0.17        504.8 
       555.0         0.27        504.5 
       556.0         0.23        503.5 
       557.0         0.20        500.0 
       558.0         0.17        498.4 
       559.0         0.17        493.7 
       560.0         0.13        480.4 
       561.0         0.13        466.1 
       562.0         0.10        451.8 
       563.0         0.13        443.5 
       564.0         0.13        445.4 
       565.0         1.95       1509.6 
       566.0         0.30        808.5 
       567.0         0.23        697.8 
       568.0         0.17        631.4 
       569.0         0.17        599.1 
       570.0         0.17        573.3 
       571.0         0.17        552.4 
       572.0         0.20        539.7 
       573.0         0.17        530.5 
       574.0         0.20        524.2 
       575.0         0.13        518.8 
       576.0         0.18        516.9 
       577.0         0.13        515.3 
       578.0         0.17        515.3 
       579.0         0.13        514.3 
       580.0         0.23        511.8 
       581.0         0.20        512.4 
       582.0         0.17        510.5 
       583.0         0.17        510.2 
       584.0         0.20        509.2 
       585.0         0.20        510.5 
       586.0         0.17        508.3 
       587.0         0.20        506.4 
       588.0         0.20        500.7 
       589.0         0.20        495.6 
       590.0         0.20        491.8 
       591.0         0.10        496.5 
       592.0         0.10        508.3 
       593.0         0.13        544.8 
       594.0         0.13        712.4 
       595.0         1.38       1439.2 
       596.0         0.20        760.0 
       597.0         0.17        698.1 
       598.0         0.13        652.7 
       599.0         0.13        636.2 
       600.0         0.10        634.6 
       601.0         0.10        638.7 
       602.0         0.13        638.1 
       603.0         0.17        639.4 
       604.0         0.10        633.3 
       605.0         0.07        630.2 
       606.0         0.17        631.1 
       607.0         0.23        622.2 
       608.0         0.17        613.0 
       609.0         0.25        604.4 
       610.0         0.13        595.9 
       611.0         0.17        592.7 
       612.0         0.20        589.8 
       613.0         0.20        584.8 
       614.0         0.20        582.5 
       615.0         0.17        581.0 
       616.0         0.20        579.1 
       617.0         0.17        573.3 
       618.0         0.20        569.9 
       619.0         0.17        561.9 
       620.0         0.17        554.6 
       621.0         0.17        540.7 
       622.0         0.17        544.5 
