~Version Information
VERS.                      2.0: CWLS Log ASCII Standard - VERSION 2.0
WRAP.                       NO: One line per depth step
~Well Information Block
STRT.FT               970.0000: 
STOP.FT              1881.0000: 
STEP.FT                 0.1000: 
NULL.                -999.2500: 
COMP.          Petrogulf Corporation: COMPANY
WELL.             Norton 9-14R: WELL
FLD.           Purgatorie River: FIELD
LOC.           725' FSL & 1103' FWL: LOCATION
PROV.                 Colorado: PROVINCE
CNTY.               Las Animas: COUNTRY
SRVC.                Patterson: SERVICE COMPANY
DATE.          Fri Oct 07 07:52:23 2005: LOG DATE
UWI.                          : UNIQUE WELL ID
~Curve Information Block
DEPT.FT            0 000 00 00: Depth
DCAL.in                       : CDL Caliper
RHOB.g/cc                     : CDL Bulk Density
RHOC.g/cc                     : CDL Density Correction
DPOR.pu                       : CDL Density Porosity
GR.GAPI                       : Gamma Ray
NPOR.pu                       : Neutron Porosity
~Parameter Information Block
~A  Depth       DCAL        RHOB        RHOC        DPOR         GR         NPOR    
# ...
  1862.8000      7.8204      2.5756      0.0885      4.5112     98.4106   -999.2500
  1862.9000      7.8204      2.6044      0.0534      2.7616     96.7023   -999.2500
  1863.0000      7.8059      2.6300      0.0567      1.2138     99.1205   -999.2500
  1863.1000      7.8059      2.6426      0.0992      0.4514    103.1910   -999.2500
  1863.2000      7.8059      2.6382      0.0885      0.7170    106.3804   -999.2500
  1863.3000      7.8319      2.6224      0.1140      1.6728    108.7462   -999.2500
  1863.4000      7.8319      2.5973      0.0510      3.1964    110.9286   -999.2500
  1863.5000      7.8298      2.5671      0.0090      5.0247    110.4977   -999.2500
  1863.6000      7.8298      2.5446      0.0012      6.3873    106.4613   -999.2500
  1863.7000      7.8298      2.5341      0.0393      7.0252    103.0286   -999.2500
  1863.8000      7.8232      2.5224      0.0340      7.7354    105.1974   -999.2500
  1863.9000      7.8232      2.5087     -0.0219      8.5652    113.4972   -999.2500
  1864.0000      7.8266      2.5112     -0.0341      8.4103    123.5231   -999.2500
  1864.1000      7.8266      2.5315      0.0063      7.1821    129.9327   -999.2500
  1864.2000      7.8266      2.5532      0.0388      5.8638    131.1425   -999.2500
  1864.3000      7.8432      2.5674      0.0855      5.0046    130.7327   -999.2500
  1864.4000      7.8432      2.5745      0.0647      4.5773    132.5090   -999.2500
  1864.5000      7.8515      2.5792      0.0294      4.2938    135.3963   -999.2500
  1864.6000      7.8515      2.5814      0.0758      4.1554    139.0790   -999.2500
  1864.7000      7.8515      2.5739      0.0866      4.6121    143.6902   -999.2500
  1864.8000      7.8553      2.5573      0.0395      5.6171    144.9655   -999.2500
  1864.9000      7.8553      2.5415      0.0523      6.5773    142.8584   -999.2500
  1865.0000      7.8817      2.5324      0.0375      7.1277    141.0423   -999.2500
  1865.1000      7.8817      2.5351      0.0664      6.9631    140.7852   -999.2500
  1865.2000      7.8817      2.5513      0.0719      5.9796    143.0360   -999.2500
  1865.3000      7.9196      2.5730      0.0936      4.6676    143.4666   -999.2500
  1865.4000      7.9196      2.5890      0.0894      3.6944    138.9166   -999.2500
  1865.5000      7.9290      2.6016      0.0548      2.9336    133.9650   -999.2500
  1865.6000      7.9290      2.6231      0.1237      1.6296    130.8022   -999.2500
  1865.7000      7.9290      2.6491      0.1637      0.0566    127.0626   -999.2500
  1865.8000      7.9198      2.6618      0.1427     -0.7122    120.1600   -999.2500
  1865.9000      7.9198      2.6564      0.1477     -0.3854    110.8436   -999.2500
  1866.0000      7.9125      2.6441      0.0921      0.3593    104.8293   -999.2500
  1866.1000      7.9125      2.6378      0.0749      0.7378    104.6930   -999.2500
  1866.2000      7.9125      2.6368      0.0998      0.8020    106.9087   -999.2500
  1866.3000      7.8515      2.6337      0.0614      0.9867    108.0112   -999.2500
  1866.4000      7.8515      2.6274      0.0422      1.3667    106.6515   -999.2500
  1866.5000      7.8269      2.6181      0.0603      1.9351    105.0382   -999.2500
  1866.6000      7.8269      2.6044      0.0740      2.7665    106.2439   -999.2500
  1866.7000      7.8269      2.5930      0.0510      3.4569    110.1549   -999.2500
  1866.8000      7.8219      2.5911      0.0521      3.5675    115.0500   -999.2500
  1866.9000      7.8219      2.5868      0.0760      3.8301    119.1429   -999.2500
  1867.0000      7.8096      2.5732      0.0192      4.6565    121.8007   -999.2500
  1867.1000      7.8096      2.5649      0.0669      5.1552    123.5956   -999.2500
  1867.2000      7.8096      2.5691      0.0724      4.9034    124.7535   -999.2500
  1867.3000      7.8108      2.5823      0.0296      4.1013    124.5921   -999.2500
  1867.4000      7.8108      2.5980      0.0806      3.1539    121.7348   -999.2500
  1867.5000      7.8167      2.6026      0.1220      2.8729    110.4960   -999.2500
  1867.6000      7.8167      2.5919      0.0849      3.5197     81.4818   -999.2500
  1867.7000      7.8167      2.5773      0.0850      4.4085     41.6996   -999.2500
  1867.8000      7.8127      2.5720      0.0794      4.7254     13.1862   -999.2500
  1867.9000      7.8127      2.5837      0.0506      4.0197      2.4009   -999.2500
  1868.0000      7.8055      2.6040      0.0971      2.7873      0.2416   -999.2500
  1868.1000      7.8055      2.6134      0.1172      2.2174      0.0128   -999.2500
  1868.2000      7.8055      2.6107      0.0925      2.3819      0.0000   -999.2500
  1868.3000      7.7935      2.6085      0.1099      2.5164   -999.2500   -999.2500
  1868.4000      7.7935      2.6098      0.1350      2.4361   -999.2500   -999.2500
  1868.5000      7.7912      2.6160      0.0313      2.0618   -999.2500   -999.2500
  1868.6000      7.7912      2.6254      0.1143      1.4907   -999.2500   -999.2500
  1868.7000      7.7912      2.6234      0.0791      1.6128   -999.2500   -999.2500
  1868.8000      7.7793      2.6116      0.0244      2.3259   -999.2500   -999.2500
  1868.9000      7.7793      2.6072      0.0716      2.5941   -999.2500   -999.2500
  1869.0000      7.7864      2.6107      0.0657      2.3837   -999.2500   -999.2500
  1869.1000      7.7864      2.6113      0.1063      2.3438   -999.2500   -999.2500
  1869.2000      7.7864      2.6021      0.0981      2.9035   -999.2500   -999.2500
  1869.3000      7.7772      2.5846      0.0540      3.9608   -999.2500   -999.2500
  1869.4000      7.7772      2.5618      0.0669      5.3440   -999.2500   -999.2500
  1869.5000      7.7715      2.5331      0.0424      7.0837   -999.2500   -999.2500
  1869.6000      7.7715      2.5047      0.0606      8.8040   -999.2500   -999.2500
  1869.7000      7.7715      2.4829      0.0823     10.1294   -999.2500   -999.2500
  1869.8000      7.7507      2.4664      0.0727     11.1259   -999.2500   -999.2500
  1869.9000      7.7507      2.4587      0.0588     11.5946   -999.2500   -999.2500
  1870.0000      7.7187      2.4637      0.1059     11.2937   -999.2500   -999.2500
  1870.1000      7.7187      2.4721      0.0935     10.7847   -999.2500   -999.2500
  1870.2000      7.7187      2.4724      0.1599     10.7607   -999.2500   -999.2500
  1870.3000      7.7140      2.4639      0.1354     11.2782   -999.2500   -999.2500
  1870.4000      7.7140      2.4500      0.1280     12.1186   -999.2500   -999.2500
  1870.5000      7.7548      2.4342      0.0955     13.0797   -999.2500   -999.2500
  1870.6000      7.7548      2.4201      0.0786     13.9304   -999.2500   -999.2500
  1870.7000      7.7548      2.4074      0.0758     14.7029   -999.2500   -999.2500
  1870.8000      7.7723      2.4003      0.0402     15.1344   -999.2500   -999.2500
  1870.9000      7.7723      2.4116      0.0412     14.4456   -999.2500   -999.2500
  1871.0000      7.7940      2.4419      0.0815     12.6120   -999.2500   -999.2500
  1871.1000      7.7940      2.4777      0.0860     10.4403   -999.2500   -999.2500
  1871.2000      7.7940      2.5116      0.1157      8.3907   -999.2500   -999.2500
  1871.3000      7.7970      2.5383      0.1351      6.7690   -999.2500   -999.2500
  1871.4000      7.7970      2.5541      0.0928      5.8124   -999.2500   -999.2500
  1871.5000      7.8119      2.5634      0.1189      5.2514   -999.2500   -999.2500
  1871.6000      7.8119      2.5724      0.1043      4.7005   -999.2500   -999.2500
  1871.7000      7.8119      2.5863      0.0754      3.8624   -999.2500   -999.2500
  1871.8000      7.7982      2.6006      0.1182      2.9947   -999.2500   -999.2500
  1871.9000      7.7982      2.6046      0.0993      2.7525   -999.2500   -999.2500
  1872.0000      7.7565      2.6030      0.0911      2.8515   -999.2500   -999.2500
  1872.1000      7.7565      2.6047      0.1225      2.7463   -999.2500   -999.2500
  1872.2000      7.7565      2.6064      0.0835      2.6448   -999.2500   -999.2500
  1872.3000      7.7602      2.6023      0.0964      2.8893   -999.2500   -999.2500
