~Version Information
VERS.                      2.0: CWLS Log ASCII Standard - VERSION 2.0
WRAP.                       NO: One line per depth step
~Well Information Block
STRT.FT               -10.2500: 
STOP.FT              2871.7500: 
STEP.FT                 0.2500: 
NULL.                -999.2500: 
COMP.          Pioneer Natural Resources: COMPANY
WELL.          Grey Goose 33-30: WELL
FLD.           Purgatorie River: FIELD
LOC.           2136' FSL & 2065' FEL--: LOCATION
STAT.                       CO: State
CNTY.               Las Animas: COUNTY
CTRY. USA : Country
SECT. 30  : Section
TOWN. 32S : Township
RANG. 67W : Range
SRVC.          Patterson Wireline: SERVICE COMPANY
DATE.          Tue Dec 06 12:24:57 2005: LOG DATE
API.            05 071 0854600: UNIQUE WELL ID
~Curve Information Block
DEPT.FT            0 000 00 00: Depth
CCL.                          : Casing Collar Locator
TT3.usec                      : CBL 3' Travel Time
AMP3.mV                       : CBL 3' Amplitude
GR.GAPI                       : Gamma Ray
~Parameter Information Block
~A  Depth       CCL         TT3         AMP3         GR     
# ...
  2267.7500      0.0000    668.3062      4.2785    171.2101
  2268.0000      0.0000    658.4863      4.2597    174.1701
  2268.2500      0.0000    643.4615      4.1954    173.6790
  2268.5000      0.0000    627.5905      4.0929    170.7052
  2268.7500      0.0000    617.2410      3.9712    168.2708
  2269.0000      0.0000    614.5511      3.8431    167.9308
  2269.2500      0.0000    615.4466      3.7116    168.3251
  2269.5000      0.0000    615.5121      3.5839    167.1815
  2269.7500      0.0000    614.7038      3.4844    163.5806
  2270.0000      0.0000    614.1874      3.4462    158.1886
  2270.2500      0.0000    612.9158      3.4868    152.3695
  2270.5000      0.0000    611.1295      3.5917    147.5099
  2270.7500      0.0000    613.4827      3.7229    144.4477
  2271.0000      0.0000    624.1209      3.8399    142.9037
  2271.2500      0.0000    640.6492      3.9150    141.6735
  2271.5000      0.0000    656.2709      3.9369    139.7444
  2271.7500      0.0000    666.3466      3.9116    137.1544
  2272.0000      0.0000    670.8854      3.8588    134.6160
  2272.2500      0.0000    672.2008      3.8002    132.4052
  2272.5000      0.0000    672.2963      3.7474    129.7851
  2272.7500      0.0000    672.1156      3.6988    125.5784
  2273.0000      0.0000    671.9255      3.6469    119.2205
  2273.2500      0.0000    671.7230      3.5870    111.0902
  2273.5000      0.0000    671.3936      3.5202    101.9518
  2273.7500      0.0000    670.4573      3.4511     92.4722
  2274.0000      0.0000    667.4319      3.3836     83.3431
  2274.2500      0.0000    659.0425      3.3209     75.4273
  2274.5000      0.0000    640.6198      3.2688     69.5122
  2274.7500      0.0000    609.3035      3.2344     65.9770
  2275.0000      0.0000    569.1376      3.2185     64.5263
  2275.2500      0.0000    532.7556      3.2114     64.1737
  2275.5000      0.0000    514.9954      3.1998     63.8216
  2275.7500      0.0000    522.2670      3.1807     63.0497
  2276.0000      0.0000    548.0117      3.1681     62.0712
  2276.2500      0.0000    578.8476      3.1821     60.9779
  2276.5000      0.0000    604.5354      3.2313     59.5669
  2276.7500      0.0000    622.4717      3.3028     57.8921
  2277.0000      0.0000    635.1912      3.3695     56.3877
  2277.2500      0.0000    645.7375      3.4081     55.3767
  2277.5000      0.0000    655.1329      3.4093     54.8954
  2277.7500      0.0000    662.7098      3.3780     55.0239
  2278.0000      0.0000    667.7433      3.3286     56.0242
  2278.2500      0.0000    670.4258      3.2814     58.0073
  2278.5000      0.0000    671.6198      3.2553     60.6170
  2278.7500      0.0000    672.1471      3.2584     63.1857
  2279.0000      0.0000    672.4526      3.2811     65.1387
  2279.2500      0.0000    672.6646      3.2987     66.2095
  2279.5000      0.0000    672.7787      3.2833     66.4105
  2279.7500      0.0000    672.7834      3.2211     65.9355
  2280.0000      0.0000    672.7054      3.1230     65.1369
  2280.2500      0.0000    672.5950      3.0197     64.5798
  2280.5000      0.0000    672.4958      2.9462     64.8165
  2280.7500      0.0000    672.4291      2.9251     65.8703
  2281.0000      0.0000    672.4009      2.9580     67.1128
  2281.2500      0.0000    672.4107      3.0282     67.8185
  2281.5000      0.0000    672.4483      3.1101     67.7000
  2281.7500      0.0000    672.4904      3.1799     66.8546
  2282.0000      0.0000    672.5137      3.2228     65.5168
  2282.2500      0.0000    672.5186      3.2353     64.0770
  2282.5000      0.0000    672.5338      3.2255     62.9695
  2282.7500      0.0000    672.5912      3.2093     62.2160
  2283.0000      0.0000    672.6973      3.2030     61.2638
  2283.2500      0.0000    672.8310      3.2155     59.4845
  2283.5000      0.0000    672.9614      3.2445     56.7848
  2283.7500      0.0000    673.0598      3.2798     53.7652
  2284.0000      0.0000    673.1030      3.3099     51.3110
  2284.2500      0.0000    673.0809      3.3265     49.9466
  2284.5000      0.0000    673.0052      3.3262     49.5720
  2284.7500      0.0000    672.9007      3.3115     49.8200
  2285.0000      0.0000    672.7834      3.2887     50.4616
  2285.2500      0.0000    672.6498      3.2642     51.3035
  2285.5000      0.0000    672.4860      3.2419     51.8505
  2285.7500      0.0000    672.2426      3.2232     51.3498
  2286.0000      0.0000    671.7515      3.2110     49.2841
  2286.2500      0.0000    670.5854      3.2134     45.9362
  2286.5000      0.0000    668.0367      3.2427     42.7239
  2286.7500      0.0000    663.4078      3.3122     41.7952
  2287.0000      0.0000    656.6375      3.4350     44.5336
  2287.2500      0.0000    648.9374      3.6163     50.2089
  2287.5000      0.0000    643.0656      3.8333     56.5982
  2287.7500      0.0000    642.7191      4.0252     62.0357
  2288.0000      0.0000    650.4087      4.1323     66.4208
  2288.2500      0.0000    664.6415      4.1522     70.5213
  2288.5000      0.0000    679.4706      4.1383     75.2603
  2288.7500      0.0000    688.3605      4.1405     81.7844
  2289.0000      0.0000    689.3634      4.1643     91.2664
  2289.2500     -2.0000    686.1772      4.1886    103.9644
  2289.5000      0.0000    683.8747      4.2034    118.5620
  2289.7500      0.0000    684.1223      4.2252    132.6641
  2290.0000      0.0000    684.9899      4.2758    144.1163
  2290.2500      0.0000    684.4897      4.3488    152.1359
  2290.5000      0.0000    682.8384      4.4044    157.5041
  2290.7500      0.0000    681.3829      4.4113    161.6177
  2291.0000      0.0000    680.8135      4.3816    165.2286
  2291.2500      0.0000    680.8762      4.3480    168.1961
  2291.5000      0.0000    681.0344      4.3186    170.2938
  2291.7500      0.0000    680.7014      4.2773    171.6024
  2292.0000      0.0000    678.8572      4.2142    171.9853
  2292.2500      0.0000    673.5863      4.1365    170.7147
  2292.5000      0.0000    662.5038      4.0544    166.8478
  2292.7500      0.0000    644.8340      3.9705    159.8450
  2293.0000      0.0000    623.1958      3.8849    150.0871
  2293.2500      0.0000    601.5140      3.8043    139.1787
  2293.5000      0.0000    580.2440      3.7437    129.6420
  2293.7500      0.0000    555.8131      3.7147    123.7678
  2294.0000      0.0000    525.7653      3.7100    122.1520
  2294.2500      0.0000    492.1293      3.7033    122.9945
  2294.5000      0.0000    459.2558      3.6677    122.9843
  2294.7500      0.0000    430.7460      3.5951    119.3392
  2295.0000      0.0000    408.6744      3.4972    111.3970
  2295.2500      0.0000    393.6931      3.3941    100.5803
  2295.5000      0.0000    385.1247      3.3030     89.2651
  2295.7500      0.0000    381.6145      3.2358     79.6514
  2296.0000      0.0000    382.1326      3.1976     73.0220
  2296.2500      0.0000    386.3781      3.1850     69.3344
  2296.5000      0.0000    394.3859      3.1869     67.3957
  2296.7500      0.0000    406.1225      3.1904     65.7612
  2297.0000      0.0000    421.2581      3.1862     63.7310
  2297.2500      0.0000    438.2186      3.1712     61.4646
  2297.5000      0.0000    452.7719      3.1492     59.2795
  2297.7500      0.0000    459.2699      3.1311     57.2655
  2298.0000      0.0000    455.5044      3.1295     55.5920
  2298.2500      0.0000    446.0509      3.1490     54.7364
  2298.5000      0.0000    439.8980      3.1806     55.2253
  2298.7500      0.0000    445.4404      3.2083     57.4253
  2299.0000      0.0000    467.1515      3.2222     61.5117
  2299.2500      0.0000    503.8312      3.2249     67.1158
  2299.5000      0.0000    548.3892      3.2261     72.9940
  2299.7500      0.0000    591.1060      3.2338     77.6958
  2300.0000      0.0000    624.8361      3.2539     80.9913
  2300.2500      0.0000    647.3583      3.2929     84.3079
  2300.5000      0.0000    659.8565      3.3540     89.4377
  2300.7500      0.0000    664.9442      3.4282     96.9829
  2301.0000      0.0000    665.9257      3.4935    105.9700
