~Version Information
VERS.                      2.0: CWLS Log ASCII Standard - VERSION 2.0
WRAP.                       NO: One line per depth step
~Well Information Block
STRT.FT               245.0000: 
STOP.FT              1208.2500: 
STEP.FT                 0.2500: 
NULL.                -999.2500: 
COMP.          Pioneer Natural Resources: COMPANY
WELL.              Davida 34-8: WELL
FLD.           Purgatoire River: FIELD
LOC.           418' FSL & 1923' FEL--: LOCATION
CNTY.               Las Animas: COUNTY
SRVC.                Patterson: SERVICE COMPANY
DATE.          Sat Mar 18 07:00:13 2006: LOG DATE
UWI.           05 071 08722 00: UNIQUE WELL ID
STAT.                 Colorado: STATE
~Curve Information Block
DEPT.FT            0 000 00 00: Depth
GR.GAPI                       : Gamma Ray
DIR.Ohm-m                     : IEL Induction Resistivity
~Parameter Information Block
~A  Depth        GR         DIR     
# ...
   914.0000    140.4090     16.3579
   914.2500    139.3553     16.2374
   914.5000    136.9880     16.1346
   914.7500    135.6158     16.0030
   915.0000    134.2343     15.8093
   915.2500    133.5688     15.5434
   915.5000    132.9273     15.2161
   915.7500    133.0087     14.8472
   916.0000    133.8937     14.4558
   916.2500    134.3788     14.0559
   916.5000    133.6671     13.6574
   916.7500    132.0368     13.2662
   917.0000    128.7529     12.8857
   917.2500    126.8983     12.5188
   917.5000    125.9325     12.1697
   917.7500    126.7028     11.8432
   918.0000    129.1486     11.5400
   918.2500    130.9592     11.2535
   918.5000    133.6250     10.9709
   918.7500    135.6921     10.6793
   919.0000    139.6761     10.3720
   919.2500    142.7055     10.0520
   919.5000    146.7701      9.7306
   919.7500    148.5394      9.4231
   920.0000    149.3982      9.1446
   920.2500    148.9681      8.9066
   920.5000    147.2831      8.7167
   920.7500    145.6801      8.5796
   921.0000    143.2466      8.4990
   921.2500    142.1574      8.4796
   921.5000    141.4543      8.5285
   921.7500    140.9572      8.6558
   922.0000    138.9916      8.8738
   922.2500    136.7294      9.1950
   922.5000    132.0879      9.6299
   922.7500    128.0136     10.1852
   923.0000    120.0921     10.8642
   923.2500    113.8654     11.6679
   923.5000    104.3163     12.5923
   923.7500     98.5064     13.6168
   924.0000     91.4266     14.6863
   924.2500     88.2142     15.6987
   924.5000     86.4232     16.5170
   924.7500     87.4883     17.0130
   925.0000     92.0602     17.1222
   925.2500     96.3621     16.8687
   925.5000    103.2505     16.3446
   925.7500    107.6652     15.6671
   926.0000    114.2072     14.9438
   926.2500    118.8478     14.2601
   926.5000    126.1626     13.6785
   926.7500    130.6716     13.2416
   927.0000    135.4053     12.9728
   927.2500    136.5395     12.8779
   927.5000    134.9857     12.9488
   927.7500    132.2559     13.1705
   928.0000    127.0359     13.5276
   928.2500    123.5165     14.0074
   928.5000    118.6205     14.5975
   928.7500    115.5625     15.2798
   929.0000    111.6240     16.0255
   929.2500    110.1724     16.7943
   929.5000    110.9802     17.5374
   929.7500    113.2754     18.2028
   930.0000    117.0858     18.7413
   930.2500    118.3805     19.1125
   930.5000    117.2607     19.2943
   930.7500    114.6643     19.2912
   931.0000    109.2392     19.1337
   931.2500    105.6347     18.8653
   931.5000    102.1559     18.5280
   931.7500    101.9524     18.1539
   932.0000    105.0382     17.7676
   932.2500    108.6273     17.3928
   932.5000    113.9789     17.0537
   932.7500    116.0816     16.7710
   933.0000    115.6881     16.5536
   933.2500    113.3531     16.3944
   933.5000    108.7092     16.2720
   933.7500    106.1195     16.1587
   934.0000    104.2115     16.0291
   934.2500    104.3879     15.8661
   934.5000    106.6921     15.6629
   934.7500    109.4758     15.4229
   935.0000    114.9870     15.1592
   935.2500    118.9150     14.8920
   935.5000    123.9722     14.6450
   935.7500    126.5024     14.4398
   936.0000    129.7324     14.2911
   936.2500    132.1636     14.2042
   936.5000    136.2935     14.1779
   936.7500    138.5045     14.2094
   937.0000    139.1108     14.2974
   937.2500    137.3467     14.4380
   937.5000    132.8688     14.6194
   937.7500    130.1142     14.8231
   938.0000    127.9484     15.0314
   938.2500    127.7196     15.2342
   938.5000    128.0532     15.4282
   938.7500    128.2186     15.6094
   939.0000    128.2575     15.7688
   939.2500    128.2835     15.8949
   939.5000    128.4962     15.9818
   939.7500    128.7042     16.0346
   940.0000    128.7515     16.0685
   940.2500    128.3869     16.1018
   940.5000    127.2487     16.1471
   940.7500    126.2480     16.2069
   941.0000    124.3434     16.2755
   941.2500    122.6186     16.3438
   941.5000    119.6505     16.4040
   941.7500    118.1589     16.4538
   942.0000    117.8851     16.5004
   942.2500    119.0960     16.5602
   942.5000    122.2532     16.6521
   942.7500    124.7438     16.7880
   943.0000    128.2229     16.9690
   943.2500    129.8643     17.1919
   943.5000    130.9164     17.4623
   943.7500    130.9923     17.7999
   944.0000    131.1140     18.2293
   944.2500    131.4492     18.7576
   944.5000    131.9324     19.3502
   944.7500    131.7351     19.9203
   945.0000    129.6455     20.3530
   945.2500    126.4411     20.5677
   945.5000    118.2722     20.5791
   945.7500    110.8673     20.4998
   946.0000     98.6746     20.4814
   946.2500     91.2946     20.6523
   946.5000     83.3162     21.0894
   946.7500     80.4503     21.8168
   947.0000     79.2055     22.8044
   947.2500     79.6524     23.9553
   947.5000     81.1528     25.0882
   947.7500     82.5098     25.9465
   948.0000     85.3421     26.2676
   948.2500     87.9772     25.9022
   948.5000     93.2188     24.8911
   948.7500     97.5426     23.4316
   949.0000    104.8935     21.7661
   949.2500    109.9293     20.0892
   949.5000    116.9278     18.5156
   949.7500    121.0621     17.0923
   950.0000    126.6419     15.8275
   950.2500    130.0449     14.7187
   950.5000    134.5435     13.7694
   950.7500    136.9184     12.9917
   951.0000    139.1720     12.3987
   951.2500    139.7188     11.9953
   951.5000    139.2324     11.7719
   951.7500    138.1457     11.7044
   952.0000    135.5528     11.7577
   952.2500    133.3763     11.8918
   952.5000    129.9446     12.0666
   952.7500    127.8667     12.2432
   953.0000    125.6338     12.3832
   953.2500    124.9953     12.4493
   953.5000    125.3625     12.4112
   953.7500    126.3631     12.2535
   954.0000    129.0424     11.9811
   954.2500    131.7991     11.6164
   954.5000    137.1041     11.1917
   954.7500    140.5649     10.7395
   955.0000    143.6368     10.2877
   955.2500    143.5234      9.8582
   955.5000    140.3320      9.4686
   955.7500    137.0846      9.1345
   956.0000    132.5727      8.8690
   956.2500    130.6564      8.6805
   956.5000    129.4349      8.5704
   956.7500    129.1062      8.5310
   957.0000    128.6521      8.5487
   957.2500    128.6346      8.6088
   957.5000    129.8963      8.7003
   957.7500    131.6767      8.8175
   958.0000    134.6983      8.9568
   958.2500    135.9209      9.1135
   958.5000    135.2116      9.2800
   958.7500    133.0347      9.4470
   959.0000    128.7542      9.6049
   959.2500    126.5953      9.7445
   959.5000    126.2197      9.8575
   959.7500    128.0170      9.9378
   960.0000    132.3277      9.9838
   960.2500    135.0655     10.0001
   960.5000    137.6205      9.9973
   960.7500    138.0824      9.9901
   961.0000    137.0026      9.9950
   961.2500    135.2537     10.0266
   961.5000    131.6195     10.0941
   961.7500    128.9735     10.1995
   962.0000    125.6151     10.3370
   962.2500    124.3924     10.4953
   962.5000    124.7520     10.6605
   962.7500    126.2650     10.8212
   963.0000    129.1082     10.9729
   963.2500    130.3974     11.1193
   963.5000    130.1980     11.2695
   963.7500    128.5112     11.4330
   964.0000    124.5642     11.6156
   964.2500    121.8239     11.8173
   964.5000    118.3487     12.0334
   964.7500    116.2992     12.2545
   965.0000    113.0402     12.4653
   965.2500    110.8040     12.6440
   965.5000    108.5109     12.7674
   965.7500    108.6525     12.8190
   966.0000    112.2639     12.7962
   966.2500    116.5346     12.7072
   966.5000    123.6969     12.5618
   966.7500    127.6734     12.3634
   967.0000    131.2330     12.1105
   967.2500    132.0648     11.8050
   967.5000    131.6177     11.4586
   967.7500    130.3372     11.0922
   968.0000    126.9807     10.7304
   968.2500    124.1901     10.3963
   968.5000    120.7322     10.1089
   968.7500    119.7970      9.8811
   969.0000    120.8398      9.7183
   969.2500    122.6568      9.6166
   969.5000    125.5395      9.5611
