~Version Information
VERS.                      2.0: CWLS Log ASCII Standard - VERSION 2.0
WRAP.                       NO: One line per depth step
~Well Information Block
STRT.FT               428.8000: 
STOP.FT               951.7000: 
STEP.FT                 0.1000: 
NULL.                -999.2500: 
COMP.          Pioneer Natural Resources: COMPANY
WELL.          Sculpin 32-30 Tr: WELL
FLD.           Purgatoire River: FIELD
LOC.           1600' FNL & 1857' FEL--: LOCATION
CNTY.               Las Animas: COUNTY
SRVC.                Patterson: SERVICE COMPANY
DATE.          Wed Jul 19 09:12:32 2006: LOG DATE
UWI.           05 071 08706 00: UNIQUE WELL ID
STAT.                 Colorado: STATE
~Curve Information Block
DEPT.FT            0 000 00 00: Depth
DCAL.in                       : CDL Caliper
RHOB.g/cc                     : CDL Bulk Density
RHOC.g/cc                     : CDL Density Correction
DPOR.pu                       : CDL Density Porosity
GR.GAPI                       : Gamma Ray
~Parameter Information Block
~A  Depth       DCAL        RHOB        RHOC        DPOR         GR     
# ...
   697.6000      7.9565      2.6188      0.1150      1.8925     65.2257
   697.7000      7.9565      2.5879      0.0808      3.7618     65.1256
   697.8000      7.9822      2.5418      0.0381      6.5594     60.9972
   697.9000      7.9822      2.4917      0.0261      9.5939     57.6912
   698.0000      8.0151      2.4444     -0.0289     12.4581     58.0570
   698.1000      8.0151      2.4099     -0.0263     14.5515     58.6669
   698.2000      8.0151      2.3985     -0.0130     15.2420     57.4896
   698.3000      8.0387      2.4192     -0.0610     13.9852     54.4805
   698.4000      8.0387      2.4734      0.0571     10.7045     50.2283
   698.5000      8.0520      2.5374      0.1148      6.8257     45.8362
   698.6000      8.0520      2.5811      0.1536      4.1749     40.7473
   698.7000      8.0520      2.5998      0.1781      3.0415     34.8903
   698.8000      8.0551      2.6149      0.2116      2.1287     30.3313
   698.9000      8.0551      2.6406      0.2247      0.5694     28.4369
   699.0000      8.0416      2.6648      0.2373     -0.8985     28.3768
   699.1000      8.0416      2.6681      0.2223     -1.0999     29.5843
   699.2000      8.0416      2.6545      0.1468     -0.2709     31.6692
   699.3000      8.0086      2.6462      0.1621      0.2326     33.5220
   699.4000      8.0086      2.6426      0.2028      0.4494     34.3201
   699.5000      7.9730      2.6261      0.1116      1.4490     33.8743
   699.6000      7.9730      2.5994      0.0925      3.0649     33.7540
   699.7000      7.9730      2.5796      0.0190      4.2656     35.2923
   699.8000      7.9542      2.5754      0.0463      4.5230     37.9891
   699.9000      7.9542      2.5771      0.0750      4.4198     40.0708
   700.0000      7.9505      2.5708      0.0816      4.8007     40.5804
   700.1000      7.9505      2.5611      0.0592      5.3859     40.4341
   700.2000      7.9505      2.5610      0.0612      5.3943     40.0035
   700.3000      7.9511      2.5691      0.0675      4.9017     40.2858
   700.4000      7.9511      2.5832      0.0461      4.0474     42.1093
   700.5000      7.9536      2.6088      0.0443      2.4981     42.9636
   700.6000      7.9536      2.6366      0.0983      0.8097     41.5014
   700.7000      7.9536      2.6493      0.0616      0.0450     39.5057
   700.8000      7.9570      2.6527      0.0432     -0.1618     39.4231
   700.9000      7.9570      2.6595      0.0674     -0.5759     42.0456
   701.0000      7.9581      2.6679      0.0990     -1.0861     45.3848
   701.1000      7.9581      2.6778      0.0879     -1.6871     46.8755
   701.2000      7.9581      2.6889      0.0381     -2.3567     45.8982
   701.3000      7.9563      2.6851      0.0811     -2.1248     44.3585
   701.4000      7.9563      2.6509      0.0304     -0.0516     44.1907
   701.5000      7.9539      2.6065     -0.0177      2.6348     44.9491
   701.6000      7.9539      2.5874     -0.0176      3.7910     46.3659
   701.7000      7.9539      2.5977     -0.0035      3.1691     49.4558
   701.8000      7.9525      2.6170      0.0566      2.0024     53.5213
   701.9000      7.9525      2.6296      0.0747      1.2387     56.0401
   702.0000      7.9539      2.6346      0.0444      0.9349     54.2616
   702.1000      7.9539      2.6390      0.0480      0.6651     49.8003
   702.2000      7.9539      2.6400      0.0751      0.6061     47.2332
   702.3000      7.9567      2.6268      0.0632      1.4069     47.4368
   702.4000      7.9567      2.6081      0.0458      2.5388     49.2275
   702.5000      7.9583      2.6095      0.0129      2.4532     51.3215
   702.6000      7.9583      2.6325      0.0700      1.0591     52.0714
   702.7000      7.9583      2.6502      0.0907     -0.0114     50.7291
   702.8000      7.9590      2.6521      0.0644     -0.1296     49.1488
   702.9000      7.9590      2.6487      0.0545      0.0798     49.3306
   703.0000      7.9607      2.6445      0.0529      0.3320     48.9990
   703.1000      7.9607      2.6387     -0.0034      0.6867     47.4464
   703.2000      7.9607      2.6227      0.0680      1.6525     49.2263
   703.3000      7.9615      2.5921      0.0128      3.5120     55.2675
   703.4000      7.9615      2.5731     -0.0214      4.6586     60.8754
   703.5000      7.9585      2.5933      0.0074      3.4336     64.2952
   703.6000      7.9585      2.6326      0.0693      1.0560     67.9708
   703.7000      7.9585      2.6519      0.0371     -0.1160     72.0757
   703.8000      7.9540      2.6403      0.0876      0.5889     75.3561
   703.9000      7.9540      2.6095      0.0352      2.4564     77.1111
   704.0000      7.9520      2.5866     -0.0057      3.8445     78.2620
   704.1000      7.9520      2.5910      0.0280      3.5756     80.0884
   704.2000      7.9520      2.6126      0.0440      2.2672     80.3545
   704.3000      7.9499      2.6343      0.0498      0.9496     77.6591
   704.4000      7.9499      2.6452      0.0509      0.2891     74.5343
   704.5000      7.9460      2.6326      0.0743      1.0540     73.3836
   704.6000      7.9460      2.6025      0.0070      2.8776     75.1268
   704.7000      7.9460      2.5870      0.0443      3.8170     80.4095
   704.8000      7.9433      2.5994      0.0552      3.0649     85.8065
   704.9000      7.9433      2.6216      0.0914      1.7215     85.4845
   705.0000      7.9443      2.6378      0.0713      0.7394     83.7025
   705.1000      7.9443      2.6474      0.1107      0.1600     87.9209
   705.2000      7.9443      2.6536      0.1081     -0.2197     92.6262
   705.3000      7.9481      2.6582      0.1068     -0.4976     91.7485
   705.4000      7.9481      2.6555      0.1078     -0.3317     87.7155
   705.5000      7.9519      2.6425      0.0595      0.4523     84.0461
   705.6000      7.9519      2.6234      0.0940      1.6127     84.4410
   705.7000      7.9519      2.6090      0.0570      2.4865     90.4237
   705.8000      7.9578      2.6196      0.0357      1.8407     97.7732
   705.9000      7.9578      2.6511      0.1117     -0.0691    101.3000
   706.0000      7.9658      2.6698      0.0976     -1.2018    100.5952
   706.1000      7.9658      2.6575      0.1155     -0.4553    100.5286
   706.2000      7.9658      2.6188      0.0848      1.8891    106.0558
   706.3000      7.9688      2.5757      0.0247      4.5049    112.9767
   706.4000      7.9688      2.5531      0.0287      5.8698    111.6235
   706.5000      7.9687      2.5496      0.0510      6.0853    102.7993
   706.6000      7.9687      2.5510      0.0407      5.9973     97.0773
   706.7000      7.9687      2.5578      0.0100      5.5881     99.8141
   706.8000      7.9696      2.5708      0.0468      4.8019    106.2501
   706.9000      7.9696      2.5798      0.0632      4.2551    107.8011
   707.0000      7.9704      2.5765      0.0769      4.4571    106.6606
   707.1000      7.9704      2.5665      0.0387      5.0607    110.1004
   707.2000      7.9704      2.5643      0.0416      5.1933    115.0262
   707.3000      7.9694      2.5686      0.0806      4.9325    115.1422
   707.4000      7.9694      2.5651      0.0755      5.1454    110.5386
   707.5000      7.9695      2.5465      0.0663      6.2747    107.9653
   707.6000      7.9695      2.5144      0.0228      8.2177    112.6502
   707.7000      7.9695      2.4847      0.0152     10.0197    120.0146
   707.8000      7.9755      2.4815     -0.0178     10.2115    123.8800
   707.9000      7.9755      2.5069      0.0630      8.6713    123.3903
   708.0000      7.9814      2.5312      0.0858      7.2022    119.7764
   708.1000      7.9814      2.5352      0.0885      6.9567    114.3324
   708.2000      7.9814      2.5268      0.0672      7.4648    107.9217
   708.3000      7.9835      2.5198      0.0596      7.8935    103.1834
   708.4000      7.9835      2.5237      0.1070      7.6521    103.8796
   708.5000      7.9820      2.5404      0.1096      6.6447    107.2079
   708.6000      7.9820      2.5613      0.1240      5.3772    107.9156
   708.7000      7.9820      2.5744      0.0937      4.5825    107.1041
