~Version Information
VERS.                      2.0: CWLS Log ASCII Standard - VERSION 2.0
WRAP.                       NO: One line per depth step
~Well Information Block
STRT.FT                -7.7500: 
STOP.FT              2446.5000: 
STEP.FT                 0.2500: 
NULL.                -999.2500: 
COMP.          XTO Energy Inc.: COMPANY
WELL.          Hill Ranch 15-09: WELL
FLD.           Purgatoire River: FIELD
LOC.           1816' FSL & 521' FEL: LOCATION
STAT.                 Colorado: State
CNTY.               Las Animas: COUNTY
CTRY. USA : Country
SECT. 15 : Section
TOWN. 35S : Township
RANG. 67W : Range
SRVC.          Patterson Wireline: SERVICE COMPANY
DATE.          Fri Dec 09 17:49:58 2005: LOG DATE
API. 05-071-08474                          : UNIQUE WELL ID
~Curve Information Block
DEPT.FT            0 000 00 00: Depth
CCL.                          : Casing Collar Locator
TT3.usec                      : CBL 3' Travel Time
AMP3.mV                       : CBL 3' Amplitude
AMP5.mV                       : CBL 5' Amplitude
GR.GAPI                       : Gamma Ray
~Parameter Information Block
~A  Depth       CCL         TT3         AMP3        AMP5         GR     
# ...
  1140.2500      0.0000    752.7936      5.8865      1.4369    145.7594
  1140.5000      0.0000    754.6678      5.7356      1.3131    144.7537
  1140.7500      0.0000    762.1788      5.5861      1.1761    142.5522
  1141.0000      0.0000    778.1274      5.4453      1.0591    139.3598
  1141.2500      0.0000    804.2268      5.3185      0.9763    135.7263
  1141.5000      0.0000    837.6088      5.2024      0.9386    132.5914
  1141.7500      0.0000    869.3710      5.0886      0.9579    130.6557
  1142.0000      0.0000    889.1260      4.9688      1.0281    129.6241
  1142.2500      0.0000    893.4055      4.8402      1.1204    128.4188
  1142.5000      0.0000    889.1807      4.7105      1.2059    126.5762
  1142.7500      0.0000    886.6666      4.6002      1.2748    125.2374
  1143.0000      0.0000    887.6599      4.5361      1.3298    126.1114
  1143.2500      0.0000    883.0058      4.5352      1.3715    129.4715
  1143.5000      0.0000    863.2952      4.5941      1.3929    133.6248
  1143.7500      0.0000    830.2095      4.6954      1.3814    136.2248
  1144.0000      0.0000    795.2336      4.8252      1.3242    135.8036
  1144.2500      0.0000    769.0439      4.9806      1.2211    132.5118
  1144.5000      0.0000    754.5414      5.1643      1.0966    128.1566
  1144.7500      0.0000    748.5417      5.3808      0.9983    125.3347
  1145.0000      0.0000    746.6055      5.6450      0.9782    125.4990
  1145.2500      0.0000    745.5174      5.9944      1.0664    127.4761
  1145.5000      0.0000    743.2736      6.4887      1.2485    128.4988
  1145.7500      0.0000    738.7414      7.1758      1.4617    126.8188
  1146.0000      0.0000    732.0580      8.0293      1.6191    122.7547
  1146.2500      0.0000    725.0255      8.9174      1.6560    117.5259
  1146.5000      0.0000    720.4610      9.6611      1.5713    112.2175
  1146.7500      0.0000    720.5288     10.1426      1.4312    107.9001
  1147.0000      0.0000    725.2663     10.3633      1.3293    105.5994
  1147.2500      0.0000    732.4461     10.4142      1.3398    105.4947
  1147.5000      0.0000    738.9056     10.4207      1.4875    106.4386
  1147.7500      0.0000    742.4050     10.5056      1.7326    106.7193
  1148.0000      0.0000    742.7558     10.7475      1.9769    105.4247
  1148.2500      0.0000    741.6155     11.1183      2.1116    102.9850
  1148.5000      0.0000    741.1660     11.4483      2.0829    100.3887
  1148.7500      0.0000    742.5294     11.4948      1.9107     98.1005
  1149.0000      0.0000    745.1907     11.0974      1.6550     95.8166
  1149.2500      0.0000    747.8720     10.3006      1.3852     93.1026
  1149.5000      0.0000    749.7452      9.3284      1.1738     90.3003
  1149.7500      0.0000    750.7681      8.4375      1.0815     89.0221
  1150.0000      0.0000    751.2909      7.7778      1.1210     91.4827
  1150.2500      0.0000    751.7704      7.3551      1.2445     98.6253
  1150.5000      0.0000    752.8788      7.0822      1.3771    108.7546
  1150.7500      0.0000    755.7067      6.8521      1.4626    118.4828
  1151.0000      0.0000    761.5033      6.5820      1.4845    125.0786
  1151.2500      0.0000    770.7679      6.2311      1.4549    127.6363
  1151.5000      0.0000    782.4972      5.8055      1.3991    126.5305
  1151.7500      0.0000    794.4736      5.3490      1.3493    122.7841
  1152.0000      0.0000    804.3000      4.9137      1.3346    117.9659
  1152.2500      0.0000    810.0612      4.5340      1.3581    113.7034
  1152.5000      0.0000    810.1274      4.2232      1.3892    110.6061
  1152.7500      0.0000    802.5908      3.9839      1.3864    107.7365
  1153.0000      0.0000    785.8303      3.8119      1.3277    103.6169
  1153.2500      0.0000    761.0009      3.6917      1.2193     98.1181
  1153.5000      0.0000    733.5690      3.6000      1.0894     93.1692
  1153.7500      0.0000    710.5230      3.5207      0.9840     91.3058
  1154.0000      0.0000    695.6906      3.4552      0.9550     93.5130
  1154.2500      0.0000    688.3625      3.4104      1.0261     98.5146
  1154.5000      0.0000    685.6801      3.3801      1.1629    104.0812
  1154.7500      0.0000    685.2467      3.3458      1.2927    108.9623
  1155.0000      0.0000    685.8428      3.2964      1.3607    113.4211
  1155.2500      0.0000    686.9037      3.2403      1.3632    117.9608
  1155.5000      0.0000    688.0235      3.1982      1.3293    122.0275
  1155.7500      0.0000    688.9785      3.1857      1.2895    124.4012
  1156.0000      0.0000    690.0835      3.2039      1.2654    124.6444
  1156.2500      0.0000    692.3583      3.2398      1.2703    123.6821
  1156.5000      0.0000    697.0825      3.2738      1.3024    122.9471
  1156.7500      0.0000    704.5717      3.2911      1.3397    123.3664
  1157.0000      0.0000    712.9206      3.2904      1.3503    125.1869
  1157.2500      0.0000    718.5482      3.2840      1.3083    128.0881
  1157.5000      0.0000    719.0029      3.2886      1.2065    131.0646
  1157.7500      0.0000    715.0685      3.3146      1.0614    132.7297
  1158.0000      0.0000    709.3406      3.3625      0.9072    132.3402
  1158.2500      0.0000    703.3216      3.4270      0.7807    130.4940
  1158.5000      0.0000    697.2220      3.5015      0.7103    128.6296
  1158.7500      0.0000    692.4408      3.5821      0.7070    127.8550
  1159.0000      0.0000    693.1931      3.6689      0.7523    128.3105
  1159.2500      0.0000    705.1971      3.7639      0.7993    129.4843
  1159.5000      0.0000    732.2242      3.8668      0.8087    130.8585
  1159.7500      0.0000    772.6953      3.9744      0.7909    132.3034
  1160.0000      0.0000    819.1461      4.0824      0.8007    134.0550
  1160.2500      0.0000    861.8399      4.1850      0.8826    136.2252
  1160.5000      0.0000    893.7079      4.2742      1.0277    138.2455
  1160.7500      0.0000    912.4276      4.3433      1.1845    139.0452
  1161.0000      0.0000    918.8986      4.3909      1.3033    137.8330
  1161.2500      0.0000    914.4400      4.4203      1.3659    134.4137
  1161.5000      0.0000    899.8672      4.4383      1.3869    128.9313
  1161.7500      0.0000    878.3618      4.4544      1.3955    121.8869
  1162.0000      0.0000    858.3408      4.4733      1.4102    114.3868
  1162.2500      0.0000    848.7980      4.4881      1.4165    107.8108
  1162.5000      0.0000    849.7402      4.4849      1.3719    102.9586
  1162.7500      0.0000    850.7969      4.4575      1.2444     99.7435
  1163.0000      0.0000    842.0026      4.4173      1.0547     98.0070
  1163.2500      0.0000    824.1094      4.3842      0.8793     98.3381
  1163.5000      0.0000    806.7678      4.3680      0.8002    101.4277
  1163.7500      0.0000    798.2698      4.3609      0.8440    106.5137
  1164.0000      0.0000    798.7436      4.3493      0.9690    111.1721
  1164.2500      0.0000    802.0267      4.3277      1.1094    113.2253
  1164.5000      0.0000    801.5859      4.3001      1.2254    112.5777
  1164.7500      0.0000    794.0902      4.2709      1.3098    110.8082
  1165.0000      0.0000    780.6360      4.2356      1.3631    109.3944
  1165.2500      0.0000    767.6981      4.1838      1.3788    108.8123
  1165.5000      0.0000    764.7446      4.1134      1.3514    108.9807
  1165.7500      0.0000    776.6200      4.0461      1.2867    109.7908
  1166.0000      0.0000    798.0193      4.0212      1.2051    111.0023
  1166.2500      0.0000    817.1807      4.0690      1.1407    112.1591
  1166.5000      0.0000    824.7639      4.1907      1.1263    113.0198
  1166.7500      0.0000    818.5601      4.3564      1.1653    113.8147
  1167.0000      0.0000    802.3480      4.5121      1.2187    114.6849
  1167.2500      0.0000    783.4867      4.5979      1.2335    114.9201
  1167.5000      0.0000    770.7513      4.5843      1.1910    113.1886
  1167.7500      0.0000    770.9510      4.4981      1.1230    108.8447
  1168.0000      0.0000    785.5757      4.4011      1.0815    103.0057
