~Version Information
VERS.                      2.0: CWLS Log ASCII Standard - VERSION 2.0
WRAP.                       NO: One line per depth step
~Well Information Block
STRT.FT                10.0000: 
STOP.FT              1360.0000: 
STEP.FT                 0.1000: 
NULL.                -999.2500: 
COMP.          Pioneer Natural Resources: COMPANY
WELL.              Geyser 41-2: WELL
FLD.           Purgatorie River: FIELD
LOC.           506' FNL & 1127' FEL: LOCATION
PROV.                 Colorado: PROVINCE
CNTY.               Las Animas: COUNTRY
SRVC.                Patterson: SERVICE COMPANY
DATE.          Thu Dec 01 07:38:14 2005: LOG DATE
UWI.                          : UNIQUE WELL ID
~Curve Information Block
DEPT.FT            0 000 00 00: Depth
DCAL.in                       : CDL Caliper
RHOB.g/cc                     : CDL Bulk Density
RHOC.g/cc                     : CDL Density Correction
DPOR.pu                       : CDL Density Porosity
GR.GAPI                       : Gamma Ray
NPOR.pu                       : Neutron Porosity
~Parameter Information Block
~A  Depth       DCAL        RHOB        RHOC        DPOR         GR         NPOR    
# ...
   989.2000      7.9061      2.4971      0.0263      9.2647    124.9442     23.7507
   989.3000      7.8961      2.4955      0.0849      9.3628    123.1671     23.8101
   989.4000      7.8961      2.4972      0.0670      9.2576    121.5602     23.9626
   989.5000      7.8987      2.4911      0.0368      9.6326    118.6837     23.9938
   989.6000      7.8987      2.4816      0.0560     10.2086    116.0961     23.8422
   989.7000      7.8987      2.4756      0.0663     10.5718    114.3666     23.5995
   989.8000      7.9048      2.4732      0.0698     10.7149    113.8358     23.3800
   989.9000      7.9048      2.4787      0.0374     10.3839    114.6802     23.1406
   990.0000      7.9088      2.5021      0.0524      8.9627    113.7448     22.8039
   990.1000      7.9088      2.5333      0.0815      7.0723    110.6174     22.5179
   990.2000      7.9088      2.5423      0.1139      6.5262    108.7675     22.6059
   990.3000      7.9046      2.5233      0.0247      7.6773    110.1989     22.9631
   990.4000      7.9046      2.4995      0.0534      9.1212    113.2772     23.0827
   990.5000      7.9104      2.4847      0.0381     10.0158    114.6809     22.9594
   990.6000      7.9104      2.4798      0.0047     10.3132    114.6532     23.0439
   990.7000      7.9104      2.4823      0.0399     10.1632    115.2157     23.3695
   990.8000      7.8865      2.4892      0.0353      9.7439    114.4074     23.7664
   990.9000      7.8865      2.5065      0.0363      8.6997    110.6214     24.1344
   991.0000      7.8921      2.5370      0.0974      6.8483    106.0480     24.3705
   991.1000      7.8921      2.5683      0.1078      4.9521    101.8853     24.5267
   991.2000      7.8921      2.5859      0.1078      3.8861     97.3575     24.5376
   991.3000      7.8757      2.5891      0.1123      3.6898     93.8633     24.3961
   991.4000      7.8757      2.5926      0.0805      3.4766     93.2785     24.2651
   991.5000      7.8545      2.6050      0.1252      2.7292     93.0946     24.1750
   991.6000      7.8545      2.6202      0.0453      1.8075     91.0641     24.0353
   991.7000      7.8545      2.6340      0.0876      0.9701     88.9965     23.5479
   991.8000      7.8416      2.6410      0.1153      0.5436     86.9451     22.7036
   991.9000      7.8416      2.6368      0.0747      0.7987     84.3442     22.1358
   992.0000      7.8443      2.6259      0.0270      1.4592     83.1775     22.0214
   992.1000      7.8443      2.6145      0.0546      2.1525     82.8020     21.9197
   992.2000      7.8443      2.6077      0.0349      2.5639     80.6460     21.6639
   992.3000      7.8285      2.6098      0.0360      2.4378     78.5194     21.3626
   992.4000      7.8285      2.6159      0.0542      2.0684     79.6747     20.9684
   992.5000      7.8120      2.6171      0.0544      1.9954     82.9790     20.4774
   992.6000      7.8120      2.6146      0.0732      2.1458     85.4251     20.2614
   992.7000      7.8120      2.6202      0.0857      1.8046     85.4115     20.4089
   992.8000      7.8159      2.6386      0.0801      0.6881     83.6002     20.5515
   992.9000      7.8159      2.6557      0.1364     -0.3446     82.4274     20.6328
   993.0000      7.8086      2.6578      0.0842     -0.4717     83.5081     20.7489
   993.1000      7.8086      2.6493      0.0844      0.0401     86.3125     20.8715
   993.2000      7.8086      2.6328      0.0858      1.0453     89.0860     20.9938
   993.3000      7.8157      2.6131      0.0377      2.2377     89.4562     20.9866
   993.4000      7.8157      2.6045      0.0821      2.7551     88.4528     20.8783
   993.5000      7.8255      2.6053      0.0360      2.7084     89.9621     20.8683
   993.6000      7.8255      2.6024      0.0631      2.8825     92.8756     20.8467
   993.7000      7.8255      2.5905      0.0497      3.6052     92.5030     20.7615
   993.8000      7.8319      2.5745      0.0200      4.5770     89.5252     20.6749
   993.9000      7.8319      2.5706      0.0025      4.8104     88.9479     20.4590
   994.0000      7.8441      2.5930      0.0356      3.4542     90.7827     20.1283
   994.1000      7.8441      2.6286      0.0461      1.2992     91.0711     20.0125
   994.2000      7.8441      2.6479      0.0661      0.1253     89.4855     20.1500
   994.3000      7.8737      2.6370      0.0626      0.7895     87.4507     20.2980
   994.4000      7.8737      2.6046      0.0251      2.7504     84.5786     20.5017
   994.5000      7.9058      2.5726     -0.0041      4.6887     81.1759     20.6360
   994.6000      7.9058      2.5587     -0.0172      5.5320     80.1438     20.6486
   994.7000      7.9058      2.5584      0.0173      5.5537     83.6543     21.0032
   994.8000      7.9242      2.5582     -0.0002      5.5664     89.3455     21.7473
   994.9000      7.9242      2.5619     -0.0253      5.3404     93.1735     22.2254
   995.0000      7.9352      2.5722      0.0225      4.7179     92.9222     22.0056
   995.1000      7.9352      2.5710      0.0162      4.7882     89.0480     21.4030
   995.2000      7.9352      2.5542     -0.0498      5.8085     84.2607     21.0695
   995.3000      7.9264      2.5476     -0.0510      6.2044     81.3869     21.2505
   995.4000      7.9264      2.5698     -0.0441      4.8610     80.5972     21.6480
   995.5000      7.9164      2.6092      0.0265      2.4746     80.5602     21.9939
   995.6000      7.9164      2.6430      0.0182      0.4248     80.6629     22.0744
   995.7000      7.9164      2.6604      0.0562     -0.6304     79.9041     21.8216
   995.8000      7.8962      2.6576      0.0659     -0.4594     77.7467     21.6367
   995.9000      7.8962      2.6399      0.0278      0.6146     75.5883     21.5656
   996.0000      7.8848      2.6198      0.0543      1.8274     75.2510     21.0853
   996.1000      7.8848      2.6002      0.0249      3.0210     76.7953     20.3195
   996.2000      7.8848      2.5849     -0.0177      3.9458     78.4045     20.0925
   996.3000      7.8574      2.5802      0.0021      4.2280     79.4303     20.5704
   996.4000      7.8574      2.5745     -0.0033      4.5756     80.1808     21.1470
   996.5000      7.8596      2.5603     -0.0057      5.4340     80.9667     21.3052
   996.6000      7.8596      2.5534      0.0324      5.8532     82.0932     21.0450
   996.7000      7.8596      2.5670      0.0042      5.0322     82.5226     20.8093
   996.8000      7.8378      2.5943      0.0480      3.3746     81.2589     20.7531
   996.9000      7.8378      2.6113      0.0602      2.3467     79.3668     20.6728
   997.0000      7.8479      2.6013      0.0100      2.9494     78.7393     20.6260
   997.1000      7.8479      2.5721     -0.0088      4.7235     80.9436     20.7107
   997.2000      7.8479      2.5438     -0.0250      6.4338     84.4140     20.7865
   997.3000      7.8510      2.5377     -0.0144      6.8052     86.5630     20.6241
   997.4000      7.8510      2.5567      0.0124      5.6566     87.1581     20.2644
   997.5000      7.8593      2.5870     -0.0085      3.8172     86.3340     20.1019
   997.6000      7.8593      2.6099      0.0797      2.4303     85.6228     20.1854
   997.7000      7.8593      2.6131      0.0262      2.2356     86.8215     20.1665
   997.8000      7.8540      2.6072      0.0517      2.5920     89.4597     19.9562
   997.9000      7.8540      2.6050      0.0493      2.7245     92.2474     19.7243
   998.0000      7.8592      2.6034      0.0711      2.8232     93.9019     19.5766
   998.1000      7.8592      2.5954      0.0416      3.3070     93.3845     19.4889
   998.2000      7.8592      2.5802      0.0345      4.2281     92.0010     19.4230
   998.3000      7.8659      2.5705      0.0126      4.8182     90.6495     19.4447
   998.4000      7.8659      2.5789      0.0311      4.3087     88.2373     19.6025
   998.5000      7.8597      2.5948      0.0566      3.3447     86.3405     19.7611
   998.6000      7.8597      2.6037      0.0455      2.8042     87.0860     19.6388
   998.7000      7.8597      2.6029      0.0337      2.8525     88.1602     19.1766
