~Version Information
VERS.                      2.0: CWLS Log ASCII Standard - VERSION 2.0
WRAP.                       NO: One line per depth step
~Well Information Block
STRT.FT               325.0000: 
STOP.FT              1014.5000: 
STEP.FT                 0.2500: 
NULL.                -999.2500: 
COMP.          Pioneer Natural Resources: COMPANY
WELL.                Doc 34-30: WELL
FLD.           Purgatoire River: FIELD
LOC.           454' FSL & 1386' FEL: LOCATION
CNTY.               Las Animas: COUNTY
SRVC.                Patterson: SERVICE COMPANY
DATE.          Wed Feb 15 20:26:19 2006: LOG DATE
UWI.           05 071 08694 00: UNIQUE WELL ID
STAT.                 Colorado: STATE
~Curve Information Block
DEPT.FT            0 000 00 00: Depth
SN.Ohm-m                      : IEL Short Normal
SP.mV                         : IEL Spontaneous Potential
DIR.Ohm-m                     : IEL Induction Resistivity
GR.GAPI                       : Gamma Ray
~Parameter Information Block
~A  Depth        SN          SP         DIR          GR     
# ...
   559.5000   2000.0000   2000.0000     11.5519    132.4989
   559.7500   2000.0000   2000.0000     11.7280    133.0550
   560.0000   2000.0000   2000.0000     11.9105    131.7425
   560.2500   2000.0000   2000.0000     12.0671    129.5544
   560.5000   2000.0000   2000.0000     12.1661    125.8662
   560.7500   2000.0000   2000.0000     12.1851    124.1190
   561.0000   2000.0000   2000.0000     12.1174    123.1937
   561.2500   2000.0000   2000.0000     11.9742    123.3866
   561.5000   2000.0000   2000.0000     11.7810    124.0141
   561.7500   2000.0000   2000.0000     11.5666    124.5103
   562.0000   2000.0000   2000.0000     11.3520    125.9439
   562.2500   2000.0000   2000.0000     11.1460    127.7640
   562.5000   2000.0000   2000.0000     10.9489    131.7471
   562.7500   2000.0000   2000.0000     10.7605    134.7477
   563.0000   2000.0000   2000.0000     10.5822    138.8694
   563.2500   2000.0000   2000.0000     10.4127    141.1797
   563.5000   2000.0000   2000.0000     10.2448    144.3115
   563.7500   2000.0000   2000.0000     10.0670    146.4354
   564.0000   2000.0000   2000.0000      9.8698    149.4834
   564.2500   2000.0000   2000.0000      9.6524    150.8640
   564.5000   2000.0000   2000.0000      9.4267    151.2056
   564.7500   2000.0000   2000.0000      9.2171    150.5410
   565.0000   2000.0000   2000.0000      9.0527    149.5574
   565.2500   2000.0000   2000.0000      8.9545    149.5556
   565.5000   2000.0000   2000.0000      8.9264    150.7998
   565.7500   2000.0000   2000.0000      8.9552    152.2376
   566.0000   2000.0000   2000.0000      9.0198    154.4048
   566.2500   2000.0000   2000.0000      9.1023    155.0730
   566.5000   2000.0000   2000.0000      9.1918    153.5611
   566.7500   2000.0000   2000.0000      9.2781    150.2948
   567.0000   2000.0000   2000.0000      9.3451    141.3424
   567.2500   2000.0000   2000.0000      9.3719    132.6012
   567.5000   2000.0000   2000.0000      9.3461    116.7192
   567.7500   2000.0000   2000.0000      9.2764    106.3303
   568.0000   2000.0000   2000.0000      9.1918     95.6596
   568.2500   2000.0000   2000.0000      9.1235     93.8645
   568.5000   2000.0000   2000.0000      9.0865     99.5580
   568.7500   2000.0000   2000.0000      9.0722    107.2712
   569.0000   2000.0000   2000.0000      9.0570    120.2113
   569.2500   2000.0000   2000.0000      9.0176    127.4631
   569.5000   2000.0000   2000.0000      8.9433    134.5150
   569.7500   2000.0000   2000.0000      8.8358    136.8110
   570.0000   2000.0000   2000.0000      8.7016    137.5925
   570.2500   2000.0000   2000.0000      8.5454    136.7481
   570.5000   2000.0000   2000.0000      8.3718    134.0440
   570.7500   2000.0000   2000.0000      8.1900    131.9485
   571.0000   2000.0000   2000.0000      8.0147    129.9769
   571.2500   2000.0000   2000.0000      7.8614    130.1157
   571.5000   2000.0000   2000.0000      7.7412    132.4145
   571.7500   2000.0000   2000.0000      7.6601    134.7628
   572.0000   2000.0000   2000.0000      7.6213    138.5022
   572.2500   2000.0000   2000.0000      7.6272    140.7281
   572.5000   2000.0000   2000.0000      7.6801    143.1916
   572.7500   2000.0000   2000.0000      7.7803    144.2236
   573.0000   2000.0000   2000.0000      7.9264    145.3405
   573.2500   2000.0000   2000.0000      8.1156    146.0060
   573.5000   2000.0000   2000.0000      8.3428    146.3517
   573.7500   2000.0000   2000.0000      8.5980    145.4983
   574.0000   2000.0000   2000.0000      8.8633    141.9067
   574.2500   2000.0000   2000.0000      9.1153    138.0459
   574.5000   2000.0000   2000.0000      9.3372    130.6592
   574.7500   2000.0000   2000.0000      9.5304    125.1642
   575.0000   2000.0000   2000.0000      9.7161    117.1637
   575.2500   2000.0000   2000.0000      9.9204    112.6320
   575.5000   2000.0000   2000.0000     10.1563    107.5838
   575.7500   2000.0000   2000.0000     10.4153    105.3934
   576.0000   2000.0000   2000.0000     10.6707    104.0632
   576.2500   2000.0000   2000.0000     10.8927    104.7985
   576.5000   2000.0000   2000.0000     11.0618    108.3357
   576.7500   2000.0000   2000.0000     11.1739    111.6152
   577.0000   2000.0000   2000.0000     11.2335    116.0899
   577.2500   2000.0000   2000.0000     11.2446    117.9313
   577.5000   2000.0000   2000.0000     11.2077    118.4155
   577.7500   2000.0000   2000.0000     11.1236    117.4213
   578.0000   2000.0000   2000.0000     10.9985    115.0769
   578.2500   2000.0000   2000.0000     10.8440    113.7888
   578.5000   2000.0000   2000.0000     10.6729    113.3283
   578.7500   2000.0000   2000.0000     10.4960    114.1328
   579.0000   2000.0000   2000.0000     10.3222    116.3753
   579.2500   2000.0000   2000.0000     10.1591    117.9141
   579.5000   2000.0000   2000.0000     10.0114    119.3540
   579.7500   2000.0000   2000.0000      9.8769    119.4890
   580.0000   2000.0000   2000.0000      9.7463    118.3478
   580.2500   2000.0000   2000.0000      9.6084    116.7067
   580.5000   2000.0000   2000.0000      9.4589    113.4015
   580.7500   2000.0000   2000.0000      9.3050    111.3243
   581.0000   2000.0000   2000.0000      9.1614    109.8634
   581.2500   2000.0000   2000.0000      9.0436    110.5146
   581.5000   2000.0000   2000.0000      8.9620    113.7055
   581.7500   2000.0000   2000.0000      8.9193    116.7020
   582.0000   2000.0000   2000.0000      8.9091    121.4973
   582.2500   2000.0000   2000.0000      8.9159    124.5889
   582.5000   2000.0000   2000.0000      8.9181    128.8122
   582.7500   2000.0000   2000.0000      8.8945    131.1603
   583.0000   2000.0000   2000.0000      8.8323    133.6143
   583.2500   2000.0000   2000.0000      8.7317    134.4409
   583.5000   2000.0000   2000.0000      8.6038    134.5976
   583.7500   2000.0000   2000.0000      8.4654    134.1816
   584.0000   2000.0000   2000.0000      8.3331    133.2350
   584.2500   2000.0000   2000.0000      8.2221    132.6866
   584.5000   2000.0000   2000.0000      8.1445    132.4686
   584.7500   2000.0000   2000.0000      8.1085    132.9287
   585.0000   2000.0000   2000.0000      8.1156    134.6217
   585.2500   2000.0000   2000.0000      8.1604    136.2436
   585.5000   2000.0000   2000.0000      8.2331    138.7414
   585.7500   2000.0000   2000.0000      8.3240    140.0226
   586.0000   2000.0000   2000.0000      8.4277    141.0102
   586.2500   2000.0000   2000.0000      8.5433    141.1610
   586.5000   2000.0000   2000.0000      8.6736    141.2067
   586.7500   2000.0000   2000.0000      8.8246    141.4074
   587.0000   2000.0000   2000.0000      9.0064    141.8397
   587.2500   2000.0000   2000.0000      9.2337    141.7484
   587.5000   2000.0000   2000.0000      9.5239    139.9056
   587.7500   2000.0000   2000.0000      9.8926    136.8561
   588.0000   2000.0000   2000.0000     10.3492    128.7849
   588.2500   2000.0000   2000.0000     10.8943    121.2647
   588.5000   2000.0000   2000.0000     11.5221    108.4090
   588.7500   2000.0000   2000.0000     12.2252     99.9621
   589.0000   2000.0000   2000.0000     12.9991     88.4715
   589.2500   2000.0000   2000.0000     13.8408     81.3965
   589.5000   2000.0000   2000.0000     14.7421     70.9889
   589.7500   2000.0000   2000.0000     15.6822     64.2542
   590.0000   2000.0000   2000.0000     16.6275     55.4873
   590.2500   2000.0000   2000.0000     17.5442     51.1392
   590.5000     27.9736    -66.2777     18.4127     46.9033
   590.7500     27.5171    -65.9161     19.2322     45.0499
   591.0000     27.1473    -65.6973     20.0095     42.7368
   591.2500     26.7888    -65.5035     20.7428     41.3354
   591.5000     26.3618    -65.3190     21.4153     39.7464
   591.7500     26.0338    -65.1610     22.0021     39.2464
   592.0000     25.9705    -65.0437     22.4870     39.4219
   592.2500     26.0899    -64.9686     22.8762     39.9815
   592.5000     26.1878    -64.9270     23.1961     40.8822
   592.7500     26.1789    -64.9048     23.4750     41.1648
