~Version Information
 VERS.                                  2.0 : CWLS LAS VERSION
 WRAP.                                   NO : WRAPING MODE
 SWARE .                 MController 2.5.0N : SOFTWARE VERSION
~Well Information
 WELL.                       Screamin 12-29 : WELL
 COMP.       Pioneer Natural Resources, USA : COMPANY
 FLD.                       Purgatory River : FIELD
 LOC.                 SW/NW Sec29 T32S R65W : LOCATION
 DATE.                    3/28/06 - 3/29/06 : DATE(S) LOGGED
 SRVC.      Blanco Geological Services, LLC : SERVICE COMPANY
 STAT.                             Colorado : STATE
 CNTY.                           Las Animas : COUNTY
 CTRY.                                  USA : COUNTRY
 API.                          05-071-08660 : API NUMBER
 STRT.FT                             599.00 : START DEPTH
 STOP.FT                            1583.00 : STOP DEPTH
 STEP.FT                               1.00 : DEPTH INCREMENT
 NULL.                                -9999 : NULL VALUE
~Curve information
 DEPTH.FT                                   :
 ROP.MIN/FT                                 :
 GAS.UNITS                                  :
~ASCII Log data
# ...
       999.0         0.50        215.6 
      1000.0         0.40        211.5 
      1001.0         0.40        214.2 
      1002.0         0.33        214.8 
      1003.0         0.33        215.2 
      1004.0         0.30        212.8 
      1005.0         0.38        210.7 
      1006.0         0.33        216.7 
      1007.0         0.33        216.3 
      1008.0         0.33        217.2 
      1009.0         0.37        216.3 
      1010.0         0.33        213.7 
      1011.0         0.47        215.6 
      1012.0         3.65        817.2 
      1013.0         0.47        629.5 
      1014.0         0.48        672.0 
      1015.0         0.47        680.1 
      1016.0         0.40        592.8 
      1017.0         0.37        503.8 
      1018.0         0.37        440.0 
      1019.0         0.33        227.3 
      1020.0         0.30        215.4 
      1021.0         0.33        210.8 
      1022.0         0.33        207.1 
      1023.0         0.32        208.8 
      1024.0         0.33        211.8 
      1025.0         0.43        230.1 
      1026.0         0.33        243.3 
      1027.0         0.23        244.1 
      1028.0         0.27        240.8 
      1029.0         0.23        231.7 
      1030.0         0.27        216.0 
      1031.0         0.23        212.5 
      1032.0         0.23        208.6 
      1033.0         0.27        203.7 
      1034.0         0.20        197.9 
      1035.0         0.25        196.5 
      1036.0         0.23        189.2 
      1037.0         0.23        190.5 
      1038.0         0.23        193.6 
      1039.0         0.23        200.2 
      1040.0         0.27        199.8 
      1041.0         0.37        201.5 
      1042.0         4.38       1083.0 
      1043.0         0.33        264.9 
      1044.0         0.38        306.1 
      1045.0         0.33        409.1 
      1046.0         0.33        419.1 
      1047.0         0.27        370.5 
      1048.0         0.40        327.7 
      1049.0         0.33        287.3 
      1050.0         0.37        279.2 
      1051.0         0.30        257.8 
      1052.0         0.33        242.3 
      1053.0         0.30        236.0 
      1054.0         0.42        220.3 
      1055.0         0.37        203.6 
      1056.0         0.33        210.3 
      1057.0         0.33        222.7 
      1058.0         0.33        222.4 
      1059.0         0.33        217.3 
      1060.0         0.33        214.3 
      1061.0         0.40        206.5 
      1062.0         0.37        202.3 
      1063.0         0.38        205.9 
      1064.0         0.33        202.8 
      1065.0         0.30        197.8 
      1066.0         0.40        202.0 
      1067.0         0.33        208.4 
      1068.0         0.30        216.4 
      1069.0         0.30        218.4 
      1070.0         0.33        210.5 
      1071.0         0.33        208.7 
      1072.0         3.92        869.7 
      1073.0         0.52        527.1 
      1074.0         0.57        571.6 
      1075.0         0.53        551.0 
      1076.0         0.57        555.4 
      1077.0         0.37        474.5 
      1078.0         0.30        443.5 
      1079.0         0.27        440.0 
      1080.0         0.35        269.7 
      1081.0         0.37        242.8 
      1082.0         0.33        220.1 
      1083.0         0.30        221.6 
      1084.0         0.33        219.7 
      1085.0         0.30        212.1 
      1086.0         0.27        201.1 
      1087.0         0.30        202.3 
      1088.0         0.30        204.5 
      1089.0         0.23        207.6 
      1090.0         0.27        210.2 
      1091.0         0.23        210.2 
      1092.0         0.38        199.3 
      1093.0         0.30        208.7 
      1094.0         0.33        215.2 
      1095.0         0.30        211.6 
      1096.0         0.33        201.3 
      1097.0         0.30        206.8 
      1098.0         0.33        201.3 
      1099.0         0.33        204.3 
      1100.0         0.33        205.3 
      1101.0         0.33        203.7 
      1102.0         3.63        911.2 
      1103.0         0.37        478.2 
      1104.0         0.33        563.5 
      1105.0         0.43        562.1 
      1106.0         0.40        561.1 
      1107.0         0.37        562.8 
      1108.0         0.30        542.6 
      1109.0         0.27        505.2 
      1110.0         0.27        468.1 
      1111.0         0.27        440.0 
      1112.0         0.35        239.4 
      1113.0         0.27        220.7 
      1114.0         0.30        227.1 
      1115.0         0.27        219.6 
      1116.0         0.30        207.7 
      1117.0         0.23        190.7 
      1118.0         0.30        193.9 
      1119.0         0.33        192.4 
      1120.0         0.33        190.2 
      1121.0         0.30        193.0 
      1122.0         0.27        197.1 
      1123.0         0.30        194.4 
      1124.0         0.32        185.0 
      1125.0         0.27        186.3 
      1126.0         0.27        191.7 
      1127.0         0.23        199.8 
      1128.0         0.27        202.2 
      1129.0         0.30        190.3 
      1130.0         0.30        230.9 
      1131.0         0.43        246.5 
      1132.0         3.75        982.6 
      1133.0         0.82        602.6 
      1134.0         0.40        592.5 
      1135.0         0.33        556.1 
      1136.0         0.53        539.9 
      1137.0         0.50        458.4 
      1138.0         0.40        271.8 
      1139.0         0.50        244.3 
      1140.0         0.62        228.3 
      1141.0         0.50        213.0 
      1142.0         0.60        216.3 
      1143.0         0.50        212.1 
      1144.0         0.50        213.2 
      1145.0         0.37        214.9 
      1146.0         0.37        208.7 
      1147.0         0.45        198.5 
      1148.0         0.40        219.6 
      1149.0         0.40        220.5 
      1150.0         0.40        215.0 
      1151.0         0.37        203.5 
      1152.0         0.40        204.3 
      1153.0         0.43        216.9 
      1154.0         0.43        215.6 
      1155.0         0.45        204.6 
      1156.0         0.40        196.6 
      1157.0         0.40        213.1 
      1158.0         0.43        234.7 
      1159.0         0.43        234.4 
      1160.0         0.47        229.0 
      1161.0         0.47        225.8 
      1162.0         4.60       1260.2 
      1163.0         0.40        440.0 
      1164.0         0.40        373.6 
      1165.0         0.37        447.8 
      1166.0         0.40        448.2 
      1167.0         0.40        401.3 
      1168.0         0.40        322.9 
      1169.0         0.48        263.8 
      1170.0         0.50        236.1 
      1171.0         0.27        213.4 
      1172.0         0.27        206.6 
      1173.0         0.23        203.6 
      1174.0         0.27        206.2 
      1175.0         0.27        205.7 
      1176.0         0.27        204.3 
      1177.0         0.27        201.5 
      1178.0         0.30        198.7 
      1179.0         0.20        199.9 
      1180.0         0.23        199.5 
      1181.0         0.28        190.5 
      1182.0         0.30        219.5 
      1183.0         0.30        235.5 
      1184.0         0.27        241.9 
      1185.0         0.27        260.5 
      1186.0         0.27        260.5 
      1187.0         0.27        248.3 
      1188.0         0.27        242.1 
      1189.0         0.23        234.0 
      1190.0         0.23        229.0 
      1191.0         0.27        224.6 
      1192.0         3.82        998.1 
      1193.0         0.48        440.5 
      1194.0         0.30        297.9 
      1195.0         0.30        377.0 
      1196.0         0.30        430.5 
      1197.0         0.27        443.5 
      1198.0         0.27        434.7 
