~Version Information
VERS.                      2.0: CWLS Log ASCII Standard - VERSION 2.0
WRAP.                       NO: One line per depth step
~Well Information Block
STRT.FT               -10.0000: 
STOP.FT              1935.0000: 
STEP.FT                 0.2500: 
NULL.                -999.2500: 
COMP.          Pioneer Natural Resources: COMPANY
WELL.           Willys 32-8 Tr: WELL
FLD.           Purgatorie River: FIELD
LOC.           1843' FNL & 2355' FEL--: LOCATION
CNTY.               Las Animas: COUNTY
SRVC.          Patterson Wireline: SERVICE COMPANY
DATE.          Wed Feb 15 13:29:41 2006: LOG DATE
UWI.           05 071 08688 00: UNIQUE WELL ID
STAT.                       CO: STATE
~Curve Information Block
DEPT.FT            0 000 00 00: Depth
CCL.                          : Casing Collar Locator
TT3.usec                      : CBL 3' Travel Time
AMP3.mV                       : CBL 3' Amplitude
GR.GAPI                       : Gamma Ray
~Parameter Information Block
~A  Depth       CCL         TT3         AMP3         GR     
# ...
  1531.0000      0.0000    554.2285     11.2860    115.6052
  1531.2500      0.0000    522.3259     11.2874    118.8903
  1531.5000      0.0000    496.7173     11.3311    120.7657
  1531.7500      0.0000    477.8531     11.4058    120.6211
  1532.0000      0.0000    461.0000     11.4953    119.5132
  1532.2500      0.0000    442.1971     11.5872    118.8473
  1532.5000      0.0000    421.8384     11.6738    118.6126
  1532.7500      0.0000    404.5004     11.7433    117.6211
  1533.0000      0.0000    397.3747     11.7750    115.2021
  1533.2500      0.0000    408.7249     11.7430    111.9345
  1533.5000      0.0000    444.3419     11.6307    108.8420
  1533.7500      0.0000    501.4038     11.4438    106.6757
  1534.0000      0.0000    565.4921     11.2103    105.9381
  1534.2500      0.0000    616.3665     10.9650    106.8409
  1534.5000      0.0000    638.4154     10.7375    109.1981
  1534.7500      0.0000    626.8390     10.5529    112.7979
  1535.0000      0.0000    587.2682     10.4336    117.4571
  1535.2500      0.0000    532.2159     10.3923    122.1674
  1535.5000      0.0000    476.0104     10.4205    124.9053
  1535.7500      0.0000    429.3932     10.4918    124.1002
  1536.0000      0.0000    397.1171     10.5787    119.8829
  1536.2500      0.0000    379.9713     10.6667    113.3745
  1536.5000      0.0000    377.4637     10.7538    105.2653
  1536.7500      0.0000    387.0551     10.8403     95.8071
  1537.0000      0.0000    401.7019     10.9232     86.0265
  1537.2500      0.0000    411.7296     11.0024     78.0490
  1537.5000      0.0000    411.9442     11.1022     73.6228
  1537.7500      0.0000    405.4747     11.2868     72.5350
  1538.0000      0.0000    398.3219     11.6407     72.8089
  1538.2500      0.0000    391.8521     12.2066     72.4223
  1538.5000      0.0000    383.1165     12.9282     70.7640
  1538.7500      0.0000    370.6507     13.6576     68.7153
  1539.0000      0.0000    357.1039     14.2144     67.5867
  1539.2500      0.0000    347.1517     14.4446     67.8486
  1539.5000      0.0000    344.5636     14.2616     68.5990
  1539.7500      0.0000    349.9842     13.6899     68.3741
  1540.0000      0.0000    359.7686     12.8926     66.7991
  1540.2500      0.0000    368.1638     12.1169     65.3860
  1540.5000      0.0000    372.2212     11.5594     66.4809
  1540.7500      0.0000    373.8462     11.2600     71.6227
  1541.0000      0.0000    376.2318     11.1248     80.9952
  1541.2500      0.0000    380.0274     11.0373     93.8128
  1541.5000      0.0000    383.9977     10.9427    108.6425
  1541.7500      0.0000    387.1128     10.8513    123.5637
  1542.0000      0.0000    388.0723     10.7943    136.5972
  1542.2500      0.0000    384.7661     10.7845    146.2694
  1542.5000      0.0000    376.6480     10.8066    151.7615
  1542.7500      0.0000    366.8024     10.8318    152.6787
  1543.0000      0.0000    360.0344     10.8389    148.9847
  1543.2500      0.0000    359.2720     10.8277    141.4897
  1543.5000      0.0000    364.3491     10.8172    132.4124
  1543.7500      0.0000    373.5630     10.8313    124.9001
  1544.0000      0.0000    386.0002     10.8807    121.2279
  1544.2500      0.0000    402.3920     10.9555    121.1665
  1544.5000      0.0000    423.1263     11.0348    122.2487
  1544.7500      0.0000    445.7671     11.1017    121.8600
  1545.0000      0.0000    466.4438     11.1473    119.1720
  1545.2500      0.0000    483.5619     11.1663    115.2591
  1545.5000      0.0000    496.6754     11.1580    111.6928
  1545.7500      0.0000    501.6292     11.1330    109.3286
  1546.0000      0.0000    492.2968     11.1084    108.3807
  1546.2500      0.0000    469.4097     11.0892    108.9729
  1546.5000      0.0000    444.4021     11.0551    110.9660
  1546.7500      0.0000    432.5059     10.9717    113.5006
  1547.0000      0.0000    442.3526     10.8167    115.1996
  1547.2500      0.0000    471.2722     10.5940    114.6662
  1547.5000      0.0000    509.3720     10.3282    110.6533
  1547.7500      0.0000    547.5579     10.0543    102.4512
  1548.0000      0.0000    580.9590      9.8179     90.8566
  1548.2500      0.0000    605.7648      9.6769     78.6316
  1548.5000      0.0000    616.9587      9.6868     69.3504
  1548.7500      0.0000    611.5299      9.8730     65.2783
  1549.0000      0.0000    592.0617     10.2193     66.0591
  1549.2500      0.0000    565.5283     10.6842     69.2488
  1549.5000      0.0000    539.5808     11.2276     72.0763
  1549.7500      0.0000    521.5017     11.8187     73.0134
  1550.0000      0.0000    519.2374     12.4277     72.1545
  1550.2500      0.0000    538.1383     13.0177     70.4402
  1550.5000      0.0000    573.9692     13.5509     68.5873
  1550.7500      0.0000    612.3411     14.0069     66.6307
  1551.0000      0.0000    637.1613     14.3984     64.3721
  1551.2500      0.0000    638.5588     14.7562     62.1948
  1551.5000      0.0000    615.1357     15.0868     61.3053
  1551.7500      0.0000    574.0374     15.3511     63.0266
  1552.0000      0.0000    529.2159     15.4950     67.8112
  1552.2500      0.0000    494.7422     15.4944     74.8727
  1552.5000      0.0000    476.8030     15.3559     82.6683
  1552.7500      0.0000    472.1654     15.0813     89.7410
  1553.0000      0.0000    473.4774     14.6567     95.1416
  1553.2500      0.0000    474.9673     14.0859     98.2554
  1553.5000      0.0000    474.6346     13.4255     98.6865
  1553.7500      0.0000    473.6656     12.7781     96.5570
  1554.0000      0.0000    474.8875     12.2445     92.6393
  1554.2500      0.0000    480.6945     11.8755     87.9379
  1554.5000      0.0000    490.4619     11.6626     83.3039
  1554.7500      0.0000    498.7955     11.5698     79.5762
  1555.0000      0.0000    497.3798     11.5697     77.8086
  1555.2500      0.0000    481.1410     11.6463     78.9624
  1555.5000      0.0000    453.3467     11.7738     83.2440
  1555.7500      0.0000    423.7339     11.9111     89.8089
  1556.0000      0.0000    401.7084     12.0240     97.2366
  1556.2500      0.0000    391.4041     12.1029    104.3294
  1556.5000      0.0000    391.1038     12.1540    110.4551
  1556.7500      0.0000    395.1350     12.1770    115.0820
  1557.0000      0.0000    397.1105     12.1602    117.1543
  1557.2500      0.0000    393.7418     12.0965    115.5898
  1557.5000      0.0000    386.2563     11.9977    110.8972
  1557.7500      0.0000    377.8769     11.8914    105.8513
  1558.0000      0.0000    370.7391     11.8018    103.9202
  1558.2500      0.0000    365.3719     11.7347    106.9335
  1558.5000      0.0000    361.6556     11.6801    114.3074
  1558.7500      0.0000    359.5422     11.6261    124.0342
  1559.0000      0.0000    359.9795     11.5637    133.8360
  1559.2500      0.0000    365.6645     11.4842    141.7368
  1559.5000      0.0000    379.6613     11.3816    146.7230
  1559.7500      0.0000    401.9608     11.2615    149.3332
  1560.0000      0.0000    427.4388     11.1382    150.9533
  1560.2500      0.0000    447.9538     11.0211    152.0721
  1560.5000      0.0000    457.0292     10.9041    151.7070
  1560.7500      0.0000    453.3213     10.7675    148.9971
  1561.0000      0.0000    441.0365     10.5856    144.7550
  1561.2500      0.0000    427.3405     10.3365    140.7556
  1561.5000      0.0000    417.7223     10.0144    138.0518
  1561.7500      0.0000    412.6691      9.6405    136.7789
  1562.0000      0.0000    409.0880      9.2607    137.1397
  1562.2500      0.0000    404.8008      8.9252    139.5063
  1562.5000      0.0000    401.2358      8.6613    143.3902
  1562.7500      0.0000    403.0818      8.4695    146.8965
  1563.0000      0.0000    417.1889      8.3449    147.6668
  1563.2500      0.0000    450.7498      8.2723    144.5461
  1563.5000      0.0000    506.6295      8.1894    138.3534
  1563.7500      0.0000    577.7819      8.0086    130.8704
  1564.0000      0.0000    647.3817      7.7279    123.1541
  1564.2500      0.0000    696.4693      7.4928    115.1720
