~Version Information
VERS.                      2.0: CWLS Log ASCII Standard - VERSION 2.0
WRAP.                       NO: One line per depth step
~Well Information Block
STRT.FT                -7.7500: 
STOP.FT              1519.0000: 
STEP.FT                 0.2500: 
NULL.                -999.2500: 
COMP.          Pioneer Natural Resources: COMPANY
WELL.          Mow 8-14-33-67 Tr: WELL
FLD.           Purgatorie River: FIELD
LOC.           2258' FNL & 929' FEL--: LOCATION
CNTY.               Las Animas: COUNTY
SRVC.          Patterson Wireline: SERVICE COMPANY
DATE.          Thu Feb 02 10:06:28 2006: LOG DATE
UWI.           05 071 08684 00: UNIQUE WELL ID
STAT.                       CO: STATE
~Curve Information Block
DEPT.FT            0 000 00 00: Depth
MINMK.                        : Magnetic Mark Ticks
CCL.                          : Casing Collar Locator
TT3.usec                      : CBL 3' Travel Time
AMP3.mV                       : CBL 3' Amplitude
GR.GAPI                       : Gamma Ray
~Parameter Information Block
~A  Depth      MINMK        CCL         TT3         AMP3         GR     
# ...
   608.2500      0.0000      0.0000    263.4715     77.7637     66.0716
   608.5000      0.0000      0.0000    263.4705     77.7178     68.1888
   608.7500      0.0000      0.0000    263.4668     77.7189     75.6325
   609.0000      0.0000      0.0000    263.4586     77.7490     88.4616
   609.2500      0.0000      0.0000    263.4460     77.7940    104.1914
   609.5000      0.0000      0.0000    263.4307     77.8429    119.2195
   609.7500      0.0000      0.0000    263.4160     77.8801    130.7743
   610.0000      0.0000      0.0000    263.4054     77.8854    137.8121
   610.2500      0.0000      0.0000    263.4010     77.8498    140.9066
   610.5000      0.0000      0.0000    263.4023     77.7937    141.7826
   610.7500      0.0000      0.0000    263.4070     77.7615    142.4526
   611.0000      0.0000      0.0000    263.4125     77.7883    144.0610
   611.2500      0.0000      0.0000    263.4169     77.8734    146.2855
   611.5000      0.0000      0.0000    263.4192     77.9909    147.7812
   611.7500      0.0000      0.0000    263.4182     78.1173    147.0344
   612.0000      0.0000      0.0000    263.4137     78.2428    143.0096
   612.2500      0.0000      0.0000    263.4064     78.3599    135.7705
   612.5000      0.0000      0.0000    263.3986     78.4511    126.8146
   612.7500      0.0000      0.0000    263.3931     78.4947    118.3486
   613.0000      0.0000      0.0000    263.3916     78.4877    111.9165
   613.2500      0.0000      0.0000    263.3932     78.4612    107.7291
   613.5000      0.0000      0.0000    263.3947     78.4631    105.1058
   613.7500      0.0000      0.0000    263.3933     78.5151    103.2250
   614.0000      0.0000      0.0000    263.3895     78.5951    101.3532
   614.2500      0.0000      0.0000    263.3853     78.6689     98.6255
   614.5000      0.0000      0.0000    263.3817     78.7293     94.1188
   614.7500      0.0000      0.0000    263.3782     78.7894     87.4860
   615.0000      0.0000      0.0000    263.3741     78.8497     79.5194
   615.2500      0.0000      0.0000    263.3698     78.8921     71.9127
   615.5000      0.0000      0.0000    263.3658     78.9012     66.2338
   615.7500      0.0000      0.0000    263.3617     78.8777     62.8781
   616.0000      0.0000      0.0000    263.3573     78.8302     60.9917
   616.2500      0.0000      0.0000    263.3533     78.7605     59.5338
   616.5000      0.0000      0.0000    263.3511     78.6633     58.3266
   616.7500      0.0000      0.0000    263.3519     78.5446     58.0351
   617.0000      0.0000      0.0000    263.3539     78.4409     59.3455
   617.2500      0.0000      0.0000    263.3536     78.4040     62.3305
   617.5000      0.0000      0.0000    263.3482     78.4561     66.3459
   617.7500      0.0000      0.0000    263.3383     78.5599     70.1985
   618.0000      0.0000      0.0000    263.3262     78.6367     72.5829
   618.2500      0.0000      0.0000    263.3145     78.5866     72.8782
   618.5000      0.0000      0.0000    263.3102     78.2381     71.7966
   618.7500      0.0000      0.0000    263.3403     77.2522     71.0871
   619.0000      0.0000      0.0000    263.4706     75.1279     72.2058
   619.2500      0.0000      0.0000    263.8096     71.5372     75.0227
   619.5000      0.0000      0.0000    264.4695     66.8620     77.7635
   619.7500      0.0000      0.0000    265.4861     62.2456     78.3702
   620.0000      0.0000      0.0000    266.7513     58.7552     76.2555
   620.2500      0.0000      0.0000    268.0284     56.5276     72.9142
   620.5000      0.0000      0.0000    269.0669     55.0097     70.6715
   620.7500      0.0000      0.0000    269.7376     53.8171     70.7330
   621.0000      0.0000      0.0000    270.0754     52.9747     72.3405
   621.2500      0.0000      2.0000    270.2112     52.5172     73.7510
   621.5000      0.0000      0.0000    270.2770     52.2858     74.0906
   621.7500      0.0000      0.0000    270.3623     52.1088     74.2825
   622.0000      0.0000      0.0000    270.4947     52.0593     76.0493
   622.2500      0.0000      0.0000    270.5842     52.5563     80.0796
   622.5000      0.0000      0.0000    270.3792     54.1700     85.4011
   622.7500      0.0000      0.0000    269.5870     57.1456     90.3648
   623.0000      0.0000      0.0000    268.1611     61.1140     93.7693
   623.2500      0.0000      0.0000    266.4482     65.4018     95.2303
   623.5000      0.0000      0.0000    264.9600     69.4833     95.2197
   623.7500      0.0000      0.0000    263.9995     73.0061     94.9634
   624.0000      0.0000      0.0000    263.5371     75.6634     95.9401
   624.2500      0.0000      0.0000    263.3736     77.3179     99.3371
   624.5000      0.0000      0.0000    263.3323     78.1347    105.7365
   624.7500      0.0000      0.0000    263.3238     78.4492    114.7702
   625.0000      0.0000      0.0000    263.3200     78.5444    124.8987
   625.2500      0.0000      0.0000    263.3178     78.5663    133.9720
   625.5000      0.0000      0.0000    263.3201     78.5716    140.4137
   625.7500      0.0000      0.0000    263.3291     78.5840    144.1448
   626.0000      0.0000      0.0000    263.3443     78.6225    146.5313
   626.2500      0.0000      0.0000    263.3620     78.6956    149.1289
   626.5000      0.0000      0.0000    263.3776     78.7983    152.0040
   626.7500      0.0000      0.0000    263.3884     78.9132    153.4435
   627.0000      0.0000      0.0000    263.3950     79.0219    151.7754
   627.2500      0.0000      0.0000    263.4000     79.1186    147.4581
   627.5000      0.0000      0.0000    263.4061     79.2126    143.0275
   627.7500      0.0000      0.0000    263.4140     79.3126    141.0214
   628.0000      0.0000      0.0000    263.4233     79.4107    142.2394
   628.2500      0.0000      0.0000    263.4329     79.4858    145.7464
   628.5000      0.0000      0.0000    263.4413     79.5217    149.7094
   628.7500      0.0000      0.0000    263.4473     79.5194    151.9626
   629.0000      0.0000      0.0000    263.4496     79.4950    150.5092
   629.2500      0.0000      0.0000    263.4482     79.4669    144.5102
   629.5000      0.0000      0.0000    263.4442     79.4406    134.9949
   629.7500      0.0000      0.0000    263.4398     79.4056    123.9561
   630.0000      0.0000      0.0000    263.4374     79.3484    112.3409
   630.2500      0.0000      0.0000    263.4383     79.2677     99.3901
   630.5000      0.0000      0.0000    263.4423     79.1723     84.3559
   630.7500      0.0000      0.0000    263.4485     79.0691     68.3993
   631.0000      0.0000      0.0000    263.4559     78.9605     54.2711
   631.2500      0.0000      0.0000    263.4643     78.8517     44.4126
   631.5000      0.0000      0.0000    263.4737     78.7485     39.7039
   631.7500      0.0000      0.0000    263.4840     78.6524     39.6868
   632.0000      0.0000      0.0000    263.4945     78.5648     43.4175
   632.2500      0.0000      0.0000    263.5038     78.4924     49.9893
   632.5000      0.0000      0.0000    263.5111     78.4400     58.4737
   632.7500      0.0000      0.0000    263.5171     78.3997     67.7596
   633.0000      0.0000      0.0000    263.5233     78.3527     76.8206
   633.2500      0.0000      0.0000    263.5318     78.2812     85.1359
   633.5000      0.0000      0.0000    263.5427     78.1812     92.6730
   633.7500      0.0000      0.0000    263.5541     78.0674     99.4382
   634.0000      0.0000      0.0000    263.5628     77.9645    105.0919
   634.2500      0.0000      0.0000    263.5667     77.8856    109.0103
   634.5000      0.0000      0.0000    263.5661     77.8212    110.7154
   634.7500      0.0000      0.0000    263.5631     77.7542    110.3418
   635.0000      1.0000      0.0000    263.5588     77.6833    108.9568
   635.2500      0.0000      0.0000    263.5539     77.6245    108.5322
   635.5000      0.0000      0.0000    263.5490     77.5904    111.2288
   635.7500      0.0000      0.0000    263.5451     77.5767    118.1666
   636.0000      0.0000      0.0000    263.5424     77.5661    128.6080
