~Version Information
VERS.                      2.0: CWLS Log ASCII Standard - VERSION 2.0
WRAP.                       NO: One line per depth step
~Well Information Block
STRT.FT                10.0000: 
STOP.FT              1063.0000: 
STEP.FT                 0.1000: 
NULL.                -999.2500: 
COMP.          Pioneer Natural Resources: COMPANY
WELL.                Mac 22-36: WELL
FLD.           Purgatorie River: FIELD
LOC.           2545' FNL & 1398' FWL: LOCATION
PROV.                 Colorado: PROVINCE
CNTY.               Las Animas: COUNTRY
SRVC.                Patterson: SERVICE COMPANY
DATE.          Mon Dec 05 10:55:42 2005: LOG DATE
UWI.                          : UNIQUE WELL ID
~Curve Information Block
DEPT.FT            0 000 00 00: Depth
DCAL.in                       : CDL Caliper
RHOB.g/cc                     : CDL Bulk Density
RHOC.g/cc                     : CDL Density Correction
DPOR.pu                       : CDL Density Porosity
GR.GAPI                       : Gamma Ray
NPOR.pu                       : Neutron Porosity
~Parameter Information Block
~A  Depth       DCAL        RHOB        RHOC        DPOR         GR         NPOR    
# ...
   701.2000      7.9316      2.5337      0.0503      7.0474     91.3125     22.4322
   701.3000      7.9305      2.5210     -0.0078      7.8185     85.3417     21.9047
   701.4000      7.9305      2.5148      0.0394      8.1937     81.4712     21.4138
   701.5000      7.8931      2.5117      0.0632      8.3819     78.3428     20.8101
   701.6000      7.8931      2.4982      0.0229      9.1984     75.0934     19.9825
   701.7000      7.8931      2.4775     -0.0043     10.4516     70.8954     19.0231
   701.8000      7.8605      2.4623     -0.0032     11.3752     65.3859     18.1362
   701.9000      7.8605      2.4597      0.0102     11.5334     60.2351     17.3872
   702.0000      7.8289      2.4642      0.0415     11.2588     56.9505     16.6270
   702.1000      7.8289      2.4671      0.0114     11.0822     55.8034     15.8102
   702.2000      7.8289      2.4662      0.0600     11.1379     56.2348     15.0834
   702.3000      7.8514      2.4596      0.0690     11.5382     56.2247     14.5981
   702.4000      7.8514      2.4528      0.0522     11.9498     55.2597     14.3402
   702.5000      7.8459      2.4592      0.0517     11.5639     55.8434     14.2408
   702.6000      7.8459      2.4732      0.0790     10.7177     59.1688     14.3411
   702.7000      7.8459      2.4750      0.0509     10.6077     62.2833     14.4386
   702.8000      7.8436      2.4703      0.0148     10.8927     62.1529     14.2877
   702.9000      7.8436      2.4787      0.0408     10.3840     60.1850     14.0587
   703.0000      7.8822      2.4967      0.0862      9.2893     59.6767     13.8482
   703.1000      7.8822      2.5095      0.0955      8.5132     60.9042     13.6425
   703.2000      7.8822      2.5069      0.1288      8.6711     62.9872     13.6540
   703.3000      7.8540      2.4806      0.1260     10.2692     65.8496     13.8227
   703.4000      7.8540      2.4412      0.0627     12.6571     68.6711     13.9069
   703.5000      7.8671      2.4176      0.0224     14.0875     70.3865     14.0574
   703.6000      7.8671      2.4200      0.0317     13.9399     71.3117     14.4230
   703.7000      7.8671      2.4369      0.0410     12.9163     74.3431     14.7681
   703.8000      7.8965      2.4611      0.0847     11.4462     80.3894     14.8055
   703.9000      7.8965      2.4918      0.0834      9.5869     87.0507     14.6106
   704.0000      7.8991      2.5315      0.0966      7.1820     92.0769     14.5109
   704.1000      7.8991      2.5798      0.2005      4.2525     95.0576     14.7442
   704.2000      7.8991      2.6188      0.2645      1.8909     98.3936     15.3318
   704.3000      7.8031      2.6319      0.2406      1.0964    104.0620     16.0076
   704.4000      7.8031      2.6291      0.2257      1.2687    109.3373     16.6179
   704.5000      7.7958      2.6239      0.1926      1.5830    111.0897     17.1668
   704.6000      7.7958      2.6131      0.1967      2.2348    109.8934     17.4234
   704.7000      7.7958      2.5921      0.1405      3.5081    106.6810     17.2892
   704.8000      7.8128      2.5683      0.1010      4.9524    102.1348     17.1492
   704.9000      7.8128      2.5554      0.0879      5.7360     99.6971     17.3633
   705.0000      7.8373      2.5571      0.0854      5.6287    100.5735     17.8829
   705.1000      7.8373      2.5605      0.1110      5.4262    101.1371     18.5167
   705.2000      7.8373      2.5512      0.1124      5.9860     99.8260     19.1143
   705.3000      7.8389      2.5341      0.0645      7.0229     98.1295     19.3955
   705.4000      7.8389      2.5281      0.0970      7.3887     96.5483     19.2655
   705.5000      7.8360      2.5415      0.1012      6.5739     94.3641     19.0806
   705.6000      7.8360      2.5650      0.1460      5.1519     92.4619     19.0513
   705.7000      7.8360      2.5859      0.1091      3.8850     92.5099     19.0541
   705.8000      7.8370      2.5939      0.1476      3.4015     93.3580     19.0634
   705.9000      7.8370      2.5788      0.1191      4.3134     92.2696     19.2206
   706.0000      7.8326      2.5437      0.0753      6.4428     89.7997     19.6173
   706.1000      7.8326      2.5001      0.0715      9.0821     88.9731     20.2139
   706.2000      7.8326      2.4560      0.0697     11.7548     89.5434     20.8219
   706.3000      7.8288      2.4221      0.0350     13.8150     88.9551     21.1952
   706.4000      7.8288      2.4097      0.0425     14.5629     88.3122     21.2516
   706.5000      7.8327      2.4170      0.0543     14.1218     90.2820     21.0493
   706.6000      7.8327      2.4373      0.0665     12.8905     93.5766     20.7289
   706.7000      7.8327      2.4706      0.0826     10.8707     95.4643     20.7561
   706.8000      7.8216      2.5100      0.1297      8.4847     96.5351     21.4505
   706.9000      7.8216      2.5416      0.1689      6.5670     97.7143     22.3657
   707.0000      7.8230      2.5657      0.1646      5.1083     98.3811     22.9546
   707.1000      7.8230      2.5908      0.1857      3.5859     98.3644     23.3444
   707.2000      7.8230      2.6069      0.2644      2.6132     97.8292     23.6532
   707.3000      7.8234      2.5987      0.1673      3.1094     97.1798     23.6619
   707.4000      7.8234      2.5725      0.1478      4.6960     96.4805     23.5575
   707.5000      7.8233      2.5453      0.1061      6.3442     95.5214     23.6531
   707.6000      7.8233      2.5307      0.0671      7.2290     96.0522     23.8990
   707.7000      7.8233      2.5202      0.0889      7.8670     98.0684     23.9800
   707.8000      7.8246      2.4934      0.0695      9.4924     98.2127     23.7737
   707.9000      7.8246      2.4614     -0.0233     11.4303     95.4022     23.5668
   708.0000      7.8436      2.4495      0.0132     12.1544     93.5018     23.5931
   708.1000      7.8436      2.4560      0.0261     11.7575     94.6148     23.9503
   708.2000      7.8436      2.4650      0.0419     11.2092     95.7386     24.5542
   708.3000      7.8606      2.4697      0.0406     10.9272     96.2890     25.0051
   708.4000      7.8606      2.4779      0.0051     10.4305     97.1084     25.0020
   708.5000      7.8837      2.4936      0.1047      9.4797     97.6499     24.7256
   708.6000      7.8837      2.5071      0.0824      8.6620     98.8953     24.5428
   708.7000      7.8837      2.5169      0.0905      8.0653    100.5104     24.4453
   708.8000      7.8674      2.5255      0.1052      7.5477     99.2078     23.9956
   708.9000      7.8674      2.5223      0.1040      7.7417     94.7594     23.2365
   709.0000      7.8475      2.5052      0.0295      8.7746     91.3023     22.8655
   709.1000      7.8475      2.4946      0.0373      9.4209     90.6119     22.9780
   709.2000      7.8475      2.5014      0.0519      9.0035     90.4521     23.0020
   709.3000      7.8742      2.5130      0.1192      8.3040     89.6687     22.6651
   709.4000      7.8742      2.5168      0.0713      8.0756     89.1735     22.1250
   709.5000      7.8764      2.5189      0.0678      7.9484     87.8144     21.6862
   709.6000      7.8764      2.5252      0.0872      7.5628     83.7916     21.3338
   709.7000      7.8764      2.5233      0.0862      7.6814     78.9264     20.8619
   709.8000      7.8863      2.5045      0.0631      8.8176     75.4143     20.3980
   709.9000      7.8863      2.4833      0.0382     10.1020     72.9369     20.1477
   710.0000      7.8931      2.4716      0.0676     10.8133     69.9284     20.1085
   710.1000      7.8931      2.4684     -0.0018     11.0063     66.8719     20.0610
   710.2000      7.8931      2.4718      0.0534     10.8019     66.0668     19.9031
   710.3000      7.8819      2.4747      0.0427     10.6253     67.1474     19.8234
   710.4000      7.8819      2.4723      0.0424     10.7710     67.6127     19.9277
   710.5000      7.8816      2.4694      0.0170     10.9453     68.2142     20.0578
   710.6000      7.8816      2.4762      0.0339     10.5340     71.3742     20.0717
   710.7000      7.8816      2.4947      0.0313      9.4116     75.7510     20.0309
