~Version Information
VERS.                      2.0: CWLS Log ASCII Standard - VERSION 2.0
WRAP.                       NO: One line per depth step
~Well Information Block
STRT.FT               555.0000: 
STOP.FT              2283.0000: 
STEP.FT                 0.2500: 
NULL.                -999.2500: 
COMP.          Pioneer Natural Resources: COMPANY
WELL.          Roadster 41-33 Kv: WELL
FLD.           Purgatoire River: FIELD
LOC.           903' FNL & 248' FEL: LOCATION
PROV.                 Colorado: PROVINCE
CNTY.               Las Animas: COUNTRY
SRVC.                Patterson: SERVICE COMPANY
DATE.          Wed Dec 14 23:52:42 2005: LOG DATE
UWI.           05 071 08615 00: UNIQUE WELL ID
~Curve Information Block
DEPT.FT            0 000 00 00: Depth
SN.Ohm-m                      : IEL Short Normal
SP.mV                         : IEL Spontaneous Potential
DIR.Ohm-m                     : IEL Induction Resistivity
GR.GAPI                       : Gamma Ray
~Parameter Information Block
~A  Depth        SN          SP         DIR          GR     
# ...
   789.5000   2000.0000   2000.0000     27.8378     57.3747
   789.7500   2000.0000   2000.0000     26.3264     58.2404
   790.0000   2000.0000   2000.0000     24.8963     61.7380
   790.2500   2000.0000   2000.0000     23.5650     66.0192
   790.5000   2000.0000   2000.0000     22.3039     74.8544
   790.7500   2000.0000   2000.0000     21.0715     81.5639
   791.0000   2000.0000   2000.0000     19.8440     91.2984
   791.2500   2000.0000   2000.0000     18.6273     96.7679
   791.5000   2000.0000   2000.0000     17.4496    102.6036
   791.7500   2000.0000   2000.0000     16.3438    104.9696
   792.0000   2000.0000   2000.0000     15.3340    107.5061
   792.2500   2000.0000   2000.0000     14.4314    109.6434
   792.5000   2000.0000   2000.0000     13.6388    114.6337
   792.7500   2000.0000   2000.0000     12.9582    118.7957
   793.0000   2000.0000   2000.0000     12.3952    124.6971
   793.2500   2000.0000   2000.0000     11.9570    127.7488
   793.5000   2000.0000   2000.0000     11.6493    130.9028
   793.7500   2000.0000   2000.0000     11.4723    132.2597
   794.0000   2000.0000   2000.0000     11.4215    133.5413
   794.2500   2000.0000   2000.0000     11.4887    134.1745
   794.5000   2000.0000   2000.0000     11.6636    135.1546
   794.7500   2000.0000   2000.0000     11.9346    135.4730
   795.0000   2000.0000   2000.0000     12.2906    133.4732
   795.2500   2000.0000   2000.0000     12.7242    129.2161
   795.5000   2000.0000   2000.0000     13.2370    118.1295
   795.7500   2000.0000   2000.0000     13.8430    108.9036
   796.0000   2000.0000   2000.0000     14.5686     95.6953
   796.2500   2000.0000   2000.0000     15.4484     88.8745
   796.5000   2000.0000   2000.0000     16.5215     82.6778
   796.7500   2000.0000   2000.0000     17.8316     80.9606
   797.0000   2000.0000   2000.0000     19.4291     80.4182
   797.2500   2000.0000   2000.0000     21.3655     80.1968
   797.5000   2000.0000   2000.0000     23.6702     78.5413
   797.7500   2000.0000   2000.0000     26.3059     76.4379
   798.0000   2000.0000   2000.0000     29.1247     72.7181
   798.2500   2000.0000   2000.0000     31.8707     70.5542
   798.5000   2000.0000   2000.0000     34.2613     68.4273
   798.7500   2000.0000   2000.0000     36.1016     67.7798
   799.0000   2000.0000   2000.0000     37.3287     67.8847
   799.2500   2000.0000   2000.0000     37.9627     68.8607
   799.5000   2000.0000   2000.0000     38.0493     72.5113
   799.7500   2000.0000   2000.0000     37.6564     76.8879
   800.0000   2000.0000   2000.0000     36.9011     86.4883
   800.2500   2000.0000   2000.0000     35.9436     94.3868
   800.5000   2000.0000   2000.0000     34.9366    106.8045
   800.7500   2000.0000   2000.0000     33.9712    114.3609
   801.0000   2000.0000   2000.0000     33.0570    122.9588
   801.2500   2000.0000   2000.0000     32.1443    126.0100
   801.5000   2000.0000   2000.0000     31.1700    125.3613
   801.7500   2000.0000   2000.0000     30.0963    121.4796
   802.0000   2000.0000   2000.0000     28.9273    113.0497
   802.2500   2000.0000   2000.0000     27.7010    108.2911
   802.5000   2000.0000   2000.0000     26.4737    106.0689
   802.7500   2000.0000   2000.0000     25.3076    108.3025
   803.0000   2000.0000   2000.0000     24.2595    115.5045
   803.2500   2000.0000   2000.0000     23.3671    121.5265
   803.5000   2000.0000   2000.0000     22.6356    130.7888
   803.7500   2000.0000   2000.0000     22.0355    136.5280
   804.0000   2000.0000   2000.0000     21.5134    143.5207
   804.2500   2000.0000   2000.0000     21.0125    146.6373
   804.5000   2000.0000   2000.0000     20.4935    148.9870
   804.7500   2000.0000   2000.0000     19.9454    149.4313
   805.0000   2000.0000   2000.0000     19.3824    148.8721
   805.2500   2000.0000   2000.0000     18.8297    147.5569
   805.5000   2000.0000   2000.0000     18.3094    144.3705
   805.7500   2000.0000   2000.0000     17.8334    142.2710
   806.0000   2000.0000   2000.0000     17.4072    140.8445
   806.2500   2000.0000   2000.0000     17.0376    141.2696
   806.5000   2000.0000   2000.0000     16.7358    142.6692
   806.7500   2000.0000   2000.0000     16.5131    142.9280
   807.0000   2000.0000   2000.0000     16.3733    141.0540
   807.2500   2000.0000   2000.0000     16.3069    138.5446
   807.5000   2000.0000   2000.0000     16.2913    134.7317
   807.7500   2000.0000   2000.0000     16.2966    133.2719
   808.0000   2000.0000   2000.0000     16.2949    133.2736
   808.2500   2000.0000   2000.0000     16.2685    134.1496
   808.5000   2000.0000   2000.0000     16.2115    135.0520
   808.7500   2000.0000   2000.0000     16.1241    134.5469
   809.0000   2000.0000   2000.0000     16.0036    131.8790
   809.2500   2000.0000   2000.0000     15.8407    129.5281
   809.5000   2000.0000   2000.0000     15.6220    126.9592
   809.7500   2000.0000   2000.0000     15.3400    126.4502
   810.0000   2000.0000   2000.0000     15.0004    126.9991
   810.2500   2000.0000   2000.0000     14.6223    127.6505
   810.5000   2000.0000   2000.0000     14.2301    128.8575
   810.7500   2000.0000   2000.0000     13.8434    130.2607
   811.0000   2000.0000   2000.0000     13.4730    134.0223
   811.2500   2000.0000   2000.0000     13.1241    137.5166
   811.5000   2000.0000   2000.0000     12.8019    142.9923
   811.7500   2000.0000   2000.0000     12.5161    145.9729
   812.0000   2000.0000   2000.0000     12.2798    148.7911
   812.2500   2000.0000   2000.0000     12.1071    149.6550
   812.5000   2000.0000   2000.0000     12.0102    149.7432
   812.7500   2000.0000   2000.0000     11.9981    149.0843
   813.0000   2000.0000   2000.0000     12.0750    147.1642
   813.2500   2000.0000   2000.0000     12.2412    145.4263
   813.5000   2000.0000   2000.0000     12.4936    142.2415
   813.7500   2000.0000   2000.0000     12.8287    139.4916
   814.0000   2000.0000   2000.0000     13.2441    133.5697
   814.2500   2000.0000   2000.0000     13.7393    127.9580
   814.5000   2000.0000   2000.0000     14.3162    116.9481
   814.7500   2000.0000   2000.0000     14.9796    108.4416
   815.0000   2000.0000   2000.0000     15.7391     95.6012
   815.2500   2000.0000   2000.0000     16.6122     87.8492
   815.5000   2000.0000   2000.0000     17.6236     78.2046
   815.7500   2000.0000   2000.0000     18.7982     73.3295
   816.0000   2000.0000   2000.0000     20.1458     68.7729
   816.2500   2000.0000   2000.0000     21.6405     67.7382
   816.5000   2000.0000   2000.0000     23.2002     68.9814
   816.7500   2000.0000   2000.0000     24.6796     71.2626
   817.0000   2000.0000   2000.0000     25.8913     76.0900
   817.2500   2000.0000   2000.0000     26.6619     80.0141
   817.5000   2000.0000   2000.0000     26.9042     86.9146
   817.7500   2000.0000   2000.0000     26.6543     92.0876
   818.0000   2000.0000   2000.0000     26.0394    100.1215
   818.2500   2000.0000   2000.0000     25.1998    105.2439
   818.5000   2000.0000   2000.0000     24.2295    112.0458
   818.7500   2000.0000   2000.0000     23.1719    115.7729
   819.0000   2000.0000   2000.0000     22.0536    120.0539
   819.2500   2000.0000   2000.0000     20.9169    122.3249
   819.5000   2000.0000   2000.0000     19.8219    125.5671
   819.7500   2000.0000   2000.0000     18.8262    127.5554
   820.0000   2000.0000   2000.0000     17.9647    129.1046
   820.2500   2000.0000   2000.0000     17.2438    128.5305
   820.5000   2000.0000   2000.0000     16.6476    125.3387
   820.7500   2000.0000   2000.0000     16.1495    122.3112
   821.0000   2000.0000   2000.0000     15.7246    117.8116
   821.2500   2000.0000   2000.0000     15.3587    115.6341
   821.5000   2000.0000   2000.0000     15.0487    114.9475
   821.7500   2000.0000   2000.0000     14.7995    116.7858
   822.0000   2000.0000   2000.0000     14.6202    122.7651
   822.2500   2000.0000   2000.0000     14.5221    127.8040
   822.5000   2000.0000   2000.0000     14.5142    134.2132
   822.7500   2000.0000   2000.0000     14.5930    136.5359
