~Version Information
VERS.                      2.0: CWLS Log ASCII Standard - VERSION 2.0
WRAP.                       NO: One line per depth step
~Well Information Block
STRT.FT               580.0000: 
STOP.FT              1029.0000: 
STEP.FT                 0.1000: 
NULL.                -999.2500: 
COMP.          Pioneer Natural Resources: COMPANY
WELL.             Quartz 13-22: WELL
FLD.           Purgatoire River: FIELD
LOC.           1933' FSL & 675' FWL: LOCATION
PROV.                 Colorado: PROVINCE
CNTY.               Las Animas: COUNTRY
SRVC.                Patterson: SERVICE COMPANY
DATE.          Fri Dec 16 10:30:09 2005: LOG DATE
UWI.           05 071 08638 00: UNIQUE WELL ID
~Curve Information Block
DEPT.FT            0 000 00 00: Depth
DCAL.in                       : CDL Caliper
RHOB.g/cc                     : CDL Bulk Density
RHOC.g/cc                     : CDL Density Correction
DPOR.pu                       : CDL Density Porosity
GR.GAPI                       : Gamma Ray
NPOR.pu                       : Neutron Porosity
~Parameter Information Block
~A  Depth       DCAL        RHOB        RHOC        DPOR         GR         NPOR    
   580.0000      4.8101      2.1722      0.4664     28.9585     76.9436     18.1984
   580.1000      4.8101      2.1746      0.4494     28.8103     76.5241     17.9988
   580.2000      4.8101      2.1710      0.4647     29.0307     76.3159     17.3539
   580.3000      4.8210      2.1756      0.4251     28.7518     78.4264     16.5207
   580.4000      4.8210      2.1966      0.4607     27.4786     81.3441     16.3835
   580.5000      4.8212      2.2170      0.4723     26.2434     85.5905     17.1532
   580.6000      4.8212      2.2149      0.4955     26.3667     91.3972     17.7701
   580.7000      4.8212      2.1967      0.4232     27.4712     96.9696     17.4803
   580.8000      4.8169      2.1835      0.4310     28.2737    100.3817     16.7602
   580.9000      4.8169      2.1728      0.5158     28.9205     98.7301     16.2253
   581.0000      4.8141      2.1515      0.4182     30.2133     94.9680     16.0948
   581.1000      4.8141      2.1262      0.4312     31.7482     95.1447     16.0772
   581.2000      4.8141      2.1078      0.4053     32.8633     98.9369     15.9282
   581.3000      4.8132      2.1003      0.4221     33.3166    104.4543     16.2596
   581.4000      4.8132      2.1030      0.4105     33.1534    109.5644     17.0580
   581.5000      4.8023      2.1111      0.4445     32.6618    110.9178     17.4878
   581.6000      4.8023      2.1176      0.4796     32.2652    108.2215     17.6777
   581.7000      4.8023      2.1194      0.4882     32.1587    101.8059     18.0527
   581.8000      4.8042      2.1199      0.4788     32.1253     94.9773     18.4702
   581.9000      4.8042      2.1235      0.4825     31.9087     96.6840     18.8110
   582.0000      4.8098      2.1313      0.4797     31.4341    106.5795     18.9436
   582.1000      4.8098      2.1421      0.5243     30.7826    113.1277     18.8069
   582.2000      4.8098      2.1521      0.5322     30.1771    112.5898     18.4810
   582.3000      4.8152      2.1642      0.5253     29.4409    114.2471     17.9915
   582.4000      4.8152      2.1837      0.5281     28.2590    122.9155     17.9159
   582.5000      4.8280      2.2044      0.5733     27.0087    129.3523     18.5869
   582.6000      4.8280      2.2147      0.5780     26.3841    125.6301     19.0652
   582.7000      4.8280      2.2177      0.5205     26.2019    114.5576     19.1462
   582.8000      4.8176      2.2307      0.5055     25.4107    102.6856     19.5579
   582.9000      4.8176      2.2532      0.5786     24.0512     98.9713     19.9885
   583.0000      4.8305      2.2658      0.5441     23.2861    106.1156     19.7687
   583.1000      4.8305      2.2689      0.5041     23.0984    114.6816     19.4427
   583.2000      4.8305      2.2758      0.5223     22.6779    115.6265     19.3553
   583.3000      4.8313      2.2887      0.4843     21.8979    111.1720     19.0766
   583.4000      4.8313      2.3076      0.4647     20.7496    109.0312     18.7622
   583.5000      4.8182      2.3284      0.5427     19.4928    116.8174     18.8942
   583.6000      4.8182      2.3368      0.5108     18.9798    129.9329     19.3531
   583.7000      4.8182      2.3288      0.4990     19.4640    132.1769     19.8929
   583.8000      4.8113      2.3092      0.5036     20.6541    124.7189     20.5594
   583.9000      4.8113      2.2833      0.4647     22.2247    122.9525     20.8819
   584.0000      4.8170      2.2603      0.4254     23.6196    129.6271     20.3038
   584.1000      4.8170      2.2437      0.4272     24.6259    133.6534     19.5309
   584.2000      4.8170      2.2316      0.3668     25.3594    128.9922     19.3329
   584.3000      4.8139      2.2237      0.3899     25.8376    118.5077     19.4597
   584.4000      4.8139      2.2152      0.3743     26.3513    108.3704     19.7376
   584.5000      4.8115      2.2014      0.4058     27.1850    105.6718     20.1514
   584.6000      4.8115      2.1867      0.3465     28.0797    111.6276     20.3812
   584.7000      4.8115      2.1763      0.3843     28.7063    121.6818     20.3279
   584.8000      4.8110      2.1620      0.3766     29.5749    130.0843     20.4947
   584.9000      4.8110      2.1343      0.3605     31.2518    133.5695     21.3218
   585.0000      4.8086      2.0997      0.3480     33.3502    132.2947     22.2069
   585.1000      4.8086      2.0743      0.3301     34.8930    128.7457     22.2797
   585.2000      4.8086      2.0642      0.3720     35.5023    125.2663     21.7169
   585.3000      4.8062      2.0559      0.3869     36.0061    122.2432     21.0984
   585.4000      4.8062      2.0406      0.3800     36.9338    118.2787     20.8188
   585.5000      4.8158      2.0294      0.3750     37.6128    114.0019     21.0876
   585.6000      4.8158      2.0254      0.4522     37.8562    113.8220     21.5526
   585.7000      4.8158      2.0146      0.4233     38.5109    118.7873     21.8058
   585.8000      4.8032      1.9925      0.4342     39.8504    122.4996     21.8231
   585.9000      4.8032      1.9652      0.4708     41.5015    118.8596     21.5085
   586.0000      4.8193      1.9348      0.4642     43.3446    107.6148     21.0940
   586.1000      4.8193      1.9029      0.4640     45.2776     95.2817     21.0973
   586.2000      4.8193      1.8755      0.4664     46.9410     88.3329     21.6060
   586.3000      4.8253      1.8579      0.4767     48.0074     85.5739     22.4107
   586.4000      4.8253      1.8444      0.5198     48.8262     86.8623     23.1832
   586.5000      4.8143      1.8205      0.5334     50.2704     94.3500     23.5201
   586.6000      4.8143      1.7833      0.4819     52.5263    101.5163     23.3496
   586.7000      4.8143      1.7432      0.4958     54.9570    103.8052     23.1564
   586.8000      4.8133      1.7085      0.4632     57.0615    106.2038     23.3387
   586.9000      4.8133      1.6792      0.4679     58.8366    110.6617     23.8019
   587.0000      4.8071      1.6541      0.4350     60.3577    115.9661     24.0513
   587.1000      4.8071      1.6333      0.4451     61.6205    118.6010     23.6197
   587.2000      4.8071      1.6092      0.4562     63.0776    113.2764     22.6503
   587.3000      4.7992      1.5717      0.4217     65.3509    104.1113     21.8049
   587.4000      4.7992      1.5203      0.3936     68.4688    100.0318     21.2057
   587.5000      4.7821      1.4598      0.3698     72.1349    101.5962     20.3041
   587.6000      4.7821      1.3985      0.2979     75.8465    104.6294     19.0537
   587.7000      4.7821      1.3482      0.3308     78.8946    108.8028     18.4602
   587.8000      4.7930      1.3278      0.2791     80.1314    114.5151     18.9694
   587.9000      4.7930      1.4019      0.2586     75.6395    122.2160     19.4442
   588.0000      4.7985      1.6820      0.2584     58.6679    131.2257     19.0792
   588.1000      4.7985      2.1905      0.3933     27.8459    135.0196     18.5138
   588.2000      4.7985      2.7417      0.6592     -5.5561    128.8561     18.6093
   588.3000      4.8047      3.1018      0.7051    -27.3838    117.3220     19.3828
   588.4000      4.8047      3.2215      0.7007    -34.6367    107.8308     20.3188
   588.5000      5.1833      3.1749      0.6475    -31.8108    103.5742     21.0542
   588.6000      5.1833      2.9918      0.6353    -20.7149    104.3272     21.2654
   588.7000      5.1833      2.6938      0.0643     -2.6541    105.4080     20.9498
   588.8000      7.9022      2.4009     -0.4515     15.0990    101.5918     20.2409
   588.9000      7.9022      2.2278     -0.4763     25.5881     95.0488     19.3236
   589.0000      8.2725      2.1642     -0.5204     29.4451     92.3843     18.7990
   589.1000      8.2725      2.1545     -0.5386     30.0317     95.4654     18.7321
   589.2000      8.2725      2.1690     -0.4786     29.1491    100.5816     18.6323
   589.3000      8.2718      2.1887     -0.4726     27.9549    104.7572     18.5816
   589.4000      8.2718      2.2081     -0.4760     26.7841    106.0450     19.1646
   589.5000      8.2706      2.2267     -0.4420     25.6532    104.1212     20.0548
