~Version Information
 VERS.                                  2.0 : CWLS LAS VERSION
 WRAP.                                   NO : WRAPING MODE
 SWARE .                  MController 2.5.1 : SOFTWARE VERSION
~Well Information
 WELL.                     Lucky Lady 42-29 : WELL
 COMP.  Pioneer Natural Resources USA, Inc. : COMPANY
 FLD.                      Purgatoire River : FIELD
 LOC.             SE/NE Sec. 29, T34S, R65W : LOCATION
 DATE.                03/09/2006-03/09/2006 : DATE(S) LOGGED
 SRVC.                  Entrada GeoSciences : SERVICE COMPANY
 STAT.                             Colorado : STATE
 CNTY.                           Las Animas : COUNTY
 CTRY.                        United States : COUNTRY
 API.                                   N/A : API NUMBER
 STRT.FT                             250.00 : START DEPTH
 STOP.FT                            1215.00 : STOP DEPTH
 STEP.FT                               1.00 : DEPTH INCREMENT
 NULL.                                -9999 : NULL VALUE
~Curve information
 DEPTH.FT                                   :
 ROP.MIN/FT                                 :
 GAS.UNITS                                  :
~ASCII Log data
# ...
     1050.00         0.23        887.2 
     1051.00         0.17        886.4 
     1052.00         0.43        884.3 
     1053.00         0.37        883.4 
     1054.00         0.30        838.0 
     1055.00         0.27        768.9 
     1056.00         0.27        761.0 
     1057.00         0.28        655.2 
     1058.00         0.23        615.4 
     1059.00         0.33        584.6 
     1060.00         0.27        561.5 
     1061.00         0.30        563.5 
     1062.00         0.27        552.7 
     1063.00         0.33        549.5 
     1064.00         0.30        548.0 
     1065.00         0.33        545.1 
     1066.00         0.37        541.0 
     1067.00         0.37        531.0 
     1068.00         0.32        584.0 
     1069.00         0.30        687.2 
     1070.00         0.33        802.3 
     1071.00         0.17        860.3 
     1072.00         0.10        860.3 
     1073.00         0.10        860.3 
     1074.00         0.17        884.0 
     1075.00         0.30        918.9 
     1076.00         0.33        918.6 
     1077.00         0.23        922.4 
     1078.00         0.23        928.6 
     1079.00         0.20        928.0 
     1080.00         0.30        919.5 
     1081.00         0.27        909.8 
     1082.00         0.23        899.3 
     1083.00         0.27        869.7 
     1084.00         0.20        834.8 
     1085.00         0.20        795.6 
     1086.00         0.20        793.8 
     1087.00         0.25        723.2 
     1088.00         0.20        713.5 
     1089.00         0.27        669.6 
     1090.00         0.23        645.3 
     1091.00         0.23        640.6 
     1092.00         0.23        617.1 
     1093.00         0.23        608.1 
     1094.00         0.23        589.6 
     1095.00         0.23        590.5 
     1096.00         0.23        482.7 
     1097.00         0.23        488.5 
     1098.00         0.23        487.6 
     1099.00         0.23        480.3 
     1100.00         0.20        495.0 
     1101.00         0.25        502.3 
     1102.00         0.20        575.5 
     1103.00         0.23        678.9 
     1104.00         0.17        692.1 
     1105.00         0.23        710.6 
     1106.00         0.27        749.0 
     1107.00         0.27        761.6 
     1108.00         0.32        670.5 
     1109.00         0.27        466.3 
     1110.00         0.27        400.0 
     1111.00         0.23        210.9 
     1112.00         0.23        201.9 
     1113.00         0.23        207.0 
     1114.00         0.23        207.0 
     1115.00         0.23       1037.0 
     1116.00         0.20       1012.1 
     1117.00         0.23       1009.4 
     1118.00         0.23       1010.0 
     1119.00         0.23        985.1 
     1120.00         0.27        962.8 
     1121.00         0.32        981.3 
     1122.00         0.27        972.8 
     1123.00         0.27        977.5 
     1124.00         0.30        955.2 
     1125.00         0.30        928.6 
     1126.00         0.33        887.0 
     1127.00         0.23       2772.2 
     1128.00         0.23       2479.5 
     1129.00         0.27       2491.0 
     1130.00         0.27       2435.6 
     1131.00         0.30       1493.1 
     1132.00         0.23        942.9 
     1133.00         0.27        417.9 
     1134.00         0.28        400.0 
     1135.00         0.27         34.2 
     1136.00         0.30         31.1 
     1137.00         0.40         12.7 
     1138.00         0.40          4.7 
     1139.00         0.30          4.2 
     1140.00         0.27          3.8 
     1141.00         0.47          4.3 
     1142.00         0.43          4.3 
     1143.00         0.30          3.4 
     1144.00         0.28          3.0 
     1145.00         0.23          2.6 
     1146.00         0.23          2.2 
     1147.00         0.30          3.5 
     1148.00         0.23          3.4 
     1149.00         0.30          3.6 
     1150.00         0.30          2.7 
     1151.00         0.27          3.8 
     1152.00         0.30          3.5 
     1153.00         0.27          2.0 
     1154.00         0.30          2.8 
     1155.00         0.27          3.3 
     1156.00         0.32          2.8 
     1157.00         0.27          3.6 
     1158.00         0.27          3.0 
     1159.00         0.27          2.7 
     1160.00         0.30          2.7 
     1161.00         0.27          3.6 
     1162.00         0.27          3.5 
     1163.00         0.30          2.8 
     1164.00         0.23          2.1 
     1165.00         0.27          3.3 
     1166.00         0.33          3.3 
     1167.00         0.37          3.1 
     1168.00         0.30          2.9 
     1169.00         0.30          2.9 
     1170.00         0.27          3.4 
     1171.00         0.33          3.1 
     1172.00         0.23          3.7 
     1173.00         0.30          4.0 
     1174.00         0.23          4.0 
     1175.00         0.30          4.7 
     1176.00         0.25          4.2 
     1177.00         0.27          4.0 
     1178.00         0.27          4.8 
     1179.00         0.27          4.8 
     1180.00         0.23          4.4 
     1181.00         0.20          4.4 
     1182.00         0.20          4.0 
     1183.00         0.23          3.9 
     1184.00         0.27          4.6 
     1185.00         0.20          4.6 
     1186.00         0.27          5.5 
     1187.00         0.20          4.6 
     1188.00         0.23          5.3 
     1189.00         0.27          5.4 
     1190.00         0.20          4.9 
     1191.00         0.32          5.3 
     1192.00         0.20          4.8 
     1193.00         0.23          5.6 
     1194.00         0.27          6.2 
     1195.00         0.27          5.4 
     1196.00         0.37          5.7 
     1197.00         0.37          6.5 
     1198.00         0.47          5.3 
     1199.00         0.33          5.9 
     1200.00         0.32          6.5 
     1201.00         0.30          6.4 
     1202.00         0.30          7.0 
     1203.00         0.23          6.4 
     1204.00         0.27          6.4 
     1205.00         0.27          6.9 
     1206.00         0.30          6.6 
     1207.00         0.30          5.1 
     1208.00         0.30          6.2 
     1209.00         0.33         17.4 
     1210.00         0.33         16.1 
     1211.00         0.42         17.0 
     1212.00         0.30         17.2 
     1213.00         0.33         16.5 
     1214.00         0.30         16.1 
     1215.00         0.37         17.6 
