~Version Information
 VERS.                                  2.0 : CWLS LAS VERSION
 WRAP.                                   NO : WRAPING MODE
 SWARE .                 MController 2.5.0J : SOFTWARE VERSION
~Well Information
 WELL.                     Collister 17-31R : WELL
 COMP.                Petrogulf Corporation : COMPANY
 FLD.                      Purgatoire River : FIELD
 LOC.                NW/NE Sec 17 T33S R67W : LOCATION
 DATE.                             09/25/05 : DATE(S) LOGGED
 SRVC.       BLANCO Geological Services LLC : SERVICE COMPANY
 STAT.                                   CO : STATE
 CNTY.                           Las Animas : COUNTY
 CTRY.                                  USA : COUNTRY
 API.                       05-071-08436-00 : API NUMBER
 STRT.FT                             861.00 : START DEPTH
 STOP.FT                            2010.00 : STOP DEPTH
 STEP.FT                               1.00 : DEPTH INCREMENT
 NULL.                                -9999 : NULL VALUE
~Curve information
 DEPTH.FT                                   :
 ROP.MIN/FT                                 :
 GAS.UNITS                                  :
~ASCII Log data
# ...
      1861.0         0.15         16.9 
      1862.0         1.70         52.8 
      1863.0         0.30         71.3 
      1864.0         0.20         71.9 
      1865.0         0.20         68.6 
      1866.0         0.23         61.1 
      1867.0         0.50         53.0 
      1868.0         0.45         40.4 
      1869.0         0.30         34.5 
      1870.0         0.17         32.4 
      1871.0         0.17         31.2 
      1872.0         0.17         30.4 
      1873.0         0.20         30.1 
      1874.0         0.23         29.4 
      1875.0         0.23         29.1 
      1876.0         0.27         28.1 
      1877.0         0.23         29.0 
      1878.0         0.27         31.6 
      1879.0         0.17         31.9 
      1880.0         0.17         30.8 
      1881.0         0.23         29.3 
      1882.0         0.25         28.9 
      1883.0         0.17         27.2 
      1884.0         0.23         27.2 
      1885.0         0.23         26.7 
      1886.0         0.20         25.6 
      1887.0         0.20         25.1 
      1888.0         0.27         24.5 
      1889.0         0.30         22.5 
      1890.0         0.20         21.0 
      1891.0         0.30         19.9 
      1892.0         1.78         49.0 
      1893.0         0.23         49.3 
      1894.0         0.33         46.9 
      1895.0         0.40         40.5 
      1896.0         0.23         35.5 
      1897.0         0.30         31.8 
      1898.0         0.27         27.9 
      1899.0         0.23         26.5 
      1900.0         0.17         24.8 
      1901.0         0.20         24.4 
      1902.0         0.22         24.6 
      1903.0         0.23         27.3 
      1904.0         0.23         27.9 
      1905.0         0.27         27.9 
      1906.0         0.27         27.2 
      1907.0         0.23         27.0 
      1908.0         0.20         26.3 
      1909.0         0.27         25.5 
      1910.0         0.20         25.0 
      1911.0         0.20         24.5 
      1912.0         0.23         24.9 
      1913.0         0.20         24.6 
      1914.0         0.27         25.3 
      1915.0         0.27         25.2 
      1916.0         0.25         25.1 
      1917.0         0.27         24.8 
      1918.0         0.27         25.0 
      1919.0         0.27         24.7 
      1920.0         0.27         21.7 
      1921.0         0.20         19.5 
      1922.0         2.28         61.2 
      1923.0         0.33         51.2 
      1924.0         0.33         42.5 
      1925.0         0.30         36.6 
      1926.0         0.30         31.8 
      1927.0         0.27         29.6 
      1928.0         0.27         28.1 
      1929.0         0.27         26.9 
      1930.0         0.23         26.8 
      1931.0         0.27         26.2 
      1932.0         0.23         25.9 
      1933.0         0.25         25.6 
      1934.0         0.27         25.9 
      1935.0         0.27         26.2 
      1936.0         0.23         27.2 
      1937.0         0.23         27.7 
      1938.0         0.20         27.6 
      1939.0         0.20         26.6 
      1940.0         0.23         25.0 
      1941.0         0.27         24.7 
      1942.0         0.23         24.0 
      1943.0         0.20         23.2 
      1944.0         0.20         23.2 
      1945.0         0.27         22.8 
      1946.0         0.20         23.1 
      1947.0         0.25         22.8 
      1948.0         0.23         22.2 
      1949.0         0.23         20.9 
      1950.0         0.23         17.9 
      1951.0         0.20         17.5 
      1952.0         3.62         58.2 
      1953.0         0.33         27.9 
      1954.0         0.30         25.9 
      1955.0         0.33         25.5 
      1956.0         0.30         25.2 
      1957.0         0.27         24.5 
      1958.0         0.23         23.8 
      1959.0         0.38         22.6 
      1960.0         0.37         21.5 
      1961.0         0.30         21.6 
      1962.0         0.23         21.2 
      1963.0         0.27         21.1 
      1964.0         0.23         21.0 
      1965.0         0.27         21.6 
      1966.0         0.23         21.6 
      1967.0         0.30         21.7 
      1968.0         0.27         21.5 
      1969.0         0.23         21.1 
      1970.0         0.27         21.3 
      1971.0         0.25         20.9 
      1972.0         0.23         21.0 
      1973.0         0.30         20.8 
      1974.0         0.27         20.5 
      1975.0         0.27         20.5 
      1976.0         0.20         20.3 
      1977.0         0.23         19.6 
      1978.0         0.20         18.8 
      1979.0         0.23         17.7 
      1980.0         0.23         16.5 
      1981.0         0.20         16.4 
      1982.0         1.32         36.3 
      1983.0         0.27         41.9 
      1984.0         0.27         43.2 
      1985.0         0.33         41.7 
      1986.0         0.33         37.0 
      1987.0         0.30         31.9 
      1988.0         0.27         28.9 
      1989.0         0.23         26.5 
      1990.0         0.23         25.9 
      1991.0         0.20         24.8 
      1992.0         0.22         23.9 
      1993.0         0.20         23.2 
      1994.0         0.23         23.3 
      1995.0         0.23         23.0 
      1996.0         0.23         22.6 
      1997.0         0.23         22.4 
      1998.0         0.20         21.7 
      1999.0         0.20         21.9 
      2000.0         0.23         21.5 
      2001.0         0.27         21.1 
      2002.0         0.23         21.2 
      2003.0         0.23         20.8 
      2004.0         0.27         20.7 
      2005.0         0.23         20.8 
      2006.0         0.25         20.7 
      2007.0         0.27         20.1 
      2008.0         0.23         20.2 
      2009.0         0.23         20.2 
      2010.0         0.27         20.3 
