~Version Information
VERS.                      2.0: CWLS Log ASCII Standard - VERSION 2.0
WRAP.                       NO: One line per depth step
~Well Information Block
STRT.FT               875.0000: 
STOP.FT              2054.5000: 
STEP.FT                 0.2500: 
NULL.                -999.2500: 
COMP.          Pioneer Natural Resources: COMPANY
WELL.          Woodstock 43-19: WELL
FLD.           Purgatoire River: FIELD
LOC.           2195' FSL & 250' FEL: LOCATION
CNTY.               Las Animas: COUNTY
SRVC.                Patterson: SERVICE COMPANY
DATE.          Thu Feb 02 03:08:19 2006: LOG DATE
UWI.           05 071 08677 00: UNIQUE WELL ID
STAT.                 Colorado: STATE
~Curve Information Block
DEPT.FT            0 000 00 00: Depth
SN.Ohm-m                      : IEL Short Normal
SP.mV                         : IEL Spontaneous Potential
DIR.Ohm-m                     : IEL Induction Resistivity
GR.GAPI                       : Gamma Ray
~Parameter Information Block
~A  Depth        SN          SP         DIR          GR     
# ...
  1042.5000   2000.0000   2000.0000     17.3507    119.1896
  1042.7500   2000.0000   2000.0000     17.0544    118.4200
  1043.0000   2000.0000   2000.0000     16.7851    119.9722
  1043.2500   2000.0000   2000.0000     16.5734    123.6723
  1043.5000   2000.0000   2000.0000     16.4372    132.8147
  1043.7500   2000.0000   2000.0000     16.3712    139.7879
  1044.0000   2000.0000   2000.0000     16.3470    148.5661
  1044.2500   2000.0000   2000.0000     16.3258    152.5358
  1044.5000   2000.0000   2000.0000     16.2807    156.2756
  1044.7500   2000.0000   2000.0000     16.2147    157.8656
  1045.0000   2000.0000   2000.0000     16.1621    159.1567
  1045.2500   2000.0000   2000.0000     16.1707    159.2168
  1045.5000   2000.0000   2000.0000     16.2765    158.0121
  1045.7500   2000.0000   2000.0000     16.4836    156.1585
  1046.0000   2000.0000   2000.0000     16.7598    151.3604
  1046.2500   2000.0000   2000.0000     17.0496    146.9120
  1046.5000   2000.0000   2000.0000     17.3053    139.5505
  1046.7500   2000.0000   2000.0000     17.5177    135.1986
  1047.0000   2000.0000   2000.0000     17.7181    130.9049
  1047.2500   2000.0000   2000.0000     17.9455    129.7957
  1047.5000   2000.0000   2000.0000     18.2084    130.2755
  1047.7500   2000.0000   2000.0000     18.4760    131.5023
  1048.0000   2000.0000   2000.0000     18.7039    133.8854
  1048.2500   2000.0000   2000.0000     18.8705    135.4445
  1048.5000   2000.0000   2000.0000     18.9902    137.0666
  1048.7500   2000.0000   2000.0000     19.0937    137.0738
  1049.0000   2000.0000   2000.0000     19.1996    134.0487
  1049.2500   2000.0000   2000.0000     19.3025    129.5229
  1049.5000   2000.0000   2000.0000     19.3831    120.0645
  1049.7500   2000.0000   2000.0000     19.4284    113.5980
  1050.0000   2000.0000   2000.0000     19.4423    106.3487
  1050.2500   2000.0000   2000.0000     19.4395    103.9124
  1050.5000   2000.0000   2000.0000     19.4302    103.5024
  1050.7500   2000.0000   2000.0000     19.4115    104.4645
  1051.0000   2000.0000   2000.0000     19.3721    105.8907
  1051.2500   2000.0000   2000.0000     19.3060    106.2060
  1051.5000   2000.0000   2000.0000     19.2253    105.6969
  1051.7500   2000.0000   2000.0000     19.1621    104.7604
  1052.0000   2000.0000   2000.0000     19.1594    101.9921
  1052.2500   2000.0000   2000.0000     19.2549     99.0652
  1052.5000   2000.0000   2000.0000     19.4697     94.0385
  1052.7500   2000.0000   2000.0000     19.8089     91.3480
  1053.0000   2000.0000   2000.0000     20.2683     89.3973
  1053.2500   2000.0000   2000.0000     20.8333     89.2418
  1053.5000   2000.0000   2000.0000     21.4684     89.5208
  1053.7500   2000.0000   2000.0000     22.1130     89.5040
  1054.0000   2000.0000   2000.0000     22.7038     88.8627
  1054.2500   2000.0000   2000.0000     23.2152     88.0298
  1054.5000   2000.0000   2000.0000     23.6743     86.2089
  1054.7500   2000.0000   2000.0000     24.1251     84.5906
  1055.0000   2000.0000   2000.0000     24.5758     81.2998
  1055.2500   2000.0000   2000.0000     24.9894     78.2619
  1055.5000   2000.0000   2000.0000     25.3304     72.3323
  1055.7500   2000.0000   2000.0000     25.6239     67.9788
  1056.0000   2000.0000   2000.0000     25.9618     62.6266
  1056.2500   2000.0000   2000.0000     26.4473     60.8250
  1056.5000   2000.0000   2000.0000     27.1265     61.1688
  1056.7500   2000.0000   2000.0000     27.9576     62.7797
  1057.0000   2000.0000   2000.0000     28.8305     65.5856
  1057.2500   2000.0000   2000.0000     29.6199     67.0813
  1057.5000   2000.0000   2000.0000     30.2288     68.6108
  1057.7500   2000.0000   2000.0000     30.5844     69.2203
  1058.0000   2000.0000   2000.0000     30.6118     69.2584
  1058.2500   2000.0000   2000.0000     30.2472     68.5330
  1058.5000   2000.0000   2000.0000     29.5060     66.7973
  1058.7500   2000.0000   2000.0000     28.5272     65.9414
  1059.0000   2000.0000   2000.0000     27.5202     66.2791
  1059.2500   2000.0000   2000.0000     26.6581     67.7532
  1059.5000   2000.0000   2000.0000     26.0065     71.0590
  1059.7500   2000.0000   2000.0000     25.5333     73.2225
  1060.0000   2000.0000   2000.0000     25.1676     75.4435
  1060.2500   2000.0000   2000.0000     24.8505     76.2480
  1060.5000   2000.0000   2000.0000     24.5461     77.4357
  1060.7500   2000.0000   2000.0000     24.2187     78.9135
  1061.0000   2000.0000   2000.0000     23.8207     82.2785
  1061.2500   2000.0000   2000.0000     23.3170     84.5258
  1061.5000   2000.0000   2000.0000     22.7208     86.5701
  1061.7500   2000.0000   2000.0000     22.0933     87.1718
  1062.0000   2000.0000   2000.0000     21.5014     88.5070
  1062.2500   2000.0000   2000.0000     20.9742     90.4515
  1062.5000   2000.0000   2000.0000     20.4983     94.9999
  1062.7500   2000.0000   2000.0000     20.0472     98.7092
  1063.0000   2000.0000   2000.0000     19.6170    104.5830
  1063.2500   2000.0000   2000.0000     19.2358    108.2808
  1063.5000   2000.0000   2000.0000     18.9438    112.8103
  1063.7500   2000.0000   2000.0000     18.7662    115.2000
  1064.0000   2000.0000   2000.0000     18.7032    119.0701
  1064.2500   2000.0000   2000.0000     18.7386    122.6718
  1064.5000   2000.0000   2000.0000     18.8527    129.8708
  1064.7500   2000.0000   2000.0000     19.0254    135.2001
  1065.0000   2000.0000   2000.0000     19.2239    142.1366
  1065.2500   2000.0000   2000.0000     19.3894    144.9752
  1065.5000   2000.0000   2000.0000     19.4404    145.2339
  1065.7500   2000.0000   2000.0000     19.2977    142.3927
  1066.0000   2000.0000   2000.0000     18.9156    133.5165
  1066.2500   2000.0000   2000.0000     18.2987    124.7296
  1066.5000   2000.0000   2000.0000     17.4967    108.8970
  1066.7500   2000.0000   2000.0000     16.5870     98.7474
  1067.0000   2000.0000   2000.0000     15.6549     88.8837
  1067.2500   2000.0000   2000.0000     14.7737     87.8381
  1067.5000   2000.0000   2000.0000     13.9906     94.7804
  1067.7500   2000.0000   2000.0000     13.3213    103.6403
  1068.0000   2000.0000   2000.0000     12.7544    120.0091
  1068.2500   2000.0000   2000.0000     12.2630    131.4552
  1068.5000   2000.0000   2000.0000     11.8174    147.6383
  1068.7500   2000.0000   2000.0000     11.3958    156.7698
  1069.0000   2000.0000   2000.0000     10.9888    166.1458
  1069.2500   2000.0000   2000.0000     10.5985    168.8862
  1069.5000   2000.0000   2000.0000     10.2343    168.2333
  1069.7500   2000.0000   2000.0000      9.9092    165.6650
  1070.0000   2000.0000   2000.0000      9.6379    160.6743
  1070.2500   2000.0000   2000.0000      9.4351    157.5218
  1070.5000   2000.0000   2000.0000      9.3124    153.9912
  1070.7500   2000.0000   2000.0000      9.2761    152.7126
  1071.0000   2000.0000   2000.0000      9.3253    152.5123
  1071.2500   2000.0000   2000.0000      9.4532    153.1875
  1071.5000   2000.0000   2000.0000      9.6487    153.8531
  1071.7500   2000.0000   2000.0000      9.9004    152.8595
  1072.0000   2000.0000   2000.0000     10.1989    147.9545
  1072.2500   2000.0000   2000.0000     10.5388    142.7750
  1072.5000   2000.0000   2000.0000     10.9206    134.5829
  1072.7500   2000.0000   2000.0000     11.3547    130.4550
  1073.0000   2000.0000   2000.0000     11.8613    127.2187
  1073.2500   2000.0000   2000.0000     12.4647    126.0479
  1073.5000   2000.0000   2000.0000     13.1762    122.9051
  1073.7500   2000.0000   2000.0000     13.9771    118.9809
  1074.0000   2000.0000   2000.0000     14.8131    111.5137
  1074.2500   2000.0000   2000.0000     15.6116    107.1273
  1074.5000   2000.0000   2000.0000     16.3170    103.4590
  1074.7500   2000.0000   2000.0000     16.9172    102.9393
  1075.0000   2000.0000   2000.0000     17.4407    103.8363
  1075.2500   2000.0000   2000.0000     17.9305    105.0598
  1075.5000   2000.0000   2000.0000     18.4180    107.8310
  1075.7500   2000.0000   2000.0000     18.9155    110.3868
