~Version Information
VERS.                      2.0: CWLS Log ASCII Standard - VERSION 2.0
WRAP.                       NO: One line per depth step
~Well Information Block
STRT.FT                -1.5000: 
STOP.FT              2898.5000: 
STEP.FT                 0.2500: 
NULL.                -999.2500: 
COMP.          Pioneer Natural Resources: COMPANY
WELL.          Hanginstone 21-27: WELL
FLD.           Purgatoire River: FIELD
LOC.           1186' FNL & 1606' FWL--: LOCATION
PROV.                 Colorado: PROVINCE
CNTY.               Las Animas: COUNTRY
SRVC.                Patterson: SERVICE COMPANY
DATE.          Mon Jan 23 11:03:53 2006: LOG DATE
UWI.           05 071 08632 00: UNIQUE WELL ID
~Curve Information Block
DEPT.FT            0 000 00 00: Depth
CCL.                          : Casing Collar Locator
TT3.usec                      : CBL 3' Travel Time
AMP3.mV                       : CBL 3' Amplitude
GR.GAPI                       : Gamma Ray
~Parameter Information Block
~A  Depth       CCL         TT3         AMP3         GR     
# ...
   367.0000      0.0000    260.0120     82.6662     47.5155
   367.2500      0.0000    259.9904     82.8378     45.8821
   367.5000      0.0000    259.9784     82.8723     47.7783
   367.7500      0.0000    259.9915     82.7269     51.6892
   368.0000      0.0000    260.0318     82.4369     54.8534
   368.2500      0.0000    260.0813     82.1243     55.3168
   368.5000      0.0000    260.1123     81.9284     53.6699
   368.7500      0.0000    260.1070     81.9077     52.3201
   369.0000      0.0000    260.0688     82.0064     52.9710
   369.2500      0.0000    260.0163     82.1201     55.3541
   369.5000      0.0000    259.9690     82.1844     58.6007
   369.7500      0.0000    259.9370     82.1970     63.1162
   370.0000      0.0000    259.9220     82.1855     70.3409
   370.2500      0.0000    259.9219     82.1780     80.7228
   370.5000      0.0000    259.9370     82.1831     92.4646
   370.7500      0.0000    259.9693     82.1744    102.5775
   371.0000      0.0000    260.0169     82.1049    109.1319
   371.2500      0.0000    260.0701     81.9537    112.3294
   371.5000      0.0000    260.1148     81.7537    113.4645
   371.7500      0.0000    260.1404     81.5686    113.2227
   372.0000      0.0000    260.1418     81.4509    111.3705
   372.2500      0.0000    260.1209     81.4240    107.9420
   372.5000      0.0000    260.0890     81.4825    103.7424
   372.7500      0.0000    260.0648     81.5847     99.1388
   373.0000      0.0000    260.0627     81.6590     93.4459
   373.2500      0.0000    260.0812     81.6513     86.4967
   373.5000      0.0000    260.1032     81.5751     80.0039
   373.7500      0.0000    260.1092     81.4922     76.4021
   374.0000      0.0000    260.0942     81.4489     76.6114
   374.2500      0.0000    260.0698     81.4561     79.3971
   374.5000      0.0000    260.0496     81.5214     82.6457
   374.7500      0.0000    260.0365     81.6597     84.9237
   375.0000      0.0000    260.0244     81.8567     85.8697
   375.2500      0.0000    260.0108     82.0534     85.4851
   375.5000      0.0000    260.0024     82.1866     83.4635
   375.7500      0.0000    260.0069     82.2364     79.4094
   376.0000      0.0000    260.0221     82.2286     73.7184
   376.2500      0.0000    260.0351     82.2052     67.9720
   376.5000      0.0000    260.0361     82.2064     64.0460
   376.7500      0.0000    260.0311     82.2644     62.7534
   377.0000      0.0000    260.0368     82.3899     63.4573
   377.2500      0.0000    260.0619     82.5612     64.9489
   377.5000      0.0000    260.0961     82.7369     66.6762
   377.7500      0.0000    260.1205     82.8730     69.0859
   378.0000      0.0000    260.1249     82.9266     72.6217
   378.2500      0.0000    260.1154     82.8722     76.4166
   378.5000      0.0000    260.1056     82.7398     78.3322
   378.7500      0.0000    260.1028     82.6195     76.8203
   379.0000      0.0000    260.1032     82.6035     72.8206
   379.2500      0.0000    260.0977     82.7202     69.3311
   379.5000      0.0000    260.0790     82.9269     68.7854
   379.7500      0.0000    260.0481     83.1458     71.1565
   380.0000      0.0000    260.0137     83.2959     74.6021
   380.2500      0.0000    259.9861     83.3250     77.2745
   380.5000      0.0000    259.9700     83.2390     78.3646
   380.7500      0.0000    259.9662     83.0917     78.1857
   381.0000      0.0000    259.9768     82.9385     77.7938
   381.2500      0.0000    260.0021     82.8079     78.2424
   381.5000      0.0000    260.0325     82.7163     79.6149
   381.7500      0.0000    260.0508     82.6873     80.6780
   382.0000      0.0000    260.0465     82.7478     79.8518
   382.2500      0.0000    260.0246     82.8994     76.6416
   382.5000      0.0000    260.0004     83.0947     72.0081
   382.7500      0.0000    259.9874     83.2571     67.4989
   383.0000      0.0000    259.9893     83.3392     64.1369
   383.2500      0.0000    260.0020     83.3577     61.8709
   383.5000      0.0000    260.0194     83.3617     59.8126
   383.7500      0.0000    260.0370     83.3780     57.0557
   384.0000      0.0000    260.0495     83.4001     53.4249
   384.2500      0.0000    260.0501     83.4143     49.6086
   384.5000      0.0000    260.0366     83.4095     46.7090
   384.7500      0.0000    260.0165     83.3760     45.6707
   385.0000      0.0000    260.0037     83.3223     46.8328
   385.2500      0.0000    260.0083     83.2885     49.4966
   385.5000      0.0000    260.0285     83.3111     51.8855
   385.7500      0.0000    260.0516     83.3730     52.1964
   386.0000      0.0000    260.0646     83.4203     50.2026
   386.2500      0.0000    260.0649     83.4273     47.6960
   386.5000      0.0000    260.0606     83.4123     47.1757
   386.7500      0.0000    260.0623     83.3914     50.0152
   387.0000      0.0000    260.0744     83.3643     55.6976
   387.2500      0.0000    260.0915     83.3555     62.5858
   387.5000      0.0000    260.1037     83.4222     69.4078
   387.7500      0.0000    260.1036     83.5962     76.0645
   388.0000      0.0000    260.0886     83.8385     83.1145
   388.2500      0.0000    260.0594     84.0578     90.8027
   388.5000      0.0000    260.0223     84.1639     98.7888
   388.7500      0.0000    259.9908     84.1138    106.4671
   389.0000      0.0000    259.9792     83.9303    113.1031
   389.2500      0.0000    259.9933     83.6854    117.7561
   389.5000      0.0000    260.0272     83.4651    119.6082
   389.7500      0.0000    260.0683     83.3380    118.8003
   390.0000      0.0000    260.1059     83.3309    116.8941
   390.2500      0.0000    260.1357     83.4179    116.0306
   390.5000      0.0000    260.1560     83.5415    117.3712
   390.7500      0.0000    260.1651     83.6477    120.4243
   391.0000      0.0000    260.1633     83.7048    123.9465
   391.2500      0.0000    260.1560     83.7118    127.2452
   391.5000      0.0000    260.1498     83.6974    130.2509
   391.7500      0.0000    260.1489     83.6872    132.4140
   392.0000      0.0000    260.1556     83.6680    132.3287
   392.2500      0.0000    260.1718     83.6059    128.9992
   392.5000      0.0000    260.1951     83.4952    123.0752
   392.7500      0.0000    260.2193     83.3667    116.3534
   393.0000      0.0000    260.2371     83.2506    110.3595
   393.2500      0.0000    260.2409     83.1493    105.6548
   393.5000      0.0000    260.2226     83.0439    102.0225
   393.7500      0.0000    260.1819     82.9229     98.9061
   394.0000      0.0000    260.1356     82.8087     95.8830
   394.2500      0.0000    260.1088     82.7585     92.9708
   394.5000      0.0000    260.1125     82.8216     90.3826
   394.7500      0.0000    260.1367     82.9853     88.1100
   395.0000      0.0000    260.1651     83.1756     86.1806
   395.2500      0.0000    260.1870     83.3168     85.0618
   395.5000      0.0000    260.1989     83.3822     85.1119
   395.7500      0.0000    260.2016     83.3933     85.7433
   396.0000      0.0000    260.1990     83.3835     85.7325
   396.2500      0.0000    260.1950     83.3707     84.2096
   396.5000      0.0000    260.1915     83.3628     80.9561
   396.7500      0.0000    260.1893     83.3794     76.2388
   397.0000      0.0000    260.1912     83.4398     70.9501
   397.2500      0.0000    260.1988     83.5300     66.4657
   397.5000      0.0000    260.2074     83.6031     63.6951
   397.7500      0.0000    260.2075     83.6155     62.3829
   398.0000      0.0000    260.1938     83.5412     61.6361
   398.2500      0.0000    260.1728     83.3570     60.9839
   398.5000      0.0000    260.1716     82.9933     60.7155
   398.7500      0.0000    260.2574     82.2356     61.3107
   399.0000      0.0000    260.5628     80.6298     62.6671
   399.2500      0.0000    261.2710     77.6472     63.9690
   399.5000      0.0000    262.4994     73.2086     64.3671
   399.7500      0.0000    264.1294     68.0861     63.6989
   400.0000      0.0000    265.7872     63.5254     62.5483
   400.2500      0.0000    267.0737     60.3466     61.6035
