~Version Information
VERS.                      2.0: CWLS Log ASCII Standard - VERSION 2.0
WRAP.                       NO: One line per depth step
~Well Information Block
STRT.FT               620.0000: 
STOP.FT              3067.2500: 
STEP.FT                 0.2500: 
NULL.                -999.2500: 
COMP.          Pioneer Natural Resources: COMPANY
WELL.          Interceptor 43-13 Kv: WELL
FLD.           Purgatoire River: FIELD
LOC.           2073' FSL & 519' FEL--: LOCATION
PROV.                 Colorado: PROVINCE
CNTY.               Las Animas: COUNTRY
SRVC.                Patterson: SERVICE COMPANY
DATE.          Sat Jan 14 19:35:17 2006: LOG DATE
UWI.           05 071 08655 00: UNIQUE WELL ID
~Curve Information Block
DEPT.FT            0 000 00 00: Depth
SN.Ohm-m                      : IEL Short Normal
SP.mV                         : IEL Spontaneous Potential
DIR.Ohm-m                     : IEL Induction Resistivity
GR.GAPI                       : Gamma Ray
~Parameter Information Block
~A  Depth        SN          SP         DIR          GR     
   620.0000   2000.0000   1977.0000 100000.0000    110.1109
   620.2500   2000.0000   1977.0000 100000.0000    110.7534
   620.5000   2000.0000   1977.0000 100000.0000    112.6756
   620.7500   2000.0000   1977.0000 100000.0000    113.8173
   621.0000   2000.0000   1977.0000 100000.0000    113.9745
   621.2500   2000.0000   1977.0000 100000.0000    112.8590
   621.5000   2000.0000   1977.0000 100000.0000    109.8710
   621.7500   2000.0000   1977.0000 100000.0000    107.3079
   622.0000   2000.0000   1977.0000 100000.0000    102.7709
   622.2500   2000.0000   1977.0000 100000.0000     99.2883
   622.5000   2000.0000   1977.0000 100000.0000     93.6599
   622.7500   2000.0000   1977.0000 100000.0000     90.1272
   623.0000   2000.0000   1977.0000 100000.0000     86.2180
   623.2500   2000.0000   1977.0000 100000.0000     56.5222
   623.5000   2000.0000   1977.0000 100000.0000     55.8038
   623.7500   2000.0000   1977.0000 100000.0000     55.3600
   624.0000   2000.0000   1977.0000 100000.0000     54.4065
   624.2500   2000.0000   1977.0000 100000.0000     53.7662
   624.5000   2000.0000   1977.0000 100000.0000     53.4830
   624.7500   2000.0000   1977.0000 100000.0000     54.0718
   625.0000   2000.0000   1977.0000 100000.0000     56.1139
   625.2500   2000.0000   1977.0000 100000.0000     57.8915
   625.5000   2000.0000   1977.0000 100000.0000     60.3231
   625.7500   2000.0000   1977.0000 100000.0000     61.3433
   626.0000   2000.0000   1977.0000 100000.0000     61.4595
   626.2500   2000.0000   1977.0000 100000.0000     60.5377
   626.5000   2000.0000   1977.0000 100000.0000     58.1855
   626.7500   2000.0000   1977.0000 100000.0000     56.5450
   627.0000   2000.0000   1977.0000 100000.0000     54.7590
   627.2500   2000.0000   1977.0000 100000.0000     54.0638
   627.5000   2000.0000   1977.0000 100000.0000     53.2072
   627.7500   2000.0000   1977.0000 100000.0000     52.3252
   628.0000   2000.0000   1977.0000 100000.0000     50.1238
   628.2500   2000.0000   1977.0000 100000.0000     48.2440
   628.5000   2000.0000   1977.0000 100000.0000     45.8758
   628.7500   2000.0000   1977.0000 100000.0000     45.3757
   629.0000   2000.0000   1977.0000 100000.0000     46.9983
   629.2500   2000.0000   1977.0000 100000.0000     49.6257
   629.5000   2000.0000   1977.0000 100000.0000     55.6102
   629.7500   2000.0000   1977.0000 100000.0000     61.0101
   630.0000   2000.0000   1977.0000 100000.0000     71.5642
   630.2500   2000.0000   1977.0000 100000.0000     80.2425
   630.5000   2000.0000   1977.0000 100000.0000     94.8340
   630.7500   2000.0000   1977.0000 100000.0000    104.5859
   631.0000   2000.0000   1977.0000      7.4496    117.4320
   631.2500   2000.0000   1977.0000      4.8061    124.1971
   631.5000   2000.0000   1977.0000      5.0597    131.4796
   631.7500   2000.0000   1977.0000      7.8578    134.5608
   632.0000   2000.0000   1977.0000     26.1428    136.8797
   632.2500   2000.0000   1977.0000 100000.0000    137.3007
   632.5000   2000.0000   1977.0000 100000.0000    137.3967
   632.7500   2000.0000   1977.0000 100000.0000    137.6967
   633.0000   2000.0000   1977.0000 100000.0000    138.5821
   633.2500   2000.0000   1977.0000 100000.0000    138.9595
   633.5000   2000.0000   1977.0000    151.1228    138.0960
   633.7500   2000.0000   1977.0000     21.8451    136.1658
   634.0000   2000.0000   1977.0000     13.4518    131.5921
   634.2500   2000.0000   1977.0000     11.0960    128.4130
   634.5000   2000.0000   1977.0000     10.4920    125.7529
   634.7500   2000.0000   1977.0000     10.6535    126.2141
   635.0000   2000.0000   1977.0000     11.1613    129.7580
   635.2500   2000.0000   1977.0000     11.7316    132.8794
   635.5000   2000.0000   1977.0000     12.1553    136.7847
   635.7500   2000.0000   1977.0000     12.3514    138.4406
   636.0000   2000.0000   1977.0000     12.4159    139.8920
   636.2500   2000.0000   1977.0000     12.5806    140.3777
   636.5000   2000.0000   1977.0000     13.1249    139.6925
   636.7500   2000.0000   1977.0000     14.3225    137.5988
   637.0000   2000.0000   1977.0000     16.4130    131.7318
   637.2500   2000.0000   1977.0000     19.4735    126.5525
   637.5000   2000.0000   1977.0000     23.0732    117.9258
   637.7500   2000.0000   1977.0000     26.0123    111.7891
   638.0000   2000.0000   1977.0000     27.0923    101.9475
   638.2500   2000.0000   1977.0000     26.4194     95.1231
   638.5000   2000.0000   1977.0000     25.0975     85.4024
   638.7500   2000.0000   1977.0000     24.0643     80.0534
   639.0000   2000.0000   1977.0000     23.7519     74.9508
   639.2500   2000.0000   1977.0000     24.2663     73.7622
   639.5000   2000.0000   1977.0000     25.5245     74.7316
   639.7500   2000.0000   1977.0000     27.2744     76.5151
   640.0000   2000.0000   1977.0000     29.1147     79.8157
   640.2500   2000.0000   1977.0000     30.6266     82.1608
   640.5000   2000.0000   1977.0000     31.5703     86.0131
   640.7500   2000.0000   1977.0000     31.9656     88.8927
   641.0000   2000.0000   1977.0000     31.9941     93.2918
   641.2500   2000.0000   1977.0000     31.8544     95.7733
   641.5000   2000.0000   1977.0000     31.6886     98.0131
   641.7500   2000.0000   1977.0000     31.5784     98.3295
   642.0000   2000.0000   1977.0000     31.5620     97.3552
   642.2500   2000.0000   1977.0000     31.6495     96.3016
   642.5000   2000.0000   1977.0000     31.8310     95.3957
   642.7500   2000.0000   1977.0000     32.0872     95.7397
   643.0000   2000.0000   1977.0000     32.4024     97.4954
   643.2500   2000.0000   1977.0000     32.7676     98.9767
   643.5000   2000.0000   1977.0000     33.1687    100.8889
   643.7500   2000.0000   1977.0000     33.5695    101.6594
   644.0000   2000.0000   1977.0000     33.9100    101.5239
   644.2500   2000.0000   1977.0000     34.1330    100.3596
   644.5000   2000.0000   1977.0000     34.2256     97.3398
   644.7500   2000.0000   1977.0000     34.2422     95.1348
   645.0000   2000.0000   1977.0000     34.2832     92.9383
   645.2500   2000.0000   1977.0000     34.4478     92.6751
   645.5000   2000.0000   1977.0000     34.7955     93.3523
   645.7500   2000.0000   1977.0000     35.3427     93.3368
   646.0000   2000.0000   1977.0000     36.0872     90.9993
   646.2500   2000.0000   1977.0000     37.0324     87.9728
   646.5000   2000.0000   1977.0000     38.1868     82.6432
   646.7500   2000.0000   1977.0000     39.5390     79.3036
   647.0000   2000.0000   1977.0000     41.0282     74.9937
   647.2500   2000.0000   1977.0000     42.5462     72.5259
   647.5000   2000.0000   1977.0000     43.9857     69.4346
   647.7500   2000.0000   1977.0000     45.3112     67.8844
   648.0000   2000.0000   1977.0000     46.5904     66.3804
   648.2500   2000.0000   1977.0000     47.9491     65.7879
   648.5000   2000.0000   1977.0000     49.4771     65.1612
   648.7500   2000.0000   1977.0000     51.1548     64.8098
   649.0000   2000.0000   1977.0000     52.8571     64.4472
   649.2500   2000.0000   1977.0000     54.4340     64.3618
   649.5000   2000.0000   1977.0000     55.7962     64.3395
   649.7500   2000.0000   1977.0000     56.9217     64.2332
   650.0000   2000.0000   1977.0000     57.7899     63.7357
   650.2500   2000.0000   1977.0000     58.3513     63.2383
   650.5000   2000.0000   1977.0000     58.5859     62.7364
   650.7500   2000.0000   1977.0000     58.5776     62.9151
   651.0000   2000.0000   1977.0000     58.4864     64.0910
   651.2500   2000.0000   1977.0000     58.4366     65.1573
   651.5000   2000.0000   1977.0000     58.4362     66.2791
   651.7500   2000.0000   1977.0000     58.4021     66.3081
   652.0000   2000.0000   1977.0000     58.2564     65.2633
   652.2500   2000.0000   1977.0000     58.0031     64.2370
   652.5000   2000.0000   1977.0000     57.7274     63.0851
   652.7500   2000.0000   1977.0000     57.5379     62.9155
   653.0000   2000.0000   1977.0000     57.5044     63.6555
   653.2500   2000.0000   1977.0000     57.6280     64.6131
