~Version Information
VERS.                      2.0: CWLS Log ASCII Standard - VERSION 2.0
WRAP.                       NO: One line per depth step
~Well Information Block
STRT.FT                 0.0000: 
STOP.FT               787.2500: 
STEP.FT                 0.2500: 
NULL.                -999.2500: 
COMP.          Pioneer Natural Resources: COMPANY
WELL.             Veedol 34-28: WELL
FLD.           Purgatorie River: FIELD
LOC.           357' FSL & 2520' FEL: LOCATION
PROV.                 Colorado: PROVINCE
CNTY.               Las Animas: COUNTRY
SRVC.                Patterson: SERVICE COMPANY
DATE.          Wed Dec 28 10:10:37 2005: LOG DATE
UWI.                          : UNIQUE WELL ID
~Curve Information Block
DEPT.FT            0 000 00 00: Depth
CCL.                          : Casing Collar Locator
TT3.usec                      : CBL 3' Travel Time
AMP3.mV                       : CBL 3' Amplitude
GR.GAPI                       : Gamma Ray
~Parameter Information Block
~A  Depth       CCL         TT3         AMP3         GR     
# ...
    33.5000      0.0000    727.2533     16.1224     80.6934
    33.7500      0.0000    727.2717     16.0880     79.4792
    34.0000      0.0000    727.4276     16.1458     79.9718
    34.2500      0.0000    727.6349     16.2502     81.3082
    34.5000      0.0000    727.8868     16.3509     83.2333
    34.7500      0.0000    728.0967     16.3910     85.6529
    35.0000      0.0000    728.1613     16.3209     88.4334
    35.2500      0.0000    728.1142     16.1455     91.2454
    35.5000      0.0000    728.0804     15.9143     93.2120
    35.7500      0.0000    728.1039     15.6791     92.9693
    36.0000      0.0000    728.1001     15.4802     89.4652
    36.2500      0.0000    727.9797     15.3287     82.8351
    36.5000      0.0000    727.7493     15.2160     74.6016
    36.7500      0.0000    727.4891     15.1382     66.9471
    37.0000      0.0000    727.2957     15.0997     61.4815
    37.2500      0.0000    727.2184     15.1042     58.4767
    37.5000      0.0000    727.2502     15.1116     57.3088
    37.7500      0.0000    727.3854     15.0455     57.6034
    38.0000      0.0000    727.5854     14.8845     59.6009
    38.2500      0.0000    727.7233     14.6838     63.2723
    38.5000      0.0000    727.7441     14.5068     67.5291
    38.7500      0.0000    727.7814     14.3764     70.7018
    39.0000      0.0000    727.9249     14.2928     71.6834
    39.2500      0.0000    728.0830     14.2672     70.3916
    39.5000      0.0000    728.1880     14.2759     67.3636
    39.7500      0.0000    728.2610     14.2313     63.4537
    40.0000      0.0000    728.2922     14.0925     60.0407
    40.2500      0.0000    728.2870     13.9147     58.9223
    40.5000      0.0000    728.3287     13.7606     61.3184
    40.7500      0.0000    728.4741     13.6601     66.8840
    41.0000      0.0000    728.7036     13.6172     73.9283
    41.2500      0.0000    728.9857     13.6016     80.5544
    41.5000      0.0000    729.2816     13.5695     85.6396
    41.7500      0.0000    729.4787     13.5068     89.1332
    42.0000      0.0000    729.4363     13.4477     91.5863
    42.2500      0.0000    729.1688     13.4193     93.2149
    42.5000      0.0000    728.8547     13.4021     93.4607
    42.7500      0.0000    728.6642     13.4098     91.7085
    43.0000      0.0000    728.6821     13.5199     88.2816
    43.2500      0.0000    728.9037     13.7576     84.4123
    43.5000      0.0000    729.1870     14.0428     81.1893
    43.7500      0.0000    729.3137     14.2660     78.7006
    44.0000      0.0000    729.1931     14.3578     76.3241
    44.2500      0.0000    728.9240     14.3329     73.7230
    44.5000      0.0000    728.6810     14.2656     71.3168
    44.7500      0.0000    728.6024     14.2031     69.8451
    45.0000      0.0000    728.6926     14.1415     69.8062
    45.2500      0.0000    728.8416     14.0562     71.4610
    45.5000      0.0000    728.9529     13.9649     75.0987
    45.7500      0.0000    728.9825     13.9796     80.8501
    46.0000      0.0000    728.9516     14.1937     88.0813
    46.2500      0.0000    728.9604     14.5257     95.1359
    46.5000      0.0000    729.0692     14.8066    100.0176
    46.7500      0.0000    729.2189     14.9639    101.6362
    47.0000      0.0000    729.3058     15.0082    100.4477
    47.2500      0.0000    729.2739     14.9476     97.8119
    47.5000      0.0000    729.1620     14.8139     94.8878
    47.7500      0.0000    729.0753     14.6989     92.2521
    48.0000      0.0000    729.0790     14.6775     90.1951
    48.2500      0.0000    729.1029     14.7377     88.8378
    48.5000      0.0000    728.7577     14.8332     87.8039
    48.7500      0.0000    726.0588     14.9370     86.1010
    49.0000      0.0000    713.7327     15.0506     82.8080
    49.2500      0.0000    678.1865     15.2191     78.0432
    49.5000      0.0000    616.5667     15.4711     73.0330
    49.7500      0.0000    562.1635     15.7220     69.0573
    50.0000      0.0000    562.1256     15.8468     66.4086
    50.2500      0.0000    614.4368     15.8563     64.5145
    50.5000      0.0000    663.9573     15.8879     62.9353
    50.7500      0.0000    661.7861     16.0297     61.8596
    51.0000      0.0000    601.9852     16.2133     61.5226
    51.2500      0.0000    523.4296     16.2709     61.5286
    51.5000      0.0000    484.9476     16.1348     61.0907
    51.7500      0.0000    511.2223     15.9429     59.7718
    52.0000      0.0000    565.6594     15.8748     57.6887
    52.2500      0.0000    598.5739     15.9932     55.1419
    52.5000      0.0000    606.3213     16.2754     52.4951
    52.7500      0.0000    606.7030     16.5961     50.4733
    53.0000      0.0000    600.4036     16.6052     50.0795
    53.2500      0.0000    602.4432     15.8317     51.7268
    53.5000      0.0000    642.5404     14.1745     54.5447
    53.7500      0.0000    713.9388     12.2670     57.0119
    54.0000      0.0000    781.6489     10.9878     58.3423
    54.2500      0.0000    831.2172     10.5609     58.9611
    54.5000      2.0000    880.9991     10.5525     59.6329
    54.7500     -2.0000    945.4725     10.5919     60.4660
    55.0000     -2.0000    993.1127     10.6159     60.9397
    55.2500      0.0000    977.4410     10.6070     60.8254
    55.5000      0.0000    907.4982     10.5279     60.7644
    55.7500      0.0000    837.0858     10.5397     61.6385
    56.0000      0.0000    795.8667     10.9299     63.5021
    56.2500      0.0000    775.1651     11.6289     65.4888
    56.5000      0.0000    762.1650     12.2937     66.6035
    56.7500      0.0000    753.8682     12.8722     66.2384
    57.0000      0.0000    748.2505     13.3906     64.1816
    57.2500      0.0000    742.2266     13.6243     60.6752
    57.5000      0.0000    736.3308     13.4968     56.5123
    57.7500      0.0000    732.7351     13.2438     52.8249
    58.0000      0.0000    731.3843     13.0433     50.7160
    58.2500      0.0000    730.9879     12.8802     50.9219
    58.5000      0.0000    730.8241     12.7301     53.4105
    58.7500      0.0000    730.7488     12.6089     57.1662
    59.0000      0.0000    730.7317     12.4911     60.5975
    59.2500      0.0000    730.7341     12.3583     62.4181
    59.5000      0.0000    730.7230     12.2635     62.3966
    59.7500      0.0000    730.6437     12.2424     61.3517
    60.0000      0.0000    730.4619     12.2690     60.2425
    60.2500      0.0000    730.2503     12.3429     59.2140
    60.5000      0.0000    730.1462     12.4985     57.7075
    60.7500      0.0000    730.1794     12.7007     55.5235
    61.0000      0.0000    730.2491     12.8378     53.5088
    61.2500      0.0000    730.2809     12.8546     52.9819
    61.5000      0.0000    730.2747     12.8023     54.5956
    61.7500      0.0000    730.2524     12.7309     57.8504
    62.0000      0.0000    730.2089     12.6576     61.3890
    62.2500      0.0000    730.0732     12.6284     63.5984
    62.5000      0.0000    729.8173     12.6869     63.4368
    62.7500      0.0000    729.5260     12.8155     61.1867
    63.0000      0.0000    729.2330     12.9769     58.2749
    63.2500      0.0000    728.9131     13.1574     56.1058
    63.5000      0.0000    728.6691     13.3374     55.0191
    63.7500      0.0000    728.6375     13.4889     54.2242
    64.0000      0.0000    728.7736     13.6244     52.7006
    64.2500      0.0000    728.9102     13.7781     50.4960
    64.5000      0.0000    728.9201     13.9452     49.2758
    64.7500      0.0000    728.5609     14.1071     51.1681
    65.0000      0.0000    726.2045     14.2788     56.6939
    65.2500      0.0000    716.2058     14.4635     63.8892
    65.5000      0.0000    690.5025     14.6137     69.5835
    65.7500      0.0000    654.2485     14.6917     71.7077
    66.0000      0.0000    635.7326     14.7087     70.7552
    66.2500      0.0000    654.2752     14.6842     69.1449
    66.5000      0.0000    690.4784     14.6445     68.9906
    66.7500      0.0000    716.0527     14.6473     70.4905
