~Version Information
VERS.                      2.0: CWLS Log ASCII Standard - VERSION 2.0
WRAP.                       NO: One line per depth step
~Well Information Block
STRT.FT               309.8000: 
STOP.FT              2184.7000: 
STEP.FT                 0.1000: 
NULL.                -999.2500: 
COMP.          Pioneer Natural Resources: COMPANY
WELL.             AMX 13-13 Tr: WELL
FLD.           Purgatoire River: FIELD
LOC.           2401' FSL & 895' FWL--: LOCATION
PROV.                 Colorado: PROVINCE
CNTY.               Las Animas: COUNTRY
SRVC.                Patterson: SERVICE COMPANY
DATE.          Thu Dec 22 15:57:57 2005: LOG DATE
UWI.           05 071 08631 00: UNIQUE WELL ID
~Curve Information Block
DEPT.FT            0 000 00 00: Depth
DCAL.in                       : CDL Caliper
RHOB.g/cc                     : CDL Bulk Density
RHOC.g/cc                     : CDL Density Correction
DPOR.pu                       : CDL Density Porosity
GR.GAPI                       : Gamma Ray
~Parameter Information Block
~A  Depth       DCAL        RHOB        RHOC        DPOR         GR     
# ...
  1418.6000      8.1144      2.5900      0.0587      3.6357    102.5568
  1418.7000      8.1144      2.5871      0.0370      3.8103    106.4010
  1418.8000      8.1145      2.5638      0.1009      5.2250    109.2230
  1418.9000      8.1145      2.5393      0.0146      6.7076    109.9451
  1419.0000      8.1141      2.5394      0.0570      6.7060    110.0954
  1419.1000      8.1141      2.5621      0.1000      5.3280    112.8667
  1419.2000      8.1141      2.5766      0.1054      4.4499    116.5139
  1419.3000      8.1152      2.5677      0.0861      4.9852    117.6362
  1419.4000      8.1152      2.5557      0.0040      5.7147    114.7336
  1419.5000      8.1162      2.5577      0.0655      5.5964    108.6005
  1419.6000      8.1162      2.5627      0.0776      5.2894    105.4328
  1419.7000      8.1162      2.5653      0.0445      5.1307    109.5920
  1419.8000      8.1153      2.5785      0.0346      4.3344    117.9437
  1419.9000      8.1153      2.6009      0.0811      2.9774    123.4259
  1420.0000      8.1137      2.6105      0.0687      2.3924    121.8923
  1420.1000      8.1137      2.5944      0.0527      3.3718    117.2005
  1420.2000      8.1137      2.5595      0.0625      5.4856    116.1067
  1420.3000      8.1133      2.5271      0.0085      7.4494    118.8245
  1420.4000      8.1133      2.5120      0.0533      8.3612    120.0900
  1420.5000      8.1142      2.5097      0.0402      8.5054    118.4166
  1420.6000      8.1142      2.5160      0.0194      8.1237    116.8666
  1420.7000      8.1142      2.5281      0.0828      7.3886    118.7395
  1420.8000      8.1146      2.5355      0.0790      6.9395    122.3642
  1420.9000      8.1146      2.5330      0.0899      7.0914    125.9826
  1421.0000      8.1156      2.5317      0.0185      7.1720    128.7635
  1421.1000      8.1156      2.5464      0.0639      6.2793    127.9968
  1421.2000      8.1156      2.5738      0.0580      4.6155    125.7340
  1421.3000      8.1164      2.6007      0.0638      2.9899    126.4194
  1421.4000      8.1164      2.6217      0.0701      1.7172    129.7276
  1421.5000      8.1154      2.6341      0.1078      0.9641    129.9120
  1421.6000      8.1154      2.6251      0.1124      1.5064    125.4798
  1421.7000      8.1154      2.5900      0.0926      3.6372    122.3550
  1421.8000      8.1147      2.5488      0.0248      6.1338    122.7517
  1421.9000      8.1147      2.5258      0.0133      7.5278    124.0063
  1422.0000      8.1143      2.5234      0.0116      7.6753    124.5188
  1422.1000      8.1143      2.5289      0.0076      7.3387    123.3400
  1422.2000      8.1143      2.5314      0.0031      7.1874    121.3967
  1422.3000      8.1122      2.5286      0.0136      7.3593    120.9456
  1422.4000      8.1122      2.5294     -0.0028      7.3098    121.3653
  1422.5000      8.1100      2.5477      0.0289      6.1976    119.9682
  1422.6000      8.1100      2.5820      0.0478      4.1219    117.7468
  1422.7000      8.1100      2.6012      0.1388      2.9587    117.0335
  1422.8000      8.1112      2.5848      0.0426      3.9538    116.0039
  1422.9000      8.1112      2.5680     -0.0049      4.9675    113.6071
  1423.0000      8.1137      2.5911     -0.0118      3.5701    115.1557
  1423.1000      8.1137      2.6343      0.0905      0.9497    121.6980
  1423.2000      8.1137      2.6604      0.1054     -0.6324    126.9300
  1423.3000      8.1155      2.6749      0.0816     -1.5098    128.3588
  1423.4000      8.1155      2.6937      0.0859     -2.6456    127.0295
  1423.5000      8.1199      2.7073      0.0573     -3.4733    123.7235
  1423.6000      8.1199      2.6992      0.0806     -2.9833    119.1335
  1423.7000      8.1199      2.6758     -0.0076     -1.5621    111.5872
  1423.8000      8.1276      2.6607      0.0304     -0.6457    103.8141
  1423.9000      8.1276      2.6576     -0.0077     -0.4589    101.7463
  1424.0000      8.1404      2.6544     -0.0649     -0.2690    104.1123
  1424.1000      8.1404      2.6431     -0.0028      0.4172    107.5972
  1424.2000      8.1404      2.6263     -0.0199      1.4353    110.8380
  1424.3000      8.1587      2.6179     -0.0193      1.9480    112.7168
  1424.4000      8.1587      2.6198      0.0856      1.8327    114.0584
  1424.5000      8.1757      2.6213      0.0671      1.7388    115.8854
  1424.6000      8.1757      2.6207      0.0604      1.7747    117.2038
  1424.7000      8.1757      2.6158      0.1186      2.0743    117.9162
  1424.8000      8.1905      2.6120     -0.0159      2.3002    119.4265
  1424.9000      8.1905      2.6229      0.0478      1.6398    121.8879
  1425.0000      8.2065      2.6298      0.0766      1.2262    123.5546
  1425.1000      8.2065      2.6048      0.0426      2.7415    126.2179
  1425.2000      8.2065      2.5511      0.0119      5.9934    130.8954
  1425.3000      8.2242      2.4922     -0.0466      9.5641    132.4110
  1425.4000      8.2242      2.4470     -0.0095     12.3040    128.2234
  1425.5000      8.2367      2.4127     -0.0381     14.3792    122.2323
  1425.6000      8.2367      2.3819     -0.0266     16.2512    119.4173
  1425.7000      8.2367      2.3611     -0.0505     17.5099    120.0634
  1425.8000      8.2442      2.3562     -0.0242     17.8089    120.2112
  1425.9000      8.2442      2.3602     -0.0261     17.5607    119.3711
  1426.0000      8.2476      2.3739     -0.0307     16.7346    119.4194
  1426.1000      8.2476      2.4052      0.0032     14.8391    120.7770
  1426.2000      8.2476      2.4451      0.0724     12.4190    124.2593
  1426.3000      8.2476      2.4798      0.0803     10.3133    128.4104
  1426.4000      8.2476      2.5119      0.1418      8.3718    127.3866
  1426.5000      8.2463      2.5520      0.1071      5.9385    117.7533
  1426.6000      8.2463      2.5892      0.2374      3.6873    106.2236
  1426.7000      8.2463      2.5855      0.1978      3.9106    102.5848
  1426.8000      8.2454      2.5372      0.0410      6.8371    106.8317
  1426.9000      8.2454      2.4829     -0.0106     10.1245    112.3983
  1427.0000      8.2456      2.4456     -0.0382     12.3898    117.8930
  1427.1000      8.2456      2.4164      0.0169     14.1603    123.2428
  1427.2000      8.2456      2.3819     -0.0299     16.2509    123.0841
  1427.3000      8.2468      2.3394     -0.0347     18.8263    116.4292
  1427.4000      8.2468      2.2798      0.0103     22.4342    109.7130
  1427.5000      8.2481      2.1875     -0.0077     28.0278    105.2385
  1427.6000      8.2481      2.0623     -0.0929     35.6174    102.0213
  1427.7000      8.2481      1.9202     -0.1340     44.2293    102.4348
  1427.8000      8.2476      1.7841     -0.2028     52.4790    104.3554
  1427.9000      8.2476      1.6691     -0.1585     59.4498    100.5618
  1428.0000      8.2457      1.5638     -0.1332     65.8297     92.5311
  1428.1000      8.2457      1.4551     -0.1806     72.4173     87.2260
  1428.2000      8.2457      1.3626     -0.1887     78.0244     84.7417
  1428.3000      8.2479      1.3134     -0.1094     81.0062     81.0006
  1428.4000      8.2479      1.3011      0.0056     81.7507     75.9412
  1428.5000      8.2680      1.2953      0.0389     82.1047     72.2376
  1428.6000      8.2680      1.2757      0.0316     83.2926     70.1841
  1428.7000      8.2680      1.2390      0.0114     85.5181     67.7759
  1428.8000      8.3114      1.1856      0.0320     88.7523     64.0573
  1428.9000      8.3114      1.1239     -0.0192     92.4926     60.7106
  1429.0000      8.3512      1.0790     -0.0338     95.2092     58.3188
  1429.1000      8.3512      1.0717     -0.0056     95.6552     54.2393
  1429.2000      8.3512      1.0981      0.0001     94.0527     47.8997
  1429.3000      8.3530      1.1408      0.0395     91.4655     41.8093
  1429.4000      8.3530      1.1873      0.0608     88.6515     39.0334
  1429.5000      8.3277      1.2381      0.1169     85.5687     39.6601
  1429.6000      8.3277      1.2945      0.1993     82.1502     41.7613
  1429.7000      8.3277      1.3465      0.2760     79.0029     42.7857
