~Version Information
VERS.                      2.0: CWLS Log ASCII Standard - VERSION 2.0
WRAP.                       NO: One line per depth step
~Well Information Block
STRT.FT               580.0000: 
STOP.FT              1029.0000: 
STEP.FT                 0.1000: 
NULL.                -999.2500: 
COMP.          Pioneer Natural Resources: COMPANY
WELL.             Quartz 13-22: WELL
FLD.           Purgatoire River: FIELD
LOC.           1933' FSL & 675' FWL: LOCATION
PROV.                 Colorado: PROVINCE
CNTY.               Las Animas: COUNTRY
SRVC.                Patterson: SERVICE COMPANY
DATE.          Fri Dec 16 10:30:09 2005: LOG DATE
UWI.           05 071 08638 00: UNIQUE WELL ID
~Curve Information Block
DEPT.FT            0 000 00 00: Depth
DCAL.in                       : CDL Caliper
RHOB.g/cc                     : CDL Bulk Density
RHOC.g/cc                     : CDL Density Correction
DPOR.pu                       : CDL Density Porosity
GR.GAPI                       : Gamma Ray
NPOR.pu                       : Neutron Porosity
~Parameter Information Block
~A  Depth       DCAL        RHOB        RHOC        DPOR         GR         NPOR    
# ...
   752.8000      7.9419      2.4903     -0.0539      9.6761    122.3321     24.8262
   752.9000      7.9419      2.4810     -0.0464     10.2433    123.7436     24.6989
   753.0000      7.9567      2.4890      0.0231      9.7582    125.8769     24.4374
   753.1000      7.9567      2.4951      0.0210      9.3905    127.5315     24.5732
   753.2000      7.9567      2.4953     -0.0501      9.3735    125.6418     25.0860
   753.3000      7.9538      2.5009     -0.0176      9.0366    122.3832     25.3190
   753.4000      7.9538      2.5109      0.0123      8.4304    120.7187     24.9217
   753.5000      7.9504      2.5183      0.0063      7.9820    121.4506     24.1015
   753.6000      7.9504      2.5218      0.0279      7.7714    122.5890     23.4893
   753.7000      7.9504      2.5234      0.0346      7.6713    121.9896     23.6318
   753.8000      7.9588      2.5312     -0.0042      7.2006    122.8864     23.8894
   753.9000      7.9588      2.5479      0.0505      6.1871    125.7882     23.5237
   754.0000      7.9675      2.5603      0.0550      5.4342    124.4750     23.0285
   754.1000      7.9675      2.5596     -0.0072      5.4760    117.5358     22.7953
   754.2000      7.9675      2.5521      0.0180      5.9349    109.5002     22.6898
   754.3000      7.9820      2.5418      0.0531      6.5570    105.5595     22.5919
   754.4000      7.9820      2.5318      0.0083      7.1629    109.1046     22.3267
   754.5000      7.9805      2.5272     -0.0160      7.4417    116.8084     21.9682
   754.6000      7.9805      2.5196      0.0409      7.9033    122.2844     21.9483
   754.7000      7.9805      2.5003      0.0145      9.0742    121.5748     22.3629
   754.8000      7.9842      2.4898     -0.0401      9.7100    115.2678     22.8184
   754.9000      7.9842      2.5037      0.0184      8.8663    112.7400     23.3148
   755.0000      7.9693      2.5181      0.0557      7.9933    117.5643     23.8883
   755.1000      7.9693      2.5162     -0.0170      8.1082    119.3774     24.0301
   755.2000      7.9693      2.5089      0.0088      8.5544    113.1783     23.8587
   755.3000      7.9578      2.4938      0.0129      9.4648    104.9401     23.8515
   755.4000      7.9578      2.4704     -0.0363     10.8846    100.0203     23.8499
   755.5000      7.9633      2.4652     -0.0567     11.2003     98.3728     23.8777
   755.6000      7.9633      2.4914     -0.0469      9.6129     98.9390     24.1868
   755.7000      7.9633      2.5255      0.0264      7.5447    100.1503     24.6545
   755.8000      7.9655      2.5398      0.0271      6.6801     99.2161     24.9203
   755.9000      7.9655      2.5332      0.0140      7.0777     98.1201     24.8422
   756.0000      7.9579      2.5300     -0.0248      7.2738     97.1135     24.4529
   756.1000      7.9579      2.5520      0.0006      5.9401     92.3947     23.9594
   756.2000      7.9579      2.5904      0.0135      3.6142     86.6064     23.6322
   756.3000      7.9554      2.6165      0.0793      2.0318     87.2058     23.4593
   756.4000      7.9554      2.6233      0.0215      1.6188     94.9535     23.3730
   756.5000      7.9397      2.6243      0.0621      1.5593    102.7679     23.3701
   756.6000      7.9397      2.6237      0.0671      1.5946    106.1936     23.3616
   756.7000      7.9397      2.6200      0.0557      1.8187    107.4794     23.0959
   756.8000      7.9497      2.6098      0.0266      2.4363    108.6361     22.5384
   756.9000      7.9497      2.5922      0.0316      3.5052    108.1660     21.9688
   757.0000      7.9406      2.5774     -0.0017      4.4030    108.3074     21.6035
   757.1000      7.9406      2.5711      0.0473      4.7827    112.5280     21.3841
   757.2000      7.9406      2.5661      0.0512      5.0824    118.6996     21.2376
   757.3000      7.9418      2.5641     -0.0196      5.2066    125.0981     21.2157
   757.4000      7.9418      2.5662      0.0260      5.0759    129.2114     21.2466
   757.5000      7.9582      2.5596      0.0276      5.4763    128.7871     21.3029
   757.6000      7.9582      2.5362      0.0229      6.8976    128.4795     21.4668
   757.7000      7.9582      2.5075     -0.0051      8.6378    131.3812     21.7669
   757.8000      7.9632      2.4964     -0.0200      9.3119    129.7206     22.1297
   757.9000      7.9632      2.5077      0.0486      8.6219    119.8803     22.4353
   758.0000      7.9493      2.5223      0.0588      7.7402    111.4109     22.8403
   758.1000      7.9493      2.5274      0.0347      7.4294    111.0926     23.4497
   758.2000      7.9493      2.5279      0.0160      7.3995    114.1778     23.8925
   758.3000      7.9468      2.5265      0.0287      7.4870    112.5537     23.8587
   758.4000      7.9468      2.5250     -0.0204      7.5787    109.8330     23.5213
   758.5000      7.9540      2.5396     -0.0481      6.6879    114.1611     23.3595
   758.6000      7.9540      2.5736      0.0279      4.6322    118.7432     23.4794
   758.7000      7.9540      2.5919      0.0759      3.5183    115.6680     23.6524
   758.8000      7.9382      2.5756      0.0337      4.5074    110.5876     23.6738
   758.9000      7.9382      2.5548     -0.0010      5.7712    111.2491     23.3857
   759.0000      7.9467      2.5537      0.0107      5.8384    114.8884     22.8876
   759.1000      7.9467      2.5605      0.0337      5.4246    114.0568     22.6054
   759.2000      7.9467      2.5598      0.0460      5.4649    108.8260     22.7092
   759.3000      7.9492      2.5584      0.0117      5.5485    105.1729     22.9054
   759.4000      7.9492      2.5640      0.0193      5.2150    106.7436     23.0522
   759.5000      7.9274      2.5620      0.0465      5.3335    108.2136     23.3544
   759.6000      7.9274      2.5465      0.0266      6.2734    104.3843     23.8287
   759.7000      7.9274      2.5375      0.0258      6.8203     96.8125     24.2234
   759.8000      7.9354      2.5446      0.0353      6.3888     89.4471     24.1963
   759.9000      7.9354      2.5571      0.0542      5.6289     88.8784     23.6993
   760.0000      7.9408      2.5652      0.0780      5.1365     97.2933     23.2031
   760.1000      7.9408      2.5670      0.0716      5.0292    105.9749     22.9433
   760.2000      7.9408      2.5664      0.0620      5.0651    107.4034     22.9587
   760.3000      7.9313      2.5699      0.0550      4.8537    106.9486     23.2246
   760.4000      7.9313      2.5736      0.0731      4.6313    110.8146     23.2013
   760.5000      7.9174      2.5658      0.0594      5.1001    114.6447     22.7452
   760.6000      7.9174      2.5508      0.0145      6.0134    113.9022     22.3314
   760.7000      7.9174      2.5357      0.0451      6.9247    111.5306     22.0514
   760.8000      7.9133      2.5163      0.0056      8.1002    110.7689     21.8018
   760.9000      7.9133      2.4964     -0.0010      9.3091    112.1764     21.7005
   761.0000      7.9183      2.4838      0.0164     10.0721    115.5108     21.8511
   761.1000      7.9183      2.4759     -0.0088     10.5521    119.6988     22.2343
   761.2000      7.9183      2.4632      0.0385     11.3193    124.9543     22.4731
   761.3000      7.9307      2.4417     -0.0356     12.6270    131.4373     22.3994
   761.4000      7.9307      2.4291     -0.0523     13.3886    134.3127     22.5055
   761.5000      7.9340      2.4392     -0.0135     12.7770    128.7739     22.8595
   761.6000      7.9340      2.4581      0.0321     11.6285    119.2068     23.0617
   761.7000      7.9340      2.4752     -0.0117     10.5929    115.6448     23.2838
   761.8000      7.9208      2.4958     -0.0226      9.3454    122.7774     23.6995
   761.9000      7.9208      2.5131      0.0824      8.2996    134.1368     23.9847
   762.0000      7.9055      2.5105      0.1083      8.4557    139.8789     24.1647
   762.1000      7.9055      2.4904      0.0570      9.6726    137.1258     24.4307
   762.2000      7.9055      2.4719      0.0296     10.7936    130.2176     24.5973
   762.3000      7.9263      2.4718      0.0471     10.8000    126.2322     24.7590
