~Version Information
VERS.                      2.0: CWLS Log ASCII Standard - VERSION 2.0
WRAP.                       NO: One line per depth step
~Well Information Block
STRT.FT                 5.0000: 
STOP.FT               880.0000: 
STEP.FT                 0.2500: 
NULL.                -999.2500: 
COMP.          Pioneer Natural Resources: COMPANY
WELL.          Bienville 31-28: WELL
FLD.           Purgatoire River: FIELD
LOC.           1212' FNL & 2271' FEL: LOCATION
PROV.                 Colorado: PROVINCE
CNTY.               Las Animas: COUNTRY
SRVC.                Patterson: SERVICE COMPANY
DATE.          Tue Jan 24 11:44:03 2006: LOG DATE
UWI.           05 071 08666 00: UNIQUE WELL ID
~Curve Information Block
DEPT.FT            0 000 00 00: Depth
GR.GAPI                       : Gamma Ray
CCL.                          : Casing Collar Locator
TT3.usec                      : CBL 3' Travel Time
AMP3.mV                       : CBL 3' Amplitude
~Parameter Information Block
~A  Depth        GR         CCL         TT3         AMP3    
# ...
   574.5000     77.3743      0.0000    777.0339      6.1493
   574.7500     79.4969      0.0000    780.3220      6.2769
   575.0000     83.0495      0.0000    780.3008      6.3932
   575.2500     87.8326      0.0000    777.0302      6.4971
   575.5000     93.6936      0.0000    772.6293      6.5916
   575.7500     99.7034      0.0000    769.6959      6.6855
   576.0000    104.1577      0.0000    769.9005      6.7956
   576.2500    105.8018      0.0000    773.5662      6.9381
   576.5000    104.9623      0.0000    779.5216      7.1071
   576.7500    103.2473      0.0000    785.1516      7.2647
   577.0000    102.1429      0.0000    787.5520      7.3580
   577.2500    101.9436      0.0000    785.5961      7.3495
   577.5000    101.8741      0.0000    781.0624      7.2346
   577.7500    100.9846      0.0000    777.4799      7.0412
   578.0000     98.9140      0.0000    777.6003      6.8161
   578.2500     95.9087      0.0000    781.5862      6.6047
   578.5000     92.1598      0.0000    787.3051      6.4325
   578.7500     87.2856      0.0000    792.4127      6.3000
   579.0000     80.7238      0.0000    796.0523      6.1904
   579.2500     72.6557      0.0000    798.0989      6.0853
   579.5000     64.2934      0.0000    797.2616      5.9790
   579.7500     57.0818      0.0000    791.5680      5.8819
   580.0000     51.6863      0.0000    781.0285      5.8078
   580.2500     47.8551      0.0000    768.3506      5.7593
   580.5000     45.1552      0.0000    756.6721      5.7278
   580.7500     43.5960      0.0000    747.6863      5.7052
   581.0000     43.4501      0.0000    741.8565      5.6900
   581.2500     44.6651      0.0000    739.0777      5.6830
   581.5000     46.6971      0.0000    738.6468      5.6829
   581.7500     48.9151      0.0000    739.1617      5.6851
   582.0000     51.0450      0.0000    739.1069      5.6840
   582.2500     53.1677      0.0000    737.8233      5.6750
   582.5000     55.3093      0.0000    735.8519      5.6592
   582.7500     57.1760      0.0000    734.1943      5.6457
   583.0000     58.4988      0.0000    733.3425      5.6485
   583.2500     59.5211      0.0000    733.0919      5.6795
   583.5000     60.6513      0.0000    733.0176      5.7437
   583.7500     61.5308      0.0000    732.8776      5.8366
   584.0000     60.9317      0.0000    732.6407      5.9452
   584.2500     57.9419      0.0000    732.3450      6.0526
   584.5000     53.1180      0.0000    732.0172      6.1478
   584.7500     48.2040      0.0000    731.6736      6.2329
   585.0000     44.7160      0.0000    731.3445      6.3199
   585.2500     42.9163      0.0000    731.0798      6.4190
   585.5000     42.0931      0.0000    730.9346      6.5279
   585.7500     41.5491      0.0000    730.9366      6.6339
   586.0000     41.1065      0.0000    731.1192      6.7271
   586.2500     40.8343      0.0000    731.7066      6.8101
   586.5000     40.7793      0.0000    733.3517      6.8934
   586.7500     41.1938      0.0000    737.0316      6.9808
   587.0000     42.7065      0.0000    743.2432      7.0639
   587.2500     45.8128      0.0000    751.0746      7.1331
   587.5000     50.1872      0.0000    758.4733      7.1939
   587.7500     54.7677      0.0000    763.8154      7.2679
   588.0000     58.4895      0.0000    766.8777      7.3780
   588.2500     60.6901      0.0000    768.1495      7.5282
   588.5000     60.9585      0.0000    767.9895      7.6967
   588.7500     59.1712      0.0000    766.8029      7.8481
   589.0000     55.9757      0.0000    765.2941      7.9572
   589.2500     52.8970      0.0000    764.0887      8.0184
   589.5000     51.5241      0.0000    763.3806      8.0351
   589.7500     52.4753      0.0000    763.0451      8.0101
   590.0000     55.1043      0.0000    762.9026      7.9526
   590.2500     58.0259      0.0000    762.8387      7.8862
   590.5000     59.9995      0.0000    762.8574      7.8345
   590.7500     60.6974      0.0000    763.1751      7.8000
   591.0000     60.7809      0.0000    764.3607      7.7675
   591.2500     61.1457      0.0000    767.3617      7.7306
   591.5000     62.1529      0.0000    773.0697      7.7070
   591.7500     63.5186      0.0000    781.4365      7.7210
   592.0000     64.5942      0.0000    790.9556      7.7720
   592.2500     64.6556      0.0000    799.3821      7.8261
   592.5000     63.2852      0.0000    805.2172      7.8451
   592.7500     60.7076      0.0000    808.5681      7.8222
   593.0000     57.7097      0.0000    810.9128      7.7877
   593.2500     55.1649      0.0000    814.5988      7.7801
   593.5000     53.5937      0.0000    822.4870      7.8170
   593.7500     53.1157      0.0000    836.9542      7.8907
   594.0000     53.6633      0.0000    857.9070      7.9886
   594.2500     55.0589      0.0000    881.6205      8.1085
   594.5000     56.8657      0.0000    902.5339      8.2477
   594.7500     58.3375      0.0000    916.8390      8.3796
   595.0000     58.7240      0.0000    924.2460      8.4600
   595.2500     57.8157      0.0000    926.5502      8.4676
   595.5000     56.2320      0.0000    925.0518      8.4322
   595.7500     54.9796      0.0000    919.1758      8.4118
   596.0000     54.5437      0.0000    907.1367      8.4446
   596.2500     54.5058      0.0000    888.0552      8.5181
   596.5000     54.1785      0.0000    863.7986      8.5674
   596.7500     53.4750      0.0000    838.5714      8.5019
   597.0000     53.0457      0.0000    816.9897      8.2578
   597.2500     53.7381      0.0000    803.4769      7.8440
   597.5000     56.0131      0.0000    802.4457      7.3215
   597.7500     59.5989      0.0000    815.4488      6.7321
   598.0000     63.4832      0.0000    837.1439      6.0849
   598.2500     66.3809      0.0000    858.1617      5.4312
   598.5000     67.3101      0.0000    874.1649      4.8892
   598.7500     65.9315      0.0000    888.7443      4.5533
   599.0000     62.8498      0.0000    905.4752      4.4168
   599.2500     59.6944      0.0000    920.2466      4.4175
   599.5000     58.3086      0.0000    923.6821      4.5262
   599.7500     59.3919      0.0000    910.1739      4.7885
   600.0000     61.9131      0.0000    883.9001      5.2994
   600.2500     63.9008      0.0000    856.6969      6.0960
   600.5000     63.9084      0.0000    840.7061      7.0183
   600.7500     61.9728      0.0000    842.5355      7.7281
   601.0000     59.3307      0.0000    862.2595      7.9681
   601.2500     57.2669      0.0000    894.6520      7.7881
   601.5000     56.1916      0.0000    930.1863      7.4571
   601.7500     55.6289      0.0000    957.3298      7.2055
   602.0000     54.8513      0.0000    967.2297      7.1047
   602.2500     53.5520      0.0000    957.7435      7.1253
   602.5000     52.1384      0.0000    933.4619      7.2199
   602.7500     51.5027      0.0000    902.2015      7.3530
   603.0000     52.4070      0.0000    870.7833      7.4961
   603.2500     54.9240      0.0000    842.9103      7.6236
   603.5000     58.3755      0.0000    819.9642      7.7173
   603.7500     61.7720      0.0000    802.6392      7.7772
   604.0000     64.2594      0.0000    791.0143      7.8207
   604.2500     65.2016      0.0000    783.8845      7.8704
   604.5000     64.1994      0.0000    779.4633      7.9396
   604.7500     61.4016      0.0000    776.9020      8.0258
   605.0000     57.6215      0.0000    776.5929      8.1149
   605.2500     53.9010      0.0000    778.9671      8.1907
   605.5000     51.0825      0.0000    783.2484      8.2427
   605.7500     49.7036      0.0000    787.4081      8.2700
   606.0000     49.8204      0.0000    789.4282      8.2810
   606.2500     50.8055      0.0000    788.7104      8.2896
   606.5000     51.6571      0.0000    786.2042      8.3070
   606.7500     51.7560      0.0000    783.1926      8.3356
   607.0000     51.2633      0.0000    779.9670      8.3715
   607.2500     50.6848      0.0000    775.7438      8.4121
   607.5000     50.1848      0.0000    770.0551      8.4608
   607.7500     49.4955      0.0000    764.0590      8.5246
