~Version Information
VERS.                      2.0: CWLS Log ASCII Standard - VERSION 2.0
WRAP.                       NO: One line per depth step
~Well Information Block
STRT.FT               615.0000: 
STOP.FT              1609.0000: 
STEP.FT                 0.2500: 
NULL.                -999.2500: 
COMP.          Pioneer Natural Resources: COMPANY
WELL.          Galloway 32-13 Tr: WELL
FLD.           Purgatoire River: FIELD
LOC.           1910' FNL & 2002' FEL: LOCATION
PROV.                 Colorado: PROVINCE
CNTY.               Las Animas: COUNTRY
SRVC.                Patterson: SERVICE COMPANY
DATE.          Sat Nov 12 20:19:28 2005: LOG DATE
UWI.           05 071 08608 00: UNIQUE WELL ID
~Curve Information Block
DEPT.FT            0 000 00 00: Depth
SN.Ohm-m                      : IEL Short Normal
SP.mV                         : IEL Spontaneous Potential
DIR.Ohm-m                     : IEL Induction Resistivity
GR.GAPI                       : Gamma Ray
~Parameter Information Block
~A  Depth        SN          SP         DIR          GR     
# ...
  1452.5000     27.7188     58.2404     24.9918     69.2815
  1452.7500     28.0717     58.1527     25.3545     69.0959
  1453.0000     28.4169     58.1067     25.7118     69.4552
  1453.2500     28.7564     58.0949     26.0209     70.1165
  1453.5000     29.0853     58.1114     26.2691     71.3793
  1453.7500     29.3068     58.1540     26.4697     72.2014
  1454.0000     29.3337     58.2210     26.6360     73.2795
  1454.2500     29.3117     58.3057     26.7697     73.7842
  1454.5000     29.4528     58.3935     26.8811     73.8395
  1454.7500     29.7554     58.4650     27.0138     73.3457
  1455.0000     30.1013     58.5070     27.2376     72.5064
  1455.2500     30.4451     58.5224     27.6047     72.6145
  1455.5000     30.7704     58.5342     28.1077     74.6471
  1455.7500     31.0488     58.5745     28.6802     77.1145
  1456.0000     31.3201     58.6629     29.2438     81.2816
  1456.2500     31.6975     58.7933     29.7637     83.5549
  1456.5000     32.2230     58.9425     30.2630     85.3191
  1456.7500     32.7481     59.0941     30.7811     85.1965
  1457.0000     33.0623     59.2513     31.3120     82.9776
  1457.2500     33.1471     59.4294     31.7690     80.2610
  1457.5000     33.1529     59.6420     31.9936     75.0811
  1457.7500     33.1279     59.8980     31.8081     71.5598
  1458.0000     32.9764     60.2031     31.0814     67.0657
  1458.2500     32.6451     60.5596     29.7765     64.7548
  1458.5000     32.2100     60.9683     27.9632     62.2306
  1458.7500     31.8030     61.4334     25.8024     61.1976
  1459.0000     31.3866     61.9664     23.5036     61.2077
  1459.2500     30.6145     62.5819     21.2635     63.0023
  1459.5000     29.0749     63.2859     19.2168     70.0009
  1459.7500     26.6602     64.0645     17.4210     78.1602
  1460.0000     23.6638     64.8816     15.8759     95.1978
  1460.2500     20.6221     65.6861     14.5535    108.6048
  1460.5000     18.0019     66.4237     13.4217    129.1876
  1460.7500     15.9339     67.0508     12.4542    141.8609
  1461.0000     14.2770     67.5455     11.6289    157.5684
  1461.2500     12.8683     67.9116     10.9245    165.1368
  1461.5000     11.6536     68.1707     10.3184    171.5502
  1461.7500     10.6874     68.3499      9.7897    172.8261
  1462.0000     10.0395     68.4721      9.3230    172.1397
  1462.2500      9.6791     68.5536      8.9115    171.4794
  1462.5000      9.4684     68.6070      8.5564    172.0011
  1462.7500      9.2770     68.6468      8.2627    173.3715
  1463.0000      9.0930     68.6901      8.0346    175.5316
  1463.2500      9.0032     68.7494      7.8718    176.1290
  1463.5000      9.0740     68.8253      7.7691    175.2945
  1463.7500      9.2639     68.9065      7.7196    173.9498
  1464.0000      9.4539     68.9789      7.7177    171.4037
  1464.2500      9.5537     69.0339      7.7617    169.3590
  1464.5000      9.5624     69.0730      7.8527    165.6684
  1464.7500      9.5469     69.1030      7.9927    163.1514
  1465.0000      9.5795     69.1302      8.1824    160.4947
  1465.2500      9.6828     69.1555      8.4205    159.8519
  1465.5000      9.8344     69.1756      8.7053    159.7376
  1465.7500     10.0261     69.1881      9.0364    159.1507
  1466.0000     10.2852     69.1943      9.4153    156.2531
  1466.2500     10.6756     69.1975      9.8435    153.1337
  1466.5000     11.2756     69.1991     10.3215    147.9140
  1466.7500     12.0789     69.1987     10.8480    144.6980
  1467.0000     12.9547     69.1979     11.4206    140.5075
  1467.2500     13.7971     69.2041     12.0331    137.8490
  1467.5000     14.6740     69.2316     12.6699    133.3350
  1467.7500     15.7345     69.2987     13.2977    129.7057
  1468.0000     16.9779     69.4209     13.8637    123.4970
  1468.2500     18.2125     69.6052     14.3059    119.3316
  1468.5000     19.2836     69.8479     14.5780    114.2755
  1468.7500     20.1681     70.1412     14.6698    112.3302
  1469.0000     20.8101     70.4817     14.6054    111.8370
  1469.2500     21.0463     70.8699     14.4233    112.9219
  1469.5000     20.6865     71.2996     14.1573    116.6979
  1469.7500     19.6591     71.7501     13.8341    121.0681
  1470.0000     18.1680     72.1898     13.4770    130.7120
  1470.2500     16.6028     72.5883     13.1060    138.5328
  1470.5000     15.2408     72.9244     12.7333    150.0160
  1470.7500     14.1201     73.1881     12.3600    156.1297
  1471.0000     13.1427     73.3788     11.9811    161.5987
  1471.2500     12.2420     73.5019     11.5950    162.6106
  1471.5000     11.4674     73.5669     11.2095    160.6613
  1471.7500     10.8946     73.5879     10.8393    157.7329
  1472.0000     10.5264     73.5827     10.4993    152.8094
  1472.2500     10.3331     73.5694     10.1994    150.3347
  1472.5000     10.3011     73.5600      9.9437    148.6623
  1472.7500     10.3941     73.5551      9.7326    148.5325
  1473.0000     10.5037     73.5440      9.5630    148.7126
  1473.2500     10.5121     73.5087      9.4282    148.7462
  1473.5000     10.4090     73.4301      9.3205    148.7707
  1473.7500     10.2652     73.2907      9.2352    148.9668
  1474.0000     10.1366     73.0770      9.1722    149.8710
  1474.2500     10.0464     72.7854      9.1332    151.1153
  1474.5000      9.9844     72.4274      9.1168    154.2862
  1474.7500      9.9124     72.0295      9.1152    157.2217
  1475.0000      9.7857     71.6240      9.1156    162.2914
  1475.2500      9.5772     71.2371      9.1048    165.6844
  1475.5000      9.3069     70.8820      9.0737    169.9730
  1475.7500      9.0355     70.5599      9.0195    171.7297
  1476.0000      8.8146     70.2647      8.9449    172.0112
  1476.2500      8.6480     69.9910      8.8544    170.7537
  1476.5000      8.5330     69.7404      8.7513    167.7460
  1476.7500      8.5040     69.5239      8.6386    165.6829
  1477.0000      8.5877     69.3561      8.5213    163.4346
  1477.2500      8.7531     69.2456      8.4079    162.9972
  1477.5000      8.9056     69.1885      8.3079    164.5397
  1477.7500      8.9204     69.1711      8.2273    166.8880
  1478.0000      8.7558     69.1792      8.1656    171.0588
  1478.2500      8.4793     69.2052      8.1166    173.3667
  1478.5000      8.1275     69.2482      8.0708    175.6183
  1478.7500      7.7279     69.3066      8.0198    176.6440
  1479.0000      7.4288     69.3731      7.9592    177.7013
  1479.2500      7.3652     69.4356      7.8897    177.5558
  1479.5000      7.4674     69.4857      7.8149    175.1539
  1479.7500      7.5597     69.5221      7.7384    172.4814
  1480.0000      7.5275     69.5506      7.6609    168.9524
  1480.2500      7.3498     69.5785      7.5801    167.9849
  1480.5000      7.1300     69.6088      7.4927    168.8252
  1480.7500      7.0734     69.6391      7.3973    170.2612
  1481.0000      7.2653     69.6635      7.2970    172.3457
  1481.2500      7.5242     69.6792      7.1994    173.1204
  1481.5000      7.6142     69.6922      7.1144    173.1963
  1481.7500      7.5151     69.7175      7.0488    173.0390
  1482.0000      7.3765     69.7707      7.0033    173.8889
  1482.2500      7.3120     69.8564      6.9726    175.4898
  1482.5000      7.3018     69.9629      6.9485    178.2873
  1482.7500      7.2603     70.0681      6.9239    179.3761
  1483.0000      7.1965     70.1491      6.8946    179.3816
  1483.2500      7.1787     70.1883      6.8597    179.0038
  1483.5000      7.1955     70.1757      6.8206    179.0797
  1483.7500      7.2159     70.1086      6.7813    179.3291
  1484.0000      7.2177     69.9908      6.7466    178.1903
  1484.2500      7.1571     69.8304      6.7209    175.5475
  1484.5000      7.0458     69.6362      6.7057    169.1421
  1484.7500      6.9214     69.4134      6.6994    164.4040
  1485.0000      6.7865     69.1649      6.6980    158.5215
  1485.2500      6.6754     68.8971      6.6978    155.8297
  1485.5000      6.6404     68.6237      6.6978    153.4237
  1485.7500      6.7057     68.3597      6.6998    152.8360
