~Version Information
VERS.                      2.0: CWLS Log ASCII Standard - VERSION 2.0
WRAP.                       NO: One line per depth step
~Well Information Block
STRT.FT                 0.0000: 
STOP.FT              1906.7500: 
STEP.FT                 0.2500: 
NULL.                -999.2500: 
COMP.          Petrogulf Corporation: COMPANY
WELL.             Kraft 17-23R: WELL
FLD.           Purgatorie River: FIELD
LOC.           1509' FSL & 1673' FWL: LOCATION
STAT.                 Colorado: State
CNTY.               Las Animas: COUNTY
CTRY. USA : Country
SECT. 17 : Section
TOWN. 33S : Township
RANG. 67W : Range
SRVC.                Patterson: SERVICE COMPANY
DATE.          Fri Jan 06 08:59:54 2006: LOG DATE
API. 05-071-08560                         : UNIQUE WELL ID
~Curve Information Block
DEPT.FT            0 000 00 00: Depth
CCL.                          : Casing Collar Locator
TT3.usec                      : CBL 3' Travel Time
AMP3.mV                       : CBL 3' Amplitude
AMP3.mV                       : CBL 3' Amplitude
GR.GAPI                       : Gamma Ray
AMP3.mV                       : CBL 3' Amplitude
~Parameter Information Block
~A  Depth       CCL         TT3         AMP3        AMP3         GR        .AMP3    
# ...
   384.0000      0.0000    608.4872      9.4024      9.4024     83.9180      9.4024
   384.2500      0.0000    597.9328      9.6264      9.6264     85.6021      9.6264
   384.5000      0.0000    595.9838      9.7686      9.7686     87.2860      9.7686
   384.7500      0.0000    614.4127      9.8170      9.8170     90.1003      9.8170
   385.0000      0.0000    639.3145      9.8565      9.8565     94.5868      9.8565
   385.2500      0.0000    653.5668      9.9179      9.9179     99.7971      9.9179
   385.5000      0.0000    658.3421      9.9614      9.9614    103.7044      9.9614
   385.7500      0.0000    662.0435      9.9801      9.9801    104.9742      9.9801
   386.0000      0.0000    668.2478      9.9915      9.9915    104.2212      9.9915
   386.2500      0.0000    676.8367      9.9983      9.9983    103.3086      9.9983
   386.5000      0.0000    685.4007     10.0226     10.0226    103.7444     10.0226
   386.7500      0.0000    689.9363     10.1006     10.1006    105.7964     10.1006
   387.0000      0.0000    690.1264     10.2209     10.2209    108.4503     10.2209
   387.2500      0.0000    690.2139     10.3352     10.3352    109.9634     10.3352
   387.5000      0.0000    692.6665     10.4566     10.4566    109.1281     10.4566
   387.7500      0.0000    695.5582     10.6745     10.6745    106.3029     10.6745
   388.0000      0.0000    695.1378     11.0175     11.0175    102.9315     11.0175
   388.2500      0.0000    688.9203     11.3818     11.3818    100.1331     11.3818
   388.5000      0.0000    675.2876     11.6622     11.6622     97.9696     11.6622
   388.7500      0.0000    647.9622     11.8710     11.8710     95.6877     11.8710
   389.0000      0.0000    598.9933     12.0555     12.0555     92.4729     12.0555
   389.2500      0.0000    533.2138     12.1874     12.1874     88.3835     12.1874
   389.5000      0.0000    468.7305     12.2416     12.2416     84.7505     12.2416
   389.7500      0.0000    420.5710     12.2731     12.2731     83.3783     12.2731
   390.0000      0.0000    392.6841     12.3214     12.3214     85.0739     12.3214
   390.2500      0.0000    380.7920     12.3531     12.3531     88.7400     12.3531
   390.5000      0.0000    377.3324     12.3191     12.3191     91.7521     12.3191
   390.7500      0.0000    376.3756     12.2082     12.2082     91.4681     12.2082
   391.0000      0.0000    375.2838     12.0770     12.0770     86.9590     12.0770
   391.2500      0.0000    372.9024     12.0341     12.0341     79.6309     12.0341
   391.5000      0.0000    367.6643     12.1464     12.1464     72.2680     12.1464
   391.7500      0.0000    358.4727     12.3662     12.3662     67.4228     12.3662
   392.0000      0.0000    347.3341     12.5800     12.5800     66.3894     12.5800
   392.2500      0.0000    338.4072     12.7311     12.7311     69.0789     12.7311
   392.5000      0.0000    333.6630     12.8579     12.8579     74.4310     12.8579
   392.7500      0.0000    331.9041     13.0014     13.0014     80.9652     13.0014
   393.0000      0.0000    331.3419     13.1384     13.1384     87.2685     13.1384
   393.2500      0.0000    331.0964     13.2259     13.2259     92.2918     13.2259
   393.5000      0.0000    330.9647     13.2740     13.2740     95.4973     13.2740
   393.7500      0.0000    330.8932     13.3429     13.3429     96.9299     13.3429
   394.0000      0.0000    330.7712     13.4770     13.4770     97.1607     13.4770
   394.2500      0.0000    330.5358     13.6681     13.6681     97.1589     13.6681
   394.5000      0.0000    330.2653     13.8629     13.8629     98.0208     13.8629
   394.7500      0.0000    330.0652     13.9950     13.9950    100.2087     13.9950
   395.0000      0.0000    329.9674     14.0426     14.0426    102.7278     14.0426
   395.2500      0.0000    329.9786     14.0459     14.0459    103.6225     14.0459
   395.5000      0.0000    330.1076     14.0343     14.0343    101.8879     14.0343
   395.7500      0.0000    330.3138     13.9915     13.9915     98.5409     13.9915
   396.0000      0.0000    330.4937     13.9360     13.9360     95.4655     13.9360
   396.2500      0.0000    330.5761     13.9583     13.9583     93.6190     13.9583
   396.5000      0.0000    330.5605     14.1029     14.1029     92.6922     14.1029
   396.7500      0.0000    330.4340     14.2731     14.2731     92.0240     14.2731
   397.0000      0.0000    330.2193     14.3448     14.3448     91.2183     14.3448
   397.2500      0.0000    330.0765     14.3164     14.3164     89.9819     14.3164
   397.5000      0.0000    330.1476     14.2852     14.2852     88.0287     14.2852
   397.7500      0.0000    330.3342     14.3202     14.3202     85.3873     14.3202
   398.0000      0.0000    330.4031     14.3880     14.3880     82.5414     14.3880
   398.2500      0.0000    330.2956     14.4138     14.4138     80.2747     14.4138
   398.5000      0.0000    330.1619     14.3735     14.3735     79.4251     14.3735
   398.7500      0.0000    330.1016     14.2713     14.2713     80.3714     14.2713
   399.0000      0.0000    330.0623     14.0852     14.0852     82.4169     14.0852
   399.2500      0.0000    329.9868     13.7898     13.7898     84.0255     13.7898
   399.5000      0.0000    329.8757     13.4073     13.4073     84.1306     13.4073
   399.7500      0.0000    329.7169     13.0014     13.0014     83.1371     13.0014
   400.0000      0.0000    329.5339     12.5885     12.5885     82.3851     12.5885
   400.2500      0.0000    329.4496     12.1266     12.1266     82.7104     12.1266
   400.5000      0.0000    329.5330     11.6243     11.6243     83.8043     11.6243
   400.7500      0.0000    329.6713     11.1691     11.1691     84.9834     11.1691
   401.0000      0.0000    329.6911     10.8338     10.8338     86.1962     10.8338
   401.2500      0.0000    329.5530     10.6180     10.6180     87.9507     10.6180
   401.5000      0.0000    329.5886     10.4723     10.4723     90.4729     10.4723
   401.7500      0.0000    331.5915     10.3111     10.3111     93.3435     10.3111
   402.0000      0.0000    341.3390      9.9816      9.9816     96.0211      9.9816
   402.2500      0.0000    367.4734      9.3464      9.3464     98.4070      9.3464
   402.5000      0.0000    406.8771      8.5667      8.5667    100.5625      8.5667
   402.7500      0.0000    433.3566      8.0613      8.0613    102.0236      8.0613
   403.0000      0.0000    425.1249      7.8865      7.8865    101.9177      7.8865
   403.2500      0.0000    395.8807      7.7048      7.7048     99.9369      7.7048
   403.5000      0.0000    373.1918      7.4543      7.4543     96.8510      7.4543
   403.7500      0.0000    366.0032      7.3095      7.3095     93.8408      7.3095
   404.0000      0.0000    367.2524      7.2579      7.2579     91.6400      7.2579
   404.2500      2.0000    369.6342      7.1733      7.1733     90.5089      7.1733
   404.5000     -2.0000    371.0948      7.0378      7.0378     90.5026      7.0378
   404.7500      0.0000    372.3098      6.9527      6.9527     91.2231      6.9527
   405.0000      0.0000    374.0303      7.0771      7.0771     91.6393      7.0771
   405.2500      0.0000    376.3138      7.6608      7.6608     90.8461      7.6608
   405.5000      0.0000    378.4651      8.7711      8.7711     88.9765      8.7711
   405.7500      0.0000    379.4717      9.7816      9.7816     86.9284      9.7816
   406.0000      0.0000    378.9520      9.9826      9.9826     85.3767      9.9826
   406.2500      0.0000    377.5315      9.6001      9.6001     84.4280      9.6001
   406.5000      0.0000    376.1013      9.2218      9.2218     83.9092      9.2218
   406.7500      0.0000    375.0934      8.9535      8.9535     83.6220      8.9535
   407.0000      0.0000    374.4913      8.6671      8.6671     83.5545      8.6671
   407.2500      0.0000    374.1430      8.3642      8.3642     83.9893      8.3642
   407.5000      0.0000    373.9456      8.1134      8.1134     85.1940      8.1134
   407.7500      0.0000    373.8278      7.9131      7.9131     87.0191      7.9131
