~Version Information
 VERS.                                  2.0 : CWLS LAS VERSION
 WRAP.                                   NO : WRAPING MODE
 SWARE .                 MController 2.5.0N : SOFTWARE VERSION
~Well Information
 WELL.                    Hanginstone 21-27 : WELL
 COMP.   Pioneer Natural Resources USA, Inc : COMPANY
 FLD.                      Purgatoire River : FIELD
 LOC.                NE/NW Sec 27 T32S R67W : LOCATION
 DATE.                         1/05-07/2006 : DATE(S) LOGGED
 SRVC.       BLANCO Geological Services LLC : SERVICE COMPANY
 STAT.                                   CO : STATE
 CNTY.                           Las Animas : COUNTY
 CTRY.                                  USA : COUNTRY
 API.                       05-071-08632-00 : API NUMBER
 STRT.FT                             907.00 : START DEPTH
 STOP.FT                            2970.00 : STOP DEPTH
 STEP.FT                               1.00 : DEPTH INCREMENT
 NULL.                                -9999 : NULL VALUE
~Curve information
 DEPTH.FT                                   :
 ROP.MIN/FT                                 :
 GAS.UNITS                                  :
~ASCII Log data
# ...
      2507.0         0.30         21.2 
      2508.0         0.27         26.5 
      2509.0         0.23         21.8 
      2510.0         0.20         12.9 
      2511.0         0.23          9.3 
      2512.0         0.32          7.8 
      2513.0         0.37          6.9 
      2514.0         0.40         11.1 
      2515.0         0.50          8.0 
      2516.0         0.47          8.1 
      2517.0         0.47         11.7 
      2518.0         0.47         12.5 
      2519.0         0.37         11.8 
      2520.0         0.52         10.2 
      2521.0        10.25         25.6 
      2522.0         0.43          2.4 
      2523.0         0.53          3.0 
      2524.0         0.47          3.1 
      2525.0         0.37          2.1 
      2526.0         0.40          1.7 
      2527.0         0.43          1.7 
      2528.0         0.48          2.3 
      2529.0         0.43          2.4 
      2530.0         0.33          2.5 
      2531.0         0.40          2.7 
      2532.0         0.33          2.6 
      2533.0         0.37          2.6 
      2534.0         0.37          2.8 
      2535.0         0.40          3.0 
      2536.0         0.48          3.1 
      2537.0         0.53          4.3 
      2538.0         0.40          6.3 
      2539.0         0.33          8.6 
      2540.0         0.30          9.7 
      2541.0         0.30         10.8 
      2542.0         0.30         11.3 
      2543.0         0.33         16.9 
      2544.0         0.37         17.4 
      2545.0         0.38         10.3 
      2546.0         0.47          7.2 
      2547.0         0.47          7.4 
      2548.0         0.40          6.9 
      2549.0         0.50          7.3 
      2550.0         0.57         10.5 
      2551.0         6.87         23.8 
      2552.0         0.68          2.3 
      2553.0         0.53          2.4 
      2554.0         0.53          2.4 
      2555.0         0.53          2.4 
      2556.0         0.47          2.4 
      2557.0         0.63          2.6 
      2558.0         0.50          2.4 
      2559.0         0.82          2.5 
      2560.0         0.57          2.7 
      2561.0         0.67          2.6 
      2562.0         0.67          2.4 
      2563.0         0.98          2.8 
      2564.0         1.07          2.9 
      2565.0         0.77          2.8 
      2566.0         0.70          2.5 
      2567.0         0.75          2.6 
      2568.0         0.67          2.6 
      2569.0         0.30          2.6 
      2570.0         0.37          2.5 
      2571.0         0.50          2.8 
      2572.0         0.47          2.4 
      2573.0         0.33          2.7 
      2574.0         0.47          3.4 
      2575.0         0.38          2.8 
      2576.0         0.30          2.7 
      2577.0         0.23          2.6 
      2578.0         0.37          3.1 
      2579.0         0.40          2.7 
      2580.0         0.33          2.4 
      2581.0        14.80          5.1 
      2582.0         0.42          2.2 
      2583.0         0.43          2.3 
      2584.0         0.33          2.2 
      2585.0         0.20          2.3 
      2586.0         0.17          2.1 
      2587.0         0.17          2.2 
      2588.0         0.23          2.3 
      2589.0         0.17          2.5 
      2590.0         0.27          2.4 
      2591.0         0.33          2.4 
      2592.0         0.27          2.4 
      2593.0         0.27          2.3 
      2594.0         0.25          2.1 
      2595.0         0.20          2.2 
      2596.0         0.23          2.3 
      2597.0         0.30          2.4 
      2598.0         0.37          2.3 
      2599.0         0.37          2.3 
      2600.0         0.40          2.4 
      2601.0         0.40          2.4 
      2602.0         0.40          2.7 
      2603.0         0.40          2.4 
      2604.0         0.52          2.3 
      2605.0         0.60          2.4 
      2606.0         0.27          2.3 
      2607.0         0.17          2.2 
      2608.0         0.17          2.2 
      2609.0         0.23          2.2 
      2610.0         0.43          2.4 
      2611.0         7.77          2.7 
      2612.0         0.65          2.3 
      2613.0         0.63          2.4 
      2614.0         0.43          2.2 
      2615.0         0.40          2.7 
      2616.0         0.40          2.3 
      2617.0         0.40          2.2 
      2618.0         0.33          2.3 
      2619.0         0.28          2.3 
      2620.0         0.23          2.3 
      2621.0         0.23          2.3 
      2622.0         0.27          2.3 
      2623.0         0.27          2.3 
      2624.0         0.27          2.2 
      2625.0         0.33          2.2 
      2626.0         0.37          2.4 
      2627.0         0.50          2.3 
      2628.0         0.53          2.2 
      2629.0         0.62          2.4 
      2630.0         0.57          2.3 
      2631.0         0.53          2.6 
      2632.0         0.50          2.3 
      2633.0         0.50          2.4 
      2634.0         0.47          2.4 
      2635.0         0.52          2.6 
      2636.0         0.50          2.6 
      2637.0         0.50          2.6 
      2638.0         0.57          2.8 
      2639.0         0.50          2.8 
      2640.0         0.37          2.5 
      2641.0        18.33          2.9 
      2642.0         0.47          2.4 
      2643.0         0.47          2.5 
      2644.0         0.47          2.5 
      2645.0         0.70          2.5 
      2646.0         0.95          2.6 
      2647.0         0.73          2.9 
      2648.0         0.67          2.5 
      2649.0         0.57          2.7 
      2650.0         0.57          2.5 
      2651.0         0.62          2.4 
      2652.0         0.57          2.4 
      2653.0         0.70          2.5 
      2654.0         0.70          2.8 
      2655.0         0.53          2.8 
      2656.0         5.57          2.9 
      2657.0         1.03          2.8 
      2658.0         0.75          3.2 
      2659.0         0.67          4.9 
      2660.0         0.57          7.9 
      2661.0         0.50          8.4 
      2662.0         0.33          7.0 
      2663.0         0.47          2.9 
      2664.0         0.37          2.8 
      2665.0         0.38          2.5 
      2666.0        19.55          3.1 
      2667.0         0.62          2.6 
      2668.0         0.73          2.7 
      2669.0         0.70          2.6 
      2670.0         0.50          2.6 
      2671.0         0.67          2.5 
      2672.0         0.72          2.5 
      2673.0         0.63          2.9 
      2674.0         0.73          2.6 
      2675.0         0.57          2.8 
      2676.0         0.70          2.5 
      2677.0         0.75          3.8 
      2678.0         0.93          4.3 
      2679.0         0.97          3.3 
      2680.0         1.10          3.1 
      2681.0         0.98          2.9 
      2682.0         1.20          2.6 
      2683.0         1.07          2.8 
      2684.0         1.38          2.8 
      2685.0         1.33          2.9 
      2686.0         1.02          3.0 
      2687.0         0.97          2.7 
      2688.0         1.13          3.0 
      2689.0         1.12          2.8 
      2690.0         0.73          2.7 
      2691.0         0.27          2.6 
      2692.0         0.30          2.7 
      2693.0         0.23          2.9 
      2694.0         0.40          2.6 
      2695.0         0.47          2.7 
      2696.0         0.10          2.6 
      2697.0         0.10          2.5 
      2698.0         0.13          2.5 
      2699.0         0.23          2.5 
      2700.0         1.15          2.8 
      2701.0        11.98          3.0 
      2702.0         0.65          2.7 
      2703.0         0.40          2.6 
      2704.0         0.43          2.8 
      2705.0         0.40          2.7 
      2706.0         0.47          3.0 
