~Version Information
VERS.                      2.0: CWLS Log ASCII Standard - VERSION 2.0
WRAP.                       NO: One line per depth step
~Well Information Block
STRT.FT               830.0000: 
STOP.FT              1782.5000: 
STEP.FT                 0.1000: 
NULL.                -999.2500: 
COMP.          Pioneer Natural Resources: COMPANY
WELL.          Manville 42-14 Tr: WELL
FLD.           Purgatoire River: FIELD
LOC.           2018 FNL & 562' FEL: LOCATION
STAT.                 Colorado: State
CNTY.               Las Animas: COUNTY
CTRY. USA : Country
SECT. 14 : Section
TOWN. 32S : Township
RANG. 66W : Range
SRVC.                Patterson: SERVICE COMPANY
DATE.          Mon Sep 19 09:44:06 2005: LOG DATE
API.           05 071 08522 00: UNIQUE WELL ID
~Curve Information Block
DEPT.FT            0 000 00 00: Depth
DCAL.in                       : CDL Caliper
RHOB.g/cc                     : CDL Bulk Density
RHOC.g/cc                     : CDL Density Correction
DPOR.pu                       : CDL Density Porosity
GR.GAPI                       : Gamma Ray
NPOR.pu                       : Neutron Porosity
~Parameter Information Block
~A  Depth       DCAL        RHOB        RHOC        DPOR         GR         NPOR    
# ...
  1521.2000      7.8868      2.6277      0.0941      1.3506     81.6492     20.8154
  1521.3000      7.8726      2.6232      0.1130      1.6261     82.0170     21.5736
  1521.4000      7.8726      2.6164      0.1075      2.0349     81.9679     21.3593
  1521.5000      7.9173      2.6120      0.0574      2.3021     85.8544     20.7369
  1521.6000      7.9173      2.6066      0.0664      2.6288     95.3758     20.6811
  1521.7000      7.9173      2.5942      0.0740      3.3822    104.6931     20.7742
  1521.8000      7.9939      2.5850      0.0824      3.9412    107.4132     20.5452
  1521.9000      7.9939      2.5892      0.0828      3.6875    104.0071     20.2792
  1522.0000      7.9784      2.5979      0.0689      3.1557     98.9866     20.4885
  1522.1000      7.9784      2.5986      0.0756      3.1133     97.8234     21.7145
  1522.2000      7.9784      2.5933      0.0403      3.4386    103.1842     23.5194
  1522.3000      7.9773      2.5959      0.0731      3.2810    108.3986     24.3301
  1522.4000      7.9773      2.6154      0.0629      2.0943    106.7606     23.4306
  1522.5000      8.0443      2.6449      0.0737      0.3107    101.2404     21.7005
  1522.6000      8.0443      2.6682      0.1121     -1.1060     97.2681     20.5866
  1522.7000      8.0443      2.6758      0.0554     -1.5617     93.8604     20.9094
  1522.8000      8.0978      2.6666      0.0691     -1.0070     87.6971     21.4251
  1522.9000      8.0978      2.6498      0.0627      0.0125     83.3216     20.8660
  1523.0000      8.0566      2.6363      0.1011      0.8293     88.3600     19.8710
  1523.1000      8.0566      2.6255      0.0887      1.4861    100.0011     19.5402
  1523.2000      8.0566      2.6148      0.0862      2.1339    108.3036     19.9259
  1523.3000      7.9884      2.6043      0.0926      2.7725    109.7866     19.9747
  1523.4000      7.9884      2.5982      0.0471      3.1421    106.5073     19.5785
  1523.5000      7.9904      2.6029      0.0684      2.8532    101.3138     19.4657
  1523.6000      7.9904      2.6151      0.0769      2.1130     95.9925     19.5789
  1523.7000      7.9904      2.6255      0.0819      1.4861     91.3558     19.4961
  1523.8000      7.9945      2.6239      0.0570      1.5815     88.7698     19.0607
  1523.9000      7.9945      2.6084      0.0295      2.5219     86.6327     18.7083
  1524.0000      7.9950      2.5920      0.0409      3.5169     83.5196     19.0946
  1524.1000      7.9950      2.5854      0.0249      3.9173     79.3839     20.0496
  1524.2000      7.9950      2.5875      0.0271      3.7854     71.6713     20.2192
  1524.3000      8.0002      2.5877      0.0539      3.7766     63.3558     18.9743
  1524.4000      8.0002      2.5765      0.0796      4.4517     63.8643     17.3719
  1524.5000      7.9820      2.5625      0.0405      5.3056     74.5975     16.4364
  1524.6000      7.9820      2.5632      0.0592      5.2599     82.2968     16.3086
  1524.7000      7.9820      2.5807      0.0267      4.2024     79.6910     16.3886
  1524.8000      7.9782      2.5948      0.0786      3.3471     75.1875     16.1610
  1524.9000      7.9782      2.5876      0.0350      3.7802     72.3920     15.5018
  1525.0000      7.9755      2.5684     -0.0017      4.9476     68.8708     14.3804
  1525.1000      7.9755      2.5509      0.0493      6.0084     65.3103     13.1763
  1525.2000      7.9755      2.5364      0.0246      6.8851     61.7556     12.5568
  1525.3000      7.9953      2.5337      0.0099      7.0504     58.5416     12.5586
  1525.4000      7.9953      2.5498      0.0295      6.0743     58.7191     12.8427
  1525.5000      7.9842      2.5753      0.0789      4.5263     65.3763     13.4503
  1525.6000      7.9842      2.5993      0.0475      3.0743     75.2392     14.6215
  1525.7000      7.9842      2.6164      0.0928      2.0380     79.4474     15.9071
  1525.8000      7.9788      2.6290      0.0543      1.2709     77.0122     16.5573
  1525.9000      7.9788      2.6409      0.1230      0.5520     74.5366     16.6342
  1526.0000      7.9283      2.6364      0.1442      0.8248     74.1874     16.6414
  1526.1000      7.9283      2.6039      0.0587      2.7920     73.9771     16.9607
  1526.2000      7.9283      2.5632      0.0531      5.2613     72.6783     17.8017
  1526.3000      7.9206      2.5395      0.0082      6.6964     72.8093     18.7720
  1526.4000      7.9206      2.5391      0.0283      6.7206     76.7188     19.3061
  1526.5000      7.9654      2.5536      0.0433      5.8446     82.6967     19.1287
  1526.6000      7.9654      2.5722      0.0950      4.7150     86.4741     18.2916
  1526.7000      7.9654      2.5857      0.0922      3.8968     86.4948     17.6685
  1526.8000      8.0470      2.5893      0.0862      3.6800     85.4942     17.7185
  1526.9000      8.0470      2.5863      0.1020      3.8583     87.9657     18.2458
  1527.0000      8.0497      2.5854      0.1104      3.9163     94.0172     19.2508
  1527.1000      8.0497      2.5935      0.1148      3.4241     97.0413     20.4308
  1527.2000      8.0497      2.6173      0.0616      1.9840     92.6216     21.3918
  1527.3000      7.9700      2.6547      0.0934     -0.2845     86.2918     22.1098
  1527.4000      7.9700      2.6845      0.1570     -2.0884     85.5966     22.0529
  1527.5000      7.9676      2.6897      0.1056     -2.4033     86.5468     21.3123
  1527.6000      7.9676      2.6736      0.1228     -1.4295     82.6042     21.1584
  1527.7000      7.9676      2.6402      0.0791      0.5946     77.0410     21.4468
  1527.8000      7.9755      2.6058     -0.0015      2.6796     74.3016     20.8193
  1527.9000      7.9755      2.5949      0.0611      3.3390     75.0224     19.5152
  1528.0000      7.9710      2.6045      0.0580      2.7596     78.0775     19.0017
  1528.1000      7.9710      2.6169      0.0099      2.0066     81.6012     19.4276
  1528.2000      7.9710      2.6224      0.0689      1.6727     85.7699     19.8082
  1528.3000      7.9666      2.6256      0.0088      1.4779     91.2997     19.9489
  1528.4000      7.9666      2.6314      0.0993      1.1245     95.2674     20.0705
  1528.5000      8.0097      2.6273      0.0399      1.3780     94.1471     20.3779
  1528.6000      8.0097      2.6144      0.0488      2.1601     90.9210     21.0476
  1528.7000      8.0097      2.6070      0.0421      2.6056     87.8864     21.2754
  1528.8000      8.0122      2.6030      0.0405      2.8476     82.7630     20.3386
  1528.9000      8.0122      2.5914      0.0339      3.5504     80.0622     19.0343
  1529.0000      7.9920      2.5741      0.0030      4.5984     83.5379     18.3827
  1529.1000      7.9920      2.5604      0.0390      5.4318     89.7958     18.5153
  1529.2000      7.9920      2.5550     -0.0071      5.7591     93.8939     19.1150
  1529.3000      8.0070      2.5588      0.0136      5.5280     94.5052     20.1988
  1529.4000      8.0070      2.5608      0.0281      5.4077     93.5561     21.5158
  1529.5000      7.9947      2.5508      0.0486      6.0092     93.8479     22.2888
  1529.6000      7.9947      2.5368      0.0294      6.8582     99.4473     22.7336
  1529.7000      7.9947      2.5296      0.0118      7.2969    108.3549     23.2697
  1529.8000      8.0356      2.5239      0.0452      7.6422    113.4017     23.5975
  1529.9000      8.0356      2.5095      0.0351      8.5172    114.9068     23.6289
  1530.0000      7.9915      2.4957      0.0401      9.3519    117.3218     23.6054
  1530.1000      7.9915      2.5001      0.0431      9.0863    119.4665     23.9457
  1530.2000      7.9915      2.5253      0.0488      7.5573    118.6255     24.6617
  1530.3000      8.0059      2.5524      0.0926      5.9177    118.1736     25.0168
  1530.4000      8.0059      2.5590      0.0821      5.5176    122.9594     25.2374
  1530.5000      8.0218      2.5495      0.0636      6.0927    128.9695     25.9343
  1530.6000      8.0218      2.5454     -0.0136      6.3406    130.6074     26.5891
  1530.7000      8.0218      2.5536      0.0636      5.8433    131.1272     26.6282
