~Version Information
VERS.                      2.0: CWLS Log ASCII Standard - VERSION 2.0
WRAP.                       NO: One line per depth step
~Well Information Block
STRT.FT               240.0000: 
STOP.FT              1342.0000: 
STEP.FT                 0.1000: 
NULL.                -999.2500: 
COMP.          Pioneer Natural Resources: COMPANY
WELL.          Lorencito 9-4-34-66: WELL
FLD.           Purgatoire River: FIELD
LOC.           2540' FSL & 438' FEL: LOCATION
STAT.                 Colorado: State
CNTY.               Las Animas: COUNTY
CTRY. USA : Country
SECT. 4 : Section
TOWN. 34S : Township
RANG. 68W : range
SRVC.                Patterson: SERVICE COMPANY
DATE.          Thu Sep 15 13:16:59 2005: LOG DATE
API.           05 071 08498 00: UNIQUE WELL ID
~Curve Information Block
DEPT.FT            0 000 00 00: Depth
DCAL.in                       : CDL Caliper
RHOB.g/cc                     : CDL Bulk Density
RHOC.g/cc                     : CDL Density Correction
DPOR.pu                       : CDL Density Porosity
GR.GAPI                       : Gamma Ray
NPOR.pu                       : Neutron Porosity
~Parameter Information Block
~A  Depth       DCAL        RHOB        RHOC        DPOR         GR         NPOR    
# ...
   960.0000      7.9912      2.4533      0.1221     11.9198     55.6216     14.8055
   960.1000      7.9912      2.4330      0.0411     13.1537     56.3615     15.5162
   960.2000      7.9912      2.4172      0.0902     14.1083     59.7629     16.5570
   960.3000      7.9786      2.4123      0.0810     14.4050     60.9623     16.7946
   960.4000      7.9786      2.4186      0.0750     14.0219     59.3200     15.8161
   960.5000      8.0035      2.4239      0.1367     13.7031     58.5537     14.7691
   960.6000      8.0035      2.4165      0.1314     14.1543     60.1320     14.8346
   960.7000      8.0035      2.4057      0.0940     14.8038     61.6768     15.7366
   960.8000      8.0064      2.4038      0.1354     14.9235     62.3363     16.2081
   960.9000      8.0064      2.4089      0.1323     14.6100     62.9727     16.0041
   961.0000      7.9905      2.4197      0.1212     13.9595     61.8611     16.0148
   961.1000      7.9905      2.4332      0.1309     13.1376     58.7838     16.4834
   961.2000      7.9905      2.4414      0.1220     12.6414     56.8188     16.7451
   961.3000      7.9862      2.4476      0.1012     12.2659     56.3284     16.4711
   961.4000      7.9862      2.4666      0.1046     11.1179     57.0248     16.1829
   961.5000      8.0033      2.4992      0.1353      9.1392     60.0328     16.1846
   961.6000      8.0033      2.5245      0.1512      7.6084     64.2859     16.4292
   961.7000      8.0033      2.5326      0.1205      7.1165     68.6826     16.7711
   961.8000      8.0001      2.5374      0.1414      6.8265     73.2137     17.0575
   961.9000      8.0001      2.5437      0.1479      6.4417     75.4630     17.2534
   962.0000      8.0122      2.5435      0.0988      6.4529     76.3927     17.2605
   962.1000      8.0122      2.5380      0.1022      6.7870     84.7520     17.4479
   962.2000      8.0122      2.5349      0.0666      6.9749    103.2639     18.2535
   962.3000      7.9912      2.5401      0.0364      6.6577    118.1920     19.1789
   962.4000      7.9912      2.5564      0.0599      5.6734    118.0300     19.5896
   962.5000      8.0012      2.5650      0.1193      5.1491    112.7391     19.3710
   962.6000      8.0012      2.5419      0.0924      6.5523    113.0723     18.7635
   962.7000      8.0012      2.5035      0.0045      8.8792    112.7717     18.2997
   962.8000      8.0570      2.4872      0.0278      9.8693    105.6927     17.9426
   962.9000      8.0570      2.4923      0.0704      9.5577     94.8411     17.3665
   963.0000      8.0571      2.4969     -0.0018      9.2776     86.8534     16.7193
   963.1000      8.0571      2.5053      0.0386      8.7711     86.4361     16.2127
   963.2000      8.0571      2.5250      0.0692      7.5779     91.8161     15.9751
   963.3000      8.0490      2.5467      0.0567      6.2589     92.9488     16.0391
   963.4000      8.0490      2.5637      0.0741      5.2292     85.0292     16.0899
   963.5000      8.0607      2.5712      0.0745      4.7768     75.8324     16.0478
   963.6000      8.0607      2.5637      0.0918      5.2309     70.7951     16.2808
   963.7000      8.0607      2.5492      0.0543      6.1101     68.3810     16.7068
   963.8000      8.0454      2.5409      0.0712      6.6121     67.7928     16.8224
   963.9000      8.0454      2.5350      0.1012      6.9718     68.1228     16.6905
   964.0000      8.0271      2.5183      0.0594      7.9830     67.7419     16.5626
   964.1000      8.0271      2.4922      0.0493      9.5623     68.4033     16.1097
   964.2000      8.0271      2.4723     -0.0127     10.7700     71.0022     15.4244
   964.3000      8.0302      2.4691      0.0292     10.9637     71.1784     14.9503
   964.4000      8.0302      2.4776      0.0420     10.4466     67.2867     14.5948
   964.5000      8.0401      2.4953      0.0046      9.3773     61.9500     14.0526
   964.6000      8.0401      2.5219      0.0504      7.7636     55.9057     13.6551
   964.7000      8.0401      2.5415      0.0905      6.5778     50.8955     14.0700
   964.8000      8.0450      2.5452      0.0575      6.3513     49.8857     14.9157
   964.9000      8.0450      2.5441      0.0650      6.4168     52.6970     15.1389
   965.0000      8.0527      2.5437      0.0449      6.4430     56.8690     14.7997
   965.1000      8.0527      2.5378      0.0539      6.7995     59.2851     14.4677
   965.2000      8.0527      2.5201      0.0132      7.8698     58.2122     14.0893
   965.3000      8.0852      2.4977     -0.0151      9.2284     54.1520     13.6030
   965.4000      8.0852      2.4942      0.0011      9.4399     49.8456     13.4733
   965.5000      8.0822      2.5205      0.0501      7.8481     48.7571     13.8066
   965.6000      8.0822      2.5520      0.0571      5.9399     51.8572     13.9956
   965.7000      8.0822      2.5602      0.1010      5.4436     56.2042     13.9986
   965.8000      8.0699      2.5497      0.0481      6.0774     57.8412     14.3595
   965.9000      8.0699      2.5423      0.0804      6.5284     55.0588     15.1488
   966.0000      8.0828      2.5411      0.0845      6.6026     50.3756     15.6873
   966.1000      8.0828      2.5466      0.0722      6.2641     49.3329     15.5322
   966.2000      8.0828      2.5635      0.0889      5.2418     52.7452     15.3006
   966.3000      8.0736      2.5745      0.1182      4.5788     57.1579     15.4933
   966.4000      8.0736      2.5643      0.0956      5.1962     61.9271     15.7708
   966.5000      8.0311      2.5433      0.0830      6.4682     65.6949     15.7496
   966.6000      8.0311      2.5247      0.0815      7.5940     64.2591     15.5284
   966.7000      8.0311      2.5155      0.0215      8.1538     58.6311     15.2130
   966.8000      8.0223      2.5182      0.0834      7.9853     55.4643     14.7773
   966.9000      8.0223      2.5309      0.0659      7.2200     56.1527     14.4952
   967.0000      8.0212      2.5515      0.0750      5.9683     57.6361     14.6891
   967.1000      8.0212      2.5718      0.0936      4.7423     61.0483     15.1377
   967.2000      8.0212      2.5771      0.1294      4.4164     66.0979     15.6216
   967.3000      8.0148      2.5637      0.0775      5.2310     69.0131     16.1901
   967.4000      8.0148      2.5430      0.0900      6.4853     71.9390     16.7156
   967.5000      8.0021      2.5221      0.0782      7.7545     76.7714     16.8841
   967.6000      8.0021      2.4965      0.0323      9.3014     77.5228     16.5078
   967.7000      8.0021      2.4622     -0.0011     11.3808     73.5234     15.9786
   967.8000      8.0066      2.4249     -0.0314     13.6446     71.1915     15.8344
   967.9000      8.0066      2.4078     -0.1180     14.6774     71.7934     16.0071
   968.0000      8.0457      2.4253     -0.0334     13.6206     73.8222     16.2172
   968.1000      8.0457      2.4512      0.0292     12.0463     76.6339     16.4972
   968.2000      8.0457      2.4554      0.0109     11.7919     76.9664     16.7827
   968.3000      8.0605      2.4385      0.0179     12.8192     73.8031     17.0106
   968.4000      8.0605      2.4216     -0.0170     13.8443     75.1088     17.4364
   968.5000      8.0775      2.4254     -0.0096     13.6118     83.4156     17.7690
   968.6000      8.0775      2.4507      0.0481     12.0761     88.8470     17.7844
   968.7000      8.0775      2.4751      0.0918     10.6007     88.5751     17.9478
   968.8000      8.0812      2.4833      0.0403     10.1035     88.3375     18.2153
   968.9000      8.0812      2.4878      0.0074      9.8333     90.6187     18.4909
   969.0000      8.0945      2.4976      0.0517      9.2364     96.4454     19.0808
   969.1000      8.0945      2.5075      0.0656      8.6363    104.3254     19.5568
   969.2000      8.0945      2.5231      0.0637      7.6909    106.2106     19.2438
   969.3000      8.0798      2.5481      0.1511      6.1750    100.0310     18.7403
   969.4000      8.0798      2.5570      0.1714      5.6352     94.1711     18.7815
   969.5000      8.0403      2.5299      0.0924      7.2770     94.2027     19.0609
