~Version Information
VERS.                      2.0: CWLS Log ASCII Standard - VERSION 2.0
WRAP.                       NO: One line per depth step
~Well Information Block
STRT.FT               264.2500: 
STOP.FT              1134.7500: 
STEP.FT                 0.2500: 
NULL.                -999.2500: 
COMP.          Pioneer Natural Resources: COMPANY
WELL.          Black Cat 13-32 Tr: WELL
FLD.           Purgatoire River: FIELD
LOC.           1679' FSL & 1150' FWL--: LOCATION
CNTY.               Las Animas: COUNTY
SRVC.                Patterson: SERVICE COMPANY
DATE.          Tue Mar 07 10:58:06 2006: LOG DATE
UWI.           05 071 08721 00: UNIQUE WELL ID
STAT.                 Colorado: STATE
~Curve Information Block
DEPT.FT            0 000 00 00: Depth
SN.Ohm-m                      : IEL Short Normal
SP.mV                         : IEL Spontaneous Potential
DIR.Ohm-m                     : IEL Induction Resistivity
GR.GAPI                       : Gamma Ray
~Parameter Information Block
~A  Depth        SN          SP         DIR          GR     
# ...
   733.2500    595.4568   -351.8182     24.3805    126.5849
   733.5000    596.2251   -347.6048     25.5858    120.0991
   733.7500    596.4191   -347.8934     26.9727    115.5614
   734.0000    596.4550   -351.9788     28.4769    108.8549
   734.2500    596.4449   -358.5217     29.9816    104.5664
   734.5000    596.3538   -365.7895     31.3042     98.4799
   734.7500    595.9143   -371.9981     32.2557     94.8759
   735.0000    594.2973   -375.6787     32.7592     90.8442
   735.2500    589.7953   -375.9767     32.9172     89.3261
   735.5000    580.4702   -372.8351     32.9465     88.6245
   735.7500    566.5859   -367.0168     33.0431     88.9347
   736.0000    552.9643   -359.9699     33.2895     90.2672
   736.2500    547.0196   -353.5515     33.6452     91.5913
   736.5000    552.0518   -349.6734     33.9921     93.7011
   736.7500    562.8641   -349.9187     34.1993     94.7944
   737.0000    568.9821   -355.2175     34.1770     95.5784
   737.2500    562.1345   -365.6532     33.8991     95.5564
   737.5000    542.1039   -380.4492     33.3870     95.0876
   737.7500    517.9394   -398.1438     32.6775     94.9270
   738.0000    501.6967   -416.9020     31.8054     96.1325
   738.2500    497.4924   -434.8779     30.8072     98.6508
   738.5000    498.3661   -450.5387     29.7318    105.5176
   738.7500    496.3831   -462.8720     28.6386    111.6966
   739.0000    492.0916   -471.4473     27.5829    121.5972
   739.2500    491.0913   -476.3615     26.6010    127.4850
   739.5000    495.9660   -478.0978     25.7053    133.8720
   739.7500    505.2882   -477.3526     24.8904    136.2278
   740.0000    517.2333   -474.8680     24.1470    137.3410
   740.2500    531.0806   -471.2945     23.4710    136.9978
   740.5000    546.4134   -467.0887     22.8667    135.5482
   740.7500    562.1210   -462.4490     22.3418    134.0948
   741.0000    575.8973   -457.3033     21.9010    131.3615
   741.2500    585.0219   -451.3397     21.5392    129.5011
   741.5000    587.5872   -444.0774     21.2385    127.5710
   741.7500    582.8304   -434.9895     20.9717    127.2969
   742.0000    571.1376   -423.6546     20.7106    128.4229
   742.2500    554.3109   -409.9101     20.4365    129.8260
   742.5000    535.1107   -393.9903     20.1452    132.3150
   742.7500    516.8240   -376.6194     19.8436    134.1710
   743.0000    504.5420   -359.0198     19.5445    137.2377
   743.2500    504.7262   -342.8163     19.2619    139.1016
   743.5000    518.9233   -329.8345     19.0100    140.2126
   743.7500    538.1411   -321.8123     18.8004    138.9590
   744.0000    547.0395   -320.0800     18.6406    133.7136
   744.2500    535.1543   -325.2833     18.5319    128.7565
   744.5000    505.3705   -337.2264     18.4694    121.5044
   744.7500    473.2954   -354.8787     18.4432    117.9748
   745.0000    456.4735   -376.5570     18.4373    115.3302
   745.2500    461.3688   -400.2345     18.4299    114.9676
   745.5000    481.6353   -423.8967     18.3957    115.2326
   745.7500    507.9890   -445.8550     18.3135    115.3542
   746.0000    535.0672   -464.9478     18.1746    115.4558
   746.2500    559.5107   -480.6002     17.9867    115.8683
   746.5000    577.9756   -492.7582     17.7698    117.1181
   746.7500    589.0048   -501.7401     17.5450    117.8120
   747.0000    594.0795   -508.0663     17.3248    117.6110
   747.2500    595.8672   -512.3139     17.1072    116.7126
   747.5000    596.3338   -515.0180     16.8770    115.3591
   747.7500    596.3739   -516.6306     16.6137    114.9881
   748.0000    596.1078   -517.5145     16.3016    115.1227
   748.2500    595.0626   -517.9591     15.9379    115.3970
   748.5000    592.1526   -518.1953     15.5341    116.3077
   748.7500    586.1252   -518.4075     15.1107    117.7080
   749.0000    577.1507   -518.7374     14.6912    121.1646
   749.2500    568.3644   -519.2725     14.2972    123.7223
   749.5000    564.6234   -520.0475     13.9463    126.2327
   749.7500    568.3644   -521.0466     13.6489    126.4455
   750.0000    577.1507   -522.2055     13.4067    124.9693
   750.2500    586.1252   -523.4250     13.2121    123.5043
   750.5000    592.1526   -524.5844     13.0520    121.6022
   750.7500    595.0626   -525.5538     12.9135    120.7065
   751.0000    596.1078   -526.2053     12.7904    119.7868
   751.2500    596.3918   -526.4211     12.6869    119.4621
   751.5000    596.4421   -526.1024     12.6166    119.8077
   751.7500    596.4045   -525.1784     12.5973    120.7591
   752.0000    596.1721   -523.6177     12.6433    122.7769
   752.2500    595.3170   -521.4392     12.7589    123.8674
   752.5000    592.9363   -518.7184     12.9377    124.2455
   752.7500    588.0050   -515.5861     13.1679    123.6627
   753.0000    580.6627   -512.2149     13.4396    122.3246
   753.2500    573.4744   -508.7993     13.7491    121.6261
   753.5000    570.4138   -505.5278     14.0980    121.1600
   753.7500    573.4744   -502.5574     14.4914    121.0872
   754.0000    580.6627   -499.9969     14.9382    120.9032
   754.2500    588.0050   -497.9016     15.4525    120.4591
   754.5000    592.9363   -496.2783     16.0522    118.9080
   754.7500    595.3170   -495.0999     16.7525    117.2299
   755.0000    596.1721   -494.3215     17.5570    114.0825
   755.2500    596.4045   -493.8936     18.4505    111.8948
   755.5000    596.4528   -493.7681     19.4011    108.9850
   755.7500    596.4615   -493.8977     20.3703    107.4470
   756.0000    596.4615   -494.2286     21.3186    105.6719
   756.2500    596.4615   -494.6942     22.1962    104.6274
   756.5000    596.4615   -495.2119     22.9203    102.9190
   756.7500    596.4615   -495.6844     23.3714    101.7853
   757.0000    596.4615   -496.0085     23.4362    101.0538
   757.2500    596.4615   -496.0875     23.0801    101.8984
   757.5000    596.4615   -495.8411     22.3848    105.4160
   757.7500    596.4615   -495.2108     21.5080    108.6369
   758.0000    596.4615   -494.1626     20.6000    113.1778
   758.2500    596.4615   -492.6871     19.7483    115.4311
   758.5000    596.4615   -490.8001     18.9723    117.8209
   758.7500    596.4615   -488.5513     18.2525    119.2509
   759.0000    596.4536   -486.0367     17.5624    121.7274
   759.2500    596.3755   -483.4111     16.8878    123.5513
   759.5000    595.9387   -480.8903     16.2316    126.2853
   759.7500    594.0167   -478.7330     15.6086    128.1977
   760.0000    587.3458   -477.2002     15.0400    131.6713
   760.2500    569.0548   -476.4981     14.5473    134.4960
   760.5000    529.7365   -476.7212     14.1474    139.1877
   760.7500    464.0969   -477.8140     13.8476    142.3205
   761.0000    380.9257   -479.5698     13.6441    146.2390
   761.2500    305.5461   -481.6694     13.5229    147.5764
   761.5000    266.7438   -483.7485     13.4644    146.5990
   761.7500    277.5657   -485.4742     13.4491    144.1608
   762.0000    328.8937   -486.6046     13.4626    139.6117
   762.2500    399.7133   -487.0159     13.4969    137.0649
   762.5000    470.0610   -486.6920     13.5516    134.8551
   762.7500    526.7001   -485.6856     13.6319    134.5980
   763.0000    564.1664   -484.0687     13.7478    136.1624
   763.2500    584.2057   -481.8853     13.9100    138.3559
   763.5000    592.7194   -479.1141     14.1249    142.3468
   763.7500    595.5551   -475.6501     14.3885    144.6928
   764.0000    596.2908   -471.3075     14.6838    146.9971
   764.2500    596.4362   -465.8313     14.9849    147.7411
   764.5000    596.4615   -458.9322     15.2684    147.7875
   764.7500    596.4615   -450.3398     15.5243    146.9777
   765.0000    596.4382   -439.8702     15.7595    144.2795
   765.2500    596.3096   -427.4998     15.9922    141.6572
   765.5000    595.6836   -413.4343     16.2424    137.4515
   765.7500    593.3340   -398.1533     16.5240    135.2464
   766.0000    586.6157   -382.4091     16.8389    133.7430
   766.2500    571.8669   -367.1681     17.1699    133.8030
   766.5000    546.8828   -353.4872     17.4762    134.4418
