~Version Information
VERS.                      2.0: CWLS Log ASCII Standard - VERSION 2.0
WRAP.                       NO: One line per depth step
~Well Information Block
STRT.FT                10.0000: 
STOP.FT               715.0000: 
STEP.FT                 0.1000: 
NULL.                -999.2500: 
COMP.          Pioneer Natural Resources: COMPANY
WELL.           Belvedere 14-7: WELL
FLD.           Purgatorie River: FIELD
LOC.           786' FSL & 1283' FWL: LOCATION
PROV.                 Colorado: PROVINCE
CNTY.               Las Animas: COUNTRY
SRVC.                Patterson: SERVICE COMPANY
DATE.          Mon Nov 28 07:30:54 2005: LOG DATE
UWI.           05-071-08557               : UNIQUE WELL ID
~Curve Information Block
DEPT.FT            0 000 00 00: Depth
DCAL.in                       : CDL Caliper
RHOB.g/cc                     : CDL Bulk Density
RHOC.g/cc                     : CDL Density Correction
DPOR.pu                       : CDL Density Porosity
GR.GAPI                       : Gamma Ray
NPOR.pu                       : Neutron Porosity
~Parameter Information Block
~A  Depth       DCAL        RHOB        RHOC        DPOR         GR         NPOR    
# ...
   605.2000      7.9537      2.5328     -0.0363      7.1041     75.8880     22.9318
   605.3000      7.9645      2.5318     -0.0218      7.1654     75.9834     22.7231
   605.4000      7.9645      2.5267      0.0396      7.4705     76.4085     22.6884
   605.5000      7.9619      2.5037     -0.0686      8.8689     76.3576     22.6932
   605.6000      7.9619      2.4790     -0.0230     10.3649     73.3818     22.4632
   605.7000      7.9619      2.4715     -0.0688     10.8172     68.8792     21.9161
   605.8000      7.9680      2.4839     -0.0241     10.0653     67.2029     21.4151
   605.9000      7.9680      2.5038      0.0060      8.8612     69.6259     21.3868
   606.0000      7.9661      2.5130      0.0156      8.3013     74.0513     21.5501
   606.1000      7.9661      2.5025      0.0410      8.9385     77.4167     21.7630
   606.2000      7.9661      2.4821     -0.0093     10.1758     78.0742     22.3285
   606.3000      7.9671      2.4707      0.0314     10.8663     78.2906     23.1291
   606.4000      7.9671      2.4694      0.0225     10.9442     80.2345     23.5975
   606.5000      7.9632      2.4714      0.0193     10.8271     81.8496     23.6315
   606.6000      7.9632      2.4823      0.0116     10.1619     80.8171     23.7554
   606.7000      7.9632      2.5016      0.0603      8.9967     77.0586     23.8754
   606.8000      7.9693      2.5161      0.0169      8.1158     71.5944     23.4641
   606.9000      7.9693      2.5191      0.0309      7.9363     67.7318     22.8590
   607.0000      7.9666      2.5098      0.0181      8.4974     69.9122     22.6849
   607.1000      7.9666      2.4951     -0.0081      9.3872     76.7273     22.9102
   607.2000      7.9666      2.4792      0.0408     10.3543     80.1415     23.2000
   607.3000      7.9621      2.4594      0.0141     11.5492     76.8809     23.2920
   607.4000      7.9621      2.4432     -0.0134     12.5341     72.2595     23.1532
   607.5000      7.9611      2.4413     -0.0031     12.6492     70.1729     23.0375
   607.6000      7.9611      2.4499      0.0029     12.1267     69.8709     23.0784
   607.7000      7.9611      2.4545      0.0203     11.8480     70.4362     22.9689
   607.8000      7.9585      2.4504     -0.0163     12.0951     71.3144     22.5885
   607.9000      7.9585      2.4462      0.0084     12.3534     70.9573     22.1269
   608.0000      7.9620      2.4539      0.0062     11.8825     68.5672     21.7806
   608.1000      7.9620      2.4807      0.0588     10.2610     66.5463     21.7382
   608.2000      7.9620      2.5136      0.0511      8.2643     67.8326     21.6601
   608.3000      7.9600      2.5298      0.0821      7.2847     71.0471     21.3336
   608.4000      7.9600      2.5224      0.0422      7.7324     72.8337     21.1247
   608.5000      7.9567      2.5049      0.0588      8.7910     72.6244     21.1600
   608.6000      7.9567      2.4903      0.0347      9.6790     71.8616     21.4823
   608.7000      7.9567      2.4847      0.0085     10.0201     71.2894     22.0264
   608.8000      7.9558      2.4877      0.0387      9.8347     71.0163     22.4036
   608.9000      7.9558      2.4846      0.0371     10.0224     71.7712     22.5620
   609.0000      7.9534      2.4649      0.0085     11.2209     73.0051     22.7509
   609.1000      7.9534      2.4480     -0.0364     12.2442     75.1057     22.9383
   609.2000      7.9534      2.4539      0.0145     11.8864     79.7536     22.9788
   609.3000      7.9583      2.4716      0.0366     10.8118     86.1081     22.8630
   609.4000      7.9583      2.4853      0.0242      9.9802     91.0200     22.6629
   609.5000      7.9593      2.4935      0.0185      9.4820     92.2097     22.5694
   609.6000      7.9593      2.4995      0.0395      9.1207     90.0760     22.7037
   609.7000      7.9593      2.5092     -0.0110      8.5326     88.2103     23.0811
   609.8000      7.9546      2.5260      0.0116      7.5159     88.7551     23.6119
   609.9000      7.9546      2.5355      0.0470      6.9366     90.2868     23.8140
   610.0000      7.9565      2.5203      0.0561      7.8628     91.6628     23.4195
   610.1000      7.9565      2.4897     -0.0470      9.7155     92.1227     22.9918
   610.2000      7.9565      2.4708     -0.0195     10.8613     90.4045     22.8847
   610.3000      7.9604      2.4714     -0.0108     10.8238     86.8859     22.7594
   610.4000      7.9604      2.4841     -0.0219     10.0572     83.3801     22.4019
   610.5000      7.9557      2.5040     -0.0105      8.8461     80.8458     21.9860
   610.6000      7.9557      2.5256      0.0464      7.5414     79.4254     21.8193
   610.7000      7.9557      2.5429      0.0389      6.4931     78.2469     22.0256
   610.8000      7.9474      2.5545      0.0521      5.7862     76.7403     22.2363
   610.9000      7.9474      2.5553      0.0476      5.7365     76.1787     22.2907
   611.0000      7.9496      2.5417      0.0521      6.5620     76.2311     22.4181
   611.1000      7.9496      2.5270      0.0287      7.4546     75.2485     22.5626
   611.2000      7.9496      2.5307      0.0242      7.2311     73.8839     22.4568
   611.3000      7.9445      2.5468      0.0645      6.2536     73.9175     22.0010
   611.4000      7.9445      2.5555      0.0497      5.7265     75.4473     21.3942
   611.5000      7.9474      2.5535      0.0374      5.8506     76.1022     20.9181
   611.6000      7.9474      2.5459      0.0268      6.3079     73.2320     20.6650
   611.7000      7.9474      2.5352     -0.0064      6.9571     70.1717     20.5749
   611.8000      7.9476      2.5283     -0.0284      7.3752     70.8942     20.7962
   611.9000      7.9476      2.5362     -0.0277      6.8971     72.8561     21.3186
   612.0000      7.9654      2.5657     -0.0130      5.1083     74.3597     21.5752
   612.1000      7.9654      2.6136      0.0278      2.2047     75.5663     21.2448
   612.2000      7.9654      2.6589      0.0938     -0.5404     75.2339     20.6264
   612.3000      7.9491      2.6736      0.0959     -1.4329     72.6272     19.9864
   612.4000      7.9491      2.6542      0.0906     -0.2556     68.4630     19.4935
   612.5000      7.9435      2.6244      0.0843      1.5522     64.9933     19.2397
   612.6000      7.9435      2.6037      0.0689      2.8052     63.9377     19.0748
   612.7000      7.9435      2.5907      0.0824      3.5946     64.2536     18.9051
   612.8000      7.9435      2.5773      0.0533      4.4046     64.8996     18.8519
   612.9000      7.9435      2.5619      0.0380      5.3365     66.1093     19.0153
   613.0000      7.9468      2.5453      0.0553      6.3474     66.6142     19.3037
   613.1000      7.9468      2.5279      0.0244      7.3975     64.7457     19.5651
   613.2000      7.9468      2.5140      0.0054      8.2398     62.4831     19.6862
   613.3000      7.9479      2.5072      0.0449      8.6547     62.4369     19.8076
   613.4000      7.9479      2.5050      0.0585      8.7891     64.6476     20.2030
   613.5000      7.9461      2.5044      0.0262      8.8251     67.9991     20.8567
   613.6000      7.9461      2.5025      0.0566      8.9384     71.5492     21.3629
   613.7000      7.9461      2.4963      0.0258      9.3123     72.8416     21.5460
   613.8000      7.9472      2.4846      0.0611     10.0223     71.2631     21.6551
   613.9000      7.9472      2.4693      0.0100     10.9524     71.0488     21.8719
   614.0000      7.9487      2.4604      0.0088     11.4916     74.1581     22.2415
   614.1000      7.9487      2.4595      0.0607     11.5438     77.0741     22.6690
   614.2000      7.9487      2.4590      0.0280     11.5751     76.3272     22.6856
   614.3000      7.9442      2.4627      0.0085     11.3519     72.3519     22.0353
   614.4000      7.9442      2.4792      0.0266     10.3492     67.5743     21.3872
   614.5000      7.9461      2.5026      0.0493      8.9324     65.8022     21.3400
   614.6000      7.9461      2.5134      0.0992      8.2775     68.2174     21.7620
   614.7000      7.9461      2.5045      0.0330      8.8207     72.0886     22.3615
