~Version Information
VERS.                      2.0: CWLS Log ASCII Standard - VERSION 2.0
WRAP.                       NO: One line per depth step
~Well Information Block
STRT.FT                 0.0000: 
STOP.FT               712.5000: 
STEP.FT                 0.2500: 
NULL.                -999.2500: 
COMP.          Pioneer Natural Resources: COMPANY
WELL.                Mia 21-18: WELL
FLD.           Purgatorie River: FIELD
LOC.           1067' FNL & 1824' FWL: LOCATION
PROV.                 Colorado: PROVINCE
CNTY.               Las Animas: COUNTRY
SRVC.                Patterson: SERVICE COMPANY
DATE.          Mon Nov 28 13:12:22 2005: LOG DATE
UWI.           05-071-08559               : UNIQUE WELL ID
~Curve Information Block
DEPT.FT            0 000 00 00: Depth
CCL.                          : Casing Collar Locator
TT3.usec                      : CBL 3' Travel Time
AMP3.mV                       : CBL 3' Amplitude
GR.GAPI                       : Gamma Ray
~Parameter Information Block
~A  Depth       CCL         TT3         AMP3         GR     
# ...
   569.5000      0.0000    396.4797     16.9778    103.0424
   569.7500      0.0000    360.6657     16.8609    101.7019
   570.0000      0.0000    354.8982     16.7332    100.8232
   570.2500      0.0000    392.8067     16.7060     99.5610
   570.5000      0.0000    446.2484     16.9286     97.1508
   570.7500      0.0000    473.2296     17.3468     93.4352
   571.0000      0.0000    474.8924     17.6930     89.0103
   571.2500      0.0000    492.2355     17.8030     84.9453
   571.5000      0.0000    521.8687     17.8212     82.2223
   571.7500      0.0000    508.7566     18.0505     81.0849
   572.0000      0.0000    440.0945     18.6780     80.8514
   572.2500      0.0000    365.1207     19.6572     80.6330
   572.5000      0.0000    321.8366     20.7910     80.4037
   572.7500      0.0000    306.6278     21.8963     81.1756
   573.0000      0.0000    303.1299     22.9328     83.9207
   573.2500      0.0000    302.5223     23.9461     88.3299
   573.5000      0.0000    302.4304     24.7926     92.7000
   573.7500      0.0000    302.5375     25.1012     95.0338
   574.0000      0.0000    302.8140     24.7311     94.3818
   574.2500      0.0000    303.1238     24.0063     91.3504
   574.5000      0.0000    303.2922     23.3392     87.3209
   574.7500      0.0000    303.2599     22.9127     83.2044
   575.0000      0.0000    303.1115     22.7268     79.0823
   575.2500      0.0000    302.9764     22.6764     74.8556
   575.5000      0.0000    302.9196     22.6078     70.7856
   575.7500      0.0000    302.9395     22.4521     67.4359
   576.0000      0.0000    303.0295     22.2556     65.4269
   576.2500      0.0000    303.1754     22.0644     65.2553
   576.5000      0.0000    303.3019     21.8803     67.0363
   576.7500      0.0000    303.3231     21.7070     70.1807
   577.0000      0.0000    303.2581     21.5336     73.4044
   577.2500      0.0000    303.1989     21.3033     75.3940
   577.5000      0.0000    303.1691     20.9919     75.7421
   577.7500      0.0000    303.1391     20.6590     75.1110
   578.0000      0.0000    303.1337     20.3567     74.2768
   578.2500      0.0000    303.1998     20.0928     73.2559
   578.5000      0.0000    303.3192     19.8977     71.6278
   578.7500      0.0000    303.4348     19.7980     69.3262
   579.0000      0.0000    303.5067     19.7461     66.6709
   579.2500      0.0000    303.5099     19.6772     63.9412
   579.5000      0.0000    303.4478     19.6031     61.3723
   579.7500      0.0000    303.3804     19.5781     59.4156
   580.0000      0.0000    303.3678     19.6046     58.6518
   580.2500      0.0000    303.3971     19.6276     59.4131
   580.5000      0.0000    303.4368     19.6123     61.5649
   580.7500      0.0000    303.5189     19.5665     64.7032
   581.0000      0.0000    303.6953     19.4923     68.5844
   581.2500      0.0000    303.9333     19.3927     73.2217
   581.5000      0.0000    304.1046     19.3318     78.4744
   581.7500      0.0000    304.0935     19.4004     83.7875
   582.0000      0.0000    303.8956     19.6185     88.5323
   582.2500      0.0000    303.5982     19.9320     92.3724
   582.5000      0.0000    303.2869     20.2886     95.0757
   582.7500      0.0000    303.0012     20.6634     96.1477
   583.0000      0.0000    302.7638     21.0184     94.9198
   583.2500      0.0000    302.5986     21.2932     90.9434
   583.5000      0.0000    302.5168     21.4644     84.2366
   583.7500      0.0000    302.5061     21.5607     75.3818
   584.0000      0.0000    302.5287     21.6190     65.5152
   584.2500      0.0000    302.5247     21.6853     56.1234
   584.5000      0.0000    302.4527     21.8180     48.6983
   584.7500      0.0000    302.3471     22.0305     44.2909
   585.0000      0.0000    302.2865     22.2634     42.9832
   585.2500      0.0000    302.2875     22.4457     43.7230
   585.5000      0.0000    302.2998     22.5481     44.9581
   585.7500      0.0000    302.3011     22.5689     45.5771
   586.0000      0.0000    302.3149     22.5157     45.2544
   586.2500      0.0000    302.3505     22.4100     44.2518
   586.5000      0.0000    302.3877     22.2896     43.2433
   586.7500      0.0000    302.4021     22.2001     43.0989
   587.0000      0.0000    302.3842     22.1732     44.3997
   587.2500      0.0000    302.3472     22.2197     47.0132
   587.5000      0.0000    302.3170     22.3383     50.1465
   587.7500      0.0000    302.3141     22.4969     52.8078
   588.0000      0.0000    302.3365     22.6259     54.3395
   588.2500      0.0000    302.3529     22.6728     54.7136
   588.5000      0.0000    302.3293     22.6483     54.3368
   588.7500      0.0000    302.2668     22.6114     53.4484
   589.0000      0.0000    302.2027     22.6234     51.8087
   589.2500      0.0000    302.1702     22.6944     49.1874
   589.5000      0.0000    302.1679     22.7742     45.9611
   589.7500      0.0000    302.1903     22.8057     42.9162
   590.0000      0.0000    302.2537     22.7561     40.5989
   590.2500      0.0000    302.3586     22.6055     39.1485
   590.5000      0.0000    302.4714     22.3697     38.6372
   590.7500      0.0000    302.5668     22.1105     39.2979
   591.0000      0.0000    302.6484     21.8816     41.3745
   591.2500      0.0000    302.7061     21.7203     44.8138
   591.5000      0.0000    302.6984     21.6838     49.1149
   591.7500      0.0000    302.6096     21.8068     53.4863
   592.0000      0.0000    302.4890     22.0546     57.0902
   592.2500      0.0000    302.3949     22.3588     59.2151
   592.5000      0.0000    302.3390     22.6513     59.5089
   592.7500      0.0000    302.3052     22.8660     58.1948
   593.0000      0.0000    302.2792     22.9612     56.0116
   593.2500      0.0000    302.2767     22.9437     53.8999
   593.5000      0.0000    302.5341     22.8081     52.6578
   593.7500      0.0000    303.9991     22.3836     52.6209
   594.0000      0.0000    308.4537     21.3153     53.4133
   594.2500      0.0000    316.5959     19.5174     54.0445
   594.5000      0.0000    325.9025     17.7335     53.4887
   594.7500      0.0000    335.6361     16.8250     51.3753
   595.0000      0.0000    356.6200     16.4093     48.2306
   595.2500      0.0000    408.1738     15.5966     45.0453
   595.5000      0.0000    494.7930     14.5466     42.5325
   595.7500      0.0000    588.1360     13.8497     40.7246
   596.0000     -2.0000    648.9583     13.5243     39.3448
   596.2500      2.0000    660.7252     13.3606     38.5947
   596.5000      0.0000    626.8811     13.3258     39.2608
   596.7500      0.0000    561.1581     13.5211     41.7500
   597.0000      0.0000    487.1286     14.1653     45.3185
   597.2500      0.0000    424.0738     15.5595     48.6079
   597.5000      0.0000    377.6693     17.5680     50.7811
   597.7500      0.0000    346.8480     19.1280     51.8871
   598.0000      0.0000    330.3669     19.3326     52.3356
   598.2500      0.0000    330.8440     18.6918     52.4325
   598.5000      0.0000    354.9925     18.1493     52.4795
   598.7500      0.0000    395.2706     17.9253     53.0113
   599.0000      0.0000    416.5143     17.8794     54.5973
   599.2500      0.0000    394.2896     17.9528     57.2204
   599.5000      0.0000    351.0340     18.1115     59.9957
   599.7500      0.0000    320.3783     18.2993     61.8432
   600.0000      0.0000    308.4671     18.5009     62.5062
   600.2500      0.0000    305.6460     18.7302     62.5504
   600.5000      0.0000    305.1548     18.9662     62.3884
   600.7500      0.0000    305.0246     19.1692     61.8847
   601.0000      0.0000    304.9604     19.3200     61.0896
   601.2500      0.0000    304.9166     19.4295     60.6547
   601.5000      0.0000    304.8407     19.5594     61.1179
   601.7500      0.0000    304.6553     19.7865     62.1667
   602.0000      0.0000    304.3292     20.1043     62.9209
   602.2500      0.0000    304.0339     20.3989     62.7732
   602.5000      0.0000    304.3631     20.5458     61.8696
   602.7500      0.0000    307.7079     20.5258     60.8925
