~Version Information
VERS.                      2.0: CWLS Log ASCII Standard - VERSION 2.0
WRAP.                       NO: One line per depth step
~Well Information Block
STRT.FT                -7.7500: 
STOP.FT              1519.0000: 
STEP.FT                 0.2500: 
NULL.                -999.2500: 
COMP.          Pioneer Natural Resources: COMPANY
WELL.          Mow 8-14-33-67 Tr: WELL
FLD.           Purgatorie River: FIELD
LOC.           2258' FNL & 929' FEL--: LOCATION
CNTY.               Las Animas: COUNTY
SRVC.          Patterson Wireline: SERVICE COMPANY
DATE.          Thu Feb 02 10:06:28 2006: LOG DATE
UWI.           05 071 08684 00: UNIQUE WELL ID
STAT.                       CO: STATE
~Curve Information Block
DEPT.FT            0 000 00 00: Depth
MINMK.                        : Magnetic Mark Ticks
CCL.                          : Casing Collar Locator
TT3.usec                      : CBL 3' Travel Time
AMP3.mV                       : CBL 3' Amplitude
GR.GAPI                       : Gamma Ray
~Parameter Information Block
~A  Depth      MINMK        CCL         TT3         AMP3         GR     
    -7.7500   -999.2500   -999.2500   -999.2500   -999.2500     70.8527
    -7.5000   -999.2500   -999.2500   -999.2500   -999.2500     68.1943
    -7.2500   -999.2500   -999.2500   -999.2500   -999.2500     66.8424
    -7.0000   -999.2500   -999.2500   -999.2500   -999.2500     67.4903
    -6.7500   -999.2500   -999.2500   -999.2500   -999.2500     70.1244
    -6.5000   -999.2500   -999.2500   -999.2500   -999.2500     73.8063
    -6.2500   -999.2500   -999.2500   -999.2500   -999.2500     77.3180
    -6.0000   -999.2500   -999.2500   -999.2500   -999.2500     79.6843
    -5.7500   -999.2500   -999.2500   -999.2500   -999.2500     80.1515
    -5.5000   -999.2500   -999.2500   -999.2500   -999.2500     78.3558
    -5.2500   -999.2500   -999.2500   -999.2500   -999.2500     74.7158
    -5.0000   -999.2500   -999.2500   -999.2500   -999.2500     70.3000
    -4.7500   -999.2500   -999.2500   -999.2500   -999.2500     66.2993
    -4.5000   -999.2500   -999.2500   -999.2500   -999.2500     63.7255
    -4.2500   -999.2500   -999.2500   -999.2500   -999.2500     63.1538
    -4.0000   -999.2500   -999.2500   -999.2500   -999.2500     64.3748
    -3.7500   -999.2500   -999.2500   -999.2500   -999.2500     66.5692
    -3.5000   -999.2500   -999.2500   -999.2500   -999.2500     68.9874
    -3.2500   -999.2500   -999.2500   -999.2500   -999.2500     71.3013
    -3.0000   -999.2500   -999.2500   1161.0000      0.9288     73.4041
    -2.7500   -999.2500   -999.2500   1161.0000      0.9350     75.0904
    -2.5000   -999.2500   -999.2500   1161.0000      0.9562     75.8958
    -2.2500   -999.2500   -999.2500   1161.0000      0.9860     75.2523
    -2.0000   -999.2500   -999.2500   1161.0000      1.0113     72.8710
    -1.7500   -999.2500   -999.2500   1161.0000      1.0211     68.9483
    -1.5000   -999.2500   -999.2500   1161.0000      1.0151     64.1363
    -1.2500   -999.2500   -999.2500   1161.0000      1.0023     59.2999
    -1.0000   -999.2500   -999.2500   1161.0000      0.9906     54.8680
    -0.7500   -999.2500   -999.2500   1161.0000      0.9814     50.3219
    -0.5000   -999.2500   -999.2500   1161.0000      0.9713     44.7657
    -0.2500   -999.2500   -999.2500   1161.0000      0.9583     38.1430
     0.0000   -999.2500   -999.2500   1161.0000      0.9437     31.6210
     0.2500   -999.2500   -999.2500   1161.0000      0.9307     26.8215
     0.5000   -999.2500   -999.2500   1161.0000      0.9217     24.9070
     0.7500   -999.2500   -999.2500   1161.0000      0.9168     26.3044
     1.0000   -999.2500   -999.2500   1161.0000      0.9131     38.1236
     1.2500   -999.2500   -999.2500   1161.0000      0.9120     46.6291
     1.5000   -999.2500   -999.2500   1161.0000      0.9121     54.4001
     1.7500   -999.2500   -999.2500   1161.0000      0.9156     59.6799
     2.0000   -999.2500   -999.2500   1161.0000      0.9238     62.1126
     2.2500   -999.2500      0.0000   1161.0000      0.9349     62.8107
     2.5000   -999.2500      0.0000   1161.0000      0.9444     63.1909
     2.7500   -999.2500      0.0000   1160.9773      0.9480     63.7451
     3.0000      0.0000      0.0000   1160.8496      0.9448     63.9362
     3.2500      0.0000      0.0000   1160.2328      0.9388     63.2227
     3.5000      0.0000      0.0000   1157.9235      0.9378     62.0369
     3.7500      0.0000      0.0000   1151.3706      0.9480     61.6438
     4.0000      0.0000      0.0000   1137.2246      0.9696     63.0865
     4.2500      0.0000      0.0000   1114.1438      1.0013     66.4421
     4.5000      0.0000      0.0000   1085.4419      1.0604     71.1150
     4.7500      0.0000      0.0000   1056.3517      1.2604     76.3942
     5.0000      0.0000      0.0000   1026.0608      1.9996     81.3444
     5.2500      0.0000      0.0000    983.2643      4.2500     84.6324
     5.5000      0.0000      0.0000    911.5680      9.6174     85.2701
     5.7500      0.0000      0.0000    801.4158     19.5827     83.5986
     6.0000      0.0000      0.0000    660.9313     33.9751     81.1022
     6.2500      0.0000      0.0000    516.5825     50.1395     79.2542
     6.5000      0.0000      0.0000    398.6979     64.2507     78.6395
     6.7500      0.0000      0.0000    322.7674     73.8199     78.8032
     7.0000      0.0000      0.0000    284.3528     78.8603     78.7480
     7.2500      0.0000      0.0000    269.1146     80.9362     77.8422
     7.5000      0.0000      0.0000    264.3869     81.6427     76.2293
     7.7500      0.0000      0.0000    263.2477     81.9070     74.2632
     8.0000      0.0000      0.0000    263.0321     82.0793     72.0362
     8.2500      0.0000      0.0000    263.0031     82.2328     69.7699
     8.5000      0.0000      0.0000    262.9989     82.3643     68.1501
     8.7500      0.0000      0.0000    262.9953     82.4727     67.7474
     9.0000      0.0000      0.0000    262.9962     82.5637     68.2229
     9.2500      0.0000      0.0000    263.0017     82.6385     68.4006
     9.5000      0.0000      0.0000    263.0094     82.6829     67.2581
     9.7500      0.0000      0.0000    263.0178     82.6742     64.8352
    10.0000      0.0000      0.0000    263.0277     82.6061     62.0845
    10.2500      0.0000      0.0000    263.0411     82.5057     59.8932
    10.5000      0.0000      0.0000    263.0577     82.4162     58.3099
    10.7500      0.0000      0.0000    263.0746     82.3612     56.5957
    11.0000      0.0000      0.0000    263.0867     82.3310     53.9476
    11.2500      0.0000      0.0000    263.0909     82.2805     50.2686
    11.5000      0.0000      0.0000    263.0914     82.1058     46.2952
    11.7500      0.0000      0.0000    263.1132     81.6077     43.0773
    12.0000      0.0000      0.0000    263.2254     80.5394     41.3632
    12.2500      0.0000      0.0000    263.5504     78.7561     41.2421
    12.5000      0.0000      0.0000    264.2146     76.2857     42.2053
    12.7500      0.0000      0.0000    265.2397     73.1963     43.7135
    13.0000      0.0000      0.0000    266.4753     69.5342     45.7883
    13.2500      0.0000      0.0000    267.6649     65.5771     48.6831
    13.5000      0.0000      0.0000    268.5977     61.9995     51.8297
    13.7500      0.0000      0.0000    269.2031     59.4940     53.7398
    14.0000      0.0000      0.0000    269.5302     58.2410     53.4029
    14.2500      0.0000     -2.0000    269.6728     57.9069     51.3440
    14.5000      0.0000      2.0000    269.7046     58.1130     49.0318
    14.7500      0.0000      0.0000    269.6474     58.8444     47.7021
    15.0000      0.0000      0.0000    269.4684     60.4409     47.8594
    15.2500      0.0000      0.0000    269.1005     63.1562     49.3042
    15.5000      0.0000      0.0000    268.4783     66.6676     51.2887
    15.7500      0.0000      0.0000    267.5846     70.1685     53.0190
    16.0000      0.0000      0.0000    266.4909     73.0906     54.2646
    16.2500      0.0000      0.0000    265.3534     75.5216     55.2316
    16.5000      0.0000      0.0000    264.3523     77.7600     55.7892
    16.7500      0.0000      0.0000    263.6110     79.7641     55.3107
    17.0000      0.0000      0.0000    263.1521     81.2638     53.5323
    17.2500      0.0000      0.0000    262.9152     82.1708     51.2197
    17.5000      0.0000      0.0000    262.8118     82.6603     49.8166
    17.7500      0.0000      0.0000    262.7723     82.9595     50.5987
    18.0000      0.0000      0.0000    262.7595     83.1848     53.9757
    18.2500      0.0000      0.0000    262.7587     83.3488     59.2409
    18.5000      0.0000      0.0000    262.7632     83.4375     65.0835
    18.7500      0.0000      0.0000    262.7687     83.4647     70.4518
    19.0000      0.0000      0.0000    262.7733     83.4652     74.7884
    19.2500      0.0000      0.0000    262.7780     83.4667     77.7120
    19.5000      0.0000      0.0000    262.7827     83.4826     78.9859
    19.7500      0.0000      0.0000    262.7843     83.5224     78.7442
    20.0000      0.0000      0.0000    262.7802     83.5884     77.5205
