~Version Information
VERS.                      2.0: CWLS Log ASCII Standard - VERSION 2.0
WRAP.                       NO: One line per depth step
~Well Information Block
STRT.FT               555.0000: 
STOP.FT              2283.0000: 
STEP.FT                 0.2500: 
NULL.                -999.2500: 
COMP.          Pioneer Natural Resources: COMPANY
WELL.          Roadster 41-33 Kv: WELL
FLD.           Purgatoire River: FIELD
LOC.           903' FNL & 248' FEL: LOCATION
PROV.                 Colorado: PROVINCE
CNTY.               Las Animas: COUNTRY
SRVC.                Patterson: SERVICE COMPANY
DATE.          Wed Dec 14 23:52:42 2005: LOG DATE
UWI.           05 071 08615 00: UNIQUE WELL ID
~Curve Information Block
DEPT.FT            0 000 00 00: Depth
SN.Ohm-m                      : IEL Short Normal
SP.mV                         : IEL Spontaneous Potential
DIR.Ohm-m                     : IEL Induction Resistivity
GR.GAPI                       : Gamma Ray
~Parameter Information Block
~A  Depth        SN          SP         DIR          GR     
# ...
   890.0000   2000.0000   2000.0000     12.7216     73.1955
   890.2500   2000.0000   2000.0000     12.4535     78.5971
   890.5000   2000.0000   2000.0000     12.2024     92.7410
   890.7500   2000.0000   2000.0000     11.9710    103.6221
   891.0000   2000.0000   2000.0000     11.7499    118.0877
   891.2500   2000.0000   2000.0000     11.5215    125.4882
   891.5000   2000.0000   2000.0000     11.2638    133.7963
   891.7500   2000.0000   2000.0000     10.9554    138.1934
   892.0000   2000.0000   2000.0000     10.5877    143.3428
   892.2500   2000.0000   2000.0000     10.1737    145.3038
   892.5000   2000.0000   2000.0000      9.7474    144.9232
   892.7500   2000.0000   2000.0000      9.3501    142.2565
   893.0000   2000.0000   2000.0000      9.0147    135.8011
   893.2500   2000.0000   2000.0000      8.7564    131.3517
   893.5000   2000.0000   2000.0000      8.5733    127.2510
   893.7500   2000.0000   2000.0000      8.4539    127.2290
   894.0000   2000.0000   2000.0000      8.3861    131.3303
   894.2500   2000.0000   2000.0000      8.3623    136.1563
   894.5000   2000.0000   2000.0000      8.3790    144.8440
   894.7500   2000.0000   2000.0000      8.4302    150.4483
   895.0000   2000.0000   2000.0000      8.5032    156.4768
   895.2500   2000.0000   2000.0000      8.5798    157.9634
   895.5000   2000.0000   2000.0000      8.6436    156.1108
   895.7500   2000.0000   2000.0000      8.6884    152.8741
   896.0000   2000.0000   2000.0000      8.7204    146.8015
   896.2500   2000.0000   2000.0000      8.7536    142.6584
   896.5000   2000.0000   2000.0000      8.8001    137.0061
   896.7500   2000.0000   2000.0000      8.8644    134.2166
   897.0000   2000.0000   2000.0000      8.9427    132.8196
   897.2500   2000.0000   2000.0000      9.0291    133.9555
   897.5000   2000.0000   2000.0000      9.1202    137.5139
   897.7500   2000.0000   2000.0000      9.2164    140.0470
   898.0000   2000.0000   2000.0000      9.3202    143.0597
   898.2500   2000.0000   2000.0000      9.4320    144.5619
   898.5000   2000.0000   2000.0000      9.5499    146.5027
   898.7500   2000.0000   2000.0000      9.6720    147.7264
   899.0000   2000.0000   2000.0000      9.7991    149.1921
   899.2500   2000.0000   2000.0000      9.9358    149.5613
   899.5000   2000.0000   2000.0000     10.0878    148.6021
   899.7500   2000.0000   2000.0000     10.2588    146.8296
   900.0000   2000.0000   2000.0000     10.4495    142.9822
   900.2500   2000.0000   2000.0000     10.6601    140.2835
   900.5000   2000.0000   2000.0000     10.8938    136.9800
   900.7500   2000.0000   2000.0000     11.1573    135.2844
   901.0000   2000.0000   2000.0000     11.4585    132.8728
   901.2500   2000.0000   2000.0000     11.8028    131.2036
   901.5000   2000.0000   2000.0000     12.1902    129.2113
   901.7500   2000.0000   2000.0000     12.6155    128.6745
   902.0000   2000.0000   2000.0000     13.0718    129.1834
   902.2500   2000.0000   2000.0000     13.5554    130.2265
   902.5000   2000.0000   2000.0000     14.0662    132.7598
   902.7500   2000.0000   2000.0000     14.6047    134.9930
   903.0000   2000.0000   2000.0000     15.1683    138.1204
   903.2500   2000.0000   2000.0000     15.7524    139.1715
   903.5000   2000.0000   2000.0000     16.3558    138.6663
   903.7500   2000.0000   2000.0000     16.9833    137.5112
   904.0000   2000.0000   2000.0000     17.6401    135.9168
   904.2500   2000.0000   2000.0000     18.3200    135.2356
   904.5000   2000.0000   2000.0000     18.9995    134.1965
   904.7500   2000.0000   2000.0000     19.6481    132.8985
   905.0000   2000.0000   2000.0000     20.2511    129.3451
   905.2500   2000.0000   2000.0000     20.8258    125.8695
   905.5000   2000.0000   2000.0000     21.4145    119.4472
   905.7500   2000.0000   2000.0000     22.0631    114.6897
   906.0000   2000.0000   2000.0000     22.8059    107.1282
   906.2500   2000.0000   2000.0000     23.6657    101.8608
   906.5000   2000.0000   2000.0000     24.6582     94.0193
   906.7500   2000.0000   2000.0000     25.7931     89.4295
   907.0000   2000.0000   2000.0000     27.0707     84.8471
   907.2500   2000.0000   2000.0000     28.4782     83.8271
   907.5000   2000.0000   2000.0000     29.9884     84.9801
   907.7500   2000.0000   2000.0000     31.5540     86.6456
   908.0000   2000.0000   2000.0000     33.1022     88.6409
   908.2500   2000.0000   2000.0000     34.5435     88.8391
   908.5000   2000.0000   2000.0000     35.7985     86.9747
   908.7500   2000.0000   2000.0000     36.8323     84.5644
   909.0000   2000.0000   2000.0000     37.6691     80.2754
   909.2500   2000.0000   2000.0000     38.3782     77.5846
   909.5000   2000.0000   2000.0000     39.0402     74.2428
   909.7500   2000.0000   2000.0000     39.7144     72.3784
   910.0000   2000.0000   2000.0000     40.4165     69.8976
   910.2500   2000.0000   2000.0000     41.1167     68.5588
   910.5000   2000.0000   2000.0000     41.7631     67.5302
   910.7500   2000.0000   2000.0000     42.3171     67.6694
   911.0000   2000.0000   2000.0000     42.7754     68.7656
   911.2500   2000.0000   2000.0000     43.1533     69.5735
   911.5000   2000.0000   2000.0000     43.4517     70.0026
   911.7500   2000.0000   2000.0000     43.6469     69.4982
   912.0000   2000.0000   2000.0000     43.7260     67.6068
   912.2500   2000.0000   2000.0000     43.7289     65.7079
   912.5000   2000.0000   2000.0000     43.7426     61.8893
   912.7500   2000.0000   2000.0000     43.8377     58.6508
   913.0000   2000.0000   2000.0000     43.9978     53.0658
   913.2500   2000.0000   2000.0000     44.0949     49.3682
   913.5000   2000.0000   2000.0000     43.9287     44.9761
   913.7500   2000.0000   2000.0000     43.3068     43.3043
   914.0000   2000.0000   2000.0000     42.1143     42.8182
   914.2500   2000.0000   2000.0000     40.3501     43.5678
   914.5000   2000.0000   2000.0000     38.1266     45.7368
   914.7500   2000.0000   2000.0000     35.6423     47.7924
   915.0000   2000.0000   2000.0000     33.1253     52.2947
   915.2500   2000.0000   2000.0000     30.7676     56.7754
   915.5000   2000.0000   2000.0000     28.6795     66.2114
   915.7500   2000.0000   2000.0000     26.8884     73.8914
   916.0000   2000.0000   2000.0000     25.3674     85.5782
   916.2500   2000.0000   2000.0000     24.0712     92.2726
   916.5000   2000.0000   2000.0000     22.9589     99.7699
   916.7500   2000.0000   2000.0000     22.0021    103.4643
   917.0000   2000.0000   2000.0000     21.1829    108.5974
   917.2500   2000.0000   2000.0000     20.4894    112.5449
   917.5000   2000.0000   2000.0000     19.9133    119.7156
   917.7500   2000.0000   2000.0000     19.4490    125.0187
   918.0000   2000.0000   2000.0000     19.0968    132.5279
   918.2500   2000.0000   2000.0000     18.8633    136.3456
   918.5000   2000.0000   2000.0000     18.7603    139.0115
   918.7500   2000.0000   2000.0000     18.8009    138.5031
   919.0000   2000.0000   2000.0000     18.9958    135.0772
   919.2500   2000.0000   2000.0000     19.3519    131.9707
   919.5000   2000.0000   2000.0000     19.8732    127.7474
   919.7500   2000.0000   2000.0000     20.5636    125.8151
   920.0000   2000.0000   2000.0000     21.4269    124.3124
   920.2500   2000.0000   2000.0000     22.4640    123.7703
   920.5000   2000.0000   2000.0000     23.6670    122.1531
   920.7500   2000.0000   2000.0000     25.0169    119.5945
   921.0000   2000.0000   2000.0000     26.4831    112.9943
   921.2500   2000.0000   2000.0000     28.0257    107.5074
   921.5000   2000.0000   2000.0000     29.5992     99.9455
   921.7500   2000.0000   2000.0000     31.1673     96.2734
   922.0000   2000.0000   2000.0000     32.7259     92.7963
   922.2500   2000.0000   2000.0000     34.3142     91.3057
   922.5000   2000.0000   2000.0000     35.9924     89.6505
   922.7500   2000.0000   2000.0000     37.7894     88.7522
   923.0000   2000.0000   2000.0000     39.6568     87.1646
   923.2500   2000.0000   2000.0000     41.4664     85.3931
