~Version Information
VERS.                      2.0: CWLS Log ASCII Standard - VERSION 2.0
WRAP.                       NO: One line per depth step
~Well Information Block
STRT.FT               245.0000: 
STOP.FT              1208.2500: 
STEP.FT                 0.2500: 
NULL.                -999.2500: 
COMP.          Pioneer Natural Resources: COMPANY
WELL.              Davida 34-8: WELL
FLD.           Purgatoire River: FIELD
LOC.           418' FSL & 1923' FEL--: LOCATION
CNTY.               Las Animas: COUNTY
SRVC.                Patterson: SERVICE COMPANY
DATE.          Sat Mar 18 07:00:13 2006: LOG DATE
UWI.           05 071 08722 00: UNIQUE WELL ID
STAT.                 Colorado: STATE
~Curve Information Block
DEPT.FT            0 000 00 00: Depth
GR.GAPI                       : Gamma Ray
DIR.Ohm-m                     : IEL Induction Resistivity
~Parameter Information Block
~A  Depth        GR         DIR     
# ...
   356.5000    115.5959      8.9265
   356.7500    117.4133      8.8459
   357.0000    119.3600      8.7528
   357.2500    120.1007      8.6557
   357.5000    120.6731      8.5650
   357.7500    120.8857      8.4917
   358.0000    121.1314      8.4449
   358.2500    121.3555      8.4291
   358.5000    121.9683      8.4427
   358.7500    122.4854      8.4776
   359.0000    122.8979      8.5223
   359.2500    122.6365      8.5650
   359.5000    121.5308      8.5979
   359.7500    120.7617      8.6184
   360.0000    120.3713      8.6282
   360.2500    120.6747      8.6315
   360.5000    121.2013      8.6333
   360.7500    121.0632      8.6375
   361.0000    119.9336      8.6458
   361.2500    118.9477      8.6578
   361.5000    117.9557      8.6706
   361.7500    117.7608      8.6803
   362.0000    117.5058      8.6828
   362.2500    116.7288      8.6765
   362.5000    114.2259      8.6645
   362.7500    112.1673      8.6542
   363.0000    110.0445      8.6550
   363.2500    109.8592      8.6744
   363.5000    111.2945      8.7157
   363.7500    112.9522      8.7782
   364.0000    115.7333      8.8585
   364.2500    117.3801      8.9519
   364.5000    118.9721      9.0517
   364.7500    119.3554      9.1475
   365.0000    119.2795      9.2246
   365.2500    119.1238      9.2656
   365.5000    119.0701      9.2544
   365.7500    119.1433      9.1806
   366.0000    119.2462      9.0437
   366.2500    119.3432      8.8547
   366.5000    119.9485      8.6352
   366.7500    120.9188      8.4129
   367.0000    123.3634      8.2163
   367.2500    125.6518      8.0688
   367.5000    130.2896      7.9867
   367.7500    134.3446      7.9800
   368.0000    141.5763      8.0547
   368.2500    146.5759      8.2163
   368.5000    153.0876      8.4716
   368.7500    155.9776      8.8273
   369.0000    156.1876      9.2861
   369.2500    152.2630      9.8401
   369.5000    139.5851     10.4638
   369.7500    128.0009     11.1086
   370.0000    110.7169     11.7018
   370.2500    102.0915     12.1547
   370.5000     96.3606     12.3851
   370.7500     97.5723     12.3503
   371.0000    105.1713     12.0687
   371.2500    112.0932     11.6102
   371.5000    121.4601     11.0622
   371.7500    125.6144     10.5007
   372.0000    128.5609      9.9801
   372.2500    129.0584      9.5368
   372.5000    129.0039      9.1965
   372.7500    129.1631      8.9779
   373.0000    130.5559      8.8928
   373.2500    132.0948      8.9447
   373.5000    133.7655      9.1263
   373.7500    133.4805      9.4184
   374.0000    130.4658      9.7910
   374.2500    127.1604     10.2075
   374.5000    121.4624     10.6311
   374.7500    117.8752     11.0295
   375.0000    113.7767     11.3778
   375.2500    112.1352     11.6599
   375.5000    111.0538     11.8699
   375.7500    111.0409     12.0120
   376.0000    112.1902     12.0986
   376.2500    113.8427     12.1464
   376.5000    116.9700     12.1733
   376.7500    118.6083     12.1952
   377.0000    119.1931     12.2248
   377.2500    118.2515     12.2731
   377.5000    115.4799     12.3535
   377.7500    113.1546     12.4846
   378.0000    109.5238     12.6883
   378.2500    107.3703     12.9841
   378.5000    105.2212     13.3817
   378.7500    104.6428     13.8753
   379.0000    104.4190     14.4405
   379.2500    104.1069     15.0339
   379.5000    102.9893     15.5996
   379.7500    102.0335     16.0825
   380.0000    100.7204     16.4461
   380.2500     99.9481     16.6835
   380.5000     98.9182     16.8151
   380.7500     98.5440     16.8771
   381.0000     99.2212     16.9128
   381.2500    100.8696     16.9657
   381.5000    104.9319     17.0731
   381.7500    107.8363     17.2582
   382.0000    109.9157     17.5231
   382.2500    108.2630     17.8502
   382.5000    100.3447     18.2096
   382.7500     92.4774     18.5728
   383.0000     80.2621     18.9244
   383.2500     73.6811     19.2658
   383.5000     67.6244     19.6079
   383.7500     66.0498     19.9563
   384.0000     66.2831     20.3029
   384.2500     67.2890     20.6290
   384.5000     68.7320     20.9166
   384.7500     69.1990     21.1539
   385.0000     69.0263     21.3296
   385.2500     68.5197     21.4260
   385.5000     67.5919     21.4225
   385.7500     66.9307     21.3123
   386.0000     65.6717     21.1166
   386.2500     64.6162     20.8807
   386.5000     63.1088     20.6523
   386.7500     62.5130     20.4575
   387.0000     62.7334     20.2882
   387.2500     63.8848     20.1021
   387.5000     67.5284     19.8341
   387.7500     71.2327     19.4165
   388.0000     78.0664     18.8016
   388.2500     83.0654     17.9820
   388.5000     91.1968     16.9962
   388.7500     97.2336     15.9177
   389.0000    106.8461     14.8327
   389.2500    112.9032     13.8176
   389.5000    120.4930     12.9260
   389.7500    124.7047     12.1867
   390.0000    130.6812     11.6097
   390.2500    134.5509     11.1953
   390.5000    138.9451     10.9406
   390.7500    139.8438     10.8429
   391.0000    136.9408     10.8996
   391.2500    132.1132     11.1057
   391.5000    121.3413     11.4523
   391.7500    112.7018     11.9256
   392.0000     99.4886     12.5081
   392.2500     91.5306     13.1793
   392.5000     82.2162     13.9161
   392.7500     78.5109     14.6894
   393.0000     77.9505     15.4598
   393.2500     81.1103     16.1753
   393.5000     89.8372     16.7768
   393.7500     96.8018     17.2136
   394.0000    106.3438     17.4608
   394.2500    111.0908     17.5291
   394.5000    115.1584     17.4622
   394.7500    115.9538     17.3233
   395.0000    114.9608     17.1782
   395.2500    113.3794     17.0805
   395.5000    110.6611     17.0620
   395.7500    109.2555     17.1287
   396.0000    108.7141     17.2625
   396.2500    109.6382     17.4267
   396.5000    112.4150     17.5763
   396.7500    114.4200     17.6709
   397.0000    116.3735     17.6883
   397.2500    116.7017     17.6298
   397.5000    116.2320     17.5157
   397.7500    115.7905     17.3711
   398.0000    115.2713     17.2111
   398.2500    114.6265     17.0341
   398.5000    112.1642     16.8257
   398.7500    109.4321     16.5698
   399.0000    104.9583     16.2608
   399.2500    102.7909     15.9108
   399.5000    102.0433     15.5491
   399.7500    103.6000     15.2145
   400.0000    109.2887     14.9421
   400.2500    114.9120     14.7529
   400.5000    123.6781     14.6485
   400.7500    127.7470     14.6146
   401.0000    128.8242     14.6298
   401.2500    126.1849     14.6770
   401.5000    119.0685     14.7510
   401.7500    113.5835     14.8602
   402.0000    105.9364     15.0195
   402.2500    101.8158     15.2381
   402.5000     97.8677     15.5104
   402.7500     97.0774     15.8138
   403.0000     98.7589     16.1160
   403.2500    101.3545     16.3844
   403.5000    105.8800     16.5908
   403.7500    108.3203     16.7119
   404.0000    110.5539     16.7315
   404.2500    111.7072     16.6481
   404.5000    114.5633     16.4813
   404.7500    117.6763     16.2668
   405.0000    123.6433     16.0412
   405.2500    127.7061     15.8271
   405.5000    132.4908     15.6300
   405.7500    134.2779     15.4477
   406.0000    134.9383     15.2823
   406.2500    134.5491     15.1448
   406.5000    133.5695     15.0509
   406.7500    132.7351     15.0131
   407.0000    130.6833     15.0372
   407.2500    128.5360     15.1216
   407.5000    124.6423     15.2587
   407.7500    122.3074     15.4363
   408.0000    120.0218     15.6398
   408.2500    119.2238     15.8523
   408.5000    118.4952     16.0554
   408.7500    118.0698     16.2300
   409.0000    117.3870     16.3600
   409.2500    116.9118     16.4330
   409.5000    116.2684     16.4383
   409.7500    115.9131     16.3634
   410.0000    115.5156     16.1965
   410.2500    115.5926     15.9342
   410.5000    117.2840     15.5877
   410.7500    120.0448     15.1817
   411.0000    126.5361     14.7466
   411.2500    131.6701     14.3105
   411.5000    138.9420     13.8963
   411.7500    142.8684     13.5207
   412.0000    147.2083     13.1972
