~Version Information
VERS.                      2.0: CWLS Log ASCII Standard - VERSION 2.0
WRAP.                       NO: One line per depth step
~Well Information Block
STRT.FT               -12.2500: 
STOP.FT              1442.2500: 
STEP.FT                 0.2500: 
NULL.                -999.2500: 
COMP.          Pioneer Natural Resources: COMPANY
WELL.              Lucky 21-36: WELL
FLD.           Purgatorie River: FIELD
LOC.           799' FNL & 1578' FWL--: LOCATION
CDN. :
PROV. :
UWI. :
STAT. :
CNTY. :
CTRY. :
API. :
COMP. :
WELL. :
FLD. :
LOC. :
DATE. :
SRVC. :
CNTY.               Las Animas: COUNTY
SRVC.          Superior Well Services: SERVICE COMPANY
DATE.          Mon Jul 21 12-16-21 2008: LOG DATE
UWI.           05 071 08456 00: UNIQUE WELL ID
STAT.                       CO: STATE
~Curve Information Block
DEPT.FT            0 000 00 00: Depth
CCL.                          : Casing Collar Locator
TT3.usec                      : CBL 3' Travel Time
AMP3.mV                       : CBL 3' Amplitude
GR.GAPI                       : Gamma Ray
~Parameter Information Block
~A  Depth       CCL         TT3         AMP3         GR     
# ...
   255.7500      0.0000    288.7990     41.2126     73.6509
   256.0000      0.0000    295.2877     40.9179     76.8768
   256.2500      0.0000    299.7647     40.6318     82.0955
   256.5000      0.0000    302.1890     40.3396     88.1854
   256.7500      0.0000    303.2400     40.0548     94.2761
   257.0000      0.0000    303.6326     39.8352     99.4174
   257.2500      0.0000    303.7847     39.7408    102.4622
   257.5000      0.0000    303.8528     39.7790    102.5958
   257.7500      0.0000    303.8733     39.8941     99.9085
   258.0000      0.0000    303.8548     40.0022     95.3605
   258.2500      0.0000    303.8104     40.0286     90.3341
   258.5000      0.0000    303.7603     39.9262     86.2742
   258.7500      0.0000    303.7280     39.6823     84.2763
   259.0000      0.0000    303.7328     39.3136     84.3878
   259.2500      0.0000    303.7787     38.8487     85.2942
   259.5000      0.0000    303.8508     38.3190     85.2449
   259.7500      0.0000    303.9264     37.7710     83.5966
   260.0000      0.0000    303.9915     37.2701     81.3096
   260.2500      0.0000    304.0469     36.8668     79.8762
   260.5000      0.0000    304.0978     36.5547     79.8750
   260.7500      0.0000    304.1468     36.2804     80.5758
   261.0000      0.0000    304.1988     35.9913     80.8017
   261.2500      0.0000    304.2680     35.6567     80.0881
   261.5000      0.0000    304.3698     35.2563     79.0759
   261.7500      0.0000    304.5051     34.7846     78.8995
   262.0000      0.0000    304.6556     34.2725     80.1244
   262.2500      0.0000    304.7982     33.7770     82.0170
   262.5000      0.0000    304.9265     33.3274     82.8886
   262.7500      0.0000    305.0575     32.8916     81.6377
   263.0000      0.0000    305.2125     32.4118     79.0659
   263.2500      0.0000    305.3901     31.8736     77.1331
   263.5000      0.0000    305.5622     31.3286     76.8216
   263.7500      0.0000    305.6955     30.8551     77.2340
   264.0000      0.0000    305.7726     30.5054     76.7753
   264.2500      0.0000    305.7957     30.2885     74.7261
   264.5000      0.0000    305.7752     30.1860     71.6655
   264.7500      0.0000    305.7251     30.1681     68.7865
   265.0000      0.0000    305.6651     30.1954     66.9646
   265.2500      0.0000    305.6229     30.2193     66.3221
   265.5000      0.0000    305.6230     30.1960     66.5065
   265.7500      0.0000    305.6704     30.1038     67.3179
   266.0000      0.0000    305.7459     29.9493     69.0313
   266.2500     -2.0000    305.8166     29.7663     72.0104
   266.5000      0.0000    305.8505     29.6092     76.0049
   266.7500      2.0000    305.8310     29.5324     80.0110
   267.0000      0.0000    305.7679     29.5616     82.9880
   267.2500      0.0000    305.6931     29.6804     84.6769
   267.5000      0.0000    305.6374     29.8414     85.6352
   267.7500      0.0000    305.6132     29.9889     86.5094
   268.0000      2.0000    305.6152     30.0814     87.3700
   268.2500      0.0000    305.6300     30.1080     87.7990
   268.5000      0.0000    305.6435     30.0921     87.5764
   268.7500      0.0000    305.6475     30.0644     86.9998
   269.0000      0.0000    305.6479     30.0273     86.3409
   269.2500      0.0000    305.6606     29.9578     85.3669
   269.5000      0.0000    305.6918     29.8550     83.7929
   269.7500      0.0000    305.7272     29.7634     81.9558
   270.0000      0.0000    305.7453     29.7327     80.5527
   270.2500      0.0000    305.7412     29.7608     79.6691
   270.5000      0.0000    305.7315     29.7946     78.5175
   270.7500      0.0000    305.7367     29.7807     76.3991
   271.0000      0.0000    305.7625     29.7064     73.6279
   271.2500      0.0000    305.7959     29.6045     71.2402
   271.5000      0.0000    305.8130     29.5350     69.9619
   271.7500      0.0000    305.7942     29.5521     69.5528
   272.0000      0.0000    305.7367     29.6671     69.1445
   272.2500      0.0000    305.6562     29.8425     68.4120
   272.5000      0.0000    305.5700     30.0338     68.2379
   272.7500      0.0000    305.4855     30.2233     69.5507
   273.0000      0.0000    305.4073     30.4080     71.5976
   273.2500      0.0000    305.3495     30.5737     72.3542
   273.5000      0.0000    305.3255     30.7104     70.8652
   273.7500      0.0000    305.3270     30.8449     68.2715
   274.0000      0.0000    305.3231     31.0349     66.1376
   274.2500      0.0000    305.2829     31.3200     64.6285
   274.5000      0.0000    305.1984     31.6861     62.8955
   274.7500      0.0000    305.0849     32.0756     60.6053
   275.0000      0.0000    304.9654     32.4271     58.3880
   275.2500      0.0000    304.8537     32.7064     57.0100
   275.5000      0.0000    304.7507     32.9073     56.7029
   275.7500      0.0000    304.6556     33.0324     57.3267
   276.0000      0.0000    304.5802     33.0796     58.7442
   276.2500      0.0000    304.5472     33.0440     60.9079
   276.5000      0.0000    304.5718     32.9293     63.7652
   276.7500      0.0000    304.6458     32.7553     67.1055
   277.0000      0.0000    304.7408     32.5597     70.5405
   277.2500      0.0000    304.8247     32.3893     73.8391
   277.5000      0.0000    304.8762     32.2805     77.1977
   277.7500      0.0000    304.8889     32.2433     80.7939
   278.0000      0.0000    304.8688     32.2628     84.0887
   278.2500      0.0000    304.8308     32.3091     85.9951
   278.5000      0.0000    304.7945     32.3417     85.7796
   278.7500      0.0000    304.7807     32.3192     83.5334
   279.0000      0.0000    304.8023     32.2274     79.9146
   279.2500      0.0000    304.8564     32.1037     75.7290
   279.5000      0.0000    304.9238     32.0196     71.5930
   279.7500      0.0000    304.9853     32.0326     67.7041
   280.0000      0.0000    305.0419     32.1552     63.9148
   280.2500      0.0000    305.1764     32.3494     59.9481
   280.5000      0.0000    305.6616     32.5232     55.5401
   280.7500      0.0000    307.0658     32.5273     50.8045
   281.0000      0.0000    310.0617     32.2053     46.6741
   281.2500      0.0000    314.6845     31.5085     44.5531
   281.5000      0.0000    319.5736     30.5623     45.2433
   281.7500      0.0000    322.4614     29.5654     48.3335
   282.0000      0.0000    322.0195     28.6339     52.6118
   282.2500      0.0000    319.0567     27.8153     56.8612
   282.5000      0.0000    315.5818     27.1975     60.3851
   282.7500      0.0000    313.0342     26.8746     63.1305
   283.0000      2.0000    311.6613     26.8112     65.4329
   283.2500     -2.0000    311.0776     26.8370     67.5269
   283.5000     -2.0000    310.9165     26.7724     69.3650
   283.7500      0.0000    311.0567     26.5512     70.9658
   284.0000      0.0000    311.5770     26.2782     72.8113
   284.2500      0.0000    312.5818     26.1973     75.7530
   284.5000      0.0000    313.8814     26.5452     80.3084
   284.7500      0.0000    314.7682     27.3924     85.8725
   285.0000      0.0000    314.3369     28.6387     90.7689
   285.2500      0.0000    312.3053     30.1003     93.3591
   285.5000      0.0000    309.4117     31.5347     93.0683
   285.7500      0.0000    306.8047     32.6750     90.3500
   286.0000      0.0000    305.1442     33.3693     86.2068
   286.2500      0.0000    304.3719     33.6768     82.1328
   286.5000      0.0000    304.1061     33.7896     79.9176
   286.7500      0.0000    304.0313     33.8807     80.6028
   287.0000      0.0000    304.0034     34.0221     83.6119
   287.2500      0.0000    303.9856     34.1965     87.2746
   287.5000      0.0000    303.9768     34.3526     90.1024
   287.7500      0.0000    303.9780     34.4572     91.4082
   288.0000      0.0000    303.9876     34.5076     91.1713
   288.2500      0.0000    303.9985     34.5167     89.7825
   288.5000      0.0000    304.0017     34.4995     87.8470
   288.7500      0.0000    303.9940     34.4678     86.0355
   289.0000      0.0000    303.9814     34.4234     84.9333
