~Version Information
VERS.                      2.0: CWLS Log ASCII Standard - VERSION 2.0
WRAP.                       NO: One line per depth step
~Well Information Block
STRT.FT                -6.7500: 
STOP.FT              2256.0000: 
STEP.FT                 0.2500: 
NULL.                -999.2500: 
COMP.          Pioneer Natural Resources: COMPANY
WELL.               Relay 12-7: WELL
FLD.           Purgatorie River: FIELD
LOC.           1999' FNL & 848' FWL--: LOCATION
PROV.                       CO: PROVINCE
CNTY.               Las Animas: COUNTRY
SRVC.          Patterson Wireline: SERVICE COMPANY
DATE.          Thu Dec 22 09:06:31 2005: LOG DATE
UWI.           05 071 08453 00: UNIQUE WELL ID
~Curve Information Block
DEPT.FT            0 000 00 00: Depth
CCL.                          : Casing Collar Locator
TT3.usec                      : CBL 3' Travel Time
AMP3.mV                       : CBL 3' Amplitude
GR.GAPI                       : Gamma Ray
~Parameter Information Block
~A  Depth       CCL         TT3         AMP3         GR     
# ...
   428.7500      0.0000    693.4131      8.8463     96.1773
   429.0000      0.0000    694.4671      8.8048    106.0158
   429.2500      0.0000    696.4762      8.8046    114.1874
   429.5000      0.0000    699.3309      8.8399    118.7021
   429.7500      0.0000    702.0552      8.8930    119.9185
   430.0000      0.0000    703.2013      8.9461    118.9971
   430.2500      0.0000    702.0570      8.9895    115.9834
   430.5000      0.0000    699.3384      9.0192    110.5582
   430.7500      0.0000    696.4601      9.0315    103.9871
   431.0000      0.0000    694.3432      9.0229     98.9381
   431.2500      0.0000    693.0646      8.9935     97.2373
   431.5000      0.0000    692.2847      8.9538     98.2923
   431.7500      0.0000    691.5189      8.9260     99.7138
   432.0000      0.0000    689.9291      8.9340     99.2180
   432.2500      0.0000    685.9882      8.9852     96.0438
   432.5000      0.0000    678.0032      9.0649     90.9608
   432.7500      0.0000    666.1788      9.1480     85.2287
   433.0000      0.0000    654.6292      9.2156     79.6711
   433.2500      0.0000    649.7227      9.2633     74.6184
   433.5000      0.0000    654.6509      9.2979     70.4459
   433.7500      0.0000    666.2237      9.3273     67.8063
   434.0000      0.0000    678.0756      9.3473     67.1964
   434.2500      0.0000    686.0712      9.3367     68.4558
   434.5000      0.0000    689.9142      9.2642     70.8681
   434.7500      0.0000    691.1075      9.1086     73.6356
   435.0000      0.0000    690.8710      8.8816     76.1999
   435.2500      0.0000    689.8532      8.6255     78.3004
   435.5000      0.0000    689.1805      8.3700     79.8263
   435.7500      0.0000    691.4808      8.0895     80.6814
   436.0000      0.0000    699.8464      7.7415     80.9803
   436.2500      0.0000    714.1352      7.3638     81.2316
   436.5000      0.0000    728.0110      7.0941     81.8970
   436.7500      0.0000    731.8197      7.0538     82.8274
   437.0000      0.0000    720.9651      7.2274     83.5681
   437.2500      0.0000    701.5181      7.4817     84.1421
   437.5000     -2.0000    685.8464      7.6800     85.1135
   437.7500      2.0000    682.0615      7.7591     86.8501
   438.0000      0.0000    688.4777      7.7299     89.0986
   438.2500      0.0000    697.6459      7.6501     91.2632
   438.5000      0.0000    703.5642      7.6001     92.7034
   438.7500      0.0000    704.7507      7.6539     92.7525
   439.0000      0.0000    702.6960      7.8458     90.9635
   439.2500      0.0000    699.3578      8.1501     87.6467
   439.5000      0.0000    696.0670      8.4932     84.0251
   439.7500      0.0000    693.5614      8.7936     81.6037
   440.0000      0.0000    692.0747      8.9983     81.1931
   440.2500      0.0000    691.4255      9.0966     82.3756
   440.5000      0.0000    691.2398      9.1090     83.7672
   440.7500      0.0000    691.2149      9.0675     83.8126
   441.0000      0.0000    691.2023      8.9964     81.6087
   441.2500      0.0000    691.1495      8.9065     77.3197
   441.5000      0.0000    691.0533      8.8024     71.9570
   441.7500      0.0000    690.9294      8.6926     66.7215
   442.0000      0.0000    690.8116      8.5897     62.4716
   442.2500      0.0000    690.7321      8.5049     59.5309
   442.5000      0.0000    690.7013      8.4400     57.7235
   442.7500      0.0000    690.7042      8.3852     56.6580
   443.0000      0.0000    690.7141      8.3258     56.0987
   443.2500      0.0000    690.7051      8.2532     55.9472
   443.5000      0.0000    690.6570      8.1703     55.9913
   443.7500      0.0000    690.5555      8.0855     56.0153
   444.0000      0.0000    690.3960      8.0039     56.1155
   444.2500      0.0000    690.1934      7.9245     56.6480
   444.5000      0.0000    689.9852      7.8456     58.0897
   444.7500      0.0000    689.8148      7.7696     61.0507
   445.0000      0.0000    689.7053      7.7006     65.8166
   445.2500      0.0000    689.6450      7.6360     71.4644
   445.5000      0.0000    689.6011      7.5644     75.8826
   445.7500      0.0000    689.5459      7.4761     77.2079
   446.0000      0.0000    689.4755      7.3757     75.4027
   446.2500      0.0000    689.4117      7.2841     72.3886
   446.5000      0.0000    689.3889      7.2262     70.4222
   446.7500      0.0000    689.4324      7.2175     70.0027
   447.0000      0.0000    689.5456      7.2560     69.4697
   447.2500      0.0000    689.7092      7.3221     67.0307
   447.5000      0.0000    689.8869      7.3871     62.8690
   447.7500      0.0000    690.0319      7.4267     58.7419
   448.0000      0.0000    690.1013      7.4295     55.9666
   448.2500      0.0000    690.0742      7.3981     54.6309
   448.5000      0.0000    689.9669      7.3469     54.5499
   448.7500      0.0000    689.8360      7.2990     56.0139
   449.0000      0.0000    689.7673      7.2818     59.2449
   449.2500      0.0000    689.8426      7.3218     63.6756
   449.5000      0.0000    690.0862      7.4359     68.3255
   449.7500      0.0000    690.4301      7.6220     72.7051
   450.0000      0.0000    690.7454      7.8564     76.9405
   450.2500      0.0000    690.9368      8.1026     81.3178
   450.5000      0.0000    691.0114      8.3288     86.2819
   450.7500      0.0000    691.0512      8.5181     92.6049
   451.0000      0.0000    691.1310      8.6684    100.8916
   451.2500      0.0000    691.2764      8.7873    110.8890
   451.5000      0.0000    691.4822      8.8900    121.4357
   451.7500      0.0000    691.7221      8.9932    131.0257
   452.0000      0.0000    691.9186      9.1031    138.5432
   452.2500      0.0000    691.9605      9.2052    143.8706
   452.5000      0.0000    691.8077      9.2689    147.8635
   452.7500      0.0000    691.5589      9.2675    151.4677
   453.0000      0.0000    691.3712      9.1999    154.7397
   453.2500      0.0000    691.3215      9.0911    156.8108
   453.5000      0.0000    691.3576      8.9689    156.8317
   453.7500      0.0000    691.3629      8.8435    154.8502
   454.0000      0.0000    691.2607      8.7088    151.5378
   454.2500      0.0000    691.0698      8.5613    147.2048
   454.5000      0.0000    690.8698      8.4109    141.5726
   454.7500      0.0000    690.6856      8.2754    134.5119
   455.0000      0.0000    690.3696      8.1687    126.5847
   455.2500      0.0000    689.5349      8.0927    118.7238
   455.5000      0.0000    687.6292      8.0405    111.6564
   455.7500      0.0000    684.2222      8.0039    106.0977
   456.0000      0.0000    679.3405      7.9803    103.4808
   456.2500      0.0000    673.4792      7.9695    105.6187
   456.5000      0.0000    667.2915      7.9651    112.8999
   456.7500      0.0000    661.4131      7.9534    123.1051
   457.0000      0.0000    656.4851      7.9239    132.4619
   457.2500      0.0000    652.9706      7.8785    137.9642
   457.5000      0.0000    650.8606      7.8299    138.9188
   457.7500      0.0000    649.7413      7.7926    136.8269
   458.0000      0.0000    649.1664      7.7770    134.0054
   458.2500      0.0000    648.8831      7.7865    131.9241
   458.5000      0.0000    648.7819      7.8170    130.4152
   458.7500      0.0000    648.7770      7.8580    128.3642
   459.0000      0.0000    648.7813      7.8989    125.0893
   459.2500      0.0000    648.7436      7.9348    120.8263
   459.5000      0.0000    648.6855      7.9710    116.0790
   459.7500      0.0000    648.6854      8.0202    111.2729
   460.0000      0.0000    648.8165      8.0966    107.2981
   460.2500      0.0000    649.0864      8.2079    105.6624
   460.5000      0.0000    649.4315      8.3505    107.6004
   460.7500      0.0000    649.7769      8.5092    113.2064
   461.0000      0.0000    650.1277      8.6637    121.2455
   461.2500      0.0000    650.6788      8.7970    129.2835
   461.5000      0.0000    651.9506      8.8995    134.3964
   461.7500      0.0000    654.8052      8.9669    134.9653
   462.0000      0.0000    660.1106      8.9957    132.3523
