~Version Information
 VERS.                                  2.0 : CWLS LAS VERSION
 WRAP.                                   NO : WRAPING MODE
 SWARE .                  MController 2.5.1 : SOFTWARE VERSION
~Well Information
 WELL.                           Erin 21-15 : WELL
 COMP.  Pioneer Natural Resources USA, Inc. : COMPANY
 FLD.                      Purgatoire River : FIELD
 LOC.             NE/NW Sec. 15, T33S, R67W : LOCATION
 DATE.                03/01/2006-03/02/2006 : DATE(S) LOGGED
 SRVC.                  Entrada GeoSciences : SERVICE COMPANY
 STAT.                             Colorado : STATE
 CNTY.                           Las Animas : COUNTY
 CTRY.                        United States : COUNTRY
 API.                          05-071-08713 : API NUMBER
 STRT.FT                             553.00 : START DEPTH
 STOP.FT                            2200.00 : STOP DEPTH
 STEP.FT                               1.00 : DEPTH INCREMENT
 NULL.                                -9999 : NULL VALUE
~Curve information
 DEPTH.FT                                   :
 ROP.MIN/FT                                 :
 GAS.UNITS                                  :
~ASCII Log data
      553.00     -9999.00         12.2 
      554.00         0.27         12.2 
      555.00         0.27         12.1 
      556.00         0.27         12.2 
      557.00         0.27         12.2 
      558.00         0.47         12.2 
      559.00         0.37         12.3 
      560.00         0.37         12.1 
      561.00         0.27         12.3 
      562.00         0.28         12.2 
      563.00         0.27         12.1 
      564.00         0.37         12.2 
      565.00         0.37         12.2 
      566.00         0.37         12.2 
      567.00         0.40         20.9 
      568.00         0.40         47.0 
      569.00         0.37         22.8 
      570.00         0.37          5.5 
      571.00         0.42          6.9 
      572.00         0.47          9.0 
      573.00         0.53          9.5 
      574.00         0.37         12.3 
      575.00         0.27         12.2 
      576.00         0.43         12.3 
      577.00         0.43          4.0 
      578.00         0.40          9.9 
      579.00         0.55         11.2 
      580.00         0.27         11.4 
      581.00         0.43         11.3 
      582.00         0.43         11.4 
      583.00         0.33          1.0 
      584.00         0.23          1.0 
      585.00         0.27          0.9 
      586.00         0.37          3.5 
      587.00         0.27          5.2 
      588.00         0.30         15.7 
      589.00         0.27         16.2 
      590.00         0.28         14.9 
      591.00         0.27         16.1 
      592.00         0.27         15.6 
      593.00         0.37         17.2 
      594.00         0.17         15.7 
      595.00         0.30         16.1 
      596.00         0.27         16.2 
      597.00         0.20         16.1 
      598.00         0.17         17.3 
      599.00         0.17         17.0 
      600.00         0.17         18.0 
      601.00         0.33         17.1 
      602.00         0.23         17.2 
      603.00         0.13         16.9 
      604.00         0.48         18.5 
      605.00         0.20         17.5 
      606.00         0.23         16.9 
      607.00         0.17         18.5 
      608.00         0.30         17.5 
      609.00         0.20         17.0 
      610.00         0.23         17.1 
      611.00         0.23         18.0 
      612.00         0.13         17.5 
      613.00         0.37         18.6 
      614.00         0.10         19.3 
      615.00         0.13         17.9 
      616.00         0.20         17.9 
      617.00         0.17         18.2 
      618.00         0.28         17.8 
      619.00         0.13         17.9 
      620.00         0.13         19.2 
      621.00         0.10         18.8 
      622.00         0.13         17.6 
      623.00         0.27         17.6 
      624.00         0.27         18.9 
      625.00         0.23         17.3 
      626.00         0.27         18.9 
      627.00         0.27         17.9 
      628.00         0.27         18.4 
      629.00         0.27         17.4 
      630.00         0.35         17.8 
      631.00         0.23         18.5 
      632.00         0.20         19.0 
      633.00         0.23         17.3 
      634.00         0.20         17.8 
      635.00         0.20         17.4 
      636.00         0.23         17.9 
      637.00         0.23         18.6 
      638.00         0.23         17.8 
      639.00         0.20         18.1 
      640.00         0.20         17.8 
      641.00         0.23         19.4 
      642.00         0.23         18.0 
      643.00         0.20         17.9 
      644.00         0.20         18.6 
      645.00         0.28         18.2 
      646.00         0.27         18.6 
      647.00         0.27         18.2 
      648.00         0.33         18.4 
      649.00         0.23         18.4 
      650.00         0.17         18.4 
      651.00         0.17         19.3 
      652.00         0.13         18.0 
      653.00         0.20         18.2 
      654.00         0.17         18.9 
      655.00         0.17         19.3 
      656.00         0.37         17.7 
      657.00         0.17         17.6 
      658.00         0.20         17.8 
      659.00         0.17         17.8 
      660.00         0.20         18.7 
      661.00         0.17         17.8 
      662.00         0.20         18.4 
      663.00         0.17         17.8 
      664.00         0.20         17.2 
      665.00         0.18         17.7 
      666.00         0.23         18.1 
      667.00         0.23         18.1 
      668.00         0.20         18.1 
      669.00         0.30         18.3 
      670.00         0.17         18.1 
      671.00         0.20         18.9 
      672.00         0.13         17.4 
      673.00         0.13         17.2 
      674.00         0.20         17.7 
      675.00         0.17         18.0 
      676.00         0.20         17.8 
      677.00         0.27         17.7 
      678.00         0.43         18.6 
      679.00         0.23         18.1 
      680.00         0.27         18.4 
      681.00         0.20         18.0 
      682.00         0.27         19.3 
      683.00         0.27         18.7 
      684.00         0.53         18.6 
      685.00         0.73         19.0 
      686.00         0.43         17.8 
      687.00         0.22         19.3 
      688.00         0.43         17.4 
      689.00         0.23         16.9 
      690.00         0.33         17.8 
      691.00         0.43         17.7 
      692.00         0.40         17.4 
      693.00         0.40         18.2 
      694.00         0.40         18.0 
      695.00         0.47         18.7 
      696.00         0.55         17.2 
      697.00         0.73         17.3 
      698.00         0.60         17.5 
      699.00         0.63         17.3 
      700.00         0.27         18.6 
      701.00         0.37         17.4 
      702.00         0.27         17.4 
      703.00         0.68         19.6 
      704.00         0.17         19.0 
      705.00         0.23         19.3 
      706.00         0.20         19.7 
      707.00         0.20         20.8 
      708.00         0.40         18.6 
      709.00         0.20         19.2 
      710.00         0.25         19.5 
      711.00         0.17         18.3 
      712.00         0.17         18.0 
      713.00         0.17         19.0 
      714.00         0.20         19.6 
      715.00         0.37         20.5 
      716.00         0.17         19.1 
      717.00         0.20         18.7 
      718.00         0.13         18.7 
      719.00         0.13         18.1 
      720.00         0.10         18.4 
      721.00         0.17         17.7 
      722.00         0.27         17.9 
      723.00         0.23         17.5 
      724.00         0.33         17.7 
      725.00         0.30         19.2 
      726.00         0.38         18.9 
      727.00         0.27         18.1 
      728.00         0.27         18.9 
      729.00         0.13         18.5 
      730.00         0.17         18.6 
      731.00         0.17         19.1 
      732.00         0.13         18.1 
      733.00         0.23         18.0 
      734.00         0.37         18.3 
      735.00         0.27         18.3 
      736.00         0.27         17.7 
      737.00         0.27         17.1 
      738.00         0.27         18.2 
      739.00         0.25         18.1 
      740.00         0.17         19.2 
      741.00         0.27         19.2 
      742.00         0.17         18.8 
      743.00         0.13         19.3 
      744.00         0.13         18.1 
      745.00         0.17         18.0 
      746.00         0.23         17.8 
      747.00         0.13         17.6 
      748.00         0.27         17.8 
      749.00         0.30         18.9 
      750.00         0.20         19.0 
      751.00         0.20         18.9 
      752.00         0.20         17.7 
