~Version Information
VERS.                      2.0: CWLS Log ASCII Standard - VERSION 2.0
WRAP.                       NO: One line per depth step
~Well Information Block
STRT.FT               350.0000: 
STOP.FT               906.0000: 
STEP.FT                 0.2500: 
NULL.                -999.2500: 
COMP.          Pioneer Natural Resources: COMPANY
WELL.           Hartford 31-18: WELL
FLD.           Purgatorie River: FIELD
LOC.           375' FNL & 1660' FEL: LOCATION
PROV.                 Colorado: PROVINCE
CNTY.               Las Animas: COUNTRY
SRVC.                Patterson: SERVICE COMPANY
DATE.          Sat Nov 19 19:02:38 2005: LOG DATE
UWI.           05-071-08555               : UNIQUE WELL ID
~Curve Information Block
DEPT.FT            0 000 00 00: Depth
SN.Ohm-m                      : IEL Short Normal
SP.mV                         : IEL Spontaneous Potential
DIR.Ohm-m                     : IEL Induction Resistivity
GR.GAPI                       : Gamma Ray
~Parameter Information Block
~A  Depth        SN          SP         DIR          GR     
# ...
   484.0000   2000.0000   1880.0000     16.4685    138.8140
   484.2500   2000.0000   1880.0000     16.7210    131.0148
   484.5000   2000.0000   1880.0000     16.9889    119.1548
   484.7500   2000.0000   1880.0000     17.2397    112.2038
   485.0000   2000.0000   1880.0000     17.4316    105.0270
   485.2500   2000.0000   1880.0000     17.5273    103.3307
   485.5000   2000.0000   1880.0000     17.5068    106.1751
   485.7500   2000.0000   1880.0000     17.3743    111.3308
   486.0000   2000.0000   1880.0000     17.1535    121.8421
   486.2500   2000.0000   1880.0000     16.8760    128.8034
   486.5000   2000.0000   1880.0000     16.5703    136.2045
   486.7500   2000.0000   1880.0000     16.2563    138.4644
   487.0000   2000.0000   1880.0000     15.9446    139.1111
   487.2500   2000.0000   1880.0000     15.6375    139.2259
   487.5000   2000.0000   1880.0000     15.3300    141.2302
   487.7500   2000.0000   1880.0000     15.0117    144.3861
   488.0000   2000.0000   1880.0000     14.6725    151.1040
   488.2500   2000.0000   1880.0000     14.3103    155.4364
   488.5000   2000.0000   1880.0000     13.9353    158.4098
   488.7500   2000.0000   1880.0000     13.5681    156.7744
   489.0000   2000.0000   1880.0000     13.2306    149.4805
   489.2500   2000.0000   1880.0000     12.9368    142.9678
   489.5000   2000.0000   1880.0000     12.6873    133.2182
   489.7500   2000.0000   1880.0000     12.4719    127.4496
   490.0000   2000.0000   1880.0000     12.2764    120.7800
   490.2500   2000.0000   1880.0000     12.0915    118.3654
   490.5000   2000.0000   1880.0000     11.9165    118.3664
   490.7500   2000.0000   1880.0000     11.7572    120.1739
   491.0000   2000.0000   1880.0000     11.6215    123.3830
   491.2500   2000.0000   1880.0000     11.5162    124.5701
   491.5000   2000.0000   1880.0000     11.4476    123.5133
   491.7500   2000.0000   1880.0000     11.4230    120.7428
   492.0000   2000.0000   1880.0000     11.4510    114.3962
   492.2500   2000.0000   1880.0000     11.5385    109.6947
   492.5000   2000.0000   1880.0000     11.6888    103.5187
   492.7500   2000.0000   1880.0000     11.8999    100.5999
   493.0000   2000.0000   1880.0000     12.1665     98.7827
   493.2500   2000.0000   1880.0000     12.4822     99.5253
   493.5000   2000.0000   1880.0000     12.8421    103.0700
   493.7500   2000.0000   1880.0000     13.2441    106.2259
   494.0000   2000.0000   1880.0000     13.6883    110.6798
   494.2500   2000.0000   1880.0000     14.1747    112.9065
   494.5000   2000.0000   1880.0000     14.7023    114.6017
   494.7500   2000.0000   1880.0000     15.2685    114.4382
   495.0000   2000.0000   1880.0000     15.8699    112.1213
   495.2500   2000.0000   1880.0000     16.5028    109.3613
   495.5000   2000.0000   1880.0000     17.1589    104.2350
   495.7500   2000.0000   1880.0000     17.8219    100.7618
   496.0000   2000.0000   1880.0000     18.4646     96.0636
   496.2500   2000.0000   1880.0000     19.0538     93.3609
   496.5000   2000.0000   1880.0000     19.5599     90.2942
   496.7500   2000.0000   1880.0000     19.9682     89.2667
   497.0000   2000.0000   1880.0000     20.2842     89.2853
   497.2500   2000.0000   1880.0000     20.5284     89.6769
   497.5000   2000.0000   1880.0000     20.7266     89.1545
   497.7500   2000.0000   1880.0000     20.9020     87.5071
   498.0000   2000.0000   1880.0000     21.0717     83.8647
   498.2500   2000.0000   1880.0000     21.2445     82.0290
   498.5000   2000.0000   1880.0000     21.4207     82.5323
   498.7500   2000.0000   1880.0000     21.5922     85.3572
   499.0000   2000.0000   1880.0000     21.7459     91.5827
   499.2500   2000.0000   1880.0000     21.8714     95.5519
   499.5000   2000.0000   1880.0000     21.9696     99.5898
   499.7500   2000.0000   1880.0000     22.0563    100.7689
   500.0000   2000.0000   1880.0000     22.1589    100.5938
   500.2500   2000.0000   1880.0000     22.3050     99.6676
   500.5000   2000.0000   1880.0000     22.5109     98.1202
   500.7500   2000.0000   1880.0000     22.7762     97.3002
   501.0000   2000.0000   1880.0000     23.0884     95.9591
   501.2500   2000.0000   1880.0000     23.4339     94.4673
   501.5000   2000.0000   1880.0000     23.8083     90.9304
   501.7500   2000.0000   1880.0000     24.2182     87.9573
   502.0000   2000.0000   1880.0000     24.6720     83.3951
   502.2500   2000.0000   1880.0000     25.1685     80.6929
   502.5000   2000.0000   1880.0000     25.6916     77.5886
   502.7500   2000.0000   1880.0000     26.2131     76.2454
   503.0000   2000.0000   1880.0000     26.7002     75.0427
   503.2500   2000.0000   1880.0000     27.1252     74.4149
   503.5000   2000.0000   1880.0000     27.4738     73.1534
   503.7500   2000.0000   1880.0000     27.7518     71.9296
   504.0000   2000.0000   1880.0000     27.9852     69.4797
   504.2500   2000.0000   1880.0000     28.2052     67.5603
   504.5000   2000.0000   1880.0000     28.4280     64.7527
   504.7500   2000.0000   1880.0000     28.6421     63.2949
   505.0000   2000.0000   1880.0000     28.8129     62.0133
   505.2500   2000.0000   1880.0000     28.9041     61.5273
   505.5000   2000.0000   1880.0000     28.8995     60.4889
   505.7500   2000.0000   1880.0000     28.8123     59.2385
   506.0000   2000.0000   1880.0000     28.6750     56.8169
   506.2500   2000.0000   1880.0000     28.5192     55.3986
   506.5000   2000.0000   1880.0000     28.3587     54.2081
   506.7500   2000.0000   1880.0000     28.1811     53.8280
   507.0000   2000.0000   1880.0000     27.9489     52.9395
   507.2500   2000.0000   1880.0000     27.6069     51.9342
   507.5000   2000.0000   1880.0000     27.0957     50.6349
   507.7500   2000.0000   1880.0000     26.3708     50.5630
   508.0000   2000.0000   1880.0000     25.4198     51.7730
   508.2500   2000.0000   1880.0000     24.2697     52.8845
   508.5000   2000.0000   1880.0000     22.9811     53.8414
   508.7500   2000.0000   1880.0000     21.6338     53.5801
   509.0000   2000.0000   1880.0000     20.3088     51.6227
   509.2500   2000.0000   1880.0000     19.0719     49.5049
   509.5000   2000.0000   1880.0000     17.9624     46.2940
   509.7500   2000.0000   1880.0000     16.9915     45.1340
   510.0000   2000.0000   1880.0000     16.1479     46.3636
   510.2500   2000.0000   1880.0000     15.4083     49.5446
   510.5000   2000.0000   1880.0000     14.7498     57.5210
   510.7500   2000.0000   1880.0000     14.1580     64.4317
   511.0000   2000.0000   1880.0000     13.6290     76.2338
   511.2500   2000.0000   1880.0000     13.1670     84.5855
   511.5000   2000.0000   1880.0000     12.7791     96.9627
   511.7500   2000.0000   1880.0000     12.4725    104.4609
   512.0000   2000.0000   1880.0000     12.2532    113.4436
   512.2500   2000.0000   1880.0000     12.1253    117.6336
   512.5000   2000.0000   1880.0000     12.0908    121.8233
   512.7500   2000.0000   1880.0000     12.1476    123.8260
   513.0000   2000.0000   1880.0000     12.2896    125.9122
   513.2500   2000.0000   1880.0000     12.5071    126.5025
   513.5000   2000.0000   1880.0000     12.7895    126.6649
   513.7500   2000.0000   1880.0000     13.1270    127.0769
   514.0000   2000.0000   1880.0000     13.5133    128.4390
   514.2500   2000.0000   1880.0000     13.9464    128.7583
   514.5000   2000.0000   1880.0000     14.4275    126.0041
   514.7500   2000.0000   1880.0000     14.9580    121.7178
   515.0000   2000.0000   1880.0000     15.5328    113.4792
   515.2500   2000.0000   1880.0000     16.1343    108.4720
   515.5000   2000.0000   1880.0000     16.7277    103.9701
   515.7500   2000.0000   1880.0000     17.2627    103.4303
   516.0000   2000.0000   1880.0000     17.6831    105.4850
   516.2500   2000.0000   1880.0000     17.9425    107.6565
   516.5000   2000.0000   1880.0000     18.0202    109.8625
   516.7500   2000.0000   1880.0000     17.9280    109.5113
   517.0000   2000.0000   1880.0000     17.7037    105.7274
   517.2500   2000.0000   1880.0000     17.3975    101.9261
