~Version Information
VERS.                      2.0: CWLS Log ASCII Standard - VERSION 2.0
WRAP.                       NO: One line per depth step
~Well Information Block
STRT.FT                -7.7500: 
STOP.FT              2446.5000: 
STEP.FT                 0.2500: 
NULL.                -999.2500: 
COMP.          XTO Energy Inc.: COMPANY
WELL.          Hill Ranch 15-09: WELL
FLD.           Purgatoire River: FIELD
LOC.           1816' FSL & 521' FEL: LOCATION
STAT.                 Colorado: State
CNTY.               Las Animas: COUNTY
CTRY. USA : Country
SECT. 15 : Section
TOWN. 35S : Township
RANG. 67W : Range
SRVC.          Patterson Wireline: SERVICE COMPANY
DATE.          Fri Dec 09 17:49:58 2005: LOG DATE
API. 05-071-08474                          : UNIQUE WELL ID
~Curve Information Block
DEPT.FT            0 000 00 00: Depth
CCL.                          : Casing Collar Locator
TT3.usec                      : CBL 3' Travel Time
AMP3.mV                       : CBL 3' Amplitude
AMP5.mV                       : CBL 5' Amplitude
GR.GAPI                       : Gamma Ray
~Parameter Information Block
~A  Depth       CCL         TT3         AMP3        AMP5         GR     
# ...
  1952.2500      0.0000    270.9848     55.3451     27.0849    153.5390
  1952.5000      0.0000    267.2219     60.6900     27.9792    155.3511
  1952.7500      0.0000    263.6841     65.6959     30.3452    158.5135
  1953.0000      0.0000    261.3391     69.7796     35.2511    162.7442
  1953.2500      0.0000    260.1817     72.6881     42.9127    166.4045
  1953.5000      0.0000    259.7411     74.4741     52.0933    168.1060
  1953.7500      0.0000    259.6030     75.4195     60.7626    167.7050
  1954.0000      0.0000    259.5620     75.8599     67.3760    166.3866
  1954.2500      0.0000    259.5528     76.0342     71.5308    165.7073
  1954.5000      0.0000    259.5625     76.0704     73.7066    166.0601
  1954.7500      0.0000    259.5816     76.0494     74.6715    166.1231
  1955.0000      0.0000    259.5990     76.0367     75.0667    164.2448
  1955.2500      0.0000    259.6056     76.0768     75.2696    160.2106
  1955.5000      0.0000    259.5985     76.1756     75.4217    155.2524
  1955.7500      0.0000    259.5808     76.3025     75.5243    150.5564
  1956.0000      0.0000    259.5596     76.4154     75.5418    146.3455
  1956.2500      0.0000    259.5426     76.4882     75.4723    142.5629
  1956.5000      0.0000    259.5361     76.5198     75.3574    139.9879
  1956.7500      0.0000    259.5420     76.5276     75.2597    140.0647
  1957.0000      0.0000    259.5562     76.5377     75.2348    143.3611
  1957.2500      0.0000    259.5696     76.5786     75.2985    148.4715
  1957.5000      0.0000    259.5729     76.6713     75.4078    152.7918
  1957.7500      0.0000    259.5627     76.8171     75.4876    154.2987
  1958.0000      0.0000    259.5435     76.9915     75.4880    152.5298
  1958.2500      0.0000    259.5242     77.1510     75.4191    148.3155
  1958.5000      0.0000    259.5125     77.2537     75.3387    142.9786
  1958.7500      0.0000    259.5099     77.2872     75.3158    137.5127
  1959.0000      0.0000    259.5111     77.2811     75.3876    132.1210
  1959.2500      0.0000    259.5086     77.2849     75.5248    126.6080
  1959.5000      0.0000    259.4990     77.3241     75.6444    121.1784
  1959.7500      0.0000    259.4860     77.3806     75.6767    116.3965
  1960.0000      0.0000    259.4763     77.4170     75.6215    112.2808
  1960.2500      0.0000    259.4742     77.4160     75.5297    107.7806
  1960.5000      0.0000    259.4786     77.3930     75.4497    101.2387
  1960.7500      0.0000    259.4847     77.3755     75.4108     91.5793
  1961.0000      0.0000    259.4878     77.3786     75.4375     79.4908
  1961.2500      0.0000    259.4853     77.3981     75.5427     67.3652
  1961.5000      0.0000    259.4772     77.4181     75.7014     57.7284
  1961.7500      0.0000    259.4659     77.4230     75.8525     51.7798
  1962.0000      0.0000    259.4541     77.4055     75.9309     49.3431
  1962.2500      0.0000    259.4447     77.3660     75.8925     49.4377
  1962.5000      0.0000    259.4392     77.3091     75.7172     50.6404
  1962.7500      0.0000    259.4373     77.2449     75.4214     51.6836
  1963.0000      0.0000    259.4355     77.1915     75.0830     52.2287
  1963.2500      0.0000    259.4287     77.1641     74.8310     52.7270
  1963.5000      0.0000    259.4143     77.1565     74.7781     53.4286
  1963.7500      0.0000    259.3954     77.1347     74.9426     53.9605
  1964.0000      0.0000    259.3799     77.0575     75.2279     53.8969
  1964.2500      0.0000    259.3741     76.9177     75.4814     53.2805
  1964.5000      0.0000    259.3774     76.7654     75.5860     52.3626
  1964.7500      0.0000    259.3816     76.6801     75.5214     51.1055
  1965.0000      0.0000    259.3781     76.7072     75.3648     49.3185
  1965.2500      0.0000    259.3638     76.8249     75.2317     47.4257
  1965.5000      0.0000    259.3425     76.9725     75.1933     46.8100
  1965.7500      0.0000    259.3216     77.0992     75.2296     48.9973
  1966.0000      0.0000    259.3080     77.1791     75.2521     54.3192
  1966.2500      0.0000    259.3040     77.2004     75.1736     61.3502
  1966.5000      0.0000    259.3060     77.1558     74.9674     67.6931
  1966.7500      0.0000    259.3080     77.0475     74.6836     71.6060
  1967.0000      0.0000    259.3071     76.8969     74.4169     73.1821
  1967.2500      0.0000    259.3043     76.7448     74.2381     73.9828
  1967.5000      0.0000    259.3003     76.6370     74.1444     75.6772
  1967.7500      0.0000    259.2924     76.5971     74.0766     79.3460
  1968.0000      0.0000    259.2779     76.6107     73.9785     85.6637
  1968.2500      0.0000    259.2599     76.6383     73.8377     94.7940
  1968.5000      0.0000    259.2465     76.6492     73.6818    105.9440
  1968.7500      0.0000    259.2441     76.6408     73.5485    117.4912
  1969.0000      0.0000    259.2510     76.6312     73.4526    127.6231
  1969.2500      0.0000    259.2589     76.6385     73.3760    134.7288
  1969.5000      0.0000    259.2597     76.6635     73.2972    137.3269
  1969.7500      0.0000    259.2516     76.6839     73.2264    134.0829
  1970.0000      0.0000    259.2394     76.6582     73.1993    124.3807
  1970.2500      0.0000    259.2311     76.5425     73.2271    109.1331
  1970.5000      0.0000    259.2313     76.3183     73.2638     90.9806
  1970.7500      0.0000    259.2397     76.0096     73.2329     73.5282
  1971.0000      0.0000    259.2538     75.6765     73.0939     60.0140
  1971.2500      0.0000    259.2699     75.3873     72.8754     52.0789
  1971.5000      0.0000    259.2833     75.1908     72.6491     49.1975
  1971.7500      0.0000    259.2896     75.0996     72.4815     49.1443
  1972.0000      0.0000    259.2873     75.0941     72.4086     49.2437
  1972.2500      0.0000    259.2782     75.1405     72.4295     47.6557
  1972.5000      0.0000    259.2655     75.2025     72.5022     44.0364
  1972.7500      0.0000    259.2533     75.2398     72.5608     39.3251
  1973.0000      0.0000    259.2464     75.2114     72.5629     34.8229
  1973.2500      0.0000    259.2475     75.0952     72.5215     31.2281
  1973.5000      0.0000    259.2533     74.9079     72.4806     28.5345
  1973.7500      0.0000    259.2565     74.7025     72.4700     26.7683
  1974.0000      0.0000    259.2517     74.5393     72.4873     26.3877
  1974.2500      0.0000    259.2400     74.4522     72.5073     27.6941
  1974.5000      0.0000    259.2271     74.4371     72.5011     30.1523
  1974.7500      0.0000    259.2186     74.4690     72.4573     32.6294
  1975.0000      0.0000    259.2172     74.5279     72.3881     34.2531
  1975.2500      0.0000    259.2231     74.6099     72.3153     34.9059
  1975.5000      0.0000    259.2343     74.7232     72.2620     35.0598
  1975.7500      0.0000    259.2466     74.8788     72.2550     35.3553
  1976.0000      0.0000    259.2559     75.0774     72.3148     36.2226
  1976.2500      0.0000    259.2599     75.2976     72.4340     37.6845
  1976.5000      0.0000    259.2583     75.4958     72.5745     39.4716
  1976.7500      0.0000    259.2509     75.6291     72.6895     41.2678
  1977.0000      0.0000    259.2386     75.6842     72.7434     42.8713
  1977.2500      0.0000    259.2255     75.6833     72.7161     44.4375
  1977.5000      0.0000    259.2175     75.6641     72.6109     46.6713
  1977.7500      0.0000    259.2165     75.6622     72.4719     50.3158
  1978.0000      0.0000    259.2186     75.7079     72.3751     55.2184
  1978.2500      0.0000    259.2190     75.8250     72.3788     60.2854
  1978.5000      0.0000    259.2173     76.0182     72.4807     64.5718
  1978.7500      0.0000    259.2162     76.2621     72.6321     68.1245
  1979.0000      0.0000    259.2167     76.5072     72.7836     71.8029
  1979.2500      0.0000    259.2169     76.7036     72.9101     76.7399
  1979.5000      0.0000    259.2141     76.8231     73.0166     83.8466
  1979.7500      0.0000    259.2083     76.8669     73.1372     93.1275
  1980.0000      0.0000    259.2025     76.8598     73.3127    103.2783
