~Version Information
VERS.                      2.0: CWLS Log ASCII Standard - VERSION 2.0
WRAP.                       NO: One line per depth step
~Well Information Block
STRT.FT               645.0000: 
STOP.FT              2131.0000: 
STEP.FT                 0.1000: 
NULL.                -999.2500: 
COMP.          Pioneer Natural Resources: COMPANY
WELL.          Gunslinger 13-24: WELL
FLD.           Purgatoire River: FIELD
LOC.           1968' FSL & 633' FWL: LOCATION
PROV.                 Colorado: PROVINCE
CNTY.               Las Animas: COUNTRY
SRVC.                Patterson: SERVICE COMPANY
DATE.          Sat Jul 30 08:07:53 2005: LOG DATE
UWI.           05 071 08442 00: UNIQUE WELL ID
~Curve Information Block
DEPT.FT            0 000 00 00: Depth
DCAL.in                       : CDL Caliper
RHOB.g/cc                     : CDL Bulk Density
RHOC.g/cc                     : CDL Density Correction
DPOR.pu                       : CDL Density Porosity
GR.GAPI                       : Gamma Ray
NPOR.pu                       : Neutron Porosity
~Parameter Information Block
~A  Depth       DCAL        RHOB        RHOC        DPOR         GR         NPOR    
# ...
  1326.6000      7.9857      2.5514      0.0556      5.9747    146.7339     23.8347
  1326.7000      7.9857      2.5542      0.0640      5.8078    146.0633     23.6393
  1326.8000      7.9989      2.5501      0.0562      6.0547    147.2112     23.4566
  1326.9000      7.9989      2.5500      0.0300      6.0587    150.7172     23.6486
  1327.0000      8.0083      2.5540      0.0185      5.8185    151.6391     24.0276
  1327.1000      8.0083      2.5547      0.0841      5.7746    148.4358     24.5590
  1327.2000      8.0083      2.5480      0.0318      6.1788    143.7277     25.3063
  1327.3000      7.9890      2.5349      0.0650      6.9771    140.4436     25.9511
  1327.4000      7.9890      2.5138      0.0254      8.2531    139.3873     25.8544
  1327.5000      7.9944      2.4962      0.0015      9.3219    135.4376     24.6780
  1327.6000      7.9944      2.5011     -0.0175      9.0218    126.9527     23.2551
  1327.7000      7.9944      2.5277     -0.0075      7.4094    121.2752     22.6082
  1327.8000      7.9903      2.5510      0.0407      6.0008    119.6437     22.5370
  1327.9000      7.9903      2.5534      0.0158      5.8524    115.7196     22.1095
  1328.0000      7.9801      2.5471     -0.0055      6.2346    109.3110     21.2411
  1328.1000      7.9801      2.5504      0.0509      6.0392    105.5948     20.5611
  1328.2000      7.9801      2.5634      0.0497      5.2469    106.4671     20.1140
  1328.3000      7.9661      2.5755      0.0619      4.5146    107.8835     19.6862
  1328.4000      7.9661      2.5736      0.0635      4.6307    103.8146     19.2547
  1328.5000      7.9544      2.5525      0.0850      5.9067     95.6716     18.8951
  1328.6000      7.9544      2.5301      0.0062      7.2689     89.0239     19.0029
  1328.7000      7.9544      2.5345     -0.0181      7.0018     86.8743     19.9285
  1328.8000      7.9487      2.5577      0.1074      5.5914     89.1730     20.9296
  1328.9000      7.9487      2.5682      0.0069      4.9552     89.8442     21.3223
  1329.0000      7.9536      2.5669      0.0146      5.0367     85.1556     21.5667
  1329.1000      7.9536      2.5623      0.0590      5.3125     79.3987     21.7958
  1329.2000      7.9536      2.5460      0.0383      6.3047     76.5849     21.7180
  1329.3000      7.9534      2.5244      0.0039      7.6123     75.3238     21.4368
  1329.4000      7.9534      2.5183     -0.0308      7.9816     74.0697     20.9265
  1329.5000      7.9511      2.5331      0.0094      7.0859     75.9420     20.1437
  1329.6000      7.9511      2.5518      0.0169      5.9513     80.8800     19.1857
  1329.7000      7.9511      2.5488      0.0884      6.1309     84.1154     18.2124
  1329.8000      7.9578      2.5256     -0.0253      7.5364     86.0393     17.4483
  1329.9000      7.9578      2.5150     -0.0433      8.1813     86.9243     16.9778
  1330.0000      7.9561      2.5236      0.0494      7.6586     83.5735     16.7425
  1330.1000      7.9561      2.5337      0.0301      7.0467     80.2726     16.5134
  1330.2000      7.9561      2.5458     -0.0160      6.3172     79.7904     15.8920
  1330.3000      7.9516      2.5724      0.0187      4.7009     78.2713     14.9596
  1330.4000      7.9516      2.6123      0.0264      2.2833     77.1388     14.3685
  1330.5000      7.9454      2.6447      0.0776      0.3211     78.7026     14.4675
  1330.6000      7.9454      2.6502      0.0843     -0.0151     80.4728     14.8237
  1330.7000      7.9454      2.6316      0.0765      1.1136     80.1959     14.8347
  1330.8000      7.9473      2.6132      0.0234      2.2333     77.7777     14.7249
  1330.9000      7.9473      2.6183      0.0581      1.9219     73.8419     14.9856
  1331.0000      7.9549      2.6462      0.0580      0.2297     70.8565     15.8731
  1331.1000      7.9549      2.6712      0.0610     -1.2830     71.2210     17.3376
  1331.2000      7.9549      2.6660      0.0784     -0.9669     71.8201     18.6067
  1331.3000      7.9630      2.6391      0.0485      0.6616     68.8928     19.2893
  1331.4000      7.9630      2.6319     -0.0035      1.0986     64.3612     20.0934
  1331.5000      7.9730      2.6643     -0.0156     -0.8638     62.7439     21.3962
  1331.6000      7.9730      2.7008      0.0929     -3.0812     65.3884     22.7049
  1331.7000      7.9730      2.7005      0.0731     -3.0625     70.4268     23.4036
  1331.8000      7.9525      2.6798     -0.0038     -1.8052     73.9123     23.3878
  1331.9000      7.9525      2.6673      0.0435     -1.0510     73.5680     23.0650
  1332.0000      7.9521      2.6525      0.0446     -0.1500     71.5153     22.7467
  1332.1000      7.9521      2.6219     -0.0353      1.7007     70.9605     22.6057
  1332.2000      7.9521      2.5870     -0.0121      3.8197     74.1911     22.9642
  1332.3000      7.9528      2.5539      0.0216      5.8227     83.7366     24.1431
  1332.4000      7.9528      2.5166      0.0158      8.0869     98.1301     25.8342
  1332.5000      7.9681      2.4958     -0.0423      9.3456    111.0797     27.0791
  1332.6000      7.9681      2.5155      0.0237      8.1543    119.2262     27.4943
  1332.7000      7.9681      2.5458      0.1046      6.3175    124.2621     27.2520
  1332.8000      7.9951      2.5530      0.0269      5.8806    127.3320     26.4456
  1332.9000      7.9951      2.5500      0.0628      6.0614    129.7476     25.5252
  1333.0000      8.0568      2.5487      0.0468      6.1371    133.5022     25.2706
  1333.1000      8.0568      2.5439      0.0466      6.4279    137.7254     25.7269
  1333.2000      8.0568      2.5356      0.0570      6.9309    141.0790     26.1403
  1333.3000      8.0778      2.5298      0.0210      7.2858    144.1560     26.1169
  1333.4000      8.0778      2.5285      0.0558      7.3642    146.2736     26.1961
  1333.5000      8.1077      2.5256      0.0352      7.5369    146.9791     26.5389
  1333.6000      8.1077      2.5180      0.0254      7.9992    148.0803     26.8752
  1333.7000      8.1077      2.5065      0.0390      8.6984    149.3357     27.1476
  1333.8000      8.0424      2.4897      0.0254      9.7180    148.0742     27.2044
  1333.9000      8.0424      2.4696     -0.0016     10.9352    141.5797     27.4969
  1334.0000      8.0409      2.4550     -0.0014     11.8179    131.5013     28.4818
  1334.1000      8.0409      2.4538     -0.0123     11.8881    127.3144     29.2893
  1334.2000      8.0409      2.4599      0.0566     11.5222    135.0608     29.1504
  1334.3000      8.0324      2.4458      0.0594     12.3773    151.2772     28.1787
  1334.4000      8.0324      2.3867      0.0177     15.9570    169.4970     26.6203
  1334.5000      8.0520      2.2882     -0.0234     21.9282    182.9460     25.3788
  1334.6000      8.0520      2.1726      0.0098     28.9361    187.9183     25.5617
  1334.7000      8.0520      2.0625     -0.0707     35.6074    186.6481     26.9036
  1334.8000      8.0845      1.9772     -0.0834     40.7763    180.8951     28.1780
  1334.9000      8.0845      1.9201     -0.0680     44.2371    169.8049     28.7718
  1335.0000      8.0952      1.8992     -0.1136     45.5042    159.6491     28.9796
  1335.1000      8.0952      1.9397     -0.0642     43.0492    157.7183     29.4068
  1335.2000      8.0952      2.0381      0.1329     37.0854    160.9130     30.0540
  1335.3000      8.0662      2.1491      0.2526     30.3576    157.8937     30.2796
  1335.4000      8.0662      2.2384      0.2464     24.9469    143.4452     30.0140
  1335.5000      8.0839      2.3004      0.2806     21.1896    128.9133     29.8911
  1335.6000      8.0839      2.3452      0.1132     18.4724    126.6057     29.9367
  1335.7000      8.0839      2.3888      0.1441     15.8307    134.7717     29.6688
  1335.8000      8.1466      2.4235      0.1192     13.7251    143.2659     29.2860
  1335.9000      8.1466      2.4287      0.1063     13.4116    143.4551     29.2250
  1336.0000      8.1407      2.4035      0.0512     14.9414    138.2277     29.4520
  1336.1000      8.1407      2.3706     -0.0088     16.9348    137.6290     29.5249
