~Version Information
VERS.                      2.0: CWLS Log ASCII Standard - VERSION 2.0
WRAP.                       NO: One line per depth step
~Well Information Block
STRT.FT               264.2500: 
STOP.FT              1134.7500: 
STEP.FT                 0.2500: 
NULL.                -999.2500: 
COMP.          Pioneer Natural Resources: COMPANY
WELL.          Black Cat 13-32 Tr: WELL
FLD.           Purgatoire River: FIELD
LOC.           1679' FSL & 1150' FWL--: LOCATION
CNTY.               Las Animas: COUNTY
SRVC.                Patterson: SERVICE COMPANY
DATE.          Tue Mar 07 10:58:06 2006: LOG DATE
UWI.           05 071 08721 00: UNIQUE WELL ID
STAT.                 Colorado: STATE
~Curve Information Block
DEPT.FT            0 000 00 00: Depth
SN.Ohm-m                      : IEL Short Normal
SP.mV                         : IEL Spontaneous Potential
DIR.Ohm-m                     : IEL Induction Resistivity
GR.GAPI                       : Gamma Ray
~Parameter Information Block
~A  Depth        SN          SP         DIR          GR     
# ...
   934.2500    596.4615   -491.3214     13.2375    123.0658
   934.5000    596.4615   -489.9453     13.0198    122.8618
   934.7500    596.4615   -488.7975     12.8304    123.1345
   935.0000    596.4615   -487.9035     12.7083    124.7219
   935.2500    596.4615   -487.2583     12.6805    126.8272
   935.5000    596.4615   -486.8294     12.7560    131.2050
   935.7500    596.4615   -486.5660     12.9221    134.1588
   936.0000    596.4615   -486.4096     13.1433    137.0239
   936.2500    596.4615   -486.3047     13.3689    137.2695
   936.5000    596.4615   -486.2064     13.5480    134.9317
   936.7500    596.4615   -486.0840     13.6486    131.7930
   937.0000    596.4615   -485.9212     13.6668    125.4230
   937.2500    596.4615   -485.7121     13.6196    120.6901
   937.5000    596.4615   -485.4563     13.5280    114.2921
   937.7500    596.4615   -485.1536     13.4030    111.2856
   938.0000    596.4615   -484.8006     13.2418    109.2221
   938.2500    596.4615   -484.3893     13.0336    109.2129
   938.5000    596.4615   -483.9088     12.7697    110.3298
   938.7500    596.4615   -483.3488     12.4527    111.4403
   939.0000    596.4615   -482.7045     12.0995    113.5291
   939.2500    596.4615   -481.9797     11.7377    115.2400
   939.5000    596.4615   -481.1895     11.3977    118.0088
   939.7500    596.4615   -480.3588     11.1070    119.6722
   940.0000    596.4615   -479.5193     10.8873    121.6050
   940.2500    596.4615   -478.7050     10.7542    122.5285
   940.5000    596.4615   -477.9469     10.7161    123.1863
   940.7500    596.4615   -477.2678     10.7726    122.8477
   941.0000    596.4615   -476.6774     10.9131    121.0057
   941.2500    596.4615   -476.1697     11.1182    119.2489
   941.5000    596.4615   -475.7210     11.3618    116.7567
   941.7500    596.4615   -475.2889     11.6139    115.4511
   942.0000    596.4615   -474.8185     11.8444    113.8321
   942.2500    596.4615   -474.2499     12.0273    112.8520
   942.5000    596.4615   -473.5303     12.1468    111.7792
   942.7500    596.4615   -472.6287     12.2004    111.5971
   943.0000    596.4615   -471.5488     12.1971    112.4162
   943.2500    596.4615   -470.3394     12.1519    113.8224
   943.5000    596.4615   -469.0947     12.0817    117.4879
   943.7500    596.4615   -467.9461     12.0037    120.9384
   944.0000    596.4595   -467.0434     11.9352    126.8430
   944.2500    596.4485   -466.5282     11.8935    130.4199
   944.5000    596.3956   -466.5061     11.8964    133.5364
   944.7500    596.2010   -467.0243     11.9617    133.3873
   945.0000    595.6592   -468.0611     12.1051    130.0177
   945.2500    594.5368   -469.5324     12.3372    126.7216
   945.5000    592.8657   -471.3117     12.6578    122.2599
   945.7500    591.2296   -473.2578     13.0522    120.0628
   946.0000    590.5330   -475.2415     13.4909    117.2230
   946.2500    591.2296   -477.1622     13.9348    114.9751
   946.5000    592.8657   -478.9535     14.3463    110.6953
   946.7500    594.5368   -480.5773     14.6993    107.6493
   947.0000    595.6592   -482.0157     14.9822    104.0349
   947.2500    596.2010   -483.2627     15.1948    102.7574
   947.5000    596.3956   -484.3223     15.3435    102.4028
   947.7500    596.4485   -485.2083     15.4379    102.7480
   948.0000    596.4595   -485.9453     15.4862    103.4120
   948.2500    596.4615   -486.5667     15.4911    103.6904
   948.5000    596.4615   -487.1081     15.4477    103.5336
   948.7500    596.4615   -487.5977     15.3473    103.0103
   949.0000    596.4615   -488.0468     15.1839    102.2155
   949.2500    596.4615   -488.4441     14.9607    102.3936
   949.5000    596.4615   -488.7569     14.6913    104.8102
   949.7500    596.4615   -488.9409     14.3950    108.0339
   950.0000    596.4615   -488.9553     14.0900    114.6667
   950.2500    596.4615   -488.7764     13.7882    119.5270
   950.5000    596.4615   -488.4098     13.4957    126.1243
   950.7500    596.4615   -487.8915     13.2175    129.6861
   951.0000    596.4615   -487.2795     12.9602    134.1107
   951.2500    596.4615   -486.6378     12.7303    136.7472
   951.5000    596.4615   -486.0196     12.5300    139.8480
   951.7500    596.4615   -485.4554     12.3557    140.6479
   952.0000    596.4615   -484.9510     12.2009    139.2718
   952.2500    596.4615   -484.4942     12.0628    137.0838
   952.5000    596.4615   -484.0658     11.9460    133.6820
   952.7500    596.4615   -483.6505     11.8613    132.3050
   953.0000    596.4615   -483.2430     11.8179    132.2513
   953.2500    596.4615   -482.8486     11.8163    133.3134
   953.5000    596.4615   -482.4801     11.8460    135.5395
   953.7500    596.4615   -482.1543     11.8889    136.9291
   954.0000    596.4615   -481.8888     11.9281    138.5089
   954.2500    596.4615   -481.7007     11.9554    139.1796
   954.5000    596.4615   -481.6049     11.9746    139.5368
   954.7500    596.4615   -481.6107     11.9997    139.4294
   955.0000    596.4615   -481.7192     12.0500    139.3211
   955.2500    596.4615   -481.9182     12.1459    139.6829
   955.5000    596.4615   -482.1819     12.3068    141.0726
   955.7500    596.4615   -482.4717     12.5495    142.2505
   956.0000    596.4615   -482.7426     12.8870    143.2926
   956.2500    596.4615   -482.9507     13.3252    142.7800
   956.5000    596.4615   -483.0608     13.8575    139.3993
   956.7500    596.4615   -483.0524     14.4606    135.4276
   957.0000    596.4615   -482.9227     15.0927    127.8478
   957.2500    596.4615   -482.6852     15.6983    122.5441
   957.5000    596.4615   -482.3665     16.2155    115.2679
   957.7500    596.4615   -481.9999     16.5871    111.0089
   958.0000    596.4615   -481.6198     16.7746    105.4264
   958.2500    596.4615   -481.2568     16.7711    102.5051
   958.5000    596.4615   -480.9344     16.6044    100.4753
   958.7500    596.4615   -480.6672     16.3254    101.2989
   959.0000    596.4615   -480.4623     15.9875    105.7677
   959.2500    596.4615   -480.3191     15.6307    110.1750
   959.5000    596.4615   -480.2310     15.2783    117.1259
   959.7500    596.4615   -480.1873     14.9444    121.0341
   960.0000    596.4615   -480.1747     14.6456    124.8192
   960.2500    596.4615   -480.1801     14.4086    125.8320
   960.5000    596.4615   -480.1933     14.2697    125.5010
   960.7500    596.4615   -480.2095     14.2695    124.4202
   961.0000    596.4615   -480.2302     14.4455    121.9177
   961.2500    596.4615   -480.2628     14.8262    119.7023
   961.5000    596.4615   -480.3176     15.4252    115.4011
   961.7500    596.4615   -480.4041     16.2335    111.7666
   962.0000    596.4615   -480.5268     17.2094    105.1414
   962.2500    596.4615   -480.6816     18.2712    100.1448
   962.5000    596.4615   -480.8544     19.3025     92.6120
   962.7500    596.4615   -481.0212     20.1809     88.2834
   963.0000    596.4615   -481.1508     20.8201     84.0102
   963.2500    596.4615   -481.2102     21.1979     82.9597
   963.5000    596.4615   -481.1713     21.3476     83.8065
   963.7500    596.4615   -481.0179     21.3263     85.6186
   964.0000    596.4615   -480.7523     21.1883     89.7397
   964.2500    596.4615   -480.3971     20.9801     93.2491
   964.5000    596.4615   -479.9940     20.7469     99.1323
   964.7500    596.4615   -479.5969     20.5340    102.8939
   965.0000    596.4615   -479.2624     20.3782    107.0889
   965.2500    596.4615   -479.0378     20.2987    108.4016
   965.5000    596.4615   -478.9519     20.2994    107.9904
   965.7500    596.4615   -479.0086     20.3798    106.4162
   966.0000    596.4615   -479.1865     20.5471    102.8445
   966.2500    596.4615   -479.4432     20.8184    100.0539
   966.5000    596.4615   -479.7247     21.2122     95.8340
   966.7500    596.4615   -479.9759     21.7359     93.3892
   967.0000    596.4615   -480.1512     22.3789     91.0303
   967.2500    596.4615   -480.2224     23.1147     90.5825
   967.5000    596.4615   -480.1819     23.9092     91.2951
