~Version Information
VERS.                      2.0: CWLS Log ASCII Standard - VERSION 2.0
WRAP.                       NO: One line per depth step
~Well Information Block
STRT.FT               245.0000: 
STOP.FT              1217.7000: 
STEP.FT                 0.1000: 
NULL.                -999.2500: 
COMP.          Pioneer Natural Resources: COMPANY
WELL.          Lucky Lady 42-29: WELL
FLD.           Purgatoire River: FIELD
LOC.           2482' FNL & 662' FEL--: LOCATION
CNTY.               Las Animas: COUNTY
SRVC.                Patterson: SERVICE COMPANY
DATE.          Thu Mar 09 18:39:54 2006: LOG DATE
UWI.           05 071 08659 00: UNIQUE WELL ID
STAT.                 Colorado: STATE
~Curve Information Block
DEPT.FT            0 000 00 00: Depth
DCAL.in                       : CDL Caliper
RHOB.g/cc                     : CDL Bulk Density
RHOC.g/cc                     : CDL Density Correction
DPOR.pu                       : CDL Density Porosity
NPOR.pu                       : Neutron Porosity
GR.GAPI                       : Gamma Ray
~Parameter Information Block
~A  Depth       DCAL        RHOB        RHOC        DPOR        NPOR         GR     
# ...
  1118.6000      7.7890      2.5231      0.0827      7.6906     20.3024    117.7566
  1118.7000      7.7890      2.5271      0.1069      7.4509     20.4501    120.7821
  1118.8000      7.7893      2.5186      0.0859      7.9617     20.5008    125.7817
  1118.9000      7.7893      2.5030      0.0610      8.9117     20.3347    131.6595
  1119.0000      7.7899      2.4947      0.0320      9.4103     20.0715    129.0768
  1119.1000      7.7899      2.4991      0.0451      9.1480     20.0751    116.8851
  1119.2000      7.7899      2.5095      0.0908      8.5168     20.5346    107.8356
  1119.3000      7.7912      2.5157      0.0886      8.1371     20.9213    110.1558
  1119.4000      7.7912      2.5075      0.0378      8.6346     20.5934    118.7901
  1119.5000      7.7921      2.4891      0.0488      9.7541     19.9566    125.0491
  1119.6000      7.7921      2.4790      0.0715     10.3611     19.7865    125.1999
  1119.7000      7.7921      2.4834      0.0712     10.0968     20.0109    121.6572
  1119.8000      7.7917      2.4946      0.0359      9.4195     19.9440    120.9949
  1119.9000      7.7917      2.5029      0.0615      8.9148     19.4276    124.5661
  1120.0000      7.7912      2.4990      0.0662      9.1490     19.2169    123.3998
  1120.1000      7.7912      2.4928      0.0343      9.5284     19.5193    115.1093
  1120.2000      7.7912      2.4992      0.0483      9.1390     19.7076    110.1948
  1120.3000      7.7918      2.5037      0.0814      8.8696     19.5049    112.2486
  1120.4000      7.7918      2.4842      0.0736     10.0477     19.2503    115.0818
  1120.5000      7.7924      2.4494      0.0416     12.1564     19.3517    116.4694
  1120.6000      7.7924      2.4245      0.0443     13.6688     19.8425    118.2012
  1120.7000      7.7924      2.4241      0.0456     13.6924     20.2642    118.6568
  1120.8000      7.7933      2.4476      0.0591     12.2647     20.2011    114.8620
  1120.9000      7.7933      2.4784      0.0999     10.3996     19.9604    108.3850
  1121.0000      7.7947      2.4974      0.0950      9.2461     20.0631    104.7968
  1121.1000      7.7947      2.5049      0.0546      8.7925     20.4991    108.7232
  1121.2000      7.7947      2.5019      0.0838      8.9777     21.0116    116.5302
  1121.3000      7.7946      2.4823      0.0410     10.1634     21.2873    121.7868
  1121.4000      7.7946      2.4563      0.0603     11.7407     21.1202    124.9805
  1121.5000      7.7965      2.4376      0.0405     12.8750     20.7034    128.8055
  1121.6000      7.7965      2.4262      0.0368     13.5658     20.3410    132.1296
  1121.7000      7.7965      2.4137      0.0331     14.3188     20.0203    131.8365
  1121.8000      7.7998      2.4007      0.0007     15.1104     19.8075    129.4874
  1121.9000      7.7998      2.3938      0.0099     15.5247     19.7251    126.9425
  1122.0000      7.8007      2.3921      0.0457     15.6274     19.5520    120.0489
  1122.1000      7.8007      2.3986      0.0236     15.2387     19.3657    108.7449
  1122.2000      7.8007      2.4168      0.0491     14.1344     19.3865    102.1487
  1122.3000      7.7972      2.4338      0.0507     13.1018     19.6338    105.4779
  1122.4000      7.7972      2.4357      0.0642     12.9872     19.9327    114.2327
  1122.5000      7.7883      2.4257      0.0823     13.5969     20.0306    121.9613
  1122.6000      7.7883      2.4205      0.0299     13.9064     19.7944    125.0044
  1122.7000      7.7883      2.4311      0.0644     13.2665     19.4295    119.7687
  1122.8000      7.7783      2.4501      0.0589     12.1149     19.2987    107.2620
  1122.9000      7.7783      2.4598      0.0977     11.5261     19.3467     96.1662
  1123.0000      7.7732      2.4510      0.0939     12.0627     19.1904     95.0022
  1123.1000      7.7732      2.4382      0.0524     12.8356     18.8143    103.8050
  1123.2000      7.7732      2.4357      0.0956     12.9881     18.5672    114.1358
  1123.3000      7.7723      2.4314      0.0831     13.2481     18.5424    118.5818
  1123.4000      7.7723      2.4159      0.0444     14.1905     18.7069    117.2612
  1123.5000      7.7735      2.4038     -0.0111     14.9216     19.0778    112.3141
  1123.6000      7.7735      2.4055      0.0645     14.8153     19.5242    106.8034
  1123.7000      7.7735      2.4098      0.0538     14.5585     20.0438    105.3976
  1123.8000      7.7766      2.4123      0.0272     14.4072     20.5186    108.6922
  1123.9000      7.7766      2.4169      0.0374     14.1264     20.6016    112.0956
  1124.0000      7.7809      2.4205     -0.0123     13.9088     20.3167    113.3198
  1124.1000      7.7809      2.4256      0.0325     13.5989     19.9853    114.6811
  1124.2000      7.7809      2.4334      0.0463     13.1245     19.7491    117.3114
  1124.3000      7.7816      2.4380      0.0155     12.8504     19.7536    119.2515
  1124.4000      7.7816      2.4412      0.0236     12.6559     19.9644    117.4322
  1124.5000      7.7770      2.4509      0.0169     12.0638     20.0839    112.4110
  1124.6000      7.7770      2.4618      0.0640     11.4059     20.0414    110.1069
  1124.7000      7.7770      2.4570      0.0610     11.6955     19.9873    112.0325
  1124.8000      7.7717      2.4424      0.0396     12.5817     19.9556    112.1658
  1124.9000      7.7717      2.4429      0.0166     12.5543     19.9033    108.6924
  1125.0000      7.7701      2.4593      0.0950     11.5564     19.9577    105.6270
  1125.1000      7.7701      2.4714      0.0606     10.8238     20.1146    104.7870
  1125.2000      7.7701      2.4740      0.0608     10.6670     20.0550    105.3038
  1125.3000      7.7704      2.4710      0.0550     10.8462     19.7750    103.0111
  1125.4000      7.7704      2.4642      0.0405     11.2600     19.7800     94.8497
  1125.5000      7.7712      2.4564      0.0735     11.7352     20.2274     85.4942
  1125.6000      7.7712      2.4445      0.0525     12.4535     20.5309     80.9376
  1125.7000      7.7712      2.4240      0.0525     13.6995     20.3212     81.1923
  1125.8000      7.7737      2.4022      0.0180     15.0185     19.8355     83.5034
  1125.9000      7.7737      2.3907      0.0045     15.7159     19.3333     84.9615
  1126.0000      7.7781      2.3878      0.0154     15.8885     18.9234     86.0513
  1126.1000      7.7781      2.3868      0.0393     15.9502     18.6224     88.9673
  1126.2000      7.7781      2.3901      0.0015     15.7500     18.3311     93.5457
  1126.3000      7.7846      2.4005      0.0514     15.1235     18.2063     97.3646
  1126.4000      7.7846      2.4097      0.0593     14.5635     18.4619     96.5408
  1126.5000      7.7943      2.4151      0.0392     14.2340     18.9266     91.9879
  1126.6000      7.7943      2.4239      0.0510     13.7006     19.2010     89.6977
  1126.7000      7.7943      2.4395      0.0741     12.7574     19.0205     90.3557
  1126.8000      7.7996      2.4534      0.0797     11.9175     18.7427     93.0091
  1126.9000      7.7996      2.4527      0.0729     11.9557     18.7537     97.9508
  1127.0000      7.7999      2.4371      0.0752     12.9019     18.8678    103.0283
  1127.1000      7.7999      2.4169      0.0216     14.1274     18.9653    102.7255
  1127.2000      7.7999      2.3981      0.0580     15.2690     19.0393     92.8287
  1127.3000      7.7986      2.3798     -0.0013     16.3761     19.0447     81.4295
  1127.4000      7.7986      2.3649      0.0060     17.2813     19.2170     79.9426
  1127.5000      7.7952      2.3607      0.0002     17.5334     19.5167     84.9547
  1127.6000      7.7952      2.3738      0.0147     16.7398     19.6742     87.8363
  1127.7000      7.7952      2.3980      0.0335     15.2755     19.6472     88.2376
  1127.8000      7.7877      2.4152      0.0515     14.2333     19.5719     88.9064
  1127.9000      7.7877      2.4157      0.0654     14.2006     19.6155     93.8215
  1128.0000      7.7785      2.4066      0.0300     14.7536     19.8810    106.2695
  1128.1000      7.7785      2.4017      0.0195     15.0509     20.2745    119.6711
