~Version Information
VERS.                      2.0: CWLS Log ASCII Standard - VERSION 2.0
WRAP.                       NO: One line per depth step
~Well Information Block
STRT.FT               670.0000: 
STOP.FT              2110.0000: 
STEP.FT                 0.2500: 
NULL.                -999.2500: 
COMP.          Petrogulf Corporation: COMPANY
WELL.           Montoya 12-44R: WELL
FLD.           Purgatorie River: FIELD
LOC.           713' FSL & 798' FEL: LOCATION
PROV.                 Colorado: PROVINCE
CNTY.               Las Animas: COUNTRY
SRVC.                Patterson: SERVICE COMPANY
DATE.          Sun Oct 02 01:06:45 2005: LOG DATE
UWI.           05-071-08538               : UNIQUE WELL ID
~Curve Information Block
DEPT.FT            0 000 00 00: Depth
SP.mV                         : DIL Spontaneous Potential
RILD.Ohm-m                    : DIL Deep Resistivity
RILM.Ohm-m                    : DIL Medium Resistivity
RLL3.Ohm-m                    : DIL Shallow Resistivity
GR.GAPI                       : Gamma Ray
~Parameter Information Block
~A  Depth        SP         RILD        RILM        RLL3         GR     
# ...
  1230.0000    164.8376     12.1999     12.6636     23.6568     74.4100
  1230.2500    163.9084     12.8213     12.9714     17.9330     79.7133
  1230.5000    162.9732     13.3680     13.3302     15.8211     86.6718
  1230.7500    162.0555     13.7847     13.7418     15.7285     90.6906
  1231.0000    161.1709     14.0368     14.1969     16.5259     95.3315
  1231.2500    160.3257     14.1225     14.6765     17.5991     97.3075
  1231.5000    159.5212     14.0722     15.1534     18.8449     99.3803
  1231.7500    158.7614     13.9372     15.5946     20.5810    101.0884
  1232.0000    158.0633     13.7718     15.9632     23.1818    104.8983
  1232.2500    157.4591     13.6170     16.2238     26.5104    107.5792
  1232.5000    156.9868     13.4930     16.3486     29.6138    109.2806
  1232.7500    156.6778     13.3995     16.3245     31.1676    107.8673
  1233.0000    156.5542     13.3235     16.1566     30.4742    103.0476
  1233.2500    156.6332     13.2479     15.8672     28.0643    100.0514
  1233.5000    156.9314     13.1547     15.4890     25.2124     98.8980
  1233.7500    157.4637     13.0244     15.0561     22.8539    100.6446
  1234.0000    158.2442     12.8335     14.5957     21.0370    105.2236
  1234.2500    159.2925     12.5591     14.1229     19.3776    108.1642
  1234.5000    160.6364     12.1895     13.6394     17.8988    111.1616
  1234.7500    162.3070     11.7337     13.1362     17.3169    112.4856
  1235.0000    164.3208     11.2205     12.5995     18.4358    114.4038
  1235.2500    166.6538     10.6878     12.0190     21.1680    115.5212
  1235.5000    169.2161     10.1696     11.3952     24.1302    115.6026
  1235.7500    171.8444      9.6899     10.7427     25.4074    114.0651
  1236.0000    174.3336      9.2628     10.0870     23.9817    110.0872
  1236.2500    176.4985      8.8957      9.4580     20.4729    107.4773
  1236.5000    178.2296      8.5913      8.8818     16.4750    105.8503
  1236.7500    179.5112      8.3487      8.3771     13.3026    107.1260
  1237.0000    180.3986      8.1641      7.9534     11.3733    112.4138
  1237.2500    180.9798      8.0320      7.6139     10.4492    117.3435
  1237.5000    181.3463      7.9485      7.3575     10.1200    125.2272
  1237.7500    181.5795      7.9130      7.1825     10.0600    129.9380
  1238.0000    181.7443      7.9285      7.0883     10.0642    134.4508
  1238.2500    181.8899      8.0002      7.0770     10.0354    134.9999
  1238.5000    182.0551      8.1323      7.1539     10.0178    132.8022
  1238.7500    182.2791      8.3259      7.3277     10.2858    130.7718
  1239.0000    182.6078      8.5775      7.6092     11.4806    128.6338
  1239.2500    183.0878      8.8800      8.0100     14.7984    127.2864
  1239.5000    183.7512      9.2240      8.5401     22.1805    122.8960
  1239.7500    184.6016      9.6010      9.2035     36.2487    117.5649
  1240.0000    185.6092     10.0048      9.9927     59.4086    107.0369
  1240.2500    186.7168     10.4336     10.8826     91.6050     99.8292
  1240.5000    187.8508     10.8902     11.8255    127.5381     90.7870
  1240.7500    188.9340     11.3803     12.7531    156.3004     86.2700
  1241.0000    189.8946     11.9091     13.5877    166.1363     81.3985
  1241.2500    190.6712     12.4748     14.2617    152.2006     79.3826
  1241.5000    191.2166     13.0607     14.7356    120.4890     78.8306
  1241.7500    191.5034     13.6307     15.0058     83.7445     80.4921
  1242.0000    191.5309     14.1337     15.0978     53.1907     86.0637
  1242.2500    191.3288     14.5176     15.0517     33.4161     91.3824
  1242.5000    190.9503     14.7492     14.9100     23.1204    100.2183
  1242.7500    190.4576     14.8273     14.7106     18.7345    105.6666
  1243.0000    189.9056     14.7814     14.4857     17.1959    112.4886
  1243.2500    189.3326     14.6596     14.2638     16.7628    116.5426
  1243.5000    188.7599     14.5144     14.0720     16.6851    122.5694
  1243.7500    188.1952     14.3940     13.9364     16.6978    126.2634
  1244.0000    187.6354     14.3391     13.8824     16.7352    130.1951
  1244.2500    187.0679     14.3819     13.9337     16.8419    131.3666
  1244.5000    186.4731     14.5444     14.1121     17.1522    130.8044
  1244.7500    185.8278     14.8373     14.4372     17.8518    128.8332
  1245.0000    185.1075     15.2608     14.9257     19.1109    123.7669
  1245.2500    184.2887     15.8082     15.5909     21.0322    119.5997
  1245.5000    183.3538     16.4716     16.4420     23.6580    113.5373
  1245.7500    182.2951     17.2454     17.4825     27.0076    110.1005
  1246.0000    181.1114     18.1265     18.7086     31.0858    105.6896
  1246.2500    179.7954     19.1115     20.1086     35.8525    102.7842
  1246.5000    178.3248     20.1934     21.6619     41.1923     97.8643
  1246.7500    176.6670     21.3617     23.3395     46.8735     94.1491
  1247.0000    174.7981     22.6040     25.1038     52.4623     87.9877
  1247.2500    172.7259     23.9073     26.9091     57.2705     83.5294
  1247.5000    170.5078     25.2574     28.7024     60.4944     76.8357
  1247.7500    168.2493     26.6318     30.4267     61.5241     72.9986
  1248.0000    166.0752     27.9897     32.0263     60.2081     69.3039
  1248.2500    164.0842     29.2654     33.4527     56.9475     68.6414
  1248.5000    162.3187     30.3736     34.6697     52.6375     70.5478
  1248.7500    160.7689     31.2315     35.6538     48.4320     73.4853
  1249.0000    159.3972     31.7887     36.3916     45.3255     79.1950
  1249.2500    158.1626     32.0491     36.8762     43.7722     82.8236
  1249.5000    157.0301     32.0685     37.1063     43.6080     86.1450
  1249.7500    155.9726     31.9291     37.0903     44.2456     86.3068
  1250.0000    154.9714     31.7091     36.8514     44.9372     83.8359
  1250.2500    154.0182     31.4641     36.4316     45.0303     81.4045
  1250.5000    153.1148     31.2269     35.8903     44.2187     78.8327
  1250.7500    152.2696     31.0175     35.2960     42.6535     78.7657
  1251.0000    151.4939     30.8500     34.7161     40.7839     81.0131
  1251.2500    150.8012     30.7328     34.2074     39.0677     82.9762
  1251.5000    150.2074     30.6638     33.8111     37.8095     84.4263
  1251.7500    149.7288     30.6294     33.5513     37.1548     84.0347
  1252.0000    149.3773     30.6090     33.4360     37.0804     82.8146
  1252.2500    149.1571     30.5849     33.4586     37.3807     82.6493
  1252.5000    149.0647     30.5500     33.6001     37.7850     83.5759
  1252.7500    149.0919     30.5083     33.8316     38.1645     84.0089
  1253.0000    149.2265     30.4700     34.1186     38.5877     82.4863
  1253.2500    149.4512     30.4457     34.4276     39.1452     79.7519
  1253.5000    149.7418     30.4456     34.7317     39.7547     74.5275
  1253.7500    150.0695     30.4838     35.0159     40.1838     71.7521
  1254.0000    150.4049     30.5767     35.2769     40.2708     70.5611
  1254.2500    150.7226     30.7348     35.5207     40.0998     71.7729
  1254.5000    151.0058     30.9501     35.7572     39.9320     74.5308
  1254.7500    151.2507     31.1922     35.9957     39.9737     75.2946
  1255.0000    151.4679     31.4200     36.2425     40.2440     73.3366
  1255.2500    151.6769     31.6041     36.5000     40.6651     70.5752
  1255.5000    151.8976     31.7467     36.7685     41.2115     66.6579
  1255.7500    152.1441     31.8846     37.0486     41.9046     65.1619
  1256.0000    152.4258     32.0692     37.3439     42.6670     64.5427
  1256.2500    152.7539     32.3378     37.6637     43.2438     64.6253
  1256.5000    153.1489     32.6924     38.0257     43.3397     64.5452
  1256.7500    153.6427     33.0993     38.4553     42.8760     64.0961
  1257.0000    154.2718     33.5051     38.9814     42.1094     63.1890
  1257.2500    155.0672     33.8527     39.6258     41.4947     63.0701
  1257.5000    156.0511     34.0843     40.3861     41.4632     64.4510
  1257.7500    157.2395     34.1355     41.2138     42.3560     66.1032
