~Version Information
VERS.                      2.0: CWLS Log ASCII Standard - VERSION 2.0
WRAP.                       NO: One line per depth step
~Well Information Block
STRT.FT                10.0000: 
STOP.FT              1187.0000: 
STEP.FT                 0.1000: 
NULL.                -999.2500: 
COMP.          Pioneer Natural Resources: COMPANY
WELL.          Whitecoat 14-36: WELL
FLD.           Purgatorie River: FIELD
LOC.           606' FSL & 260' FWL: LOCATION
PROV.                 Colorado: PROVINCE
CNTY.               Las Animas: COUNTRY
SRVC.                Patterson: SERVICE COMPANY
DATE.          Tue Dec 06 07:14:37 2005: LOG DATE
UWI.                          : UNIQUE WELL ID
~Curve Information Block
DEPT.FT            0 000 00 00: Depth
DCAL.in                       : CDL Caliper
RHOB.g/cc                     : CDL Bulk Density
RHOC.g/cc                     : CDL Density Correction
DPOR.pu                       : CDL Density Porosity
GR.GAPI                       : Gamma Ray
NPOR.pu                       : Neutron Porosity
~Parameter Information Block
~A  Depth       DCAL        RHOB        RHOC        DPOR         GR         NPOR    
# ...
   634.0000      8.0038      2.6084      0.0882      2.5222    150.7458     24.7446
   634.1000      8.0038      2.6094      0.1045      2.4619    148.9282     24.7037
   634.2000      8.0038      2.6145      0.1126      2.1493    143.6523     24.4010
   634.3000      7.9865      2.6147      0.0694      2.1377    137.3802     24.2108
   634.4000      7.9865      2.6112      0.0394      2.3540    130.7301     24.1676
   634.5000      7.9643      2.6025      0.0534      2.8808    123.1376     24.0534
   634.6000      7.9643      2.5852      0.0250      3.9302    116.2002     23.9591
   634.7000      7.9643      2.5668      0.0361      5.0423    112.9145     24.0749
   634.8000      7.9677      2.5548      0.0069      5.7684    113.3256     24.2475
   634.9000      7.9677      2.5507      0.0180      6.0190    114.2119     24.1445
   635.0000      7.9494      2.5557      0.0236      5.7146    113.5936     23.7055
   635.1000      7.9494      2.5638      0.0471      5.2268    112.7984     23.2287
   635.2000      7.9494      2.5634      0.0319      5.2476    112.8565     23.0255
   635.3000      7.9695      2.5547      0.0312      5.7728    113.0849     22.8627
   635.4000      7.9695      2.5505      0.0012      6.0289    113.4482     22.2999
   635.5000      7.9738      2.5586      0.0234      5.5365    113.6744     21.8172
   635.6000      7.9738      2.5712      0.0506      4.7741    114.1626     22.1414
   635.7000      7.9738      2.5747      0.0800      4.5661    117.0897     22.9326
   635.8000      7.9517      2.5665      0.0311      5.0635    121.2317     23.5455
   635.9000      7.9517      2.5554      0.0534      5.7360    125.0549     23.8868
   636.0000      7.9300      2.5433      0.0789      6.4665    129.0097     24.0464
   636.1000      7.9300      2.5261      0.0393      7.5085    132.7593     24.0871
   636.2000      7.9300      2.5055      0.0051      8.7579    135.3527     24.2392
   636.3000      7.9307      2.4965      0.0155      9.3061    134.5376     24.5357
   636.4000      7.9307      2.5096      0.0362      8.5114    131.5022     24.5582
   636.5000      7.9088      2.5321      0.0493      7.1474    132.1540     24.1901
   636.6000      7.9088      2.5429      0.0472      6.4904    138.3335     23.9241
   636.7000      7.9088      2.5317      0.0800      7.1702    144.5653     23.9677
   636.8000      7.9137      2.5030      0.0665      8.9095    146.4179     24.0228
   636.9000      7.9137      2.4756      0.0281     10.5706    144.5291     24.0545
   637.0000      7.9201      2.4660      0.0317     11.1485    142.2084     24.1864
   637.1000      7.9201      2.4673      0.0067     11.0701    139.8546     24.3200
   637.2000      7.9201      2.4597      0.0381     11.5360    136.0481     24.1470
   637.3000      7.9496      2.4448     -0.0692     12.4369    131.6508     23.5090
   637.4000      7.9496      2.4352      0.0421     13.0198    126.6991     22.6772
   637.5000      7.9551      2.4279     -0.0009     13.4602    120.3330     22.0167
   637.6000      7.9551      2.4295     -0.0205     13.3625    114.7521     21.7293
   637.7000      7.9551      2.4485      0.0070     12.2123    111.9051     21.6614
   637.8000      7.9589      2.4675      0.0663     11.0602    110.0633     21.4997
   637.9000      7.9589      2.4687      0.0166     10.9868    106.8242     21.2296
   638.0000      7.9760      2.4579      0.0550     11.6424    102.6157     21.0245
   638.1000      7.9760      2.4477      0.0207     12.2603     99.9396     20.9086
   638.2000      7.9760      2.4496      0.0139     12.1464     99.8663     20.8374
   638.3000      7.9739      2.4699      0.0419     10.9182    101.8665     20.8236
   638.4000      7.9739      2.5036      0.0692      8.8733    104.0165     20.9157
   638.5000      7.9612      2.5392      0.1152      6.7159    102.5933     21.1705
   638.6000      7.9612      2.5722      0.0868      4.7124     97.6147     21.5284
   638.7000      7.9612      2.6030      0.1434      2.8473     94.2030     21.6795
   638.8000      7.9637      2.6150      0.1688      2.1187     94.5674     21.5441
   638.9000      7.9637      2.5983      0.1286      3.1347     96.2742     21.4180
   639.0000      7.9430      2.5785      0.0742      4.3327     96.5738     21.3175
   639.1000      7.9430      2.5743      0.1080      4.5903     94.9156     20.9397
   639.2000      7.9430      2.5612      0.1409      5.3791     92.9086     20.3040
   639.3000      7.9093      2.5257      0.0812      7.5313     92.9486     19.9286
   639.4000      7.9093      2.4905      0.0435      9.6690     94.3284     19.9253
   639.5000      7.9092      2.4683      0.0627     11.0115     94.7077     19.8460
   639.6000      7.9092      2.4579      0.0259     11.6395     95.3176     19.5674
   639.7000      7.9092      2.4629      0.0392     11.3380     97.1712     19.3356
   639.8000      7.9107      2.4784      0.0215     10.3982     97.1898     19.3255
   639.9000      7.9107      2.4966      0.0319      9.2968     94.5839     19.6077
   640.0000      7.9114      2.5176      0.0620      8.0266     91.4371     20.0276
   640.1000      7.9114      2.5368      0.0925      6.8582     90.3503     20.3350
   640.2000      7.9114      2.5446      0.1062      6.3857     93.3728     20.4795
   640.3000      7.9357      2.5404      0.0938      6.6437     97.6307     20.5226
   640.4000      7.9357      2.5298      0.0715      7.2822     99.6174     20.5571
   640.5000      7.9408      2.5212      0.0238      7.8042    101.9281     20.6469
   640.6000      7.9408      2.5201      0.0541      7.8713    107.7979     20.9298
   640.7000      7.9408      2.5165      0.0388      8.0937    115.5181     21.5405
   640.8000      7.9142      2.5052      0.0414      8.7766    121.5459     22.4402
   640.9000      7.9142      2.5024      0.0091      8.9425    123.7152     23.4637
   641.0000      7.8948      2.5265      0.0477      7.4821    124.4881     24.3081
   641.1000      7.8948      2.5794      0.0440      4.2801    128.3702     24.9091
   641.2000      7.8948      2.6471      0.1205      0.1754    133.8396     25.5736
   641.3000      7.8907      2.7074      0.2063     -3.4772    134.1547     26.2826
   641.4000      7.8907      2.7423      0.2395     -5.5910    128.8838     26.6730
   641.5000      7.8732      2.7492      0.1835     -6.0123    125.2365     26.8294
   641.6000      7.8732      2.7336      0.1475     -5.0669    125.0312     27.1290
   641.7000      7.8732      2.6964      0.1464     -2.8113    125.5614     27.3415
   641.8000      7.8503      2.6438      0.0880      0.3733    127.5186     27.0438
   641.9000      7.8503      2.5911      0.0682      3.5718    130.8757     26.4663
   642.0000      7.8487      2.5448      0.0622      6.3739    132.9540     26.0889
   642.1000      7.8487      2.5105     -0.0054      8.4550    133.3256     25.8743
   642.2000      7.8487      2.4975      0.0279      9.2411    132.6998     25.4402
   642.3000      7.8437      2.5013      0.0218      9.0139    132.9584     24.7110
   642.4000      7.8437      2.5083      0.0835      8.5877    136.0083     23.9151
   642.5000      7.8971      2.5180      0.0404      8.0014    139.6722     23.3725
   642.6000      7.8971      2.5441      0.0886      6.4195    142.2646     23.4310
   642.7000      7.8971      2.5892      0.1742      3.6833    145.7257     24.0306
   642.8000      8.0307      2.6343      0.1982      0.9514    150.6125     24.7266
   642.9000      8.0307      2.6609      0.2155     -0.6588    154.3348     25.2320
   643.0000      8.1020      2.6653      0.1931     -0.9278    154.9268     25.5060
   643.1000      8.1020      2.6505      0.1659     -0.0316    153.2897     25.7845
   643.2000      8.1020      2.6206      0.0726      1.7799    151.6136     26.4613
   643.3000      8.0966      2.5934      0.0126      3.4328    149.1527     27.5231
   643.4000      8.0966      2.5910     -0.0161      3.5739    144.7159     28.3834
   643.5000      8.0336      2.6073      0.0619      2.5879    140.4829     28.6126
