~Version Information
VERS.                      2.0: CWLS Log ASCII Standard - VERSION 2.0
WRAP.                       NO: One line per depth step
~Well Information Block
STRT.FT                10.0000: 
STOP.FT               907.0000: 
STEP.FT                 0.1000: 
NULL.                -999.2500: 
COMP.          Pioneer Natural Resources: COMPANY
WELL.           Hartford 31-18: WELL
FLD.           Purgatorie River: FIELD
LOC.           375' FNL & 1660' FEL: LOCATION
PROV.                 Colorado: PROVINCE
CNTY.               Las Animas: COUNTRY
SRVC.                Patterson: SERVICE COMPANY
DATE.          Mon Nov 21 07:39:41 2005: LOG DATE
UWI.            05-071-08555              : UNIQUE WELL ID
~Curve Information Block
DEPT.FT            0 000 00 00: Depth
DCAL.in                       : CDL Caliper
RHOB.g/cc                     : CDL Bulk Density
RHOC.g/cc                     : CDL Density Correction
DPOR.pu                       : CDL Density Porosity
GR.GAPI                       : Gamma Ray
NPOR.pu                       : Neutron Porosity
~Parameter Information Block
~A  Depth       DCAL        RHOB        RHOC        DPOR         GR         NPOR    
# ...
   778.0000      8.0024      2.5427     -0.0474      6.5058     63.5140     19.2776
   778.1000      8.0024      2.5444      0.0330      6.4019     65.8365     18.9767
   778.2000      8.0024      2.5572     -0.0128      5.6220     68.8533     18.9706
   778.3000      8.0065      2.5776      0.0076      4.3876     69.8606     19.2791
   778.4000      8.0065      2.5983     -0.0086      3.1356     67.5720     19.6848
   778.5000      8.0103      2.6123      0.0234      2.2862     63.5469     19.7933
   778.6000      8.0103      2.6160      0.0291      2.0607     60.8619     19.6617
   778.7000      8.0103      2.6041      0.0339      2.7844     60.9177     19.7111
   778.8000      8.0296      2.5782     -0.0202      4.3491     61.3862     19.9464
   778.9000      8.0296      2.5560      0.0005      5.6997     60.2509     20.1403
   779.0000      8.0148      2.5522     -0.0224      5.9291     58.6151     20.2123
   779.1000      8.0148      2.5690     -0.0183      4.9081     58.4299     20.1331
   779.2000      8.0148      2.5955      0.0211      3.3014     60.0564     19.9970
   779.3000      7.9906      2.6109      0.0308      2.3695     62.6205     19.9496
   779.4000      7.9906      2.6107     -0.0012      2.3837     65.9108     20.0107
   779.5000      7.9911      2.6103     -0.0061      2.4057     68.3612     20.0950
   779.6000      7.9911      2.6173      0.0121      1.9794     68.8615     20.1647
   779.7000      7.9911      2.6285      0.0130      1.3014     69.8457     20.2312
   779.8000      7.9965      2.6370      0.0563      0.7866     72.8496     20.4273
   779.9000      7.9965      2.6316      0.0663      1.1162     77.3127     20.8408
   780.0000      7.9856      2.6083      0.0491      2.5301     80.8134     21.0034
   780.1000      7.9856      2.5791      0.0168      4.2961     80.2856     20.6901
   780.2000      7.9856      2.5606     -0.0071      5.4163     76.3696     20.6216
   780.3000      7.9871      2.5591     -0.0031      5.5102     71.8534     21.1810
   780.4000      7.9871      2.5713      0.0181      4.7707     68.9105     21.7975
   780.5000      8.0011      2.5907      0.0082      3.5913     68.3148     21.8075
   780.6000      8.0011      2.6044      0.0599      2.7612     69.1376     21.1017
   780.7000      8.0011      2.6010      0.0099      2.9712     68.9019     20.2586
   780.8000      8.0056      2.5893      0.0143      3.6803     66.7806     19.8522
   780.9000      8.0056      2.5827      0.0287      4.0763     65.3500     19.9640
   781.0000      7.9989      2.5897     -0.0198      3.6566     66.1418     20.3278
   781.1000      7.9989      2.6139      0.0106      2.1878     66.9273     20.5374
   781.2000      7.9989      2.6358      0.0728      0.8632     65.3029     20.6507
   781.3000      8.0127      2.6345      0.0475      0.9384     64.4287     20.9815
   781.4000      8.0127      2.6188      0.0670      1.8902     65.6295     21.2199
   781.5000      8.0160      2.6118      0.0245      2.3146     65.4521     20.9494
   781.6000      8.0160      2.6261      0.0407      1.4478     64.3814     20.4797
   781.7000      8.0160      2.6428      0.0731      0.4384     63.9844     20.3076
   781.8000      7.9930      2.6391      0.0056      0.6608     63.6099     20.4179
   781.9000      7.9930      2.6258      0.0147      1.4691     64.7365     20.6251
   782.0000      7.9670      2.6190     -0.0098      1.8785     68.9445     20.8413
   782.1000      7.9670      2.6150      0.0171      2.1195     73.1260     20.9664
   782.2000      7.9670      2.6101     -0.0114      2.4169     73.2779     20.8436
   782.3000      7.9823      2.6095      0.0270      2.4534     68.4178     20.4172
   782.4000      7.9823      2.6086      0.0424      2.5109     60.5985     20.0830
   782.5000      7.9523      2.6052      0.0204      2.7122     55.0897     20.2846
   782.6000      7.9523      2.6132      0.0092      2.2328     55.7507     20.8035
   782.7000      7.9523      2.6350      0.0428      0.9062     59.4998     21.1069
   782.8000      7.9766      2.6491      0.0831      0.0555     61.6001     21.0337
   782.9000      7.9766      2.6314      0.0671      1.1268     61.9871     20.8493
   783.0000      7.9790      2.5913      0.0019      3.5562     62.2036     20.6402
   783.1000      7.9790      2.5686     -0.0596      4.9334     63.0594     20.4242
   783.2000      7.9790      2.5861     -0.0086      3.8712     65.8681     20.4367
   783.3000      7.9594      2.6200      0.0674      1.8212     70.8568     20.6155
   783.4000      7.9594      2.6350      0.0233      0.9096     75.4170     20.8128
   783.5000      7.9688      2.6233      0.0993      1.6168     77.3387     21.0091
   783.6000      7.9688      2.5969      0.0354      3.2212     77.2877     20.9059
   783.7000      7.9688      2.5781     -0.0001      4.3603     76.0068     20.4175
   783.8000      7.9825      2.5721      0.0465      4.7183     74.4688     19.9962
   783.9000      7.9825      2.5624     -0.0014      5.3079     73.6110     19.9125
   784.0000      7.9879      2.5487     -0.0176      6.1420     72.1912     19.9264
   784.1000      7.9879      2.5433     -0.0134      6.4653     69.0794     19.8713
   784.2000      7.9879      2.5466     -0.0071      6.2669     65.8775     19.9666
   784.3000      7.9969      2.5533      0.0172      5.8610     65.0015     20.1148
   784.4000      7.9969      2.5614      0.0048      5.3720     66.1346     20.1095
   784.5000      8.0021      2.5692      0.0162      4.8967     67.7283     20.0849
   784.6000      8.0021      2.5771      0.0083      4.4212     69.2896     20.1283
   784.7000      8.0021      2.5833      0.0713      4.0405     70.0000     20.1596
   784.8000      7.9946      2.5841     -0.0132      3.9938     68.5354     19.9848
   784.9000      7.9946      2.5801      0.0461      4.2381     65.1931     19.5455
   785.0000      8.0004      2.5703      0.0114      4.8274     62.6731     19.0197
   785.1000      8.0004      2.5550     -0.0064      5.7596     63.9701     18.6484
   785.2000      8.0004      2.5402     -0.0249      6.6569     67.5968     18.6611
   785.3000      7.9945      2.5336     -0.0484      7.0525     68.8906     18.9569
   785.4000      7.9945      2.5380     -0.0193      6.7903     68.0134     19.1669
   785.5000      7.9904      2.5462     -0.0115      6.2918     68.6396     19.0841
   785.6000      7.9904      2.5533     -0.0016      5.8595     70.1769     18.9009
   785.7000      7.9904      2.5654     -0.0268      5.1276     70.2851     18.9317
   785.8000      7.9875      2.5832      0.0153      4.0473     70.5293     19.0838
   785.9000      7.9875      2.5892      0.0676      3.6819     71.7525     19.0548
   786.0000      7.9970      2.5773      0.0232      4.4072     72.5514     19.0347
   786.1000      7.9970      2.5630      0.0031      5.2735     71.5001     19.1795
   786.2000      7.9970      2.5571     -0.0351      5.6310     68.8805     19.0873
   786.3000      7.9934      2.5638     -0.0142      5.2257     66.9727     18.7994
   786.4000      7.9934      2.5803      0.0251      4.2236     66.2626     18.8133
   786.5000      7.9851      2.5923      0.0645      3.4944     65.9097     19.0024
   786.6000      7.9851      2.5911      0.0447      3.5725     65.4162     19.0150
   786.7000      7.9851      2.5897      0.0037      3.6527     65.2907     19.1525
   786.8000      7.9857      2.6038      0.0457      2.7994     66.8429     19.7022
   786.9000      7.9857      2.6229      0.0417      1.6416     70.3340     20.2801
   787.0000      7.9887      2.6325      0.0807      1.0598     74.2257     20.2412
   787.1000      7.9887      2.6356      0.0300      0.8728     74.5703     19.6361
   787.2000      7.9887      2.6319      0.0813      1.0987     70.9373     19.3264
   787.3000      7.9902      2.6113      0.0440      2.3450     69.0375     19.5934
   787.4000      7.9902      2.5852      0.0290      3.9274     71.1653     19.8909
   787.5000      7.9863      2.5771      0.0317      4.4176     74.8611     20.1124
