~Version Information
VERS.                      2.0: CWLS Log ASCII Standard - VERSION 2.0
WRAP.                       NO: One line per depth step
~Well Information Block
STRT.FT               800.0000: 
STOP.FT              3500.0000: 
STEP.FT                 0.2500: 
NULL.                -999.2500: 
COMP.          Pioneer Natural Resources: COMPANY
WELL.          Cordillera 34-7: WELL
FLD.           Purgatoire River: FIELD
LOC.           598' FSL & 1770' FEL--: LOCATION
PROV.                 Colorado: PROVINCE
CNTY.               Las Animas: COUNTRY
SRVC.                Patterson: SERVICE COMPANY
DATE.          Thu Oct 27 20:08:30 2005: LOG DATE
UWI.           05 071 08552 00: UNIQUE WELL ID
~Curve Information Block
DEPT.FT            0 000 00 00: Depth
SN.Ohm-m                      : IEL Short Normal
SP.mV                         : IEL Spontaneous Potential
DIR.Ohm-m                     : IEL Induction Resistivity
GR.GAPI                       : Gamma Ray
~Parameter Information Block
~A  Depth        SN          SP         DIR          GR     
# ...
  1336.0000   2000.0000   2000.0000     26.6008     54.7724
  1336.2500   2000.0000   2000.0000     26.5099     54.8297
  1336.5000   2000.0000   2000.0000     26.2970     55.2098
  1336.7500   2000.0000   2000.0000     25.9389     55.2568
  1337.0000   2000.0000   2000.0000     25.4245     54.4940
  1337.2500   2000.0000   2000.0000     24.7637     53.5742
  1337.5000   2000.0000   2000.0000     23.9905     52.5447
  1337.7500   2000.0000   2000.0000     23.1585     52.7385
  1338.0000   2000.0000   2000.0000     22.3293     55.1765
  1338.2500   2000.0000   2000.0000     21.5592     58.5916
  1338.5000   2000.0000   2000.0000     20.8876     67.0006
  1338.7500   2000.0000   2000.0000     20.3290     74.9624
  1339.0000   2000.0000   2000.0000     19.8712     89.6571
  1339.2500   2000.0000   2000.0000     19.4785    100.1217
  1339.5000   2000.0000   2000.0000     19.1033    114.5855
  1339.7500   2000.0000   2000.0000     18.7034    122.5296
  1340.0000   2000.0000   2000.0000     18.2593    131.0688
  1340.2500   2000.0000   2000.0000     17.7817    134.2714
  1340.5000   2000.0000   2000.0000     17.3036    135.9458
  1340.7500   2000.0000   2000.0000     16.8628    136.0769
  1341.0000   2000.0000   2000.0000     16.4879    136.6165
  1341.2500   2000.0000   2000.0000     16.1933    137.4311
  1341.5000   2000.0000   2000.0000     15.9829    138.6501
  1341.7500   2000.0000   2000.0000     15.8547    139.1367
  1342.0000   2000.0000   2000.0000     15.8033    139.3017
  1342.2500   2000.0000   2000.0000     15.8204    139.1191
  1342.5000   2000.0000   2000.0000     15.8937    138.8252
  1342.7500   2000.0000   2000.0000     16.0076    139.0134
  1343.0000   2000.0000   2000.0000     16.1454    140.1889
  1343.2500   2000.0000   2000.0000     16.2926    141.2897
  1343.5000   2000.0000   2000.0000     16.4400    142.5321
  1343.7500   2000.0000   2000.0000     16.5831    142.7337
  1344.0000   2000.0000   2000.0000     16.7206    141.9910
  1344.2500   2000.0000   2000.0000     16.8513    140.8648
  1344.5000   2000.0000   2000.0000     16.9750    138.3847
  1344.7500   2000.0000   2000.0000     17.0928    136.4007
  1345.0000   2000.0000   2000.0000     17.2066    133.4431
  1345.2500   2000.0000   2000.0000     17.3174    131.6624
  1345.5000   2000.0000   2000.0000     17.4242    129.1202
  1345.7500   2000.0000   2000.0000     17.5260    127.3142
  1346.0000   2000.0000   2000.0000     17.6249    124.3288
  1346.2500   2000.0000   2000.0000     17.7279    122.1994
  1346.5000   2000.0000   2000.0000     17.8440    118.8063
  1346.7500   2000.0000   2000.0000     17.9806    116.3888
  1347.0000   2000.0000   2000.0000     18.1401    112.7021
  1347.2500   2000.0000   2000.0000     18.3198    110.4882
  1347.5000   2000.0000   2000.0000     18.5144    108.1935
  1347.7500   2000.0000   2000.0000     18.7178    107.7141
  1348.0000   2000.0000   2000.0000     18.9227    108.8898
  1348.2500   2000.0000   2000.0000     19.1185    110.7813
  1348.5000   2000.0000   2000.0000     19.2904    114.3298
  1348.7500   2000.0000   2000.0000     19.4224    116.4833
  1349.0000   2000.0000   2000.0000     19.5031    118.8669
  1349.2500   2000.0000   2000.0000     19.5323    120.1176
  1349.5000   2000.0000   2000.0000     19.5223    121.9590
  1349.7500   2000.0000   2000.0000     19.4934    122.9770
  1350.0000   2000.0000   2000.0000     19.4679    123.2759
  1350.2500   2000.0000   2000.0000     19.4665    122.3340
  1350.5000   2000.0000   2000.0000     19.5078    119.5310
  1350.7500   2000.0000   2000.0000     19.6079    117.2361
  1351.0000   2000.0000   2000.0000     19.7792    114.0376
  1351.2500   2000.0000   2000.0000     20.0298    112.4399
  1351.5000   2000.0000   2000.0000     20.3639    110.8194
  1351.7500   2000.0000   2000.0000     20.7785    109.6752
  1352.0000   2000.0000   2000.0000     21.2562    106.4305
  1352.2500   2000.0000   2000.0000     21.7575    102.7430
  1352.5000   2000.0000   2000.0000     22.2207     95.1128
  1352.7500   2000.0000   2000.0000     22.5746     89.1435
  1353.0000   2000.0000   2000.0000     22.7615     79.9801
  1353.2500   2000.0000   2000.0000     22.7582     74.4144
  1353.5000   2000.0000   2000.0000     22.5845     67.9888
  1353.7500   2000.0000   2000.0000     22.2935     65.5377
  1354.0000   2000.0000   2000.0000     21.9528     65.3343
  1354.2500   2000.0000   2000.0000     21.6213     67.7381
  1354.5000   2000.0000   2000.0000     21.3321     74.9432
  1354.7500   2000.0000   2000.0000     21.0858     81.5770
  1355.0000   2000.0000   2000.0000     20.8589     92.6176
  1355.2500   2000.0000   2000.0000     20.6223     99.5729
  1355.5000   2000.0000   2000.0000     20.3585    107.8797
  1355.7500   2000.0000   2000.0000     20.0687    111.6629
  1356.0000   2000.0000   2000.0000     19.7689    115.0341
  1356.2500   2000.0000   2000.0000     19.4821    116.2341
  1356.5000   2000.0000   2000.0000     19.2309    117.4200
  1356.7500   2000.0000   2000.0000     19.0317    118.2333
  1357.0000   2000.0000   2000.0000     18.8886    119.6453
  1357.2500   2000.0000   2000.0000     18.7901    120.4969
  1357.5000   2000.0000   2000.0000     18.7141    121.3626
  1357.7500   2000.0000   2000.0000     18.6381    121.8197
  1358.0000   2000.0000   2000.0000     18.5517    122.7611
  1358.2500   2000.0000   2000.0000     18.4598    123.5394
  1358.5000   2000.0000   2000.0000     18.3744    124.4051
  1358.7500   2000.0000   2000.0000     18.3034    124.5505
  1359.0000   2000.0000   2000.0000     18.2459    124.2563
  1359.2500   2000.0000   2000.0000     18.1974    123.9177
  1359.5000   2000.0000   2000.0000     18.1591    123.2980
  1359.7500   2000.0000   2000.0000     18.1394    122.7779
  1360.0000   2000.0000   2000.0000     18.1467    121.9990
  1360.2500   2000.0000   2000.0000     18.1799    121.7129
  1360.5000   2000.0000   2000.0000     18.2261    121.9720
  1360.7500   2000.0000   2000.0000     18.2666    122.6761
  1361.0000   2000.0000   2000.0000     18.2870    124.4898
  1361.2500   2000.0000   2000.0000     18.2811    126.1133
  1361.5000   2000.0000   2000.0000     18.2516    128.7727
  1361.7500   2000.0000   2000.0000     18.2098    130.2674
  1362.0000   2000.0000   2000.0000     18.1762    131.2395
  1362.2500   2000.0000   2000.0000     18.1794    130.7112
  1362.5000   2000.0000   2000.0000     18.2508    128.1931
  1362.7500   2000.0000   2000.0000     18.4141    125.7283
  1363.0000   2000.0000   2000.0000     18.6765    121.8120
  1363.2500   2000.0000   2000.0000     19.0251    119.5774
  1363.5000   2000.0000   2000.0000     19.4322    117.2100
  1363.7500   2000.0000   2000.0000     19.8657    116.2038
  1364.0000   2000.0000   2000.0000     20.3004    115.0599
  1364.2500   2000.0000   2000.0000     20.7213    114.2144
  1364.5000   2000.0000   2000.0000     21.1213    112.5264
  1364.7500   2000.0000   2000.0000     21.4940    111.1530
  1365.0000   2000.0000   2000.0000     21.8342    108.6005
  1365.2500   2000.0000   2000.0000     22.1450    106.0701
  1365.5000   2000.0000   2000.0000     22.4454     99.9344
  1365.7500   2000.0000   2000.0000     22.7665     94.2656
  1366.0000   2000.0000   2000.0000     23.1349     84.9704
  1366.2500   2000.0000   2000.0000     23.5572     79.4935
  1366.5000   2000.0000   2000.0000     24.0154     73.6774
  1366.7500   2000.0000   2000.0000     24.4767     71.5082
  1367.0000   2000.0000   2000.0000     24.9048     70.3610
  1367.2500   2000.0000   2000.0000     25.2672     70.6103
  1367.5000   2000.0000   2000.0000     25.5380     71.7047
  1367.7500   2000.0000   2000.0000     25.7046     72.3293
  1368.0000   2000.0000   2000.0000     25.7728     72.1067
  1368.2500   2000.0000   2000.0000     25.7629     70.9128
  1368.5000   2000.0000   2000.0000     25.6975     68.0357
  1368.7500   2000.0000   2000.0000     25.5929     66.0420
  1369.0000   2000.0000   2000.0000     25.4636     63.8235
  1369.2500   2000.0000   2000.0000     25.3348     62.9310
