~Version Information
VERS.                      2.0: CWLS Log ASCII Standard - VERSION 2.0
WRAP.                       NO: One line per depth step
~Well Information Block
STRT.FT               660.0000: 
STOP.FT              2491.0000: 
STEP.FT                 0.2500: 
NULL.                -999.2500: 
COMP.          Petrogulf Corporation: COMPANY
WELL.          Montoya 18-11V-B: WELL
FLD.           Purgatorie River: FIELD
LOC.           848' FNL & 619' FWL: LOCATION
PROV.                 Colorado: PROVINCE
CNTY.               Las Animas: COUNTRY
SRVC.                Patterson: SERVICE COMPANY
DATE.          Wed Oct 05 04:34:17 2005: LOG DATE
UWI.                          : UNIQUE WELL ID
~Curve Information Block
DEPT.FT            0 000 00 00: Depth
SP.mV                         : DIL Spontaneous Potential
RILD.Ohm-m                    : DIL Deep Resistivity
RILM.Ohm-m                    : DIL Medium Resistivity
RLL3.Ohm-m                    : DIL Shallow Resistivity
GR.GAPI                       : Gamma Ray
~Parameter Information Block
~A  Depth        SP         RILD        RILM        RLL3         GR     
# ...
  2200.0000    174.5585     26.7455     33.0253     38.1455     40.1178
  2200.2500    175.2543     26.6687     32.8091     36.6211     41.5768
  2200.5000    176.0502     26.6042     32.5469     35.6221     43.9584
  2200.7500    176.9094     26.5503     32.2521     35.2686     45.0856
  2201.0000    177.8008     26.5092     31.9476     35.4350     44.9653
  2201.2500    178.6924     26.4889     31.6649     35.7112     43.5902
  2201.5000    179.5507     26.4957     31.4387     35.6263     41.0059
  2201.7500    180.3487     26.5248     31.2992     34.9714     40.0257
  2202.0000    181.0765     26.5571     31.2629     33.8553     40.1133
  2202.2500    181.7402     26.5660     31.3263     32.4547     40.5279
  2202.5000    182.3524     26.5297     31.4645     30.8291     40.4467
  2202.7500    182.9224     26.4427     31.6348     29.0196     39.8571
  2203.0000    183.4564     26.3198     31.7870     27.2068     38.9787
  2203.2500    183.9629     26.1888     31.8778     25.6716     38.9599
  2203.5000    184.4540     26.0768     31.8824     24.6358     40.3497
  2203.7500    184.9433     25.9986     31.7996     24.1931     42.2017
  2204.0000    185.4424     25.9525     31.6473     24.3499     45.7822
  2204.2500    185.9611     25.9229     31.4509     25.0442     48.1979
  2204.5000    186.5089     25.8874     31.2303     26.1019     50.9811
  2204.7500    187.0968     25.8218     30.9916     27.2325     51.9121
  2205.0000    187.7334     25.7071     30.7256     28.1443     51.9407
  2205.2500    188.4155     25.5344     30.4132     28.7041     51.5027
  2205.5000    189.1221     25.3070     30.0342     29.0099     51.1341
  2205.7500    189.8163     25.0378     29.5763     29.3121     51.2879
  2206.0000    190.4603     24.7422     29.0402     29.8142     51.5531
  2206.2500    191.0320     24.4303     28.4402     30.4785     51.2268
  2206.5000    191.5330     24.1041     27.7996     31.0100     49.7513
  2206.7500    191.9796     23.7607     27.1449     31.0629     48.5937
  2207.0000    192.3869     23.4009     26.5012     30.4947     47.9331
  2207.2500    192.7585     23.0353     25.8892     29.4534     48.8136
  2207.5000    193.0911     22.6827     25.3250     28.2781     52.3644
  2207.7500    193.3882     22.3607     24.8206     27.3289     55.8852
  2208.0000    193.6753     22.0769     24.3851     26.8150     61.7962
  2208.2500    194.0085     21.8263     24.0252     26.6757     65.5290
  2208.5000    194.4763     21.5979     23.7453     26.6326     70.1979
  2208.7500    195.1911     21.3857     23.5473     26.4474     72.5420
  2209.0000    196.2663     21.1937     23.4289     26.1692     74.9061
  2209.2500    197.7765     21.0306     23.3825     26.0877     75.9787
  2209.5000    199.7121     20.8988     23.3941     26.4048     77.5953
  2209.7500    201.9523     20.7866     23.4421     27.0010     78.8525
  2210.0000    204.2800     20.6688     23.4981     27.6156     80.2764
  2210.2500    206.4434     20.5149     23.5286     28.2401     80.2392
  2210.5000    208.2413     20.3000     23.4983     29.1758     78.3129
  2210.7500    209.5871     20.0130     23.3750     30.5977     76.2100
  2211.0000    210.5118     19.6596     23.1332     32.1454     73.0413
  2211.2500    211.1132     19.2585     22.7582     33.0897     71.5277
  2211.5000    211.4945     18.8358     22.2482     32.9389     70.7797
  2211.7500    211.7332     18.4201     21.6157     31.8130     71.3763
  2212.0000    211.8822     18.0361     20.8865     30.1810     73.4764
  2212.2500    211.9782     17.6980     20.0981     28.3078     75.1072
  2212.5000    212.0434     17.4042     19.2946     26.0945     76.7334
  2212.7500    212.0819     17.1379     18.5201     23.4653     76.8377
  2213.0000    212.0847     16.8738     17.8119     20.7485     75.7811
  2213.2500    212.0431     16.5879     17.1951     18.5555     74.9296
  2213.5000    211.9570     16.2666     16.6812     17.3479     74.6515
  2213.7500    211.8314     15.9116     16.2678     17.1990     75.4880
  2214.0000    211.6636     15.5394     15.9429     17.8901     78.1328
  2214.2500    211.4354     15.1760     15.6882     19.0812     80.4884
  2214.5000    211.1163     14.8509     15.4852     20.3561     84.1476
  2214.7500    210.6792     14.5903     15.3200     21.2310     86.0749
  2215.0000    210.1204     14.4127     15.1858     21.2944     87.1346
  2215.2500    209.4752     14.3237     15.0842     20.4413     86.4051
  2215.5000    208.8233     14.3133     15.0220     18.9906     84.0287
  2215.7500    208.2872     14.3564     15.0072     17.5892     82.5460
  2216.0000    208.0259     14.4175     15.0426     17.0724     81.7484
  2216.2500    208.2173     14.4616     15.1218     18.4468     82.2084
  2216.5000    209.0186     14.4654     15.2265     22.7957     83.0141
  2216.7500    210.5114     14.4241     15.3281     30.6212     82.3341
  2217.0000    212.6609     14.3497     15.3943     40.6640     77.8088
  2217.2500    215.3143     14.2635     15.3995     49.4254     72.4760
  2217.5000    218.2367     14.1872     15.3345     52.7654     62.9540
  2217.7500    221.1649     14.1379     15.2099     48.8799     57.2841
  2218.0000    223.8595     14.1241     15.0514     39.8330     52.1208
  2218.2500    226.1440     14.1455     14.8883     29.9697     51.3170
  2218.5000    227.9303     14.1917     14.7428     22.8827     53.1830
  2218.7500    229.2219     14.2454     14.6240     19.7297     55.5550
  2219.0000    230.0916     14.2872     14.5283     19.6352     59.4112
  2219.2500    230.6413     14.3037     14.4453     20.9286     61.5812
  2219.5000    230.9663     14.2940     14.3660     22.0738     63.6446
  2219.7500    231.1366     14.2719     14.2903     22.1257     64.3606
  2220.0000    231.1916     14.2620     14.2295     20.9079     65.5211
  2220.2500    231.1437     14.2909     14.2036     18.9341     66.9451
  2220.5000    230.9882     14.3778     14.2351     17.0531     69.9883
  2220.7500    230.7175     14.5272     14.3419     15.9909     72.0735
  2221.0000    230.3304     14.7290     14.5324     16.0544     74.5068
  2221.2500    229.8333     14.9645     14.8042     17.1035     75.5343
  2221.5000    229.2367     15.2179     15.1453     18.6947     76.0814
  2221.7500    228.5495     15.4847     15.5384     20.2656     75.6066
  2222.0000    227.7700     15.7723     15.9666     21.3244     73.4532
  2222.2500    226.8779     16.0931     16.4181     21.6355     71.3347
  2222.5000    225.8318     16.4547     16.8892     21.3228     68.2739
  2222.7500    224.5739     16.8557     17.3827     20.8032     66.9051
  2223.0000    223.0393     17.2876     17.9048     20.5720     65.8672
  2223.2500    221.1707     17.7399     18.4606     20.9581     65.3440
  2223.5000    218.9469     18.2037     19.0502     21.9746     64.1646
  2223.7500    216.4120     18.6694     19.6676     23.3359     63.2834
  2224.0000    213.6817     19.1238     20.3012     24.6202     62.6321
  2224.2500    210.9094     19.5493     20.9353     25.4668     62.8584
  2224.5000    208.2264     19.9278     21.5535     25.7008     63.7396
  2224.7500    205.6948     20.2465     22.1404     25.3580     64.2686
  2225.0000    203.3012     20.4992     22.6844     24.6261     64.5958
  2225.2500    200.9895     20.6844     23.1783     23.7381     64.4959
  2225.5000    198.7088     20.8028     23.6195     22.8800     64.0812
  2225.7500    196.4465     20.8578     24.0084     22.1749     63.8955
  2226.0000    194.2359     20.8581     24.3445     21.7349     64.2516
  2226.2500    192.1407     20.8164     24.6224     21.7139     64.9545
  2226.5000    190.2272     20.7416     24.8271     22.2915     66.1536
  2226.7500    188.5374     20.6311     24.9329     23.5859     66.5665
  2227.0000    187.0756     20.4701     24.9053     25.5588     66.1123
  2227.2500    185.8135     20.2400     24.7082     27.9808     65.1682
  2227.5000    184.7054     19.9335     24.3152     30.4666     63.3377
  2227.7500    183.7057     19.5630     23.7212     32.5611     62.0837
