~Version Information
VERS.                      2.0: CWLS Log ASCII Standard - VERSION 2.0
WRAP.                       NO: One line per depth step
~Well Information Block
STRT.FT                -8.7500: 
STOP.FT              2331.5000: 
STEP.FT                 0.2500: 
NULL.                -999.2500: 
COMP.          Pioneer Natural Resources: COMPANY
WELL.          Sparrowhawk 22-12: WELL
FLD.           Purgatorie River: FIELD
LOC.           2049' FNL & 2060' FWL--: LOCATION
CNTY.               Las Animas: COUNTY
SRVC.          Patterson Wireline: SERVICE COMPANY
DATE.          Wed Apr 12 08:53:41 2006: LOG DATE
UWI.           05 071 08484 00: UNIQUE WELL ID
STAT.                       CO: STATE
~Curve Information Block
DEPT.FT            0 000 00 00: Depth
CCL.                          : Casing Collar Locator
TT3.usec                      : CBL 3' Travel Time
AMP3.mV                       : CBL 3' Amplitude
GR.GAPI                       : Gamma Ray
~Parameter Information Block
MAXAMPL.mV              0.0000: Maximum Amplitude
~A  Depth       CCL         TT3         AMP3         GR     
# ...
   292.7500      0.0000    264.7133     77.4879    130.3420
   293.0000      0.0000    264.6971     77.3433    133.4573
   293.2500      0.0000    264.6823     77.2156    135.6650
   293.5000      0.0000    264.6740     77.0716    136.2784
   293.7500      0.0000    264.6750     76.8814    135.4461
   294.0000      0.0000    264.6851     76.6472    133.8333
   294.2500      0.0000    264.6992     76.3954    131.3477
   294.5000      0.0000    264.7068     76.1440    126.9906
   294.7500      0.0000    264.6996     75.8774    120.2354
   295.0000      0.0000    264.6795     75.5567    111.7998
   295.2500      0.0000    264.6575     75.1637    102.7692
   295.5000      0.0000    264.6422     74.7331     93.7860
   295.7500      0.0000    264.6363     74.3237     85.6094
   296.0000      0.0000    264.6530     73.9222     79.7630
   296.2500      0.0000    264.7420     73.3215     77.9099
   296.5000      0.0000    265.0073     72.0460     80.6402
   296.7500      0.0000    265.5849     69.5140     87.0178
   297.0000      0.0000    266.5559     65.5323     95.0431
   297.2500      0.0000    267.8416     60.7239    102.4743
   297.5000      0.0000    269.1986     56.2466    107.4939
   297.7500      0.0000    270.3589     52.9291    108.9619
   298.0000      0.0000    271.1834     50.8114    106.4100
   298.2500      0.0000    271.6847     49.5045    100.3084
   298.5000      0.0000    271.9460     48.7006     92.5596
   298.7500      2.0000    272.0466     48.2741     86.2605
   299.0000     -2.0000    272.0309     48.1682     84.1255
   299.2500      0.0000    271.8992     48.3510     86.7547
   299.5000      0.0000    271.6047     48.8294     92.4709
   299.7500      0.0000    271.0694     49.6933     98.6694
   300.0000      0.0000    270.2297     51.2189    103.2654
   300.2500      0.0000    269.1063     53.8641    105.4108
   300.5000      0.0000    267.8421     57.9186    105.4141
   300.7500      0.0000    266.6536     63.0357    104.0054
   301.0000      0.0000    265.7213     68.2247    101.5897
   301.2500      0.0000    265.1129     72.4390     98.1986
   301.5000      0.0000    264.7892     75.1797     93.8577
   301.7500      0.0000    264.6574     76.5816     88.7591
   302.0000      0.0000    264.6255     77.0780     83.3416
   302.2500      0.0000    264.6306     77.0670     78.4745
   302.5000      0.0000    264.6419     76.8035     75.3316
   302.7500      0.0000    264.6503     76.4396     74.7720
   303.0000      0.0000    264.6554     76.0692     76.7371
   303.2500      0.0000    264.6573     75.7405     80.1364
   303.5000      0.0000    264.6537     75.4723     83.2441
   303.7500      0.0000    264.6428     75.2792     84.4280
   304.0000      0.0000    264.6281     75.1693     82.9051
   304.2500      0.0000    264.6188     75.1207     79.0720
   304.5000      0.0000    264.6217     75.0864     74.1277
   304.7500      0.0000    264.6349     75.0415     69.1912
   305.0000      0.0000    264.6490     75.0153     64.6297
   305.2500      0.0000    264.6561     75.0589     60.2724
   305.5000      0.0000    264.6557     75.1885     56.2174
   305.7500      0.0000    264.6523     75.3723     53.0888
   306.0000      0.0000    264.6500     75.5612     51.4481
   306.2500      0.0000    264.6498     75.7285     51.2557
   306.5000      0.0000    264.6507     75.8929     51.9711
   306.7500      0.0000    264.6523     76.1063     52.9738
   307.0000      0.0000    264.6564     76.3974     53.9045
   307.2500      0.0000    264.6652     76.7203     54.7840
   307.5000      0.0000    264.6773     76.9792     55.8052
   307.7500      0.0000    264.6862     77.1130     56.9388
   308.0000      0.0000    264.6851     77.1490     57.8766
   308.2500      0.0000    264.6728     77.1747     58.4981
   308.5000      0.0000    264.6546     77.2640     59.1902
   308.7500      0.0000    264.6375     77.4221     60.4275
   309.0000      0.0000    264.6257     77.5972     62.1251
   309.2500      0.0000    264.6191     77.7379     63.5373
   309.5000      0.0000    264.6146     77.8217     63.7616
   309.7500      0.0000    264.6095     77.8293     62.3910
   310.0000      0.0000    264.6044     77.7306     59.7977
   310.2500      0.0000    264.6035     77.5195     56.8576
   310.5000      0.0000    264.6112     77.2465     54.4964
   310.7500      0.0000    264.6280     76.9956     53.3328
   311.0000      0.0000    264.6488     76.8282     53.3867
   311.2500      0.0000    264.6646     76.7503     54.1048
   311.5000      0.0000    264.6676     76.7277     54.9119
   311.7500      0.0000    264.6576     76.7253     55.6161
   312.0000      0.0000    264.6409     76.7366     56.0735
   312.2500      0.0000    264.6240     76.7729     55.8496
   312.5000      0.0000    264.6093     76.8286     54.6123
   312.7500      0.0000    264.5974     76.8802     52.6443
   313.0000      0.0000    264.5899     76.9319     50.8505
   313.2500      0.0000    264.5880     77.0431     50.3635
   313.5000      0.0000    264.5902     77.2801     51.9582
   313.7500      0.0000    264.5927     77.6348     55.5381
   314.0000      0.0000    264.5923     78.0107     60.1899
   314.2500      0.0000    264.5890     78.3002     64.7962
   314.5000      0.0000    264.5850     78.4637     68.6033
   314.7500      0.0000    264.5830     78.5191     71.2635
   315.0000      0.0000    264.5847     78.4794     72.4379
   315.2500      0.0000    264.5915     78.3433     71.5784
   315.5000      0.0000    264.6042     78.1399     68.4113
   315.7500      0.0000    264.6221     77.9399     63.7055
   316.0000      0.0000    264.6422     77.8015     59.1509
   316.2500      0.0000    264.6599     77.7211     56.1216
   316.5000      0.0000    264.6723     77.6536     54.7982
   316.7500      0.0000    264.6795     77.5723     54.7115
   317.0000      0.0000    264.6828     77.5045     55.7299
   317.2500      0.0000    264.6814     77.5157     58.0695
   317.5000      0.0000    264.6751     77.6630     61.4545
   317.7500      0.0000    264.6674     77.9519     64.5633
   318.0000      0.0000    264.6628     78.3214     65.5564
   318.2500      0.0000    264.6622     78.6657     63.4352
   318.5000      0.0000    264.6628     78.8920     58.9429
   318.7500      0.0000    264.6624     78.9743     53.8583
   319.0000      0.0000    264.6629     78.9492     49.4088
   319.2500      0.0000    264.6680     78.8595     45.6847
   319.5000      0.0000    264.6770     78.7197     42.5185
   319.7500      0.0000    264.6825     78.5421     40.4441
   320.0000      0.0000    264.6761     78.3763     40.4990
   320.2500      0.0000    264.6574     78.2917     43.2226
   320.5000      0.0000    264.6345     78.3151     48.1527
   320.7500      0.0000    264.6169     78.4022     54.3991
   321.0000      0.0000    264.6078     78.4744     61.4826
   321.2500      0.0000    264.6041     78.4723     69.3733
   321.5000      0.0000    264.6033     78.3774     77.7636
   321.7500      0.0000    264.6067     78.2089     85.5038
   322.0000      0.0000    264.6153     78.0182     90.8215
   322.2500      0.0000    264.6250     77.8735     92.1756
   322.5000      0.0000    264.6287     77.8227     89.2650
   322.7500      0.0000    264.6225     77.8635     83.5516
   323.0000      0.0000    264.6078     77.9607     77.6724
   323.2500      0.0000    264.5893     78.0811     73.8891
   323.5000      0.0000    264.5727     78.1929     72.8573
   323.7500      0.0000    264.5647     78.2432     73.7866
   324.0000      0.0000    264.5702     78.1759     75.4489
   324.2500      0.0000    264.5880     77.9840     76.7539
   324.5000      0.0000    264.6129     77.7343     76.7815
   324.7500      0.0000    264.6405     77.5351     75.0714
   325.0000      0.0000    264.6684     77.4766     72.2092
   325.2500      0.0000    264.6933     77.5789     69.8148
   325.5000      0.0000    264.7107     77.7792     69.5605
   325.7500      0.0000    264.7179     77.9771     71.9887
   326.0000      0.0000    264.7151     78.1103     76.0729
