~Version Information
VERS.                      2.0: CWLS Log ASCII Standard - VERSION 2.0
WRAP.                       NO: One line per depth step
~Well Information Block
STRT.FT                -7.5000: 
STOP.FT              1572.0000: 
STEP.FT                 0.2500: 
NULL.                -999.2500: 
COMP.          Pioneer Natural Resources: COMPANY
WELL.          Galloway 32-13 Tr: WELL
FLD.           Purgatoire River: FIELD
LOC.           --1910' FNL & 2002' FEL----: LOCATION
PROV.                       CO: PROVINCE
CNTY.               Las Animas: COUNTRY
SRVC.          Patterson Wireline: SERVICE COMPANY
DATE.          Thu Nov 17 12:46:45 2005: LOG DATE
UWI.           05 071 08608 00: UNIQUE WELL ID
~Curve Information Block
DEPT.FT            0 000 00 00: Depth
CCL.                          : Casing Collar Locator
TT3.usec                      : CBL 3' Travel Time
AMP3.mV                       : CBL 3' Amplitude
GR.GAPI                       : Gamma Ray
~Parameter Information Block
~A  Depth       CCL         TT3         AMP3         GR     
# ...
  1131.5000      0.0000    281.1581     71.9178    140.8278
  1131.7500      0.0000    281.1295     72.0334    138.3511
  1132.0000      0.0000    281.1072     72.1001    135.2690
  1132.2500      0.0000    281.0935     72.1599    132.8509
  1132.5000      0.0000    281.0873     72.2658    132.6895
  1132.7500      0.0000    281.0836     72.4425    135.1001
  1133.0000      0.0000    281.0776     72.6648    138.6982
  1133.2500      0.0000    281.0680     72.8881    141.3631
  1133.5000      0.0000    281.0570     73.0926    141.7976
  1133.7500      0.0000    281.0462     73.2858    140.3931
  1134.0000      0.0000    281.0354     73.4652    138.6274
  1134.2500      0.0000    281.0233     73.5980    137.8138
  1134.5000      0.0000    281.0109     73.6423    138.5210
  1134.7500      0.0000    281.0007     73.5862    140.5132
  1135.0000      0.0000    280.9953     73.4695    142.6287
  1135.2500      0.0000    280.9952     73.3642    143.2140
  1135.5000      0.0000    280.9998     73.3232    141.4518
  1135.7500      0.0000    281.0088     73.3406    138.1969
  1136.0000      0.0000    281.0226     73.3586    135.1176
  1136.2500      0.0000    281.0412     73.3108    133.0664
  1136.5000      0.0000    281.0633     73.1581    131.5808
  1136.7500      0.0000    281.0871     72.8954    129.9198
  1137.0000      0.0000    281.1114     72.5423    128.1177
  1137.2500      0.0000    281.1373     72.1352    126.6929
  1137.5000      0.0000    281.1669     71.7309    125.5317
  1137.7500      0.0000    281.2003     71.4084    123.3405
  1138.0000      0.0000    281.2338     71.2386    118.1456
  1138.2500      0.0000    281.2629     71.2396    108.6090
  1138.5000      0.0000    281.2857     71.3716     95.5376
  1138.7500      0.0000    281.3035     71.5819     82.1716
  1139.0000      0.0000    281.3174     71.8294     72.3867
  1139.2500      0.0000    281.3264     72.0620     68.3440
  1139.5000      0.0000    281.3292     72.2076     70.0281
  1139.7500      0.0000    281.3262     72.2150     76.6316
  1140.0000      0.0000    281.3188     72.0942     87.4851
  1140.2500      0.0000    281.3082     71.9061    101.3310
  1140.5000      0.0000    281.2961     71.7254    115.4655
  1140.7500      0.0000    281.2853     71.6121    126.6941
  1141.0000      0.0000    281.2804     71.5819    133.2176
  1141.2500      0.0000    281.2860     71.5923    134.8092
  1141.5000      0.0000    281.3032     71.5816    131.5990
  1141.7500      0.0000    281.3275     71.5362    124.3061
  1142.0000      0.0000    281.3503     71.5034    115.6678
  1142.2500      0.0000    281.3630     71.5382    109.7415
  1142.5000      0.0000    281.3610     71.6570    108.8714
  1142.7500      0.0000    281.3439     71.8489    112.0756
  1143.0000      0.0000    281.3132     72.1089    116.6191
  1143.2500      0.0000    281.2711     72.4374    120.3913
  1143.5000      0.0000    281.2215     72.8140    122.6150
  1143.7500      0.0000    281.1711     73.1867    123.1125
  1144.0000      0.0000    281.1268     73.4925    121.6659
  1144.2500      0.0000    281.0922     73.6859    118.4074
  1144.5000      0.0000    281.0680     73.7488    114.5814
  1144.7500      0.0000    281.0539     73.6760    112.1658
  1145.0000      0.0000    281.0510     73.4561    112.4078
  1145.2500      0.0000    281.0614     73.0759    115.1856
  1145.5000      0.0000    281.0860     72.5536    119.7561
  1145.7500      0.0000    281.1216     71.9631    125.3248
  1146.0000      0.0000    281.1610     71.4107    130.8706
  1146.2500      0.0000    281.1963     70.9771    135.3520
  1146.5000      0.0000    281.2228     70.6787    138.4149
  1146.7500      0.0000    281.2403     70.4752    140.2435
  1147.0000      0.0000    281.2513     70.3062    140.5210
  1147.2500      0.0000    281.2590     70.1281    138.2627
  1147.5000      0.0000    281.2663     69.9334    133.1141
  1147.7500      0.0000    281.2755     69.7431    126.3486
  1148.0000      0.0000    281.2884     69.5815    120.1474
  1148.2500      0.0000    281.3065     69.4577    116.2691
  1148.5000      0.0000    281.3300     69.3652    115.5318
  1148.7500      0.0000    281.3571     69.2913    117.7899
  1149.0000      0.0000    281.3844     69.2220    121.7514
  1149.2500      0.0000    281.4077     69.1442    125.2921
  1149.5000      0.0000    281.4238     69.0493    126.7463
  1149.7500      0.0000    281.4327     68.9380    126.1907
  1150.0000      0.0000    281.4360     68.8173    125.2224
  1150.2500      0.0000    281.4359     68.6946    125.1626
  1150.5000      0.0000    281.4342     68.5726    125.5583
  1150.7500      0.0000    281.4330     68.4462    124.5870
  1151.0000      0.0000    281.4356     68.2998    120.6939
  1151.2500      0.0000    281.4454     68.1126    113.6680
  1151.5000      0.0000    281.4642     67.8707    104.5504
  1151.7500      0.0000    281.4913     67.5754     94.8577
  1152.0000      0.0000    281.5237     67.2411     85.7513
  1152.2500      0.0000    281.5568     66.8927     77.7067
  1152.5000      0.0000    281.5857     66.5660     70.7746
  1152.7500      0.0000    281.6062     66.3035     64.9290
  1153.0000      0.0000    281.6163     66.1429     60.1611
  1153.2500      0.0000    281.6159     66.1020     56.5638
  1153.5000      0.0000    281.6060     66.1713     54.4088
  1153.7500      0.0000    281.5882     66.3181     53.8779
  1154.0000      0.0000    281.5655     66.5031     54.6099
  1154.2500      0.0000    281.5410     66.7013     55.7289
  1154.5000      0.0000    281.5178     66.9114     56.4485
  1154.7500      0.0000    281.4973     67.1435     56.5944
  1155.0000      0.0000    281.4787     67.4020     56.4855
  1155.2500      0.0000    281.4599     67.6822     56.2891
  1155.5000      0.0000    281.4389     67.9803     55.6491
  1155.7500      0.0000    281.4147     68.3012     54.1081
  1156.0000      0.0000    281.3873     68.6573     51.8427
  1156.2500      0.0000    281.3568     69.0612     49.8363
  1156.5000      0.0000    281.3238     69.5193     49.1796
  1156.7500      0.0000    281.2896     70.0257     49.9608
  1157.0000      0.0000    281.2567     70.5554     50.9201
  1157.2500      0.0000    281.2288     71.0606     50.5538
  1157.5000      0.0000    281.2086     71.4851     48.5474
  1157.7500      0.0000    281.1951     71.7946     45.8547
  1158.0000      0.0000    281.1826     71.9950     43.4460
  1158.2500      0.0000    281.1646     72.1163     41.3789
  1158.5000      0.0000    281.1382     72.1816     39.2063
  1158.7500      0.0000    281.1054     72.1920     36.9830
  1159.0000      0.0000    281.0703     72.1391     35.5552
  1159.2500      0.0000    281.0362     72.0275     35.8071
  1159.5000      0.0000    281.0055     71.8883     37.7747
  1159.7500      0.0000    280.9814     71.7711     40.6163
  1160.0000      0.0000    280.9690     71.7157     43.3501
  1160.2500      0.0000    280.9735     71.7186     45.5309
  1160.5000      0.0000    280.9959     71.7228     47.4701
  1160.7500      0.0000    281.0310     71.6348     50.1811
  1161.0000      0.0000    281.0776     71.3330     55.0145
  1161.2500      0.0000    281.1935     70.6385     62.8246
  1161.5000      0.0000    281.5948     69.2921     73.1539
  1161.7500      0.0000    282.7275     66.9880     84.2572
  1162.0000      0.0000    285.0923     63.5152     94.1881
  1162.2500      0.0000    288.6945     59.0456    102.2093
  1162.5000      0.0000    292.5505     54.4053    109.2088
  1162.7500      0.0000    295.0836     50.8568    116.4450
  1163.0000      0.0000    295.3800     49.2715    123.6511
  1163.2500      0.0000    293.9525     49.4828    128.6408
  1163.5000      0.0000    292.1040     50.5581    129.3053
  1163.7500      2.0000    290.7771     51.5971    126.0105
  1164.0000     -2.0000    290.1528     52.1729    121.5467
  1164.2500      0.0000    289.9911     52.2660    118.7237
  1164.5000      0.0000    289.9814     52.1318    118.4808
  1164.7500      0.0000    289.8230     52.2846    120.2929
