~Version Information
VERS.                      2.0: CWLS Log ASCII Standard - VERSION 2.0
WRAP.                       NO: One line per depth step
~Well Information Block
STRT.FT               480.0000: 
STOP.FT              1817.0000: 
STEP.FT                 0.1000: 
NULL.                -999.2500: 
COMP.          Pioneer Natural Resources: COMPANY
WELL.           Bobsy 34-11 Tr: WELL
FLD.           Purgatoire River: FIELD
LOC.           514' FSL & 1784' FEL: LOCATION
PROV.                 Colorado: PROVINCE
CNTY.               Las Animas: COUNTRY
SRVC.                Patterson: SERVICE COMPANY
DATE.          Tue Jul 19 10:30:09 2005: LOG DATE
UWI.           05 071 08438 00: UNIQUE WELL ID
~Curve Information Block
DEPT.FT            0 000 00 00: Depth
DCAL.in                       : CDL Caliper
DPOR.pu                       : CDL Density Porosity
GR.GAPI                       : Gamma Ray
NPOR.pu                       : Neutron Porosity
RHOB.g/cc                     : CDL Bulk Density
RHOC.g/cc                     : CDL Density Correction
~Parameter Information Block
~A  Depth       DCAL        DPOR         GR         NPOR        RHOB        RHOC    
# ...
  1718.4000      7.9177     11.4534    135.3018     27.1635      2.4610      0.0558
  1718.5000      7.9218     11.2522    135.4516     26.6702      2.4643      0.0617
  1718.6000      7.9218      9.4756    143.7310     26.2369      2.4937      0.1016
  1718.7000      7.9218      6.7702    148.1292     26.2911      2.5383      0.1187
  1718.8000      7.9450      4.2974    144.6310     26.1047      2.5791      0.1310
  1718.9000      7.9450      2.2734    137.3435     25.1161      2.6125      0.1465
  1719.0000      7.9259      0.1662    127.4901     23.7183      2.6473      0.1352
  1719.1000      7.9259     -2.0715    111.9943     22.8590      2.6842      0.2351
  1719.2000      7.9259     -4.2182     96.3911     22.5409      2.7196      0.1499
  1719.3000      7.9061     -6.9277     89.8996     21.8169      2.7643      0.1512
  1719.4000      7.9061     -9.8818     89.2138     20.7548      2.8131      0.1878
  1719.5000      7.8919    -11.3475     86.7309     19.9289      2.8372      0.1910
  1719.6000      7.8919    -11.3254     84.7919     19.4328      2.8369      0.0617
  1719.7000      7.8919    -11.5573     85.3883     19.1322      2.8407      0.0660
  1719.8000      7.8932    -12.2459     85.7271     18.9164      2.8521      0.0454
  1719.9000      7.8932    -12.5584     88.4897     18.9000      2.8572      0.0126
  1720.0000      7.8957    -11.9485     96.0336     19.0996      2.8472      0.0755
  1720.1000      7.8957     -9.9994    106.1820     19.3947      2.8150      0.0351
  1720.2000      7.8957     -7.4025    117.5350     19.8764      2.7721      0.0078
  1720.3000      7.8914     -4.9349    126.6489     20.9613      2.7314      0.0069
  1720.4000      7.8914     -2.3794    127.6794     22.8158      2.6893     -0.0018
  1720.5000      7.8904      0.1547    124.6936     24.5336      2.6474     -0.0199
  1720.6000      7.8904      1.8433    129.4810     25.1918      2.6196     -0.0036
  1720.7000      7.8904      2.5187    140.3280     25.3617      2.6084      0.0358
  1720.8000      7.8932      2.9157    147.6221     25.7407      2.6019      0.0501
  1720.9000      7.8932      3.3624    152.5600     26.0058      2.5945      0.0630
  1721.0000      7.8878      3.3053    155.5689     25.9546      2.5955      0.0516
  1721.1000      7.8878      2.4152    159.3023     26.0608      2.6101      0.0852
  1721.2000      7.8878      1.4048    169.2338     26.5329      2.6268      0.1203
  1721.3000      7.8850      1.1706    180.2538     27.1888      2.6307      0.1035
  1721.4000      7.8850      1.6289    183.8716     28.0709      2.6231      0.1137
  1721.5000      7.8964      2.1985    172.0682     29.0778      2.6137      0.0843
  1721.6000      7.8964      3.0020    150.4534     29.9216      2.6005      0.0813
  1721.7000      7.8964      4.4261    136.7549     30.5122      2.5770      0.0621
  1721.8000      7.8987      6.0606    136.6184     30.6148      2.5500      0.0489
  1721.9000      7.8987      7.3060    142.4169     30.0198      2.5295      0.0214
  1722.0000      7.8913      8.0824    153.9820     29.2424      2.5166      0.0311
  1722.1000      7.8913      8.6073    170.0813     28.8261      2.5080      0.0476
  1722.2000      7.8913      8.4112    178.2644     28.4703      2.5112      0.0421
  1722.3000      7.8934      6.8913    178.6275     28.0080      2.5363      0.1022
  1722.4000      7.8934      5.1938    177.4362     27.9426      2.5643      0.1586
  1722.5000      7.9048      5.0079    171.2984     28.2607      2.5674      0.1426
  1722.6000      7.9048      6.2056    162.3409     28.2859      2.5476      0.0807
  1722.7000      7.9048      7.6772    161.3064     28.0171      2.5233      0.0983
  1722.8000      7.9607      8.7203    169.8866     28.0341      2.5061      0.0776
  1722.9000      7.9607      8.8852    175.0685     28.3165      2.5034      0.0320
  1723.0000      7.9639      8.5328    169.6643     28.4390      2.5092      0.0834
  1723.1000      7.9639      8.6619    166.7642     28.1083      2.5071      0.0799
  1723.2000      7.9639      9.0410    168.9297     27.4158      2.5008      0.0373
  1723.3000      7.9480      8.2732    166.9451     26.8969      2.5135      0.0419
  1723.4000      7.9480      6.3058    164.3736     26.9751      2.5460      0.1068
  1723.5000      7.9656      4.7324    163.1062     27.6770      2.5719      0.1270
  1723.6000      7.9656      4.4826    158.9041     28.5655      2.5760      0.1174
  1723.7000      7.9656      5.1051    158.3175     28.9509      2.5658      0.0820
  1723.8000      7.9471      5.8435    168.5126     28.6804      2.5536      0.0496
  1723.9000      7.9471      6.5346    182.1082     28.2241      2.5422      0.1082
  1724.0000      7.9551      7.3950    182.0038     28.0344      2.5280      0.0903
  1724.1000      7.9551      8.2785    168.2438     27.8449      2.5134      0.1033
  1724.2000      7.9551      8.7335    159.4700     27.4518      2.5059      0.0499
  1724.3000      7.9451      8.6287    161.5674     27.5027      2.5076      0.0707
  1724.4000      7.9451      8.7027    168.2592     28.3106      2.5064      0.0802
  1724.5000      7.9403      9.6373    173.1437     29.4740      2.4910      0.0888
  1724.6000      7.9403     11.3206    171.6799     30.5120      2.4632      0.0723
  1724.7000      7.9403     13.2659    168.6598     31.0834      2.4311      0.0611
  1724.8000      7.9649     14.9540    168.0035     31.2857      2.4033      0.0453
  1724.9000      7.9649     15.8516    164.1562     31.4088      2.3884      0.0489
  1725.0000      8.0103     15.6303    155.6705     31.4529      2.3921      0.0862
  1725.1000      8.0103     14.2324    151.1640     31.1732      2.4152      0.1044
  1725.2000      8.0103     11.9640    148.7207     30.7985      2.4526      0.1202
  1725.3000      8.1364      9.5823    137.2498     30.7219      2.4919      0.1559
  1725.4000      8.1364      7.5133    124.1491     30.5564      2.5260      0.1975
  1725.5000      8.3174      5.6231    124.6340     29.9245      2.5572      0.2331
  1725.6000      8.3174      4.1720    133.3963     29.3637      2.5812      0.2462
  1725.7000      8.3174      4.0011    137.0529     29.1863      2.5840      0.2578
  1725.8000      8.4146      5.2491    136.2630     28.6617      2.5634      0.1857
  1725.9000      8.4146      6.6923    139.7645     27.7007      2.5396      0.1383
  1726.0000      8.2392      7.4810    148.1613     27.1077      2.5266      0.0980
  1726.1000      8.2392      8.0966    151.8796     26.8589      2.5164      0.1193
  1726.2000      8.2392      8.6768    148.9677     26.6125      2.5068      0.0569
  1726.3000      7.9469      8.4578    148.8462     26.8303      2.5104      0.0391
  1726.4000      7.9469      7.5228    150.9231     27.6917      2.5259      0.0660
  1726.5000      7.9210      6.6883    148.5923     28.2423      2.5396      0.0773
  1726.6000      7.9210      6.2108    143.8754     27.8514      2.5475      0.1067
  1726.7000      7.9210      5.9644    143.2537     26.9212      2.5516      0.0914
  1726.8000      7.9020      5.8609    146.2276     25.7835      2.5533      0.1220
  1726.9000      7.9020      5.7007    147.2669     24.6251      2.5559      0.0861
  1727.0000      7.8207      5.2224    148.4686     24.0818      2.5638      0.1000
  1727.1000      7.8207      4.9429    154.6851     24.6288      2.5684      0.1322
  1727.2000      7.8207      5.1980    161.3804     25.4648      2.5642      0.0868
  1727.3000      7.8119      5.4484    159.7780     25.5842      2.5601      0.0810
  1727.4000      7.8119      5.6969    150.6582     25.2660      2.5560      0.1036
  1727.5000      7.8363      5.9269    140.2602     25.0451      2.5522      0.0550
  1727.6000      7.8363      5.4137    138.8223     24.9690      2.5607      0.0651
  1727.7000      7.8363      4.6363    149.3748     24.9695      2.5735      0.1059
  1727.8000      7.8614      4.6376    157.6525     24.8174      2.5735      0.0861
  1727.9000      7.8614      4.8722    154.1249     24.5192      2.5696      0.1051
