~Version Information
VERS.                      2.0: CWLS Log ASCII Standard - VERSION 2.0
WRAP.                       NO: One line per depth step
~Well Information Block
STRT.FT                -7.5000: 
STOP.FT              1572.0000: 
STEP.FT                 0.2500: 
NULL.                -999.2500: 
COMP.          Pioneer Natural Resources: COMPANY
WELL.          Galloway 32-13 Tr: WELL
FLD.           Purgatoire River: FIELD
LOC.           --1910' FNL & 2002' FEL----: LOCATION
PROV.                       CO: PROVINCE
CNTY.               Las Animas: COUNTRY
SRVC.          Patterson Wireline: SERVICE COMPANY
DATE.          Thu Nov 17 12:46:45 2005: LOG DATE
UWI.           05 071 08608 00: UNIQUE WELL ID
~Curve Information Block
DEPT.FT            0 000 00 00: Depth
CCL.                          : Casing Collar Locator
TT3.usec                      : CBL 3' Travel Time
AMP3.mV                       : CBL 3' Amplitude
GR.GAPI                       : Gamma Ray
~Parameter Information Block
~A  Depth       CCL         TT3         AMP3         GR     
# ...
   495.0000      0.0000    284.0840     44.8948     54.8429
   495.2500      0.0000    284.0840     44.7521     59.5690
   495.5000      0.0000    284.1045     44.5667     62.9165
   495.7500      0.0000    284.1331     44.4144     64.1616
   496.0000      0.0000    284.1564     44.3596     63.1022
   496.2500      0.0000    284.1693     44.4207     60.6999
   496.5000      0.0000    284.1767     44.5594     58.5497
   496.7500      0.0000    284.1881     44.7071     57.5238
   497.0000      0.0000    284.2075     44.8272     57.3364
   497.2500      0.0000    284.2274     44.9521     57.3369
   497.5000      0.0000    284.2355     45.1388     57.2477
   497.7500      0.0000    284.2266     45.3905     57.2352
   498.0000      0.0000    284.2055     45.6418     57.7918
   498.2500      0.0000    284.1808     45.8185     59.6473
   498.5000      0.0000    284.1566     45.9029     63.2855
   498.7500      0.0000    284.1297     45.9528     68.1517
   499.0000      0.0000    284.0924     46.0646     72.5677
   499.2500      0.0000    284.0392     46.2994     75.1245
   499.5000      0.0000    283.9721     46.6342     76.3286
   499.7500      0.0000    283.9008     46.9887     78.0791
   500.0000      0.0000    283.8369     47.2942     81.1600
   500.2500      0.0000    283.7891     47.5265     84.0115
   500.5000      0.0000    283.7610     47.6834     84.4522
   500.7500      0.0000    283.7534     47.7534     82.0196
   501.0000      0.0000    283.7662     47.7165     78.1706
   501.2500      0.0000    283.7953     47.5754     74.7210
   501.5000      0.0000    283.8295     47.3811     72.6830
   501.7500      0.0000    283.8541     47.2145     72.2032
   502.0000      0.0000    283.8604     47.1306     72.7323
   502.2500      0.0000    283.8541     47.1127     73.1625
   502.5000      0.0000    283.8508     47.0844     72.3434
   502.7500      0.0000    283.8656     46.9685     69.8691
   503.0000      0.0000    283.9032     46.7420     66.4112
   503.2500      0.0000    283.9557     46.4483     63.1792
   503.5000      0.0000    284.0084     46.1623     60.8918
   503.7500      0.0000    284.0485     45.9355     59.4172
   504.0000      0.0000    284.0720     45.7671     58.5558
   504.2500      0.0000    284.0827     45.6291     58.7597
   504.5000      0.0000    284.0862     45.5133     60.7440
   504.7500      0.0000    284.0866     45.4381     64.5548
   505.0000      0.0000    284.0879     45.4074     69.1067
   505.2500      0.0000    284.0965     45.3828     72.6223
   505.5000      0.0000    284.1195     45.3059     73.8652
   505.7500      0.0000    284.1600     45.1386     73.2710
   506.0000      0.0000    284.2148     44.8846     72.6495
   506.2500      0.0000    284.2744     44.5904     73.4683
   506.5000      0.0000    284.3276     44.3298     75.5749
   506.7500      0.0000    284.3695     44.1677     77.7378
   507.0000      0.0000    284.4071     44.1267     78.9199
   507.2500      0.0000    284.4608     44.1936     78.6686
   507.5000      0.0000    284.5549     44.3535     76.8559
   507.7500      0.0000    284.6899     44.5967     73.8091
   508.0000      0.0000    284.8148     44.8932     70.5671
   508.2500      0.0000    284.8474     45.1842     68.5925
   508.5000      0.0000    284.7488     45.4092     69.2295
   508.7500      0.0000    284.5680     45.5341     73.2628
   509.0000      0.0000    284.3973     45.5530     80.3719
   509.2500      0.0000    284.2953     45.4798     88.8285
   509.5000      0.0000    284.2616     45.3514     96.2615
   509.7500      0.0000    284.2653     45.2226    101.1329
   510.0000      0.0000    284.2790     45.1353    103.3581
   510.2500      0.0000    284.2928     45.0904    103.6100
   510.5000      0.0000    284.3088     45.0562    102.5087
   510.7500      0.0000    284.3311     44.9965    100.5891
   511.0000      0.0000    284.3618     44.8834     98.5278
   511.2500      0.0000    284.4024     44.7028     97.0726
   511.5000      0.0000    284.4539     44.4650     96.6828
   511.7500      0.0000    284.5127     44.2093     97.1022
   512.0000      0.0000    284.5697     43.9865     97.3568
   512.2500      0.0000    284.6151     43.8357     96.6020
   512.5000      0.0000    284.6414     43.7772     94.9761
   512.7500      0.0000    284.6462     43.8106     93.2828
   513.0000      0.0000    284.6330     43.9084     91.9145
   513.2500      0.0000    284.6102     44.0208     90.4084
   513.5000      0.0000    284.5864     44.1054     88.0664
   513.7500      0.0000    284.5659     44.1530     84.8748
   514.0000      0.0000    284.5495     44.1819     81.9133
   514.2500      0.0000    284.5376     44.2094     80.8443
   514.5000      0.0000    284.5302     44.2352     82.6388
   514.7500      0.0000    284.5254     44.2473     86.5570
   515.0000      0.0000    284.5198     44.2368     90.4073
   515.2500      0.0000    284.5105     44.2038     91.9324
   515.5000      0.0000    284.4970     44.1526     90.2188
   515.7500      0.0000    284.4814     44.0828     86.2667
   516.0000      0.0000    284.4677     43.9846     82.2667
   516.2500      0.0000    284.4600     43.8476     79.9221
   516.5000      0.0000    284.4595     43.6822     79.2384
   516.7500      0.0000    284.4634     43.5269     79.1145
   517.0000      0.0000    284.4687     43.4200     79.0544
   517.2500      0.0000    284.4755     43.3640     79.7351
   517.5000      0.0000    284.4859     43.3273     81.6638
   517.7500      0.0000    284.5004     43.2814     83.9431
   518.0000      0.0000    284.5175     43.2261     84.9910
   518.2500      0.0000    284.5443     43.1754     84.1136
   518.5000      0.0000    284.6365     43.1205     81.9743
   518.7500      0.0000    285.0156     42.9724     79.8730
   519.0000      0.0000    286.2364     42.5030     78.8154
   519.2500      0.0000    289.2258     41.3623     78.9029
   519.5000      0.0000    294.8063     39.3128     79.5351
   519.7500      0.0000    302.7276     36.5893     80.3497
   520.0000      0.0000    311.2337     33.9365     81.4476
   520.2500      0.0000    318.1761     32.0556     82.3868
   520.5000      0.0000    322.7160     31.0295     81.7658
   520.7500      0.0000    325.5345     30.4636     78.4107
   521.0000      0.0000    327.5329     30.0611     72.5323
   521.2500      0.0000    328.9744     29.8194     65.4748
   521.5000      0.0000    329.7959     29.7946     58.9088
   521.7500      2.0000    330.0532     29.9441     54.3881
   522.0000     -2.0000    329.8516     30.1789     53.0113
   522.2500      0.0000    329.0744     30.4658     54.9511
   522.5000      0.0000    327.3403     30.8812     59.3000
   522.7500      0.0000    324.3238     31.5647     64.5030
   523.0000      0.0000    320.1463     32.5726     69.1031
   523.2500      0.0000    315.2726     33.8461     72.2847
   523.5000      0.0000    309.9194     35.4012     73.9856
   523.7500      0.0000    303.9576     37.3630     74.7483
   524.0000      0.0000    297.6254     39.6594     75.3948
   524.2500      0.0000    291.8898     41.8796     76.5927
   524.5000      0.0000    287.7399     43.6090     78.6029
   524.7500      0.0000    285.3873     44.7655     81.2083
   525.0000      0.0000    284.3317     45.5321     83.4433
   525.2500      0.0000    283.9367     46.1056     83.5821
   525.5000      0.0000    283.7921     46.5796     80.1980
   525.7500      0.0000    283.7193     46.9769     73.5407
   526.0000      0.0000    283.6615     47.3055     65.6140
   526.2500      0.0000    283.6043     47.5876     58.8917
   526.5000      0.0000    283.5460     47.8510     55.0371
   526.7500      0.0000    283.4898     48.1050     54.4883
   527.0000      0.0000    283.4373     48.3306     56.7170
   527.2500      0.0000    283.3851     48.4998     60.7341
   527.5000      0.0000    283.3259     48.6082     65.6703
   527.7500      0.0000    283.2536     48.6867     71.0878
   528.0000      0.0000    283.1693     48.7726     76.6074
   528.2500      0.0000    283.0834     48.8665     81.4863
