~Version Information
VERS.                      2.0: CWLS Log ASCII Standard - VERSION 2.0
WRAP.                       NO: One line per depth step
~Well Information Block
STRT.FT               530.0000: 
STOP.FT              1298.0000: 
STEP.FT                 0.1000: 
NULL.                -999.2500: 
COMP.          Pioneer Natural Resources: COMPANY
WELL.            Keiko 14-6 Tr: WELL
FLD.           Purgatoire River: FIELD
LOC.           462' FSL & 1202' FWL: LOCATION
PROV.                 Colorado: PROVINCE
CNTY.               Las Animas: COUNTRY
SRVC.                Patterson: SERVICE COMPANY
DATE.          Fri Dec 30 07:26:03 2005: LOG DATE
UWI.           05 071 08629 00: UNIQUE WELL ID
~Curve Information Block
DEPT.FT            0 000 00 00: Depth
DCAL.in                       : CDL Caliper
RHOB.g/cc                     : CDL Bulk Density
RHOC.g/cc                     : CDL Density Correction
DPOR.pu                       : CDL Density Porosity
GR.GAPI                       : Gamma Ray
~Parameter Information Block
~A  Depth       DCAL        RHOB        RHOC        DPOR         GR     
# ...
  1190.8000      7.9584      2.5665      0.1088      5.0628    142.4331
  1190.9000      7.9584      2.5669      0.0680      5.0368    146.0221
  1191.0000      7.9594      2.5616      0.0275      5.3566    144.3025
  1191.1000      7.9594      2.5706      0.0663      4.8150    138.9666
  1191.2000      7.9594      2.5888      0.0719      3.7100    135.1994
  1191.3000      7.9593      2.5951      0.0951      3.3259    135.5898
  1191.4000      7.9593      2.5824      0.0686      4.0965    138.0164
  1191.5000      7.9600      2.5729      0.0215      4.6727    140.7852
  1191.6000      7.9600      2.5826      0.0872      4.0827    144.2111
  1191.7000      7.9600      2.5953      0.0549      3.3157    148.2312
  1191.8000      7.9601      2.5964      0.0338      3.2470    152.5305
  1191.9000      7.9601      2.5859      0.0562      3.8844    156.2359
  1192.0000      7.9542      2.5622      0.0438      5.3186    158.8187
  1192.1000      7.9542      2.5304      0.0056      7.2468    161.9402
  1192.2000      7.9542      2.5067     -0.0036      8.6832    165.2428
  1192.3000      7.9594      2.5010      0.0045      9.0305    166.3556
  1192.4000      7.9594      2.5049     -0.0014      8.7933    170.2050
  1192.5000      7.9576      2.5027      0.0143      8.9277    177.6525
  1192.6000      7.9576      2.4906     -0.0031      9.6627    179.2021
  1192.7000      7.9576      2.4779     -0.0010     10.4323    173.1270
  1192.8000      7.9590      2.4709      0.0297     10.8548    163.0561
  1192.9000      7.9590      2.4718      0.0107     10.8008    153.1754
  1193.0000      7.9594      2.4826      0.0517     10.1431    154.0678
  1193.1000      7.9594      2.4947      0.0679      9.4121    165.0635
  1193.2000      7.9594      2.4908      0.0684      9.6495    169.5976
  1193.3000      7.9608      2.4701      0.0238     10.9004    161.3330
  1193.4000      7.9608      2.4547     -0.0119     11.8377    153.2185
  1193.5000      7.9603      2.4543      0.0244     11.8626    155.9767
  1193.6000      7.9603      2.4559     -0.0002     11.7637    165.0125
  1193.7000      7.9603      2.4563     -0.0086     11.7386    171.3554
  1193.8000      7.9589      2.4652     -0.0243     11.2024    174.0466
  1193.9000      7.9589      2.4791     -0.0192     10.3599    175.7477
  1194.0000      7.9539      2.4833      0.0352     10.1060    173.5743
  1194.1000      7.9539      2.4751      0.0203     10.6025    166.9088
  1194.2000      7.9539      2.4618      0.0464     11.4058    165.0190
  1194.3000      7.9572      2.4487      0.0513     12.2018    171.4167
  1194.4000      7.9572      2.4479     -0.0187     12.2474    177.6157
  1194.5000      7.9496      2.4640      0.0374     11.2723    178.1209
  1194.6000      7.9496      2.4793      0.0500     10.3462    174.2422
  1194.7000      7.9496      2.4868      0.0668      9.8928    168.1358
  1194.8000      7.9557      2.4902      0.1012      9.6861    164.0472
  1194.9000      7.9557      2.4889      0.0779      9.7645    164.9002
  1195.0000      7.9622      2.4903      0.0801      9.6814    168.4556
  1195.1000      7.9622      2.4981      0.1451      9.2036    172.9795
  1195.2000      7.9622      2.5066      0.0995      8.6889    178.6272
  1195.3000      7.9603      2.5176      0.0939      8.0237    182.0798
  1195.4000      7.9603      2.5348      0.1174      6.9839    180.2627
  1195.5000      7.9577      2.5519      0.1196      5.9429    178.0905
  1195.6000      7.9577      2.5589      0.1519      5.5194    177.5025
  1195.7000      7.9577      2.5520      0.1231      5.9389    175.2113
  1195.8000      7.9603      2.5429      0.1131      6.4927    175.1387
  1195.9000      7.9603      2.5397      0.1123      6.6824    178.2789
  1196.0000      7.9583      2.5380      0.0850      6.7887    179.2526
  1196.1000      7.9583      2.5392      0.0654      6.7150    176.0470
  1196.2000      7.9583      2.5361      0.1062      6.9021    170.3787
  1196.3000      7.9594      2.5007      0.1085      9.0507    166.2695
  1196.4000      7.9594      2.4337     -0.0180     13.1082    163.9408
  1196.5000      7.9597      2.3769     -0.0110     16.5529    160.2420
  1196.6000      7.9597      2.3511      0.0155     18.1138    158.7789
  1196.7000      7.9597      2.3383      0.0269     18.8900    163.2753
  1196.8000      7.9608      2.3117      0.0289     20.5034    167.8821
  1196.9000      7.9608      2.2572     -0.0341     23.8032    166.7581
  1197.0000      7.9598      2.1811     -0.0325     28.4176    162.5553
  1197.1000      7.9598      2.1056      0.0020     32.9910    158.0630
  1197.2000      7.9598      2.0636     -0.0057     35.5378    153.8875
  1197.3000      7.9602      2.0695      0.0591     35.1838    151.5580
  1197.4000      7.9602      2.0992      0.0262     33.3811    152.1149
  1197.5000      7.9616      2.1260      0.0161     31.7562    152.7977
  1197.6000      7.9616      2.1549      0.0035     30.0064    150.7145
  1197.7000      7.9616      2.2059      0.1069     26.9123    151.4183
  1197.8000      7.9576      2.2763      0.2583     22.6471    157.7869
  1197.9000      7.9576      2.3453      0.3065     18.4675    164.6447
  1198.0000      7.9619      2.4026      0.3009     14.9958    167.5585
  1198.1000      7.9619      2.4468      0.1796     12.3152    163.8529
  1198.2000      7.9619      2.4747      0.1291     10.6258    162.7464
  1198.3000      7.9620      2.4804      0.0847     10.2795    173.5301
  1198.4000      7.9620      2.4695      0.0296     10.9393    182.7065
  1198.5000      7.9599      2.4629      0.0283     11.3373    179.6582
  1198.6000      7.9599      2.4761      0.0602     10.5393    176.6061
  1198.7000      7.9599      2.5078      0.0835      8.6184    182.6498
  1198.8000      7.9618      2.5434      0.1393      6.4583    189.1788
  1198.9000      7.9618      2.5671      0.1134      5.0272    188.1497
  1199.0000      7.9612      2.5785      0.1083      4.3360    180.5598
  1199.1000      7.9612      2.5852      0.0950      3.9275    171.7020
  1199.2000      7.9612      2.5882      0.1121      3.7458    165.7884
  1199.3000      7.9606      2.5868      0.0740      3.8304    161.3447
  1199.4000      7.9606      2.5828      0.0532      4.0740    155.8108
  1199.5000      7.9595      2.5746      0.0659      4.5725    146.8913
  1199.6000      7.9595      2.5616     -0.0078      5.3548    134.2133
  1199.7000      7.9595      2.5450      0.0057      6.3619    125.1715
  1199.8000      7.9582      2.5248     -0.0093      7.5875    124.5655
  1199.9000      7.9582      2.5138     -0.0515      8.2548    128.6642
  1200.0000      7.9600      2.5202      0.0121      7.8674    135.2191
  1200.1000      7.9600      2.5297     -0.0001      7.2915    144.0350
  1200.2000      7.9600      2.5328      0.0208      7.1026    150.0656
  1200.3000      7.9598      2.5322     -0.0195      7.1406    150.7446
  1200.4000      7.9598      2.5328      0.0011      7.1030    149.3082
  1200.5000      7.9588      2.5362      0.0069      6.8946    147.0202
  1200.6000      7.9588      2.5398      0.0350      6.6784    143.2538
  1200.7000      7.9588      2.5472      0.0059      6.2276    137.7927
  1200.8000      7.9594      2.5573      0.0636      5.6191    131.4597
  1200.9000      7.9594      2.5528      0.0300      5.8918    124.3186
  1201.0000      7.9567      2.5392     -0.0340      6.7143    116.5450
  1201.1000      7.9567      2.5493     -0.0214      6.1032    110.1817
  1201.2000      7.9567      2.5878      0.0651      3.7706    103.7998
  1201.3000      7.9549      2.6269      0.0710      1.4013     94.8035
  1201.4000      7.9549      2.6553      0.0556     -0.3213     88.7728
  1201.5000      7.9572      2.6762      0.0769     -1.5876     90.6263
  1201.6000      7.9572      2.6799      0.0941     -1.8099     94.7750
  1201.7000      7.9572      2.6683      0.0608     -1.1093     91.7946
  1201.8000      7.9565      2.6603      0.0926     -0.6240     80.8014
  1201.9000      7.9565      2.6605      0.1081     -0.6346     71.6538
