~Version Information
VERS.                      2.0: CWLS Log ASCII Standard - VERSION 2.0
WRAP.                       NO: One line per depth step
~Well Information Block
STRT.FT               420.0000: 
STOP.FT              2888.7500: 
STEP.FT                 0.2500: 
NULL.                -999.2500: 
COMP.          Pioneer Natural Resources: COMPANY
WELL.          Touchstone 11-32: WELL
FLD.           Purgatoire River: FIELD
LOC.           853' FNL & 407' FWL--: LOCATION
CNTY.               Las Animas: COUNTY
SRVC.                Patterson: SERVICE COMPANY
DATE.          Thu Feb 23 14:02:36 2006: LOG DATE
UWI.           05 071 08564 00: UNIQUE WELL ID
STAT.                 Colorado: STATE
~Curve Information Block
DEPT.FT            0 000 00 00: Depth
SN.Ohm-m                      : IEL Short Normal
SP.mV                         : IEL Spontaneous Potential
DIR.Ohm-m                     : IEL Induction Resistivity
GR.GAPI                       : Gamma Ray
~Parameter Information Block
~A  Depth        SN          SP         DIR          GR     
# ...
  1726.5000     13.1243      3.6711     10.2655    143.1011
  1726.7500     13.4598      4.7755     10.4148    147.9753
  1727.0000     13.7011      5.5992     10.5627    152.6386
  1727.2500     13.8764      6.1389     10.7192    153.4321
  1727.5000     14.0012      6.4166     10.8887    151.8731
  1727.7500     14.0735      6.4762     11.0675    149.5549
  1728.0000     14.0827      6.3823     11.2438    144.2715
  1728.2500     14.0273      6.2136     11.4031    139.4434
  1728.5000     13.9318      6.0592     11.5352    130.9586
  1728.7500     13.8508      6.0063     11.6409    125.5545
  1729.0000     13.8502      6.1273     11.7324    119.9984
  1729.2500     13.9707      6.4672     11.8253    118.8439
  1729.5000     14.1954      7.0351     11.9266    121.2233
  1729.7500     14.4478      7.8027     12.0243    125.1806
  1730.0000     14.6230      8.7067     12.0861    133.4188
  1730.2500     14.6330      9.6520     12.0693    139.3843
  1730.5000     14.4413     10.5200     11.9398    146.8491
  1730.7500     14.0724     11.1802     11.6888    149.7301
  1731.0000     13.5948     11.5030     11.3375    150.4919
  1731.2500     13.0848     11.3788     10.9268    149.6436
  1731.5000     12.5936     10.7355     10.5017    149.3374
  1731.7500     12.1348      9.5534     10.0975    151.2026
  1732.0000     11.6926      7.8726      9.7334    158.0004
  1732.2500     11.2414      5.7940      9.4136    164.9885
  1732.5000     10.7645      3.4707      9.1324    177.8629
  1732.7500     10.2675      1.0944      8.8817    186.7879
  1733.0000      9.7824     -1.1264      8.6563    197.9511
  1733.2500      9.3581     -2.9912      8.4555    202.1872
  1733.5000      9.0407     -4.3336      8.2811    201.3682
  1733.7500      8.8553     -5.0492      8.1351    195.8312
  1734.0000      8.7965     -5.1137      8.0179    182.6086
  1734.2500      8.8318     -4.5883      7.9281    173.0860
  1734.5000      8.9169     -3.6087      7.8640    161.5158
  1734.7500      9.0162     -2.3595      7.8234    156.5617
  1735.0000      9.1149     -1.0383      7.8049    152.7680
  1735.2500      9.2175      0.1850      7.8063    151.6137
  1735.5000      9.3394      1.1996      7.8251    149.7219
  1735.7500      9.4995      1.9684      7.8598    147.2195
  1736.0000      9.7126      2.5160      7.9116    140.6234
  1736.2500      9.9779      2.8979      7.9847    134.5530
  1736.5000     10.2711      3.1577      8.0838    124.4898
  1736.7500     10.5442      3.2852      8.2110    118.2698
  1737.0000     10.7354      3.1993      8.3642    110.8869
  1737.2500     10.7846      2.7655      8.5378    107.3549
  1737.5000     10.6551      1.8411      8.7241    104.0276
  1737.7500     10.3612      0.3455      8.9157    103.3753
  1738.0000      9.9888     -1.6805      9.1082    105.4318
  1738.2500      9.6873     -4.0487      9.3027    108.8145
  1738.5000      9.6137     -6.4362      9.5070    115.7481
  1738.7500      9.8566     -8.4540      9.7315    120.6398
  1739.0000     10.3966     -9.7384      9.9843    127.2818
  1739.2500     11.1389    -10.0399     10.2668    131.1625
  1739.5000     11.9813     -9.2833     10.5724    136.4149
  1739.7500     12.8427     -7.5777     10.8886    139.4576
  1740.0000     13.6342     -5.1783     11.1977    142.4379
  1740.2500     14.2384     -2.4176     11.4778    142.6074
  1740.5000     14.5568      0.3704     11.7046    139.5620
  1740.7500     14.5919      2.9097     11.8579    136.0901
  1741.0000     14.4713      5.0141     11.9313    131.6667
  1741.2500     14.3738      6.5899     11.9372    130.8580
  1741.5000     14.4152      7.6229     11.9009    133.7188
  1741.7500     14.5879      8.1569     11.8470    137.7733
  1742.0000     14.7949      8.2779     11.7871    145.5408
  1742.2500     14.9326      8.0987     11.7170    151.0827
  1742.5000     14.9519      7.7474     11.6222    158.6808
  1742.7500     14.8635      7.3498     11.4892    162.4327
  1743.0000     14.7079      7.0122     11.3130    165.1447
  1743.2500     14.5263      6.7979     11.1000    165.1814
  1743.5000     14.3465      6.7140     10.8675    163.7808
  1743.7500     14.1809      6.7134     10.6400    162.5060
  1744.0000     14.0289      6.7148     10.4459    160.5036
  1744.2500     13.8804      6.6348     10.3115    159.0407
  1744.5000     13.7218      6.4181     10.2556    156.1941
  1744.7500     13.5428      6.0560     10.2847    153.5289
  1745.0000     13.3406      5.5868     10.3918    148.2715
  1745.2500     13.1176      5.0771     10.5590    144.2541
  1745.5000     12.8762      4.5958     10.7637    138.0198
  1745.7500     12.6229      4.1930     10.9847    133.7025
  1746.0000     12.3879      3.8882     11.2069    126.9121
  1746.2500     12.2457      3.6754     11.4212    122.6717
  1746.5000     12.3050      3.5363     11.6252    118.5383
  1746.7500     12.6524      3.4482     11.8218    118.3083
  1747.0000     13.2830      3.3963     12.0168    122.4013
  1747.2500     14.0759      3.3717     12.2123    127.5083
  1747.5000     14.8432      3.3680     12.3979    136.4713
  1747.7500     15.4199      3.3771     12.5499    141.8818
  1748.0000     15.7327      3.3855     12.6416    147.6354
  1748.2500     15.8112      3.3734     12.6607    149.7548
  1748.5000     15.7483      3.3151     12.6201    151.0135
  1748.7500     15.6458      3.1803     12.5537    151.0981
  1749.0000     15.5755      2.9389     12.5029    150.5383
  1749.2500     15.5678      2.5651     12.5035    149.5910
  1749.5000     15.6222      2.0438     12.5782    147.0924
  1749.7500     15.7275      1.3773     12.7348    144.9906
  1750.0000     15.8753      0.5871     12.9692    142.1115
  1750.2500     16.0649     -0.2893     13.2710    140.5503
  1750.5000     16.3006     -1.2076     13.6305    137.8734
  1750.7500     16.5906     -2.1281     14.0427    135.1606
  1751.0000     16.9457     -3.0296     14.5074    129.5294
  1751.2500     17.3749     -3.9132     15.0257    125.4274
  1751.5000     17.8760     -4.7995     15.5955    120.3987
  1751.7500     18.4269     -5.7166     16.2077    118.4018
  1752.0000     18.9874     -6.6837     16.8434    117.2610
  1752.2500     19.5124     -7.6940     17.4749    116.9652
  1752.5000     19.9679     -8.7077     18.0720    115.6170
  1752.7500     20.3401     -9.6540     18.6093    113.7261
  1753.0000     20.6378    -10.4479     19.0716    110.3034
  1753.2500     20.8914    -11.0154     19.4563    108.6185
  1753.5000     21.1397    -11.3200     19.7744    107.9231
  1753.7500     21.4025    -11.3806     20.0472    108.4060
  1754.0000     21.6590    -11.2741     20.2983    109.3006
  1754.2500     21.8523    -11.1181     20.5393    109.4289
  1754.5000     21.9221    -11.0430     20.7607    108.7199
  1754.7500     21.8406    -11.1589     20.9360    107.9399
  1755.0000     21.6310    -11.5316     21.0382    107.0986
  1755.2500     21.3591    -12.1725     21.0582    107.0969
  1755.5000     21.1076    -13.0468     21.0111    107.9961
  1755.7500     20.9417    -14.0914     20.9267    109.0757
  1756.0000     20.8830    -15.2377     20.8373    111.3634
  1756.2500     20.9087    -16.4318     20.7687    113.2523
  1756.5000     20.9780    -17.6421     20.7392    115.8396
  1756.7500     21.0635    -18.8612     20.7595    116.7589
  1757.0000     21.1642    -20.0984     20.8335    116.5169
  1757.2500     21.2939    -21.3707     20.9615    115.4971
  1757.5000     21.4641    -22.6914     21.1431    112.9954
  1757.7500     21.6753    -24.0641     21.3797    110.6676
  1758.0000     21.9201    -25.4799     21.6742    106.4173
  1758.2500     22.1882    -26.9170     22.0276    103.4344
  1758.5000     22.4665    -28.3431     22.4334     99.2595
  1758.7500     22.7396    -29.7163     22.8731     96.9512
  1759.0000     22.9943    -30.9875     23.3181     95.0881
  1759.2500     23.2295    -32.1022     23.7382     95.5085
  1759.5000     23.4584    -33.0059     24.1114     98.8507
  1759.7500     23.6995    -33.6538     24.4283    102.3462
