~Version Information
VERS.                      2.0: CWLS Log ASCII Standard - VERSION 2.0
WRAP.                       NO: One line per depth step
~Well Information Block
STRT.FT               360.0000: 
STOP.FT              1349.5000: 
STEP.FT                 0.1000: 
NULL.                -999.2500: 
COMP.          Pioneer Natural Resources: COMPANY
WELL.          Challenger 31-29: WELL
FLD.           Purgatoire River: FIELD
LOC.           51' FNL & 1923' FEL: LOCATION
STAT.                 Colorado: State
CNTY.               Las Animas: COUNTY
CTRY. USA : Country
SECT. 29 : Section
TOWN. 33S : Township
RANG. 65W : Range
SRVC.                Patterson: SERVICE COMPANY
DATE.          Thu Sep 15 13:35:50 2005: LOG DATE
API.           05 071 08514 00: UNIQUE WELL ID
~Curve Information Block
DEPT.FT            0 000 00 00: Depth
DCAL.in                       : CDL Caliper
RHOB.g/cc                     : CDL Bulk Density
RHOC.g/cc                     : CDL Density Correction
DPOR.pu                       : CDL Density Porosity
GR.GAPI                       : Gamma Ray
NPOR.pu                       : Neutron Porosity
~Parameter Information Block
~A  Depth       DCAL        RHOB        RHOC        DPOR         GR         NPOR    
# ...
   753.6000      8.0769      2.5658      0.0441      5.1010    152.4627     30.0469
   753.7000      8.0769      2.5473      0.0737      6.2250    152.5872     30.6172
   753.8000      8.0749      2.5457      0.0333      6.3222    154.5070     31.1999
   753.9000      8.0749      2.5467      0.0335      6.2607    155.2418     31.4391
   754.0000      8.0760      2.5372      0.0625      6.8345    155.5602     31.2404
   754.1000      8.0760      2.5241      0.0114      7.6314    156.7050     30.5979
   754.2000      8.0760      2.5248      0.0235      7.5872    157.6848     29.5844
   754.3000      8.0802      2.5446      0.0172      6.3896    159.4245     28.5863
   754.4000      8.0802      2.5815     -0.0119      4.1488    163.6554     28.2027
   754.5000      8.0754      2.6115      0.1302      2.3331    164.2861     28.1432
   754.6000      8.0754      2.5781      0.0881      4.3565    156.9070     27.2499
   754.7000      8.0754      2.4537      0.0252     11.8946    149.6165     25.3182
   754.8000      8.0706      2.2769     -0.0382     22.6107    150.0508     23.5552
   754.9000      8.0706      2.1131     -0.1200     32.5394    153.8268     22.9108
   755.0000      8.0823      1.9972     -0.0783     39.5648    155.3323     23.2146
   755.1000      8.0823      1.9319     -0.1891     43.5196    155.8209     23.6022
   755.2000      8.0823      1.9244     -0.1766     43.9766    156.3303     23.4121
   755.3000      8.0966      1.9785     -0.1286     40.6969    153.2342     22.7766
   755.4000      8.0966      2.0767      0.0035     34.7444    146.0390     22.0022
   755.5000      8.1001      2.1999      0.1242     27.2811    141.3453     21.1552
   755.6000      8.1001      2.3459      0.2579     18.4313    142.9158     20.5055
   755.7000      8.1001      2.4941      0.5351      9.4514    148.4692     20.3405
   755.8000      8.1041      2.5837      0.5261      4.0208    156.6960     20.5736
   755.9000      8.1041      2.5695      0.4848      4.8796    166.1538     20.9957
   756.0000      8.0880      2.4675      0.3148     11.0592    172.7875     21.3783
   756.1000      8.0880      2.3428      0.1670     18.6181    174.0725     21.6179
   756.2000      8.0880      2.2501      0.1295     24.2360    172.1782     22.0516
   756.3000      8.1232      2.2012     -0.0008     27.2030    170.4811     22.7778
   756.4000      8.1232      2.1849      0.0141     28.1856    168.7285     23.4452
   756.5000      8.2377      2.1862      0.0248     28.1066    164.9586     23.7064
   756.6000      8.2377      2.2061      0.0788     26.9031    159.8052     23.7037
   756.7000      8.2377      2.2645      0.1462     23.3616    155.3679     23.8707
   756.8000      8.2868      2.3584      0.3048     17.6718    148.0661     24.1512
   756.9000      8.2868      2.4393      0.3659     12.7675    138.4478     24.4354
   757.0000      8.2947      2.4668      0.2777     11.1035    135.3379     24.8466
   757.1000      8.2947      2.4475      0.2317     12.2716    139.5361     25.3908
   757.2000      8.2947      2.4160      0.0499     14.1830    145.2283     26.0736
   757.3000      8.3945      2.4008      0.0360     15.1013    149.2254     26.9284
   757.4000      8.3945      2.4030      0.0228     14.9671    152.1618     27.7277
   757.5000      8.3561      2.4096      0.0700     14.5681    154.3463     28.0345
   757.6000      8.3561      2.4152      0.0624     14.2303    155.1089     27.5824
   757.7000      8.3561      2.4192      0.0814     13.9901    155.4678     26.8409
   757.8000      8.1948      2.4234      0.0645     13.7354    155.9220     26.5269
   757.9000      8.1948      2.4378      0.0320     12.8626    156.1003     26.5642
   758.0000      8.2019      2.4651      0.1131     11.2089    157.3462     26.4079
   758.1000      8.2019      2.4874      0.1082      9.8528    161.8998     25.5226
   758.2000      8.2019      2.4846      0.0596     10.0231    167.0757     23.8068
   758.3000      8.2093      2.4536      0.0404     11.9024    171.1640     22.2827
   758.4000      8.2093      2.4056     -0.0057     14.8108    177.9342     21.7098
   758.5000      8.1954      2.3561     -0.0365     17.8144    183.1823     21.5839
   758.6000      8.1954      2.3178     -0.0320     20.1314    181.8232     21.2986
   758.7000      8.1954      2.2869     -0.0041     22.0044    179.2327     20.7169
   758.8000      8.1639      2.2433      0.0715     24.6455    177.7955     20.1081
   758.9000      8.1639      2.1685      0.0299     29.1810    176.4197     19.9515
   759.0000      8.1507      2.0528      0.0673     36.1932    176.8294     20.4969
   759.1000      8.1507      1.9208     -0.0404     44.1930    176.2486     21.4786
   759.2000      8.1507      1.8330     -0.0839     49.5173    168.4498     22.5272
   759.3000      8.1540      1.8221     -0.0344     50.1742    151.6263     23.4502
   759.4000      8.1540      1.8745      0.0138     47.0030    132.5322     24.0146
   759.5000      8.1665      1.9655      0.1091     41.4867    119.5509     24.2092
   759.6000      8.1665      2.0755      0.1891     34.8162    113.6038     24.4640
   759.7000      8.1665      2.1852      0.3074     28.1705    113.3748     25.1490
   759.8000      8.1789      2.2830      0.3039     22.2410    117.4054     26.2912
   759.9000      8.1789      2.3739      0.3153     16.7308    122.0359     27.5444
   760.0000      8.1689      2.4545      0.2701     11.8493    124.4029     28.2264
   760.1000      8.1689      2.5079      0.1935      8.6094    124.1046     27.9016
   760.2000      8.1689      2.5314      0.1691      7.1876    121.7833     26.9330
   760.3000      8.1842      2.5309      0.1483      7.2179    120.4026     26.3549
   760.4000      8.1842      2.5122      0.0952      8.3523    123.0560     26.5366
   760.5000      8.0922      2.4907      0.0642      9.6534    128.3188     26.9290
   760.6000      8.0922      2.4779      0.0230     10.4289    131.9810     27.1604
   760.7000      8.0922      2.4635      0.0811     11.3052    132.5749     27.1845
   760.8000      8.0752      2.4442     -0.0277     12.4713    135.0518     27.3741
   760.9000      8.0752      2.4463      0.0087     12.3425    141.5769     28.2965
   761.0000      8.0686      2.4788      0.1183     10.3730    147.6394     29.5709
   761.1000      8.0686      2.5207      0.0791      7.8384    148.3725     30.2032
   761.2000      8.0686      2.5541      0.1420      5.8134    144.6110     29.8469
   761.3000      8.0690      2.5683      0.1733      4.9507    142.8417     29.1701
   761.4000      8.0690      2.5677      0.1276      4.9859    143.7206     28.7211
   761.5000      8.0705      2.5708      0.1257      4.8003    142.2907     28.4445
   761.6000      8.0705      2.5878      0.1098      3.7726    138.3356     28.2521
   761.7000      8.0705      2.6173      0.1320      1.9807    136.0549     27.9630
   761.8000      8.0440      2.6476      0.1161      0.1464    137.2727     27.7765
   761.9000      8.0440      2.6599      0.1165     -0.6002    137.3899     27.8760
   762.0000      8.0398      2.6453      0.1056      0.2824    130.7424     27.4856
   762.1000      8.0398      2.6187      0.0273      1.8962    121.1755     26.1979
   762.2000      8.0398      2.6047      0.0453      2.7447    116.5846     24.8429
   762.3000      8.0327      2.6070      0.0581      2.6033    117.5655     23.9609
   762.4000      8.0327      2.6019      0.0936      2.9141    119.3759     23.3372
   762.5000      8.0101      2.5677      0.0774      4.9861    120.7036     22.7509
   762.6000      8.0101      2.5147     -0.0054      8.1984    125.8272     22.5354
   762.7000      8.0101      2.4736     -0.0019     10.6934    136.7362     23.0098
   762.8000      8.0272      2.4660     -0.0292     11.1544    148.4397     23.5971
   762.9000      8.0272      2.4866     -0.0311      9.9061    155.8108     24.0829
   763.0000      8.0595      2.5050      0.0379      8.7871    156.6242     24.9594
   763.1000      8.0595      2.4983      0.0377      9.1921    153.7663     25.8881
