~Version Information
 VERS.                                  2.0 : CWLS LAS VERSION
 WRAP.                                   NO : WRAPING MODE
 SWARE .                 MController 2.5.0J : SOFTWARE VERSION
~Well Information
 WELL.                       Montoya 12-44R : WELL
 COMP.                Petrogulf Corporation : COMPANY
 FLD.                      Purgatoire River : FIELD
 LOC.               SE/SE Sec 12 T33S R68W  : LOCATION
 DATE.                             10/01/05 : DATE(S) LOGGED
 SRVC.       BLANCO Geological Services LLC : SERVICE COMPANY
 STAT.                                  CO  : STATE
 CNTY.                           Las Animas : COUNTY
 CTRY.                                  USA : COUNTRY
 API.                       05 071 08538 00 : API NUMBER
 STRT.FT                              22.00 : START DEPTH
 STOP.FT                            2100.00 : STOP DEPTH
 STEP.FT                               1.00 : DEPTH INCREMENT
 NULL.                                -9999 : NULL VALUE
~Curve information
 DEPTH.FT                                   :
 ROP.MIN/FT                                 :
 GAS.UNITS                                  :
~ASCII Log data
# ...
       622.0         0.23         19.0 
       623.0         0.27         19.0 
       624.0         0.27         18.9 
       625.0         0.27         18.8 
       626.0         1.65         63.6 
       627.0         0.30         33.2 
       628.0         0.33         23.1 
       629.0         0.40         19.9 
       630.0         0.30         19.2 
       631.0         0.30         19.1 
       632.0         0.53         19.8 
       633.0         0.25         19.2 
       634.0         0.30         19.5 
       635.0         0.30         19.2 
       636.0         0.27         18.6 
       637.0         0.23         19.7 
       638.0         0.27         19.9 
       639.0         0.27         19.6 
       640.0         0.27         19.0 
       641.0         0.23         18.7 
       642.0         0.23         18.9 
       643.0         0.27         18.0 
       644.0         0.27         18.7 
       645.0         0.25         18.7 
       646.0         0.23         18.4 
       647.0         0.23         18.6 
       648.0         0.30         18.6 
       649.0         0.27         18.5 
       650.0         0.30         18.6 
       651.0         0.30         18.9 
       652.0         0.30         18.6 
       653.0         0.30         18.5 
       654.0         0.27         18.7 
       655.0         0.30         18.3 
       656.0         1.92         60.9 
       657.0         0.30         23.2 
       658.0         0.30         20.2 
       659.0         0.20         19.2 
       660.0         0.27         18.7 
       661.0         0.20         18.9 
       662.0         0.23         19.2 
       663.0         0.30         19.8 
       664.0         0.35         19.6 
       665.0         0.33         18.7 
       666.0         0.43         18.4 
       667.0         0.53         18.6 
       668.0         0.57         18.6 
       669.0         0.50         19.0 
       670.0         0.37         20.9 
       671.0         0.28         21.4 
       672.0         0.27         21.7 
       673.0         0.27         21.8 
       674.0         0.27         21.4 
       675.0         0.33         20.9 
       676.0         0.23         19.5 
       677.0         0.33         18.9 
       678.0         0.30         18.4 
       679.0         0.37         18.3 
       680.0         0.37         18.3 
       681.0         0.40         18.2 
       682.0         0.58         18.5 
       683.0         0.53         18.8 
       684.0         0.40         19.1 
       685.0         0.33         22.5 
       686.0         1.45         62.6 
       687.0         0.37         34.3 
       688.0         0.30         28.3 
       689.0         0.37         26.5 
       690.0         0.33         24.4 
       691.0         0.30         23.3 
       692.0         0.30         21.8 
       693.0         0.30         20.5 
       694.0         0.33         18.7 
       695.0         0.28         18.3 
       696.0         0.30         18.1 
       697.0         0.33         18.0 
       698.0         0.33         17.8 
       699.0         0.23         18.1 
       700.0         0.23         18.2 
       701.0         0.37         18.4 
       702.0         0.33         18.1 
       703.0         0.37         18.1 
       704.0         0.33         18.1 
       705.0         0.35         17.9 
       706.0         0.33         18.4 
       707.0         0.27         18.4 
       708.0         0.23         18.3 
       709.0         0.30         18.5 
       710.0         0.30         19.5 
       711.0         0.23         20.9 
       712.0         0.30         21.5 
       713.0         0.30         21.0 
       714.0         0.33         19.6 
       715.0         0.38         18.7 
       716.0       704.22         73.7 
       717.0         0.23          8.1 
       718.0         0.27          8.0 
       719.0         0.23          8.5 
       720.0         0.20          8.2 
       721.0         0.27          8.3 
       722.0         0.27          8.2 
       723.0         0.20          8.3 
       724.0         0.17          8.4 
       725.0         0.20          8.1 
       726.0         0.23          8.1 
       727.0         0.17          8.3 
       728.0         0.15          8.1 
       729.0         0.17          8.4 
       730.0         0.13          7.9 
       731.0         0.13          8.1 
       732.0         0.13          8.2 
       733.0         0.13          8.1 
       734.0         0.10          8.0 
       735.0         0.13          8.4 
       736.0         0.07          8.3 
       737.0         0.10          7.9 
       738.0         0.10          8.0 
       739.0         0.13          7.8 
       740.0         0.10          7.7 
       741.0         0.13          7.9 
       742.0         0.13          7.7 
       743.0         0.13          8.2 
       744.0         0.13          7.8 
       745.0         0.20          7.7 
       746.0         0.83          8.4 
       747.0         0.18          8.0 
       748.0         0.20          8.2 
       749.0         0.20          8.0 
       750.0         0.23          8.2 
       751.0         0.23          8.1 
       752.0         0.20          8.1 
       753.0         0.20          8.1 
       754.0         0.20          8.2 
       755.0         0.20          7.8 
       756.0         0.23          7.9 
       757.0         0.20          8.0 
       758.0         0.20          7.9 
       759.0         0.20          8.3 
       760.0         0.17          8.0 
       761.0         0.13          7.7 
       762.0         0.12          8.1 
       763.0         0.17          7.9 
       764.0         0.17          8.0 
       765.0         0.20          8.1 
       766.0         0.20          8.1 
       767.0         0.20          7.9 
       768.0         0.23          7.9 
       769.0         0.33          8.1 
       770.0         0.30          7.9 
       771.0         0.23          8.2 
       772.0         0.30          7.8 
       773.0         0.30          5.6 
       774.0         0.28          4.4 
       775.0         0.30          4.2 
       776.0         1.87         13.8 
       777.0         0.13         55.7 
       778.0         0.17        105.5 
       779.0         0.20        111.3 
       780.0         0.17         97.4 
       781.0         0.20         68.2 
       782.0         0.13         38.1 
       783.0         0.12         24.9 
       784.0         0.20         17.4 
       785.0         0.13          9.5 
       786.0         0.10          6.9 
       787.0         0.10          5.4 
       788.0         0.10          4.0 
       789.0         0.07          3.0 
       790.0         0.10          2.6 
       791.0         0.07          2.4 
       792.0         0.13          1.9 
       793.0         0.13          1.4 
       794.0         0.13          1.0 
       795.0         0.13          0.7 
       796.0         0.13          0.4 
       797.0         0.17          0.5 
       798.0         0.20          0.6 
       799.0         0.13          0.5 
       800.0         0.13          0.6 
       801.0         0.17          0.5 
       802.0         0.17          0.7 
       803.0         0.20          0.7 
       804.0         0.18          0.9 
       805.0         0.23          1.2 
       806.0         0.97          1.9 
       807.0         0.30          2.2 
       808.0         0.23          2.3 
       809.0         0.27          2.2 
       810.0         0.27          2.5 
       811.0         0.30          2.4 
       812.0         0.20          2.4 
       813.0         0.17          2.7 
       814.0         0.27          2.7 
       815.0         0.22          2.7 
       816.0         0.20          2.9 
       817.0         0.17          2.6 
       818.0         0.20          2.8 
       819.0         0.23          3.1 
       820.0         0.20          2.8 
       821.0         0.20          2.9 
