~Version Information
VERS.                      2.0: CWLS Log ASCII Standard - VERSION 2.0
WRAP.                       NO: One line per depth step
~Well Information Block
STRT.FT               -10.0000: 
STOP.FT              1703.5000: 
STEP.FT                 0.2500: 
NULL.                -999.2500: 
COMP.          Pioneer Natural Resources: COMPANY
WELL.          Parrothead 31-31 Tr: WELL
FLD.           Purgatoire River: FIELD
LOC.           496' FNL & 1546' FEL--: LOCATION
PROV.                       CO: PROVINCE
CNTY.               Las Animas: COUNTRY
SRVC.          Patterson Wireline: SERVICE COMPANY
DATE.          Mon Nov 14 09:44:02 2005: LOG DATE
UWI.           05 071 08610 00: UNIQUE WELL ID
~Curve Information Block
DEPT.FT            0 000 00 00: Depth
CCL.                          : Casing Collar Locator
TT3.usec                      : CBL 3' Travel Time
AMP3.mV                       : CBL 3' Amplitude
GR.GAPI                       : Gamma Ray
~Parameter Information Block
~A  Depth       CCL         TT3         AMP3         GR     
# ...
   325.0000      0.0000    887.7062     12.9253     90.2168
   325.2500      0.0000    854.8363     12.5905     89.6115
   325.5000      0.0000    823.5665     12.2911     88.7955
   325.7500      0.0000    800.3989     12.0573     87.5949
   326.0000      0.0000    784.6239     11.8573     86.1131
   326.2500      0.0000    773.2659     11.6553     84.7969
   326.5000      0.0000    764.8847     11.4350     84.2537
   326.7500      0.0000    759.2676     11.2023     84.7757
   327.0000      0.0000    756.1264     10.9850     85.9390
   327.2500      0.0000    754.7319     10.8288     86.9591
   327.5000      0.0000    754.3311     10.7773     87.7174
   327.7500      0.0000    754.4219     10.8413     89.1141
   328.0000      0.0000    754.7120     10.9803     91.9490
   328.2500      0.0000    755.0589     11.1198     95.4774
   328.5000      0.0000    755.5104     11.1927     97.5359
   328.7500      0.0000    756.3698     11.1664     96.4585
   329.0000      0.0000    758.0877     11.0430     92.8193
   329.2500      0.0000    760.8796     10.8487     89.0440
   329.5000      0.0000    764.4476     10.6258     87.2317
   329.7500      0.0000    768.3649     10.4219     87.3163
   330.0000      0.0000    772.8948     10.2744     87.3017
   330.2500      0.0000    779.0505     10.2012     85.4690
   330.5000      0.0000    787.6777     10.1997     82.4866
   330.7500      0.0000    798.6187     10.2487     81.0931
   331.0000      0.0000    810.2799     10.3160     83.4634
   331.2500      0.0000    819.2841     10.3739     89.1152
   331.5000      0.0000    821.3940     10.4117     95.3002
   331.7500      0.0000    814.4913     10.4330     98.8648
   332.0000      0.0000    800.8284     10.4409     98.0433
   332.2500      0.0000    785.5380     10.4282     93.4310
   332.5000      0.0000    772.9779     10.3796     87.5122
   332.7500      0.0000    764.7026     10.2850     82.9462
   333.0000      0.0000    760.0586     10.1500     81.1731
   333.2500      0.0000    757.7023      9.9947     82.2823
   333.5000      0.0000    756.5460      9.8396     85.5524
   333.7500      0.0000    755.9510      9.6941     89.8832
   334.0000      0.0000    755.6138      9.5592     94.0931
   334.2500      0.0000    755.4193      9.4414     97.3161
   334.5000      0.0000    755.3506      9.3611     99.3503
   334.7500      0.0000    755.4104      9.3476    100.5803
   335.0000      0.0000    755.5781      9.4218    101.4022
   335.2500      0.0000    755.7903      9.5795    101.8102
   335.5000      0.0000    755.9591      9.7863    101.7278
   335.7500      0.0000    756.0276      9.9935    101.5716
   336.0000      0.0000    756.0162     10.1649    102.0169
   336.2500      0.0000    756.0139     10.2942    103.0149
   336.5000      0.0000    756.1235     10.3955    103.4426
   336.7500      0.0000    756.4086     10.4840    102.2749
   337.0000      0.0000    756.8975     10.5677     99.9785
   337.2500      0.0000    757.7011     10.6516     98.0894
   337.5000      0.0000    759.2211     10.7408     97.3064
   337.7500      0.0000    762.2124     10.8416     96.6266
   338.0000      0.0000    767.3854     10.9597     94.6202
   338.2500      0.0000    774.6387     11.0916     91.1371
   338.5000      0.0000    782.6707     11.2169     87.4935
   338.7500      0.0000    789.6227     11.3012     85.2511
   339.0000      0.0000    794.2789     11.3131     84.9495
   339.2500      0.0000    796.6410     11.2416     85.7504
   339.5000      0.0000    797.4962     11.1042     86.0805
   339.7500      0.0000    797.6696     10.9393     84.8841
   340.0000      0.0000    797.6468     10.7874     82.6393
   340.2500      0.0000    797.6058     10.6746     81.0405
   340.5000      0.0000    797.5781     10.6075     81.3225
   340.7500      0.0000    797.5616     10.5782     83.0145
   341.0000      0.0000    797.5591     10.5712     84.5658
   341.2500      0.0000    797.5676     10.5720     85.0261
   341.5000      0.0000    797.5323     10.5725     84.8200
   341.7500      0.0000    797.2517     10.5682     84.7624
   342.0000      0.0000    796.2575     10.5539     84.4365
   342.2500      0.0000    793.8064     10.5279     82.0355
   342.5000      0.0000    789.2255     10.4978     76.2544
   342.7500      0.0000    782.5814     10.4745     68.1622
   343.0000      0.0000    775.0359     10.4586     60.7099
   343.2500      0.0000    768.2613     10.4347     56.2394
   343.5000      0.0000    763.3572     10.3800     54.7550
   343.7500      0.0000    760.3818     10.2837     54.7522
   344.0000      0.0000    758.7717     10.1619     55.2349
   344.2500      0.0000    757.9399     10.0515     56.4304
   344.5000      0.0000    757.5099      9.9830     58.9598
   344.7500      0.0000    757.2750      9.9569     63.0756
   345.0000      0.0000    757.1212      9.9478     68.4471
   345.2500      0.0000    756.9979      9.9315     73.9279
   345.5000      0.0000    756.9183      9.9033     77.6443
   345.7500      0.0000    756.9445      9.8721     78.1758
   346.0000      0.0000    757.1216      9.8433     75.7613
   346.2500      0.0000    757.4510      9.8130     71.8784
   346.5000      0.0000    757.9727      9.7707     67.8380
   346.7500      0.0000    758.9220      9.6995     64.3449
   347.0000      0.0000    760.7375      9.5782     62.1148
   347.2500      0.0000    763.7353      9.3951     61.9571
   347.5000      0.0000    767.5855      9.1684     63.8249
   347.7500      0.0000    771.1675      8.9514     66.2991
   348.0000      0.0000    773.2145      8.8033     67.6482
   348.2500      0.0000    773.3613      8.7466     67.2966
   348.5000      0.0000    772.6604      8.7577     65.9051
   348.7500      0.0000    772.8288      8.8043     64.3294
   349.0000      0.0000    774.8340      8.8857     63.0430
   349.2500      0.0000    778.6647      9.0272     62.4243
   349.5000      0.0000    785.1513      9.2397     62.9573
   349.7500      0.0000    796.8859      9.4940     64.9164
   350.0000      0.0000    814.7224      9.7376     68.0099
   350.2500      0.0000    832.8753      9.9327     71.4355
   350.5000      0.0000    840.9214     10.0785     74.1926
   350.7500      0.0000    833.5406     10.2056     75.4666
   351.0000      0.0000    816.4985     10.3488     75.1390
   351.2500      0.0000    800.7974     10.5170     74.2594
   351.5000      0.0000    792.6160     10.6873     74.9043
   351.7500      0.0000    790.6052     10.8318     79.2344
   352.0000      0.0000    790.7178     10.9446     88.2271
   352.2500      0.0000    791.0730     11.0323    100.7864
   352.5000      0.0000    792.7153     11.0834    113.7659
   352.7500      0.0000    797.8184     11.0649    123.3276
   353.0000      0.0000    808.1569     10.9598    127.1981
   353.2500      0.0000    824.3714     10.7966    126.1450
   353.5000      0.0000    845.5316     10.6344    123.2651
   353.7500      0.0000    869.8586     10.5195    121.5386
   354.0000      0.0000    896.8428     10.4550    121.6746
   354.2500      0.0000    926.4606     10.4063    122.2604
   354.5000      0.0000    953.4338     10.3357    122.0144
   354.7500      0.0000    965.0181     10.2377    121.4223
   355.0000      0.0000    950.5868     10.1478    121.7609
   355.2500      0.0000    914.0957     10.1125    122.9173
   355.5000      0.0000    873.1871     10.1442    122.8529
   355.7500      0.0000    845.4787     10.2038    119.6454
   356.0000      0.0000    837.1779     10.2343    114.0236
   356.2500      0.0000    842.3340     10.2101    109.2401
   356.5000      0.0000    849.2325     10.1492    108.0313
   356.7500      0.0000    848.5323     10.0833    110.1752
   357.0000      0.0000    838.8100     10.0294    113.0978
   357.2500      0.0000    825.8718      9.9936    114.2062
   357.5000      0.0000    817.3519      9.9903    112.6491
   357.7500      0.0000    818.3657     10.0448    109.4759
   358.0000      0.0000    830.6707     10.1774    106.3501
   358.2500      0.0000    852.9734     10.3812    104.2024
