~Version Information
VERS.                      2.0: CWLS Log ASCII Standard - VERSION 2.0
WRAP.                       NO: One line per depth step
~Well Information Block
STRT.FT               309.8000: 
STOP.FT              2184.7000: 
STEP.FT                 0.1000: 
NULL.                -999.2500: 
COMP.          Pioneer Natural Resources: COMPANY
WELL.             AMX 13-13 Tr: WELL
FLD.           Purgatoire River: FIELD
LOC.           2401' FSL & 895' FWL--: LOCATION
PROV.                 Colorado: PROVINCE
CNTY.               Las Animas: COUNTRY
SRVC.                Patterson: SERVICE COMPANY
DATE.          Thu Dec 22 15:57:57 2005: LOG DATE
UWI.           05 071 08631 00: UNIQUE WELL ID
~Curve Information Block
DEPT.FT            0 000 00 00: Depth
DCAL.in                       : CDL Caliper
RHOB.g/cc                     : CDL Bulk Density
RHOC.g/cc                     : CDL Density Correction
DPOR.pu                       : CDL Density Porosity
GR.GAPI                       : Gamma Ray
~Parameter Information Block
~A  Depth       DCAL        RHOB        RHOC        DPOR         GR     
# ...
  1295.4000      8.1975      2.5948      0.0673      3.3466    128.9736
  1295.5000      8.1965      2.6259      0.0823      1.4596    127.1408
  1295.6000      8.1965      2.6532      0.0976     -0.1922    123.7352
  1295.7000      8.1965      2.6614      0.1053     -0.6932    122.8202
  1295.8000      8.1964      2.6526      0.0381     -0.1568    120.6000
  1295.9000      8.1964      2.6381      0.0411      0.7197    114.0837
  1296.0000      8.1968      2.6193      0.0464      1.8602    110.1653
  1296.1000      8.1968      2.5973     -0.0056      3.1967    115.0107
  1296.2000      8.1968      2.5877     -0.0106      3.7731    126.3851
  1296.3000      8.1976      2.5990      0.0197      3.0938    137.6550
  1296.4000      8.1976      2.6206      0.0529      1.7844    140.2170
  1296.5000      8.1980      2.6481      0.0162      0.1163    133.5120
  1296.6000      8.1980      2.6896     -0.0145     -2.4004    129.5219
  1296.7000      8.1980      2.7377      0.0625     -5.3174    134.2543
  1296.8000      8.1978      2.7706      0.0669     -7.3089    140.3532
  1296.9000      8.1978      2.7837      0.0633     -8.1004    141.0383
  1297.0000      8.1979      2.7825      0.0571     -8.0330    135.0087
  1297.1000      8.1979      2.7657      0.0648     -7.0151    125.9629
  1297.2000      8.1979      2.7394     -0.0383     -5.4167    121.3512
  1297.3000      8.1976      2.7231     -0.0960     -4.4294    123.7043
  1297.4000      8.1976      2.7255     -0.0782     -4.5737    129.0665
  1297.5000      8.1958      2.7322     -0.0627     -4.9798    132.8952
  1297.6000      8.1958      2.7310     -0.0633     -4.9100    131.8806
  1297.7000      8.1958      2.7257     -0.0570     -4.5880    128.4966
  1297.8000      8.1945      2.7194     -0.0108     -4.2033    128.6584
  1297.9000      8.1945      2.7142      0.0049     -3.8905    132.6884
  1298.0000      8.1953      2.7144      0.0385     -3.9009    138.1353
  1298.1000      8.1953      2.7059      0.0802     -3.3899    142.2800
  1298.2000      8.1953      2.6731      0.0470     -1.4004    143.3489
  1298.3000      8.1953      2.6355      0.0384      0.8759    142.2148
  1298.4000      8.1953      2.6238      0.0307      1.5869    136.8163
  1298.5000      8.1935      2.6419      0.0621      0.4901    127.5251
  1298.6000      8.1935      2.6707      0.0711     -1.2565    121.6012
  1298.7000      8.1935      2.6881      0.0108     -2.3108    120.9691
  1298.8000      8.1875      2.6869      0.0030     -2.2382    120.6149
  1298.9000      8.1875      2.6735      0.0280     -1.4247    119.8090
  1299.0000      8.1779      2.6632      0.0080     -0.7992    123.1765
  1299.1000      8.1779      2.6668      0.0555     -1.0163    129.9969
  1299.2000      8.1779      2.6719      0.0749     -1.3277    135.0077
  1299.3000      8.1723      2.6605      0.0995     -0.6386    136.8927
  1299.4000      8.1723      2.6376      0.0825      0.7508    135.7162
  1299.5000      8.1712      2.6181      0.0657      1.9333    131.4892
  1299.6000      8.1712      2.6009      0.0279      2.9734    126.7443
  1299.7000      8.1712      2.5835      0.0043      4.0331    123.0190
  1299.8000      8.1702      2.5754      0.0199      4.5189    121.8602
  1299.9000      8.1702      2.5819      0.0055      4.1272    126.0385
  1300.0000      8.1687      2.5919      0.0374      3.5228    134.8626
  1300.1000      8.1687      2.5886      0.0091      3.7239    143.2483
  1300.2000      8.1687      2.5558      0.0543      5.7119    146.0085
  1300.3000      8.1669      2.4918     -0.0058      9.5873    144.4176
  1300.4000      8.1669      2.4333     -0.0766     13.1314    142.2066
  1300.5000      8.1657      2.4143     -0.0091     14.2834    138.4770
  1300.6000      8.1657      2.4246     -0.0150     13.6615    132.5764
  1300.7000      8.1657      2.4403      0.0336     12.7069    126.9536
  1300.8000      8.1669      2.4487      0.0331     12.2024    123.4369
  1300.9000      8.1669      2.4455      0.0334     12.3923    123.2932
  1301.0000      8.1684      2.4304      0.0613     13.3114    124.8546
  1301.1000      8.1684      2.4127      0.0259     14.3822    125.2317
  1301.2000      8.1684      2.4122      0.0090     14.4114    125.9823
  1301.3000      8.1687      2.4320      0.0715     13.2094    128.4803
  1301.4000      8.1687      2.4483      0.1224     12.2255    129.5122
  1301.5000      8.1674      2.4471      0.0088     12.2994    126.7242
  1301.6000      8.1674      2.4425     -0.0017     12.5751    122.8836
  1301.7000      8.1674      2.4435      0.0143     12.5159    121.4625
  1301.8000      8.1662      2.4380      0.0143     12.8485    125.7550
  1301.9000      8.1662      2.4163     -0.0010     14.1631    134.7784
  1302.0000      8.1660      2.3897     -0.0317     15.7763    139.8374
  1302.1000      8.1660      2.3709     -0.0189     16.9156    139.1893
  1302.2000      8.1660      2.3453      0.0503     18.4663    142.4366
  1302.3000      8.1650      2.2813      0.0588     22.3453    148.9817
  1302.4000      8.1650      2.1719     -0.0085     28.9741    148.9496
  1302.5000      8.1644      2.0524     -0.0667     36.2211    144.5345
  1302.6000      8.1644      1.9662     -0.1366     41.4434    140.4764
  1302.7000      8.1644      1.9226     -0.0838     44.0859    134.4754
  1302.8000      8.1643      1.9019     -0.0617     45.3415    126.9136
  1302.9000      8.1643      1.9021     -0.1118     45.3251    121.6537
  1303.0000      8.1642      1.9436     -0.0395     42.8142    118.6752
  1303.1000      8.1642      2.0266      0.0928     37.7838    115.2126
  1303.2000      8.1642      2.1312      0.1961     31.4444    112.7412
  1303.3000      8.1642      2.2397      0.3002     24.8674    114.6283
  1303.4000      8.1642      2.3427      0.3546     18.6263    119.8078
  1303.5000      8.1649      2.4419      0.2996     12.6128    123.9288
  1303.6000      8.1649      2.5334      0.2803      7.0668    124.7498
  1303.7000      8.1649      2.5932      0.2908      3.4451    123.8407
  1303.8000      8.1670      2.6068      0.1720      2.6183    122.1664
  1303.9000      8.1670      2.5912      0.0953      3.5607    121.8110
  1304.0000      8.1709      2.5719      0.0354      4.7314    123.7807
  1304.1000      8.1709      2.5640      0.0170      5.2107    124.3982
  1304.2000      8.1709      2.5611      0.0425      5.3866    122.8039
  1304.3000      8.1738      2.5425      0.0373      6.5126    123.8683
  1304.4000      8.1738      2.5077      0.0133      8.6252    130.5710
  1304.5000      8.1759      2.4867     -0.0460      9.8973    138.8643
  1304.6000      8.1759      2.5000     -0.0133      9.0908    142.4489
  1304.7000      8.1759      2.5269      0.0513      7.4612    139.0049
  1304.8000      8.1784      2.5331      0.0458      7.0865    132.7877
  1304.9000      8.1784      2.5074      0.0199      8.6431    131.5224
  1305.0000      8.1804      2.4686     -0.0219     10.9949    136.2840
  1305.1000      8.1804      2.4438     -0.0367     12.4954    141.8631
  1305.2000      8.1804      2.4352      0.0081     13.0195    145.1074
  1305.3000      8.1801      2.4190     -0.0296     13.9995    145.2753
  1305.4000      8.1801      2.3813      0.0002     16.2866    144.1413
  1305.5000      8.1794      2.3329     -0.0172     19.2189    143.1521
  1305.6000      8.1794      2.2993     -0.0340     21.2527    142.7504
  1305.7000      8.1794      2.2929     -0.0075     21.6427    143.4963
  1305.8000      8.1812      2.3042      0.0121     20.9601    143.2416
  1305.9000      8.1812      2.3245      0.0101     19.7275    139.8994
  1306.0000      8.1849      2.3526      0.0726     18.0239    134.5451
  1306.1000      8.1849      2.3864      0.1165     15.9728    130.4850
  1306.2000      8.1849      2.4280      0.1387     13.4575    128.8354
  1306.3000      8.1883      2.4799      0.1500     10.3073    127.5451
  1306.4000      8.1883      2.5343      0.1786      7.0114    126.3090
  1306.5000      8.1890      2.5723      0.1885      4.7102    126.5039
