~Version Information
VERS.                      2.0: CWLS Log ASCII Standard - VERSION 2.0
WRAP.                       NO: One line per depth step
~Well Information Block
STRT.FT               490.0000: 
STOP.FT              2303.5000: 
STEP.FT                 0.1000: 
NULL.                -999.2500: 
COMP.          Pioneer Natural Resources: COMPANY
WELL.             Baa Baa 34-1: WELL
FLD.           Purgatoire River: FIELD
LOC.           617' FSL & 2289' FEL: LOCATION
STAT.                 Colorado: State
CNTY.               Las Animas: COUNTY
CTRY. USA : Country
SECT. 1 : Section
TOWN. 33S : Township
RANG. 67W : Range
SRVC.                Patterson: SERVICE COMPANY
DATE.          Thu Sep 08 09:44:32 2005: LOG DATE
API.           05 071 08502 00: UNIQUE WELL ID
~Curve Information Block
DEPT.FT            0 000 00 00: Depth
DCAL.in                       : CDL Caliper
RHOB.g/cc                     : CDL Bulk Density
RHOC.g/cc                     : CDL Density Correction
DPOR.pu                       : CDL Density Porosity
GR.GAPI                       : Gamma Ray
NPOR.pu                       : Neutron Porosity
~Parameter Information Block
~A  Depth       DCAL        RHOB        RHOC        DPOR         GR         NPOR    
# ...
   730.0000      7.9994      2.5843      0.0826      3.9801    114.7653     25.1615
   730.1000      7.9994      2.5509      0.0174      6.0084    113.8409     25.2088
   730.2000      7.9994      2.5284     -0.0401      7.3695    112.3590     24.8885
   730.3000      7.9929      2.5385      0.0130      6.7550    106.3996     24.1952
   730.4000      7.9929      2.5599      0.0489      5.4590     98.2939     23.8058
   730.5000      7.9432      2.5737      0.0092      4.6216     96.0371     23.9896
   730.6000      7.9432      2.5896      0.0144      3.6596     97.6957     24.0510
   730.7000      7.9432      2.6079      0.0894      2.5502     95.6984     23.5064
   730.8000      7.9070      2.6097      0.0724      2.4402     89.2244     22.8132
   730.9000      7.9070      2.5926     -0.0154      3.4768     83.6710     22.5265
   731.0000      7.9094      2.5756      0.0121      4.5117     82.6036     22.5282
   731.1000      7.9094      2.5680     -0.0243      4.9708     84.9297     22.5693
   731.2000      7.9094      2.5655     -0.0011      5.1183     87.8306     22.6572
   731.3000      7.9130      2.5714     -0.0132      4.7613     87.1060     22.8129
   731.4000      7.9130      2.5938     -0.0070      3.4062     81.6290     22.8439
   731.5000      7.9055      2.6193      0.0537      1.8629     77.5616     22.5870
   731.6000      7.9055      2.6243      0.0358      1.5557     80.1516     22.2545
   731.7000      7.9055      2.6051      0.0307      2.7203     84.7114     22.0172
   731.8000      7.9237      2.5751     -0.0128      4.5401     85.5275     21.5853
   731.9000      7.9237      2.5477     -0.0242      6.2000     81.5171     20.9504
   732.0000      7.9285      2.5245     -0.0236      7.6073     73.1235     20.8453
   732.1000      7.9285      2.5057     -0.0517      8.7444     66.2942     21.4603
   732.2000      7.9285      2.4960     -0.0384      9.3361     66.1564     21.8636
   732.3000      7.9415      2.4939     -0.0546      9.4636     68.8088     21.6773
   732.4000      7.9415      2.5006     -0.0472      9.0549     69.3916     21.4476
   732.5000      7.9248      2.5260     -0.0018      7.5146     68.1583     21.1719
   732.6000      7.9248      2.5716      0.0296      4.7502     67.1316     20.7703
   732.7000      7.9248      2.6153      0.0734      2.1040     66.4004     20.5646
   732.8000      7.9187      2.6303      0.0565      1.1966     64.6977     20.4451
   732.9000      7.9187      2.6254      0.0333      1.4884     62.5641     20.1587
   733.0000      7.9197      2.6228      0.0819      1.6485     62.0644     19.9764
   733.1000      7.9197      2.6154      0.0306      2.0968     62.8119     19.9341
   733.2000      7.9197      2.5954      0.0499      3.3119     62.2130     19.7420
   733.3000      7.9215      2.5767      0.0078      4.4453     61.1909     19.5687
   733.4000      7.9215      2.5720      0.0062      4.7287     63.4909     19.7216
   733.5000      7.9306      2.5756      0.0098      4.5098     66.0399     20.1280
   733.6000      7.9306      2.5745      0.0633      4.5773     62.9276     20.4963
   733.7000      7.9306      2.5708     -0.0625      4.7995     56.9909     20.7073
   733.8000      7.9363      2.5711      0.0264      4.7842     52.9829     20.7544
   733.9000      7.9363      2.5655      0.0172      5.1210     50.5157     20.5758
   734.0000      7.9407      2.5599     -0.0558      5.4597     49.1104     20.3038
   734.1000      7.9407      2.5682      0.0224      4.9564     51.1830     20.2058
   734.2000      7.9407      2.5695      0.0729      4.8808     57.3137     20.0508
   734.3000      7.9495      2.5466      0.0027      6.2652     62.6377     19.4112
   734.4000      7.9495      2.5251     -0.0355      7.5705     64.5909     18.7367
   734.5000      7.9615      2.5277     -0.0509      7.4092     65.8863     18.6173
   734.6000      7.9615      2.5424     -0.0016      6.5230     67.0567     18.6092
   734.7000      7.9615      2.5446      0.0287      6.3862     67.3337     18.3206
   734.8000      7.9704      2.5312     -0.0293      7.1990     68.9023     18.0575
   734.9000      7.9704      2.5158     -0.0334      8.1331     71.2086     17.9814
   735.0000      7.9896      2.5005     -0.0045      9.0602     69.0435     18.0130
   735.1000      7.9896      2.4817      0.0013     10.1999     62.4393     18.0535
   735.2000      7.9896      2.4750     -0.0419     10.6044     59.4066     18.0232
   735.3000      7.9962      2.4970      0.0070      9.2715     61.2060     17.9450
   735.4000      7.9962      2.5294      0.0526      7.3083     62.0210     17.8386
   735.5000      7.9634      2.5358      0.0629      6.9225     60.7685     17.6663
   735.6000      7.9634      2.5084      0.0199      8.5788     59.6484     17.4579
   735.7000      7.9634      2.4763      0.0165     10.5281     57.3480     17.2364
   735.8000      7.9654      2.4646      0.0001     11.2363     53.1018     17.0835
   735.9000      7.9654      2.4686      0.0694     10.9925     50.0229     17.0172
   736.0000      7.9747      2.4732      0.0140     10.7132     49.1091     16.9656
   736.1000      7.9747      2.4772      0.0336     10.4699     48.0307     16.8739
   736.2000      7.9747      2.4785      0.0465     10.3943     44.3887     16.5814
   736.3000      7.9581      2.4746      0.0431     10.6312     37.8631     16.1665
   736.4000      7.9581      2.4813     -0.0163     10.2251     31.9229     15.8843
   736.5000      7.9649      2.5123      0.0326      8.3448     30.0850     15.7220
   736.6000      7.9649      2.5470      0.1241      6.2420     30.4230     15.6785
   736.7000      7.9649      2.5523      0.1287      5.9212     31.8624     15.8084
   736.8000      7.9765      2.5251      0.0927      7.5713     35.9765     15.9335
   736.9000      7.9765      2.4884      0.0427      9.7963     38.9877     15.8147
   737.0000      7.9803      2.4626      0.0184     11.3578     37.0036     15.6030
   737.1000      7.9803      2.4494      0.0247     12.1566     32.7834     15.4533
   737.2000      7.9803      2.4447     -0.0508     12.4416     30.3376     15.0875
   737.3000      7.9905      2.4491     -0.0054     12.1743     30.5827     14.4971
   737.4000      7.9905      2.4506      0.0453     12.0858     32.4326     13.9438
   737.5000      8.0118      2.4334     -0.0250     13.1264     34.6777     13.1989
   737.6000      8.0118      2.3961      0.0034     15.3894     35.3882     12.0477
   737.7000      8.0118      2.3337     -0.0022     19.1691     33.6293     11.0479
   737.8000      8.0247      2.2374     -0.0162     25.0070     34.3804     10.7299
   737.9000      8.0247      2.1161     -0.0924     32.3596     41.4783     10.8995
   738.0000      8.0244      2.0037     -0.1267     39.1670     51.5720     11.1633
   738.1000      8.0244      1.9306     -0.1448     43.6022     60.7739     11.4148
   738.2000      8.0244      1.8840     -0.0351     46.4215     67.5868     11.6681
   738.3000      8.0363      1.8372     -0.1694     49.2633     72.3746     11.8604
   738.4000      8.0363      1.7941     -0.1031     51.8721     75.1535     11.9556
   738.5000      8.0481      1.7671     -0.0269     53.5118     75.9034     12.1011
   738.6000      8.0481      1.7517      0.1068     54.4449     76.9750     12.5823
   738.7000      8.0481      1.7256      0.2153     56.0220     78.8733     13.3126
   738.8000      8.0856      1.6721      0.1343     59.2643     80.5994     13.8497
   738.9000      8.0856      1.6029      0.0600     63.4635     85.0735     14.1717
   739.0000      8.2334      1.5391     -0.0181     67.3256     93.1067     14.7962
   739.1000      8.2334      1.4976     -0.0004     69.8419     99.3902     15.8507
   739.2000      8.2334      1.4979     -0.0341     69.8246    101.0063     16.9178
   739.3000      8.2369      1.5589      0.0373     66.1264    100.7527     18.0493
   739.4000      8.2369      1.6843      0.1290     58.5287    101.8560     19.5457
   739.5000      8.2324      1.8580      0.2892     47.9990    103.2159     21.2238
