~Version Information
VERS.                                  2.0 : CWLS LAS VERSION
WRAP.                                   NO : WRAPING MODE
SWARE .                  MController 2.5.1 : SOFTWARE VERSION
~Well Information
WELL.                  Horesfeathers 24-34 : WELL
COMP.  Pioneer Natural Resources USA, Inc. : COMPANY
FLD.                      Purgatoire River : FIELD
LOC.                      SE/SW 34-32S-67W : LOCATION
DATE.                02/03/2006-02/05/2006 : DATE(S) LOGGED
SRVC.                  Entrada GeoSciences : SERVICE COMPANY
STAT.                             Colorado : STATE
CNTY.                           Las Animas : COUNTY
CTRY.                        United States : COUNTRY
API.                          05-071-xxxxx : API NUMBER
STRT.FT                             514.00 : START DEPTH
STOP.FT                            2575.00 : STOP DEPTH
STEP.FT                               1.00 : DEPTH INCREMENT
NULL.                                -9999 : NULL VALUE
~Curve information
DEPTH.FT                                   :
ROP.MIN/FT                                 :
GAS.UNITS                                  :
~ASCII Log data
# ...
     2162.00         0.37         46.3
     2163.00         0.27         52.4
     2164.00         0.37         91.3
     2165.00         0.37        101.4
     2166.00         0.38        124.7
     2167.00         0.33        165.7
     2168.00         0.37        178.0
     2169.00         0.30        225.2
     2170.00         0.30        282.7
     2171.00         0.27        343.0
     2172.00         0.20        397.2
     2173.00         0.27        476.2
     2174.00         0.37        824.8
     2175.00         0.33        840.1
     2176.00         0.30        803.5
     2177.00         0.17        777.7
     2178.00         0.28        706.5
     2179.00         0.37        619.5
     2180.00         0.23        578.8
     2181.00         0.33        558.5
     2182.00         0.50        490.3
     2183.00         0.90        424.4
     2184.00         0.63        171.8
     2185.00         0.63        107.7
     2186.00         0.45         42.7
     2187.00         0.50         12.4
     2188.00         0.40         11.4
     2189.00         0.20         11.9
     2190.00         0.53         14.9
     2191.00         0.40         16.7
     2192.00         0.40         16.9
     2193.00         0.27         16.3
     2194.00         0.35         17.0
     2195.00         0.33        155.0
     2196.00         0.63        105.1
     2197.00         0.60        144.1
     2198.00         0.43        195.0
     2199.00         0.30        239.9
     2200.00         0.20        276.5
     2201.00         0.27        347.2
     2202.00         0.30        385.5
     2203.00         0.32        426.3
     2204.00         0.27        471.8
     2205.00         0.57        949.9
     2206.00         0.50       1012.6
     2207.00         0.63       1013.8
     2208.00         0.40        853.9
     2209.00         0.47        766.5
     2210.00         0.38        706.2
     2211.00         0.53        686.6
     2212.00         0.27        574.1
     2213.00         0.33        421.1
     2214.00         0.27        400.0
     2215.00         0.30        125.7
     2216.00         0.50         62.1
     2217.00         0.65         16.4
     2218.00         0.60          6.0
     2219.00         0.40          6.9
     2220.00         0.50         12.6
     2221.00         0.60        199.4
     2222.00         0.70         61.2
     2223.00         0.72         49.0
     2224.00         0.53         83.0
     2225.00         0.37        142.3
     2226.00         0.30        304.5
     2227.00         0.27        382.4
     2228.00         0.20        447.0
     2229.00         0.17        447.0
     2230.00         0.20        426.1
     2231.00         0.17        398.6
     2232.00         0.13        386.6
     2233.00         0.17        295.5
     2234.00         0.23        257.4
     2235.00         0.18        162.8
     2236.00         0.37        142.5
     2237.00         0.37         64.3
     2238.00         0.40         34.0
     2239.00         0.40         11.1
     2240.00         0.50          6.0
     2241.00         0.37          7.5
     2242.00         0.27          9.6
     2243.00         0.40         17.0
     2244.00         0.37         20.4
     2245.00         0.37         27.2
     2246.00         0.50         93.3
     2247.00         0.52        123.1
     2248.00         0.70        164.3
     2249.00         0.70        184.8
     2250.00         0.33        205.4
     2251.00         0.33        224.2
     2252.00         0.67        261.7
     2253.00         0.28        289.4
     2254.00         0.43        309.8
     2255.00         0.37         24.0
     2256.00         0.40         52.9
     2257.00         0.40         90.4
     2258.00         0.43        162.5
     2259.00         0.40        245.5
     2260.00         0.37        336.7
     2261.00         0.40        430.7
     2262.00         0.38        419.0
     2263.00         0.47        366.4
     2264.00         0.43        229.0
     2265.00         0.40        181.6
     2266.00         0.40        147.0
     2267.00         0.37         94.9
     2268.00         0.37         80.4
     2269.00         0.37         48.8
     2270.00         0.42         21.6
     2271.00         0.33         20.5
     2272.00         0.47         14.9
     2273.00         0.30         10.3
     2274.00         0.23         10.2
     2275.00         0.58         12.2
     2276.00         0.33         12.1
     2277.00         0.30         13.8
     2278.00         0.47         16.3
     2279.00         0.33         17.2
     2280.00         0.60         57.8
     2281.00         0.57        121.9
     2282.00         0.38        130.0
     2283.00         0.40        130.3
     2284.00         0.47        117.2
     2285.00         0.57        110.6
     2286.00         0.50        107.6
     2287.00         0.47        104.3
     2288.00         0.47        108.1
     2289.00         0.30        131.3
     2290.00         0.35        212.9
     2291.00         0.27        293.1
     2292.00         0.23        330.3
     2293.00         0.23        416.6
     2294.00         0.20        837.2
     2295.00         0.20        916.5
     2296.00         0.20        880.8
     2297.00         0.13        778.0
     2298.00         0.23        675.7
     2299.00         0.23        649.4
     2300.00         0.47        585.2
     2301.00         0.38        523.4
     2302.00         0.33        461.0
     2303.00         0.33        400.0
     2304.00         0.40        137.1
     2305.00         0.33         77.5
     2306.00         0.40         48.5
     2307.00         0.33         10.9
     2308.00         0.30         10.7
     2309.00         0.23          5.9
     2310.00         0.23          6.3
     2311.00         0.25          7.2
     2312.00         0.27          9.5
     2313.00         0.53         12.1
     2314.00         0.63        150.0
     2315.00         0.37        183.7
     2316.00         0.47        251.4
     2317.00         0.53        327.8
     2318.00         0.55        357.6
     2319.00         0.27        356.0
     2320.00         0.30        347.9
     2321.00         0.40        335.1
     2322.00         0.30        337.1
     2323.00         0.27        336.8
     2324.00         0.23        330.7
     2325.00         0.33        254.3
     2326.00         0.47        247.5
     2327.00         0.47        136.2
     2328.00         0.28        109.2
     2329.00         0.23         97.7
     2330.00         0.37         71.4
     2331.00         0.40         67.7
     2332.00         0.30         57.2
     2333.00         0.23         32.9
     2334.00         0.23         20.8
     2335.00         0.20         12.6
     2336.00         0.17         11.4
     2337.00         0.28          8.5
     2338.00         0.40          4.2
     2339.00         0.33          3.9
     2340.00         0.30          3.6
     2341.00         0.50          3.5
     2342.00         0.57          6.3
     2343.00         0.63          8.6
     2344.00         0.55          8.0
     2345.00         0.50          8.0
     2346.00         0.67         11.0
     2347.00         0.53        349.5
     2348.00         0.47        162.9
     2349.00         0.47        181.8
     2350.00         0.63        328.7
     2351.00         0.68        444.4
     2352.00         0.57        773.9
     2353.00         0.47        764.8
     2354.00         0.40        724.9
     2355.00         0.37        711.8
     2356.00         0.40        725.5
     2357.00         0.40        668.4
     2358.00         0.42        400.0
     2359.00         0.43        181.3
     2360.00         0.27        130.5
     2361.00         0.33         64.1
     2362.00         1.20         21.8
     2363.00         0.67          9.5
     2364.00         1.52        122.9
     2365.00         0.90        302.4
     2366.00         0.90        395.0
     2367.00         1.10        431.4
