~Version Information
VERS.                      2.0: CWLS Log ASCII Standard - VERSION 2.0
WRAP.                       NO: One line per depth step
~Well Information Block
STRT.FT               529.2000: 
STOP.FT              1325.2000: 
STEP.FT                 0.1000: 
NULL.                -999.2500: 
COMP.          Pioneer Natural Resources: COMPANY
WELL.            Erin 21-15 Tr: WELL
FLD.           Purgatoire River: FIELD
LOC.           1217' FNL & 2284' FWL--: LOCATION
CNTY.               Las Animas: COUNTY
SRVC.                Patterson: SERVICE COMPANY
DATE.          Mon Mar 06 14:26:48 2006: LOG DATE
UWI.           05 071 08712 00: UNIQUE WELL ID
STAT.                 Colorado: STATE
~Curve Information Block
DEPT.FT            0 000 00 00: Depth
DCAL.in                       : CDL Caliper
RHOB.g/cc                     : CDL Bulk Density
RHOC.g/cc                     : CDL Density Correction
DPOR.pu                       : CDL Density Porosity
GR.GAPI                       : Gamma Ray
~Parameter Information Block
~A  Depth       DCAL        RHOB        RHOC        DPOR         GR     
# ...
   742.0000      8.0772      2.5634      0.0627      5.2504    123.8724
   742.1000      8.0772      2.6366      0.0659      0.8146    122.5961
   742.2000      8.0772      2.7108      0.1107     -3.6879    120.3996
   742.3000      8.0571      2.7623      0.1095     -6.8083    118.6540
   742.4000      8.0571      2.7927      0.1192     -8.6509    117.9638
   742.5000      8.0350      2.8271      0.1084    -10.7336    116.4992
   742.6000      8.0350      2.8746      0.1586    -13.6148    113.9678
   742.7000      8.0350      2.9146      0.1547    -16.0389    110.5738
   742.8000      8.0148      2.9362      0.0972    -17.3479    104.4170
   742.9000      8.0148      2.9638      0.0647    -19.0192     97.4329
   743.0000      8.0051      3.0107      0.1129    -21.8628     93.3347
   743.1000      8.0051      3.0481      0.1218    -24.1289     90.0265
   743.2000      8.0051      3.0516      0.0436    -24.3367     83.0319
   743.3000      8.0028      3.0194      0.0558    -22.3908     72.7113
   743.4000      8.0028      2.9528      0.0365    -18.3518     66.5892
   743.5000      8.0004      2.8696     -0.0311    -13.3112     69.2814
   743.6000      8.0004      2.8022     -0.0608     -9.2228     75.7067
   743.7000      8.0004      2.7600     -0.0910     -6.6666     79.1689
   743.8000      8.0001      2.7281     -0.0178     -4.7361     78.5219
   743.9000      8.0001      2.6911     -0.0278     -2.4927     77.2465
   744.0000      8.0081      2.6539     -0.0610     -0.2370     78.1055
   744.1000      8.0081      2.6309     -0.0704      1.1548     80.4134
   744.2000      8.0081      2.6235     -0.0140      1.6031     84.6421
   744.3000      8.0207      2.6197      0.0597      1.8372     90.0331
   744.4000      8.0207      2.6078      0.0498      2.5552     94.6985
   744.5000      8.0278      2.5878      0.0637      3.7680     99.8742
   744.6000      8.0278      2.5635      0.0408      5.2433    107.5506
   744.7000      8.0278      2.5361      0.0693      6.9006    117.3078
   744.8000      8.0317      2.5147      0.0504      8.2028    125.0589
   744.9000      8.0317      2.5065      0.0489      8.6968    126.0717
   745.0000      8.0321      2.5035      0.0591      8.8802    121.2667
   745.1000      8.0321      2.5022      0.0187      8.9549    116.9706
   745.2000      8.0321      2.5118      0.0384      8.3760    117.1079
   745.3000      8.0279      2.5291      0.0799      7.3302    120.3714
   745.4000      8.0279      2.5392      0.0977      6.7156    123.4934
   745.5000      8.0260      2.5381      0.0511      6.7806    124.2741
   745.6000      8.0260      2.5339      0.0279      7.0391    123.2927
   745.7000      8.0260      2.5321      0.0257      7.1483    120.6387
   745.8000      8.0281      2.5353      0.0026      6.9530    116.5632
   745.9000      8.0281      2.5407      0.0568      6.6272    114.2759
   746.0000      8.0301      2.5358      0.0703      6.9195    116.3716
   746.1000      8.0301      2.5131      0.0492      8.2946    118.3223
   746.2000      8.0301      2.4814      0.0119     10.2182    117.0863
   746.3000      8.0304      2.4585      0.0339     11.6085    116.9996
   746.4000      8.0304      2.4504      0.0474     12.0997    116.6631
   746.5000      8.0295      2.4463      0.0244     12.3436    113.0745
   746.6000      8.0295      2.4411      0.0214     12.6604    110.7252
   746.7000      8.0295      2.4433      0.0236     12.5299    112.4486
   746.8000      8.0286      2.4575      0.0545     11.6662    116.5385
   746.9000      8.0286      2.4779      0.0382     10.4326    120.0494
   747.0000      8.0293      2.4978      0.0594      9.2214    118.8805
   747.1000      8.0293      2.5073      0.0730      8.6514    111.9239
   747.2000      8.0293      2.4915      0.1115      9.6040    104.3400
   747.3000      8.0346      2.4520      0.0720     12.0020    101.7105
   747.4000      8.0346      2.4048      0.0496     14.8635    104.4189
   747.5000      8.0450      2.3475      0.0370     18.3356    109.9869
   747.6000      8.0450      2.2646     -0.0180     23.3597    116.0788
   747.7000      8.0450      2.1631     -0.0847     29.5076    120.3260
   747.8000      8.0547      2.0576     -0.0980     35.9050    119.1488
   747.9000      8.0547      1.9465     -0.1152     42.6394    111.7179
   748.0000      8.0718      1.8297     -0.1635     49.7154    102.0118
   748.1000      8.0718      1.7213     -0.1932     56.2820     93.7828
   748.2000      8.0718      1.6310     -0.1391     61.7599     86.0047
   748.3000      8.1336      1.5516     -0.1450     66.5678     78.1877
   748.4000      8.1336      1.4842     -0.1265     70.6530     73.1874
   748.5000      8.2656      1.4422     -0.0586     73.1988     71.3953
   748.6000      8.2656      1.4238      0.0265     74.3144     70.7666
   748.7000      8.2656      1.4066      0.0656     75.3597     69.9981
   748.8000      8.3971      1.3764      0.0075     77.1883     68.0523
   748.9000      8.3971      1.3447     -0.0277     79.1070     63.2827
   749.0000      8.4211      1.3304     -0.0339     79.9769     56.1590
   749.1000      8.4211      1.3370      0.0234     79.5755     48.7055
   749.2000      8.4211      1.3520      0.0723     78.6690     42.1532
   749.3000      8.3443      1.3682      0.0619     77.6840     36.3871
   749.4000      8.3443      1.4007      0.0670     75.7167     32.9299
   749.5000      8.2411      1.4692      0.0976     71.5625     32.9293
   749.6000      8.2411      1.5756      0.1327     65.1168     35.1124
   749.7000      8.2411      1.7081      0.1429     57.0857     38.8823
   749.8000      8.1706      1.8607      0.1715     47.8366     42.5805
   749.9000      8.1706      2.0223      0.2622     38.0439     45.7861
   750.0000      8.1395      2.1661      0.2732     29.3285     49.6952
   750.1000      8.1395      2.2786      0.2910     22.5066     53.5164
   750.2000      8.1395      2.3740      0.2745     16.7290     56.5240
   750.3000      8.1121      2.4700      0.2777     10.9062     60.1670
   750.4000      8.1121      2.5553      0.3062      5.7381     65.9963
   750.5000      8.0662      2.5969      0.2416      3.2211     73.8521
   750.6000      8.0662      2.5927      0.0838      3.4744     82.7261
   750.7000      8.0662      2.5796      0.0463      4.2691     88.7341
   750.8000      8.0232      2.5786      0.0727      4.3272     90.5738
   750.9000      8.0232      2.5787      0.0868      4.3193     92.5329
   751.0000      8.0066      2.5726      0.0152      4.6901     94.1892
   751.1000      8.0066      2.5696      0.0499      4.8699     92.7930
   751.2000      8.0066      2.5760      0.0125      4.4851     90.4911
   751.3000      8.0067      2.5838      0.0667      4.0120     88.4812
   751.4000      8.0067      2.5799      0.0455      4.2504     88.9686
   751.5000      8.0081      2.5661      0.0317      5.0847     96.0650
   751.6000      8.0081      2.5584     -0.0142      5.5515    105.6179
   751.7000      8.0081      2.5626      0.0335      5.2970    108.5767
   751.8000      8.0098      2.5629      0.0572      5.2774    103.9462
   751.9000      8.0098      2.5496      0.0004      6.0855     97.5848
   752.0000      8.0151      2.5371      0.0065      6.8451     90.0986
   752.1000      8.0151      2.5405      0.0135      6.6385     83.0693
   752.2000      8.0151      2.5598      0.0211      5.4650     82.6178
   752.3000      8.0170      2.5875      0.0356      3.7887     86.9971
   752.4000      8.0170      2.6151      0.0057      2.1150     90.8847
   752.5000      8.0111      2.6328      0.0338      1.0395     93.5850
   752.6000      8.0111      2.6315      0.0672      1.1201     95.0864
   752.7000      8.0111      2.6149      0.0222      2.1291     95.4215
   752.8000      8.0046      2.5955     -0.0102      3.3006     93.6331
   752.9000      8.0046      2.5740      0.0552      4.6062     92.3340
   753.0000      8.0022      2.5474      0.0330      6.2166     94.5629
   753.1000      8.0022      2.5302     -0.0157      7.2596     98.4259
