~Version Information
VERS.                      2.0: CWLS Log ASCII Standard - VERSION 2.0
WRAP.                       NO: One line per depth step
~Well Information Block
STRT.FT               230.0000: 
STOP.FT              1028.0000: 
STEP.FT                 0.2500: 
NULL.                -999.2500: 
COMP.          Pioneer Natural Resources: COMPANY
WELL.              Gough 14-29: WELL
FLD.           Purgatoire River: FIELD
LOC.           1199' FSL & 676' FWL: LOCATION
PROV.                 Colorado: PROVINCE
CNTY.               Las Animas: COUNTRY
SRVC.                Patterson: SERVICE COMPANY
DATE.          Thu Dec 22 16:27:18 2005: LOG DATE
UWI.           05 071 08612 00: UNIQUE WELL ID
~Curve Information Block
DEPT.FT            0 000 00 00: Depth
SN.Ohm-m                      : IEL Short Normal
SP.mV                         : IEL Spontaneous Potential
DIR.Ohm-m                     : IEL Induction Resistivity
GR.GAPI                       : Gamma Ray
~Parameter Information Block
SNDERRM.mmho-m         10.0000: Medium Sonde Error Correction
~A  Depth        SN          SP         DIR          GR     
# ...
   933.5000     26.4242     49.3661     26.7630     87.6456
   933.7500     27.0218     49.1719     27.2283     84.5475
   934.0000     27.6796     48.9953     27.7503     80.0243
   934.2500     28.4522     48.8695     28.2683     77.2223
   934.5000     29.3226     48.8224     28.7544     73.6188
   934.7500     30.2788     48.8670     29.2096     71.6303
   935.0000     31.3990     48.9983     29.6418     69.1206
   935.2500     32.7192     49.1940     30.0550     67.7900
   935.5000     34.0633     49.4175     30.4541     66.7286
   935.7500     35.1176     49.6252     30.8468     66.9955
   936.0000     35.6494     49.7786     31.2300     69.1970
   936.2500     35.6864     49.8600     31.5707     71.7192
   936.5000     35.4893     49.8808     31.8093     76.2851
   936.7500     35.2307     49.8753     31.8885     79.2994
   937.0000     34.8473     49.8799     31.7893     83.3002
   937.2500     34.2357     49.9151     31.5428     85.8096
   937.5000     33.3608     49.9803     31.2140     90.0511
   937.7500     32.3380     50.0613     30.8728     93.2766
   938.0000     31.4364     50.1420     30.5722     97.7308
   938.2500     30.7682     50.2109     30.3372     99.6272
   938.5000     30.1988     50.2599     30.1662    100.4950
   938.7500     29.6648     50.2783     30.0423    100.4788
   939.0000     29.2795     50.2494     29.9493    101.5064
   939.2500     29.1209     50.1545     29.8802    103.6033
   939.5000     29.1727     49.9829     29.8323    108.5831
   939.7500     29.3571     49.7389     29.7988    112.3493
   940.0000     29.4941     49.4440     29.7710    117.3942
   940.2500     29.4405     49.1322     29.7543    120.0018
   940.5000     29.2456     48.8408     29.7764    122.5595
   940.7500     29.0409     48.5987     29.8699    123.1792
   941.0000     28.9505     48.4180     30.0386    122.1956
   941.2500     29.0973     48.2935     30.2416    120.3849
   941.5000     29.4634     48.2065     30.4143    116.6674
   941.7500     29.8540     48.1303     30.5095    114.0456
   942.0000     30.1083     48.0388     30.5220    110.6742
   942.2500     30.1905     47.9155     30.4824    109.1945
   942.5000     30.1560     47.7618     30.4355    108.7335
   942.7500     30.1224     47.5975     30.4247    109.8646
   943.0000     30.1545     47.4534     30.4832    113.6454
   943.2500     30.2020     47.3607     30.6296    116.8164
   943.5000     30.2273     47.3403     30.8650    119.9257
   943.7500     30.2904     47.3947     31.1717    119.3148
   944.0000     30.4505     47.5067     31.5160    113.6863
   944.2500     30.6526     47.6472     31.8573    108.0299
   944.5000     30.7700     47.7849     32.1636    100.2479
   944.7500     30.8080     47.8939     32.4221     97.1239
   945.0000     30.9603     47.9573     32.6387     95.8142
   945.2500     31.3680     47.9725     32.8299     96.1243
   945.5000     31.9657     47.9526     33.0148     96.5592
   945.7500     32.6058     47.9212     33.2096     96.8443
   946.0000     33.1925     47.9023     33.4243     98.9882
   946.2500     33.6754     47.9107     33.6628    102.5045
   946.5000     34.0440     47.9481     33.9274    110.6341
   946.7500     34.3410     48.0071     34.2212    116.6331
   947.0000     34.6309     48.0789     34.5464    123.6815
   947.2500     34.9448     48.1584     34.8970    126.0955
   947.5000     35.2646     48.2421     35.2502    126.4073
   947.7500     35.5858     48.3246     35.5631    125.0097
   948.0000     35.9441     48.3969     35.7829    121.0966
   948.2500     36.3488     48.4494     35.8747    117.3034
   948.5000     36.7348     48.4760     35.8434    110.3580
   948.7500     37.0281     48.4760     35.7295    105.7974
   949.0000     37.2330     48.4524     35.5813    101.0395
   949.2500     37.3199     48.4103     35.4346    100.0245
   949.5000     37.1413     48.3574     35.3160    101.6436
   949.7500     36.6437     48.3057     35.2510    103.9795
   950.0000     35.9584     48.2681     35.2609    107.4071
   950.2500     35.2336     48.2513     35.3445    108.7702
   950.5000     34.5408     48.2518     35.4645    108.9933
   950.7500     33.9107     48.2569     35.5522    108.2030
   951.0000     33.4285     48.2519     35.5387    106.4352
   951.2500     33.2141     48.2285     35.3965    105.2451
   951.5000     33.2554     48.1903     35.1611    103.4993
   951.7500     33.3756     48.1515     34.9097    102.0194
   952.0000     33.3996     48.1306     34.7175     98.6215
   952.2500     33.3218     48.1451     34.6248     95.5853
   952.5000     33.2791     48.2084     34.6320     91.1294
   952.7500     33.3479     48.3269     34.7097     89.3202
   953.0000     33.4742     48.4956     34.8139     89.5333
   953.2500     33.6202     48.6960     34.9022     91.5297
   953.5000     33.7447     48.8966     34.9467     96.1893
   953.7500     33.6848     49.0618     34.9297     99.7131
   954.0000     33.3658     49.1653     34.8209    104.9993
   954.2500     32.9769     49.2054     34.5751    108.4692
   954.5000     32.7589     49.2075     34.1775    113.7353
   954.7500     32.7908     49.2118     33.7054    117.3666
   955.0000     32.9742     49.2529     33.3267    122.8411
   955.2500     33.1200     49.3442     33.2092    126.1718
   955.5000     33.1103     49.4741     33.4110    129.9874
   955.7500     32.9516     49.6134     33.8379    131.4793
   956.0000     32.6661     49.7315     34.2985    132.0254
   956.2500     32.2825     49.8131     34.6173    131.3226
   956.5000     31.8697     49.8649     34.7187    128.6376
   956.7500     31.4383     49.9085     34.6176    125.4154
   957.0000     30.9407     49.9644     34.3534    117.4553
   957.2500     30.4147     50.0387     33.9526    109.8055
   957.5000     29.9951     50.1207     33.4444     95.7920
   957.7500     29.7547     50.1915     32.8842     86.1077
   958.0000     29.5892     50.2380     32.3420     73.7522
   958.2500     29.3279     50.2614     31.8591     68.1038
   958.5000     28.9480     50.2779     31.4196     63.9532
   958.7500     28.5745     50.3103     30.9628     63.4718
   959.0000     28.3223     50.3727     30.4349     64.4235
   959.2500     28.1956     50.4602     29.8323     65.1487
   959.5000     28.0686     50.5512     29.2031     65.2413
   959.7500     27.7976     50.6187     28.6122     64.6498
   960.0000     27.3490     50.6453     28.1095     63.9247
   960.2500     26.7764     50.6314     27.7237     64.2425
   960.5000     26.1707     50.5948     27.4725     65.8977
   960.7500     25.6035     50.5622     27.3602     67.1241
   961.0000     25.1062     50.5582     27.3531     68.0061
   961.2500     24.7377     50.5990     27.3605     67.6476
   961.5000     24.5530     50.6903     27.2658     65.7895
   961.7500     24.4873     50.8259     27.0039     64.1260
   962.0000     24.4142     50.9873     26.6139     62.2833
   962.2500     24.3007     51.1475     26.2038     62.0357
   962.5000     24.2211     51.2785     25.8681     62.8935
   962.7500     24.2449     51.3589     25.6404     63.6790
   963.0000     24.3639     51.3791     25.5057     64.4051
   963.2500     24.5271     51.3445     25.4360     64.5046
   963.5000     24.6695     51.2725     25.4109     64.2231
   963.7500     24.7305     51.1858     25.4164     63.8682
   964.0000     24.7244     51.1052     25.4334     63.4999
   964.2500     24.7641     51.0453     25.4380     63.7724
   964.5000     24.9271     51.0117     25.4113     65.5884
   964.7500     25.1105     51.0009     25.3495     67.7435
   965.0000     25.2196     51.0010     25.2637     71.5291
   965.2500     25.3377     50.9935     25.1709     73.6404
   965.5000     25.4690     50.9588     25.0865     75.2299
   965.7500     25.4468     50.8820     25.0236     75.2115
   966.0000     25.2228     50.7575     24.9909     74.2982
   966.2500     24.9588     50.5886     24.9867     73.6885
   966.5000     24.7957     50.3842     24.9969     73.6368
   966.7500     24.7020     50.1561     25.0043     74.4215
