~Version Information
VERS.                      2.0: CWLS Log ASCII Standard - VERSION 2.0
WRAP.                       NO: One line per depth step
~Well Information Block
STRT.FT                 0.0000: 
STOP.FT               787.2500: 
STEP.FT                 0.2500: 
NULL.                -999.2500: 
COMP.          Pioneer Natural Resources: COMPANY
WELL.             Veedol 34-28: WELL
FLD.           Purgatorie River: FIELD
LOC.           357' FSL & 2520' FEL: LOCATION
PROV.                 Colorado: PROVINCE
CNTY.               Las Animas: COUNTRY
SRVC.                Patterson: SERVICE COMPANY
DATE.          Wed Dec 28 10:10:37 2005: LOG DATE
UWI.                          : UNIQUE WELL ID
~Curve Information Block
DEPT.FT            0 000 00 00: Depth
CCL.                          : Casing Collar Locator
TT3.usec                      : CBL 3' Travel Time
AMP3.mV                       : CBL 3' Amplitude
GR.GAPI                       : Gamma Ray
~Parameter Information Block
~A  Depth       CCL         TT3         AMP3         GR     
# ...
   603.0000      0.0000    689.5493     11.5700     44.1988
   603.2500      0.0000    686.8875     11.6756     41.3876
   603.5000      0.0000    696.0379     11.7692     41.4095
   603.7500      0.0000    708.4774     11.7512     43.6652
   604.0000      0.0000    716.2631     11.6110     46.7456
   604.2500      0.0000    719.1081     11.4367     49.4652
   604.5000      0.0000    719.8203     11.3125     51.4075
   604.7500      0.0000    720.0314     11.2598     52.8373
   605.0000      0.0000    720.1591     11.2582     54.2483
   605.2500      0.0000    720.2623     11.2752     55.7614
   605.5000      0.0000    720.3316     11.2787     56.8404
   605.7500      0.0000    720.3260     11.2441     56.8365
   606.0000      0.0000    720.2358     11.1590     55.9617
   606.2500      0.0000    720.0779     11.0283     55.4379
   606.5000      0.0000    719.6979     10.8809     56.4244
   606.7500      0.0000    718.2529     10.7600     58.9559
   607.0000      0.0000    714.0228     10.6995     62.1102
   607.2500      0.0000    706.5186     10.7179     65.0459
   607.5000      0.0000    699.7043     10.8267     67.6498
   607.7500      0.0000    699.3621     11.0177     70.2790
   608.0000      0.0000    705.3958     11.2453     73.0571
   608.2500      0.0000    711.4536     11.4502     75.5054
   608.5000      0.0000    712.5800     11.5887     76.9673
   608.7500      0.0000    709.7156     11.6377     77.4051
   609.0000      0.0000    707.8018     11.6003     77.5410
   609.2500      0.0000    709.9976     11.5056     78.1267
   609.5000      0.0000    714.2980     11.4050     79.2887
   609.7500      0.0000    717.4335     11.3808     80.6978
   610.0000      0.0000    718.7957     11.5071     82.0801
   610.2500      0.0000    719.3315     11.7901     83.3386
   610.5000      0.0000    719.7150     12.1642     84.4151
   610.7500      0.0000    720.0972     12.5246     85.3539
   611.0000      0.0000    720.4008     12.7775     86.3170
   611.2500      0.0000    720.5844     12.8865     87.2361
   611.5000      0.0000    720.7241     12.8913     87.5989
   611.7500      0.0000    720.8705     12.8768     86.8616
   612.0000      0.0000    720.9364     12.8963     84.8970
   612.2500      0.0000    720.8204     12.9269     81.8419
   612.5000      0.0000    720.5555     12.9266     77.9393
   612.7500      0.0000    720.2855     12.9221     73.9495
   613.0000      0.0000    720.1273     12.9781     71.2686
   613.2500      0.0000    720.0640     13.0822     71.1012
   613.5000      0.0000    720.0049     13.1467     73.5519
   613.7500      0.0000    719.9263     13.1173     77.6493
   614.0000      0.0000    719.8946     13.0096     82.0603
   614.2500      0.0000    719.9687     12.8704     85.7601
   614.5000      0.0000    720.1389     12.7547     88.3107
   614.7500      0.0000    720.3895     12.7030     89.7108
   615.0000      0.0000    720.7147     12.7080     90.0622
   615.2500      0.0000    721.0299     12.7381     89.5541
   615.5000      0.0000    721.1960     12.7859     88.7315
   615.7500      0.0000    721.1396     12.8553     88.3929
   616.0000      0.0000    720.8801     12.9293     88.8141
   616.2500      0.0000    720.5225     12.9774     89.2279
   616.5000      0.0000    720.2218     12.9778     88.5732
   616.7500      0.0000    720.0502     12.9372     86.7256
   617.0000      0.0000    719.9431     12.8635     84.5077
   617.2500      0.0000    719.8286     12.7331     82.6531
   617.5000      0.0000    719.7399     12.5454     81.3239
   617.7500      0.0000    719.7654     12.3477     80.4650
   618.0000      0.0000    719.9287     12.1770     80.0305
   618.2500      0.0000    719.9927     12.0600     79.9159
   618.5000      0.0000    718.5361     12.0365     80.0446
   618.7500      0.0000    710.4603     12.1142     80.4249
   619.0000      0.0000    686.4114     12.2491     80.9639
   619.2500      0.0000    644.4929     12.4047     81.4568
   619.5000      0.0000    607.4385     12.5815     81.8960
   619.7500      0.0000    607.2696     12.7632     82.4529
   620.0000      0.0000    642.9524     12.8935     83.0048
   620.2500      0.0000    680.4457     12.9318     83.0525
   620.5000      0.0000    696.8051     12.8748     82.2873
   620.7500      0.0000    698.2492     12.7228     80.9809
   621.0000      0.0000    700.0051     12.4961     79.6759
   621.2500      0.0000    707.0381     12.2809     78.6251
   621.5000      0.0000    714.7664     12.1565     77.6307
   621.7500      0.0000    719.1981     12.0664     76.3968
   622.0000      0.0000    720.5991     11.8797     74.9152
   622.2500      0.0000    720.6020     11.5951     73.3147
   622.5000      0.0000    720.1934     11.3586     71.3572
   622.7500      0.0000    719.7841     11.2927     68.3678
   623.0000      0.0000    719.5410     11.4206     63.8197
   623.2500      0.0000    719.5068     11.6940     57.9469
   623.5000      0.0000    719.6503     12.0087     51.9023
   623.7500      0.0000    719.8976     12.2667     47.3744
   624.0000      0.0000    720.1444     12.4632     45.7556
   624.2500      0.0000    720.2618     12.6559     47.2789
   624.5000      0.0000    719.9847     12.8734     50.8891
   624.7500      0.0000    717.7886     13.1116     55.1009
   625.0000      0.0000    708.1588     13.3990     59.0469
   625.2500      0.0000    682.3828     13.7789     62.6325
   625.5000      0.0000    641.5775     14.1816     65.9015
   625.7500      0.0000    602.7631     14.4112     68.6688
   626.0000      0.0000    569.4363     14.3625     70.8041
   626.2500      0.0000    519.3503     14.1390     72.4491
   626.5000      0.0000    449.5723     13.8908     73.7811
   626.7500      0.0000    390.3672     13.6773     74.8003
   627.0000      0.0000    362.3333     13.4925     75.4492
   627.2500      0.0000    359.1139     13.3203     75.6621
   627.5000      0.0000    365.9259     13.1628     75.1335
   627.7500      0.0000    373.1266     13.0447     73.3666
   628.0000      0.0000    379.2808     12.9860     70.2586
   628.2500      0.0000    392.0522     12.9737     66.4483
   628.5000      0.0000    426.1940     12.9487     62.8909
   628.7500      0.0000    488.3127     12.8263     60.2662
   629.0000      0.0000    556.1400     12.6130     58.9398
   629.2500      0.0000    594.2903     12.4631     59.2293
   629.5000      0.0000    604.1974     12.3408     61.2575
   629.7500      0.0000    631.2218     11.7448     64.4782
   630.0000      0.0000    697.8968     10.4231     67.6987
   630.2500      0.0000    764.7103      9.0531     69.8436
   630.5000      0.0000    795.0591      8.4403     70.7628
   630.7500      2.0000    804.7953      8.5685     71.2632
   631.0000     -2.0000    814.8842      8.8924     72.4421
   631.2500     -2.0000    816.3217      9.0448     75.0328
   631.5000      0.0000    801.3888      8.9549     79.0196
   631.7500      0.0000    782.0782      8.6749     83.4036
   632.0000      0.0000    767.2321      8.4382     86.5257
   632.2500      0.0000    754.3228      8.5581     87.3127
   632.5000      0.0000    741.6862      8.9425     86.3609
   632.7500      0.0000    730.7343      9.2130     85.2698
   633.0000      0.0000    723.0765      9.4151     84.8481
   633.2500      0.0000    719.2474      9.8596     84.4902
   633.5000      0.0000    717.9760     10.4971     83.2799
   633.7500      0.0000    717.6456     11.0392     81.1137
   634.0000      0.0000    717.5604     11.3217     78.6914
   634.2500      0.0000    717.6057     11.3462     76.9289
   634.5000      0.0000    717.7014     11.2101     76.4270
   634.7500      0.0000    717.7300     11.0416     76.9559
   635.0000      0.0000    717.6326     10.9373     77.4164
   635.2500      0.0000    717.1889     10.9288     76.8055
   635.5000      0.0000    715.3774     10.9836     75.2077
   635.7500      0.0000    710.5825     11.0393     73.4267
   636.0000      0.0000    703.6859     11.0544     71.8933
   636.2500      0.0000    700.1010     11.0211     70.5241
