~Version Information
VERS.                      2.0: CWLS Log ASCII Standard - VERSION 2.0
WRAP.                       NO: One line per depth step
~Well Information Block
STRT.FT               538.0000: 
STOP.FT              1769.0000: 
STEP.FT                 0.1000: 
NULL.                -999.2500: 
COMP.          Pioneer Natural Resources: COMPANY
WELL.            Dude 43-34 Tr: WELL
FLD.           Purgatoire River: FIELD
LOC.           2083' FSL & 1042' FEL: LOCATION
PROV.                 Colorado: PROVINCE
CNTY.               Las Animas: COUNTRY
SRVC.                Patterson: SERVICE COMPANY
DATE.          Thu Jan 26 07:02:09 2006: LOG DATE
UWI.           05 071 08676 00: UNIQUE WELL ID
~Curve Information Block
DEPT.FT            0 000 00 00: Depth
DCAL.in                       : CDL Caliper
RHOB.g/cc                     : CDL Bulk Density
RHOC.g/cc                     : CDL Density Correction
DPOR.pu                       : CDL Density Porosity
GR.GAPI                       : Gamma Ray
~Parameter Information Block
~A  Depth       DCAL        RHOB        RHOC        DPOR         GR     
# ...
  1512.4000      7.9229      2.5900      0.1037      3.6374     34.1694
  1512.5000      7.9258      2.5531      0.0899      5.8706     33.3877
  1512.6000      7.9258      2.5371      0.0929      6.8412     30.5925
  1512.7000      7.9258      2.5459      0.0930      6.3097     25.9938
  1512.8000      7.8923      2.5649      0.1294      5.1596     22.9942
  1512.9000      7.8923      2.5856      0.1253      3.9018     24.1919
  1513.0000      7.8790      2.6088      0.1686      2.4987     27.8122
  1513.1000      7.8790      2.6320      0.1913      1.0897     30.9213
  1513.2000      7.8790      2.6511      0.1863     -0.0672     33.3333
  1513.3000      7.8649      2.6660      0.1870     -0.9703     34.0401
  1513.4000      7.8649      2.6861      0.1812     -2.1857     32.3409
  1513.5000      7.8553      2.7118      0.2289     -3.7456     30.9758
  1513.6000      7.8553      2.7257      0.1949     -4.5897     30.4786
  1513.7000      7.8553      2.7185      0.1777     -4.1541     29.5122
  1513.8000      7.8629      2.6959      0.1627     -2.7799     28.0207
  1513.9000      7.8629      2.6630      0.1271     -0.7907     26.5632
  1514.0000      7.8837      2.6277      0.0781      1.3544     26.3483
  1514.1000      7.8837      2.6034      0.0894      2.8240     26.8917
  1514.2000      7.8837      2.5948      0.1128      3.3444     26.0628
  1514.3000      7.8939      2.5981      0.0930      3.1474     25.1752
  1514.4000      7.8939      2.6066      0.0769      2.6328     26.6170
  1514.5000      7.9018      2.6074      0.0736      2.5836     28.6106
  1514.6000      7.9018      2.6067      0.0485      2.6239     28.0473
  1514.7000      7.9018      2.6289      0.0609      1.2791     25.2604
  1514.8000      7.9284      2.6645      0.1351     -0.8808     23.1458
  1514.9000      7.9284      2.6837      0.1342     -2.0398     22.1629
  1515.0000      7.9312      2.6891      0.1480     -2.3716     21.2684
  1515.1000      7.9312      2.6913      0.2101     -2.5035     21.7837
  1515.2000      7.9312      2.6752      0.2026     -1.5280     25.7315
  1515.3000      7.9017      2.6346      0.1254      0.9330     30.3860
  1515.4000      7.9017      2.5970      0.0479      3.2152     31.4341
  1515.5000      7.8779      2.5824      0.1161      4.0969     30.6483
  1515.6000      7.8779      2.5789      0.0762      4.3079     31.5725
  1515.7000      7.8779      2.5733      0.1230      4.6477     32.1752
  1515.8000      7.8683      2.5653      0.0862      5.1310     30.5495
  1515.9000      7.8683      2.5609      0.1094      5.3984     29.6727
  1516.0000      7.8722      2.5715      0.0169      4.7574     32.5845
  1516.1000      7.8722      2.5983      0.0943      3.1347     37.6332
  1516.2000      7.8722      2.6109      0.1550      2.3723     40.0934
  1516.3000      7.8828      2.5879      0.1274      3.7651     38.7485
  1516.4000      7.8828      2.5519      0.0327      5.9457     37.3579
  1516.5000      7.8831      2.5314      0.1003      7.1902     39.0703
  1516.6000      7.8831      2.5309      0.0732      7.2174     42.2143
  1516.7000      7.8831      2.5440      0.1190      6.4239     43.2964
  1516.8000      7.8758      2.5607      0.0988      5.4110     43.8310
  1516.9000      7.8758      2.5754      0.0872      4.5213     47.5867
  1517.0000      7.8833      2.5795      0.1064      4.2752     52.5687
  1517.1000      7.8833      2.5548      0.1040      5.7697     55.0275
  1517.2000      7.8833      2.4951      0.0822      9.3856     56.0472
  1517.3000      7.8863      2.4225      0.0284     13.7891     58.9197
  1517.4000      7.8863      2.3755      0.0114     16.6349     62.7777
  1517.5000      7.8891      2.3676      0.0399     17.1124     65.8174
  1517.6000      7.8891      2.3603      0.1624     17.5580     70.5000
  1517.7000      7.8891      2.3193      0.0610     20.0412     78.6492
  1517.8000      7.9036      2.2694      0.0283     23.0660     88.4028
  1517.9000      7.9036      2.2462      0.0149     24.4748     97.0164
  1518.0000      7.9193      2.2470      0.1097     24.4240    102.4146
  1518.1000      7.9193      2.2370      0.2171     25.0282    105.7242
  1518.2000      7.9193      2.1920      0.1852     27.7572    112.4351
  1518.3000      7.9203      2.1238      0.1540     31.8907    122.4304
  1518.4000      7.9203      2.0523      0.1597     36.2237    127.0499
  1518.5000      7.9455      1.9929      0.1029     39.8267    123.7504
  1518.6000      7.9455      1.9660      0.0774     41.4553    118.6022
  1518.7000      7.9455      1.9831      0.1086     40.4183    115.3696
  1518.8000      7.9197      2.0352      0.1688     37.2601    113.8202
  1518.9000      7.9197      2.1059      0.2374     32.9737    111.9402
  1519.0000      7.8536      2.1877      0.3106     28.0177    107.3716
  1519.1000      7.8536      2.2886      0.3331     21.9054    105.0058
  1519.2000      7.8536      2.4111      0.3206     14.4770    108.8065
  1519.3000      7.8393      2.5222      0.3729      7.7436    113.0320
  1519.4000      7.8393      2.5823      0.3019      4.1011    112.2073
  1519.5000      7.8700      2.5954      0.2280      3.3067    106.1933
  1519.6000      7.8700      2.5845      0.2366      3.9699     96.6570
  1519.7000      7.8700      2.5563      0.2181      5.6761     90.6424
  1519.8000      7.9004      2.5228      0.1320      7.7064     94.1228
  1519.9000      7.9004      2.4990      0.1687      9.1503    100.8649
  1520.0000      7.8999      2.4797      0.1301     10.3209    104.7593
  1520.1000      7.8999      2.4639      0.1183     11.2765    108.4786
  1520.2000      7.8999      2.4664      0.0610     11.1290    114.0861
  1520.3000      7.9185      2.4861      0.1208      9.9350    117.9439
  1520.4000      7.9185      2.5000      0.1410      9.0936    116.0658
  1520.5000      7.9323      2.4925      0.1157      9.5462    112.5177
  1520.6000      7.9323      2.4510      0.1948     12.0636    114.2877
  1520.7000      7.9323      2.3659      0.1447     17.2179    120.6429
  1520.8000      7.9482      2.2728      0.0320     22.8601    127.8080
  1520.9000      7.9482      2.2171      0.0687     26.2345    135.6422
  1521.0000      7.9709      2.1841      0.0955     28.2368    141.3608
  1521.1000      7.9709      2.1371      0.0592     31.0846    141.0159
  1521.2000      7.9709      2.0980      0.0069     33.4571    138.7803
  1521.3000      7.9880      2.1300      0.0705     31.5169    136.0821
  1521.4000      7.9880      2.2512      0.2805     24.1689    132.8102
  1521.5000      7.9871      2.4149      0.4468     14.2494    133.5473
  1521.6000      7.9871      2.5598      0.5416      5.4696    137.7930
  1521.7000      7.9871      2.6451      0.6110      0.2982    143.0615
  1521.8000      8.0002      2.6724      0.5308     -1.3548    150.5214
  1521.9000      8.0002      2.6761      0.4860     -1.5835    154.4947
  1522.0000      8.0471      2.6741      0.4802     -1.4621    147.6270
  1522.1000      8.0471      2.6648      0.3460     -0.8999    136.4880
  1522.2000      8.0471      2.6576      0.2964     -0.4626    132.4986
  1522.3000      8.0810      2.6571      0.3248     -0.4293    136.5885
  1522.4000      8.0810      2.6515      0.2477     -0.0935    140.6725
  1522.5000      8.0658      2.6392      0.1952      0.6521    139.3928
  1522.6000      8.0658      2.6283      0.2051      1.3128    133.5483
  1522.7000      8.0658      2.6196      0.1804      1.8452    129.8432
  1522.8000      8.0523      2.6088      0.1777      2.4980    134.2976
  1522.9000      8.0523      2.5948      0.0993      3.3439    140.0032
  1523.0000      7.9620      2.5816      0.0890      4.1463    137.9959
  1523.1000      7.9620      2.5736      0.0650      4.6325    130.6846
  1523.2000      7.9620      2.5706      0.0630      4.8096    122.8915
  1523.3000      7.9057      2.5700     -0.0070      4.8470    118.0669
  1523.4000      7.9057      2.5702      0.0498      4.8387    118.1767
  1523.5000      7.9406      2.5690      0.0482      4.9091    118.4029
