~Version Information
VERS.                      2.0: CWLS Log ASCII Standard - VERSION 2.0
WRAP.                       NO: One line per depth step
~Well Information Block
STRT.FT               570.0000: 
STOP.FT              1958.5000: 
STEP.FT                 0.2500: 
NULL.                -999.2500: 
COMP.          Petrogulf Corporation: COMPANY
WELL.            Montoya 7-14R: WELL
FLD.           Purgatorie River: FIELD
LOC.           628' FSL & 454' FWL: LOCATION
PROV.                 Colorado: PROVINCE
CNTY.               Las Animas: COUNTRY
SRVC.                Patterson: SERVICE COMPANY
DATE.          Sat Oct 08 17:13:52 2005: LOG DATE
UWI.                          : UNIQUE WELL ID
~Curve Information Block
DEPT.FT            0 000 00 00: Depth
SP.mV                         : DIL Spontaneous Potential
RILD.Ohm-m                    : DIL Deep Resistivity
RILM.Ohm-m                    : DIL Medium Resistivity
RLL3.Ohm-m                    : DIL Shallow Resistivity
GR.GAPI                       : Gamma Ray
~Parameter Information Block
~A  Depth        SP         RILD        RILM        RLL3         GR     
# ...
  1018.0000    166.5245     26.7437     31.7212     80.0867    102.8077
  1018.2500    166.5483     26.6857     31.3474     82.2615     99.7150
  1018.5000    166.3946     26.8309     30.6427     79.8603     97.8951
  1018.7500    166.0585     27.2832     29.7914     72.3407     97.9118
  1019.0000    165.5736     28.0539     29.0000     60.7144     98.3414
  1019.2500    165.0002     29.0630     28.4502     47.9215     98.8121
  1019.5000    164.4103     30.1763     28.2784     38.3721    101.0421
  1019.7500    163.8735     31.2662     28.5791     37.0848    103.8730
  1020.0000    163.4471     32.2601     29.4182     49.1929    107.9564
  1020.2500    163.1685     33.1512     30.8450     79.3939    108.2332
  1020.5000    163.0541     33.9771     32.8988    130.0990    102.3859
  1020.7500    163.1100     34.7953     35.6091    198.6638     94.6283
  1021.0000    163.3483     35.6790     38.9907    276.3780     79.7632
  1021.2500    163.7950     36.7201     43.0356    351.1199     69.2553
  1021.5000    164.4816     38.0178     47.7004    411.7793     54.4266
  1021.7500    165.4293     39.6436     52.8877    450.8230     45.7627
  1022.0000    166.6360     41.5893     58.4138    464.6186     35.0030
  1022.2500    168.0711     43.7195     63.9655    454.2875     29.2847
  1022.5000    169.6789     45.7437     69.0454    427.3394     22.7273
  1022.7500    171.3900     47.2488     72.9542    396.0510     19.7650
  1023.0000    173.1387     47.8244     74.8744    370.6069     17.7336
  1023.2500    174.8771     47.2364     74.1220    351.9710     17.9817
  1023.5000    176.5759     45.5224     70.5091    331.7303     20.0949
  1023.7500    178.2180     42.9363     64.5420    299.9000     22.0924
  1024.0000    179.7909     39.8203     57.2397    253.6125     25.5567
  1024.2500    181.2816     36.5047     49.6886    198.9129     28.6452
  1024.5000    182.6704     33.2553     42.6807    145.4647     36.0814
  1024.7500    183.9278     30.2504     36.6160    100.5568     43.5853
  1025.0000    185.0227     27.5798     31.5905     67.1027     58.5156
  1025.2500    185.9413     25.2657     27.5305     44.7662     70.3454
  1025.5000    186.7040     23.2908     24.2948     31.5150     89.6204
  1025.7500    187.3651     21.6229     21.7328     24.6456    102.4067
  1026.0000    187.9960     20.2273     19.7107     21.5252    119.1368
  1026.2500    188.6594     19.0703     18.1197     20.1184    127.6747
  1026.5000    189.3874     18.1187     16.8752     19.2015    136.6129
  1026.7500    190.1718     17.3395     15.9132     18.2890    140.8733
  1027.0000    190.9696     16.7020     15.1851     17.3976    146.4569
  1027.2500    191.7192     16.1808     14.6524     16.7781    150.1299
  1027.5000    192.3613     15.7573     14.2833     16.6919    154.8493
  1027.7500    192.8551     15.4193     14.0490     17.2535    156.4015
  1028.0000    193.1847     15.1595     13.9216     18.3604    154.8310
  1028.2500    193.3572     14.9720     13.8738     19.7337    151.2646
  1028.5000    193.3934     14.8494     13.8789     21.0349    144.1410
  1028.7500    193.3165     14.7805     13.9126     21.9746    139.7676
  1029.0000    193.1435     14.7511     13.9538     22.3753    135.1381
  1029.2500    192.8822     14.7456     13.9866     22.2209    132.9395
  1029.5000    192.5327     14.7509     13.9991     21.6883    129.5212
  1029.7500    192.0919     14.7576     13.9838     21.0805    126.9416
  1030.0000    191.5598     14.7609     13.9361     20.6432    123.7401
  1030.2500    190.9461     14.7593     13.8541     20.3984    122.7770
  1030.5000    190.2778     14.7533     13.7395     20.1555    123.0679
  1030.7500    189.6030     14.7433     13.5981     19.7058    123.8425
  1031.0000    188.9850     14.7305     13.4401     19.0210    125.3349
  1031.2500    188.4840     14.7184     13.2804     18.2651    126.7425
  1031.5000    188.1317     14.7150     13.1370     17.6334    129.4965
  1031.7500    187.9121     14.7330     13.0296     17.2139    131.1613
  1032.0000    187.7642     14.7868     12.9781     16.9834    132.5895
  1032.2500    187.6057     14.8871     13.0010     16.8708    133.3568
  1032.5000    187.3640     15.0367     13.1139     16.8314    135.9863
  1032.7500    186.9984     15.2299     13.3285     16.9629    138.8900
  1033.0000    186.5031     15.4551     13.6506     17.6041    142.9177
  1033.2500    185.8988     15.7013     14.0788     19.2365    143.7799
  1033.5000    185.2193     15.9624     14.6029     22.1500    141.2382
  1033.7500    184.4981     16.2383     15.2025     26.0925    137.6740
  1034.0000    183.7574     16.5326     15.8481     30.1955    131.8089
  1034.2500    183.0023     16.8487     16.5033     33.3040    128.7694
  1034.5000    182.2227     17.1880     17.1299     34.5750    126.7791
  1034.7500    181.4031     17.5485     17.6939     33.9809    127.2333
  1035.0000    180.5346     17.9240     18.1712     32.3268    129.2957
  1035.2500    179.6195     18.3031     18.5511     30.6933    130.4431
  1035.5000    178.6659     18.6720     18.8378     29.6829    130.6317
  1035.7500    177.6748     19.0232     19.0489     29.0914    129.7802
  1036.0000    176.6297     19.3640     19.2127     28.2971    127.9853
  1036.2500    175.4974     19.7165     19.3656     26.9510    127.3265
  1036.5000    174.2373     20.1056     19.5486     25.2715    128.6396
  1036.7500    172.8110     20.5470     19.8047     23.7795    131.2796
  1037.0000    171.1897     21.0435     20.1758     22.9285    136.5871
  1037.2500    169.3619     21.5920     20.7002     23.0333    139.7044
  1037.5000    167.3438     22.1922     21.4100     24.4285    141.9042
  1037.7500    165.1826     22.8510     22.3295     27.5390    141.2924
  1038.0000    162.9510     23.5813     23.4747     32.6784    137.5018
  1038.2500    160.7370     24.4010     24.8534     39.6964    133.4935
  1038.5000    158.6368     25.3337     26.4687     47.8374    126.1225
  1038.7500    156.7475     26.4083     28.3213     56.0446    120.7232
  1039.0000    155.1548     27.6578     30.4141     63.5176    112.2690
  1039.2500    153.9148     29.1154     32.7522     70.0639    106.3998
  1039.5000    153.0400     30.8084     35.3401     75.9922     96.9796
  1039.7500    152.5024     32.7508     38.1752     81.6734     90.1577
  1040.0000    152.2524     34.9353     41.2409     87.1041     79.6416
  1040.2500    152.2402     37.3285     44.5035     91.8111     73.2675
  1040.5000    152.4243     39.8700     47.9142     95.1919     65.8780
  1040.7500    152.7686     42.4779     51.4184     96.9582     62.3676
  1041.0000    153.2343     45.0564     54.9658     97.2717     58.2468
  1041.2500    153.7766     47.4982     58.5157     96.6043     55.8977
  1041.5000    154.3499     49.6784     62.0316     95.6177     53.2885
  1041.7500    154.9246     51.4537     65.4645     95.0568     52.5070
  1042.0000    155.5080     52.6861     68.7221     95.5119     52.6854
  1042.2500    156.1538     53.2857     71.6364     97.2631     53.2204
  1042.5000    156.9495     53.2309     73.9376    100.5192     53.7741
  1042.7500    157.9876     52.5440     75.2635    105.7997     53.7899
  1043.0000    159.3406     51.2584     75.2258    113.7038     53.4837
  1043.2500    161.0497     49.4227     73.5424    123.7579     53.1517
  1043.5000    163.1204     47.1322     70.1850    133.2004     52.1092
  1043.7500    165.5164     44.5345     65.4429    137.2518     50.7786
  1044.0000    168.1544     41.7914     59.8400    131.5438     48.4759
  1044.2500    170.9110     39.0307     53.9488    115.2705     48.1276
  1044.5000    173.6457     36.3275     48.2295     92.3294     52.2487
  1044.7500    176.2341     33.7204     42.9601     69.1357     58.7162
  1045.0000    178.5976     31.2380     38.2562     50.8747     72.1362
  1045.2500    180.7151     28.9124     34.1289     39.2591     81.5994
  1045.5000    182.6104     26.7764     30.5403     33.0050     94.3049
  1045.7500    184.3238     24.8527     27.4398     29.7288    101.6164
