~Version Information
VERS.                      2.0: CWLS Log ASCII Standard - VERSION 2.0
WRAP.                       NO: One line per depth step
~Well Information Block
STRT.FT               -10.0000: 
STOP.FT              1703.5000: 
STEP.FT                 0.2500: 
NULL.                -999.2500: 
COMP.          Pioneer Natural Resources: COMPANY
WELL.          Parrothead 31-31 Tr: WELL
FLD.           Purgatoire River: FIELD
LOC.           496' FNL & 1546' FEL--: LOCATION
PROV.                       CO: PROVINCE
CNTY.               Las Animas: COUNTRY
SRVC.          Patterson Wireline: SERVICE COMPANY
DATE.          Mon Nov 14 09:44:02 2005: LOG DATE
UWI.           05 071 08610 00: UNIQUE WELL ID
~Curve Information Block
DEPT.FT            0 000 00 00: Depth
CCL.                          : Casing Collar Locator
TT3.usec                      : CBL 3' Travel Time
AMP3.mV                       : CBL 3' Amplitude
GR.GAPI                       : Gamma Ray
~Parameter Information Block
~A  Depth       CCL         TT3         AMP3         GR     
# ...
  1430.5000      0.0000    731.2628      8.6573    155.4011
  1430.7500      0.0000    730.0330      8.6396    157.0475
  1431.0000      0.0000    727.4087      8.6664    158.2593
  1431.2500      0.0000    723.3969      8.7309    157.8533
  1431.5000      0.0000    720.5419      8.8211    155.8069
  1431.7500      0.0000    721.3730      8.9648    153.2150
  1432.0000      0.0000    725.8319      9.2139    151.2131
  1432.2500      0.0000    731.5977      9.5828    150.1774
  1432.5000      0.0000    736.4076     10.0144    149.8470
  1432.7500      0.0000    739.5630     10.4142    149.8133
  1433.0000      0.0000    741.7399     10.7073    149.8075
  1433.2500      0.0000    744.0553     10.8592    149.7348
  1433.5000      0.0000    747.2102     10.8511    149.5204
  1433.7500      0.0000    750.9261     10.6636    148.9712
  1434.0000      0.0000    753.9738     10.2951    147.8706
  1434.2500      0.0000    754.9400      9.7945    146.1699
  1434.5000      0.0000    753.2191      9.2624    144.0923
  1434.7500      0.0000    749.4373      8.8013    142.1198
  1435.0000      0.0000    744.9853      8.4536    140.7319
  1435.2500      0.0000    741.0002      8.1906    139.8767
  1435.5000      0.0000    737.5770      7.9625    138.8719
  1435.7500      0.0000    733.8077      7.7529    136.9679
  1436.0000      0.0000    728.6246      7.5827    133.7919
  1436.2500      0.0000    721.9246      7.4768    129.2686
  1436.5000      0.0000    715.1796      7.4398    123.6618
  1436.7500      0.0000    710.8445      7.4579    117.7834
  1437.0000      0.0000    710.8181      7.5090    112.5793
  1437.2500      0.0000    715.1184      7.5661    108.2589
  1437.5000      0.0000    721.8462      7.6027    104.2579
  1437.7500      0.0000    728.4493      7.6057    100.0636
  1438.0000      0.0000    733.2457      7.5858     95.4751
  1438.2500      0.0000    735.9915      7.5688     90.0829
  1438.5000      0.0000    737.3281      7.5740     83.3877
  1438.7500      0.0000    737.9622      7.5981     75.7504
  1439.0000      0.0000    738.2914      7.6212     68.6099
  1439.2500      0.0000    738.4607      7.6260     63.4927
  1439.5000      0.0000    738.5087      7.6068     61.1589
  1439.7500      0.0000    738.4392      7.5660     61.4481
  1440.0000      0.0000    738.2495      7.5084     63.2764
  1440.2500      0.0000    737.9591      7.4401     64.9785
  1440.5000      0.0000    737.6285      7.3707     65.3611
  1440.7500      0.0000    737.3378      7.3124     64.4765
  1441.0000      0.0000    737.1552      7.2742     63.0891
  1441.2500      0.0000    737.1232      7.2585     61.6537
  1441.5000      0.0000    737.2430      7.2623     60.2381
  1441.7500      0.0000    737.3939      7.2824     59.0408
  1442.0000      0.0000    737.1712      7.3191     58.2392
  1442.2500      0.0000    735.6853      7.3772     57.4325
  1442.5000      0.0000    731.6082      7.4644     55.9275
  1442.7500      0.0000    724.0099      7.5863     53.6898
  1443.0000      0.0000    713.8677      7.7445     51.6388
  1443.2500      0.0000    704.6408      7.9401     50.8429
  1443.5000      0.0000    700.3929      8.1773     51.5235
  1443.7500      0.0000    702.4398      8.4649     53.0167
  1444.0000      0.0000    707.2936      8.8158     54.8063
  1444.2500      0.0000    706.9572      9.2489     57.3947
  1444.5000      0.0000    691.1277      9.7817     61.8587
  1444.7500      0.0000    652.1449     10.4081     68.6145
  1445.0000      0.0000    592.5144     11.0780     76.8789
  1445.2500      0.0000    529.3214     11.7030     85.4089
  1445.5000      0.0000    488.1512     12.1888     93.6108
  1445.7500      0.0000    487.8438     12.4737    101.8977
  1446.0000      0.0000    527.2797     12.5528    111.1005
  1446.2500      0.0000    584.5442     12.4697    121.4942
  1446.5000      0.0000    629.5291     12.2759    132.2194
  1446.7500      0.0000    641.3759     11.9935    141.6783
  1447.0000      0.0000    618.9047     11.6263    148.8044
  1447.2500      0.0000    577.7676     11.1982    154.0135
  1447.5000      0.0000    537.8133     10.7636    158.6457
  1447.7500      0.0000    510.9754     10.3708    163.5312
  1448.0000      0.0000    498.3667     10.0264    168.3562
  1448.2500      0.0000    495.4098      9.7048    172.1384
  1448.5000      0.0000    497.2411      9.3889    173.8969
  1448.7500      0.0000    500.3280      9.0935    173.1801
  1449.0000      0.0000    502.1371      8.8450    170.5648
  1449.2500      0.0000    501.0945      8.6478    167.7194
  1449.5000      0.0000    497.0889      8.4782    166.6095
  1449.7500      0.0000    492.3621      8.3123    168.2125
  1450.0000      0.0000    492.3034      8.1522    171.6370
  1450.2500      0.0000    504.4686      8.0190    174.6050
  1450.5000      0.0000    534.5359      7.9216    175.2245
  1450.7500      0.0000    581.0075      7.8403    173.2962
  1451.0000      0.0000    633.7884      7.7487    169.8505
  1451.2500      0.0000    679.7280      7.6471    165.9254
  1451.5000      0.0000    710.7768      7.5653    162.0540
  1451.7500      0.0000    727.1121      7.5319    158.4521
  1452.0000      0.0000    733.7418      7.5477    155.4115
  1452.2500      0.0000    735.7020      7.5829    153.4622
  1452.5000      0.0000    735.9662      7.6002    152.9028
  1452.7500      0.0000    735.7845      7.5863    153.3914
  1453.0000      0.0000    735.5618      7.5651    154.4889
  1453.2500      0.0000    735.3876      7.5707    156.1582
  1453.5000      0.0000    735.2523      7.6057    158.0684
  1453.7500      0.0000    735.1201      7.6343    159.1695
  1454.0000      0.0000    734.9715      7.6208    158.8882
  1454.2500      0.0000    734.8175      7.5665    158.0751
  1454.5000      0.0000    734.7021      7.5070    157.7377
  1454.7500      0.0000    734.6815      7.4826    157.3226
  1455.0000      0.0000    734.7840      7.5136    155.1548
  1455.2500      0.0000    734.9911      7.5965    150.1942
  1455.5000      0.0000    735.2569      7.7179    142.5829
  1455.7500      0.0000    735.5345      7.8752    132.8914
  1456.0000      0.0000    735.7824      8.0766    121.8482
  1456.2500      0.0000    735.9659      8.3131    110.8149
  1456.5000      0.0000    736.0693      8.5334    101.8193
  1456.7500      0.0000    736.1083      8.6631     96.8215
  1457.0000      0.0000    736.1219      8.6605     96.7402
  1457.2500      0.0000    736.1250      8.5504    100.7966
  1457.5000      0.0000    736.0436      8.4039    106.7938
  1457.7500      0.0000    735.5502      8.2959    112.3048
  1458.0000      0.0000    733.6346      8.2795    115.7586
  1458.2500      0.0000    727.9924      8.3812    116.7766
  1458.5000      0.0000    715.2692      8.5954    115.9815
  1458.7500      0.0000    693.8932      8.8742    114.5362
  1459.0000      0.0000    668.4439      9.1310    113.5977
  1459.2500      0.0000    649.4711      9.2775    114.1495
  1459.5000      0.0000    644.3389      9.2745    117.0611
  1459.7500      0.0000    646.8782      9.1532    122.4319
  1460.0000      0.0000    640.0148      8.9827    128.5695
  1460.2500      0.0000    611.7034      8.8201    132.5229
  1460.5000      0.0000    567.2141      8.6916    132.6076
  1460.7500      0.0000    525.4481      8.6068    130.2990
  1461.0000      0.0000    505.8972      8.5701    128.8764
  1461.2500      0.0000    518.9149      8.5760    129.9770
  1461.5000      0.0000    562.4767      8.6029    131.9929
  1461.7500      0.0000    623.2172      8.6104    132.2012
  1462.0000      0.0000    682.3992      8.5438    129.8960
  1462.2500      0.0000    725.3395      8.3605    126.6919
  1462.5000      0.0000    746.8845      8.0753    124.3005
  1462.7500      0.0000    748.1171      7.7776    123.3412
  1463.0000      0.0000    729.3987      7.5930    124.2748
  1463.2500      0.0000    689.2071      7.6125    127.9091
  1463.5000      0.0000    630.9288      7.8428    134.1980
  1463.7500      0.0000    569.2987      8.2061    141.4371
