~Version Information
VERS.                      2.0: CWLS Log ASCII Standard - VERSION 2.0
WRAP.                       NO: One line per depth step
~Well Information Block
STRT.FT               480.0000: 
STOP.FT              1817.0000: 
STEP.FT                 0.1000: 
NULL.                -999.2500: 
COMP.          Pioneer Natural Resources: COMPANY
WELL.           Bobsy 34-11 Tr: WELL
FLD.           Purgatoire River: FIELD
LOC.           514' FSL & 1784' FEL: LOCATION
PROV.                 Colorado: PROVINCE
CNTY.               Las Animas: COUNTRY
SRVC.                Patterson: SERVICE COMPANY
DATE.          Tue Jul 19 10:30:09 2005: LOG DATE
UWI.           05 071 08438 00: UNIQUE WELL ID
~Curve Information Block
DEPT.FT            0 000 00 00: Depth
DCAL.in                       : CDL Caliper
DPOR.pu                       : CDL Density Porosity
GR.GAPI                       : Gamma Ray
NPOR.pu                       : Neutron Porosity
RHOB.g/cc                     : CDL Bulk Density
RHOC.g/cc                     : CDL Density Correction
~Parameter Information Block
~A  Depth       DCAL        DPOR         GR         NPOR        RHOB        RHOC    
   480.0000      5.0912     -0.0094    111.4221     22.8267      2.1790      0.1101
   480.1000      5.0912     -0.0090    108.5271     22.7215      2.1998      0.1473
   480.2000      5.0912     -0.0089    101.7033     23.4613      2.2060      0.1262
   480.3000      5.0868     -0.0087     94.1172     24.5513      2.2143      0.0605
   480.4000      5.0868     24.7410     93.4129     24.5307      2.2418      0.1379
   480.5000      5.0909     22.8629     98.3999     23.0885      2.2728      0.1553
   480.6000      5.0909     22.2282    100.6137     21.7136      2.2832      0.1900
   480.7000      5.0909     22.9948     99.9126     21.4174      2.2706      0.1317
   480.8000      5.0794     24.0737    103.7621     21.5713      2.2528      0.1096
   480.9000      5.0794     24.6968    110.8386     21.7376      2.2425      0.1272
   481.0000      5.0826     25.0585    114.9745     22.0046      2.2365      0.1597
   481.1000      5.0826     25.2995    113.7279     21.9502      2.2326      0.1564
   481.2000      5.0826     24.9826    108.3766     21.3828      2.2378      0.1289
   481.3000      5.0785     23.7446    104.9687     20.7995      2.2582      0.1229
   481.4000      5.0785     22.1210    106.7820     20.6914      2.2850      0.1585
   481.5000      5.0807     21.3442    110.3242     20.8955      2.2978      0.1936
   481.6000      5.0807     22.2027    110.6472     21.0108      2.2837      0.1803
   481.7000      5.0807     23.9310    110.9140     20.7523      2.2551      0.1413
   481.8000      5.0815     25.0842    115.9435     20.2964      2.2361      0.1308
   481.9000      5.0815     25.3719    120.3895     20.6627      2.2314      0.1486
   482.0000      5.0856     25.2990    120.2064     22.4667      2.2326      0.1090
   482.1000      5.0856     24.8922    120.0543     24.2679      2.2393      0.1254
   482.2000      5.0856     24.3068    123.0518     24.3339      2.2489      0.1340
   482.3000      5.0877     24.1439    126.0206     23.2210      2.2516      0.1622
   482.4000      5.0877     24.5229    127.6962     22.3166      2.2454      0.1397
   482.5000      5.0856     25.1352    128.2864     21.9240      2.2353      0.1668
   482.6000      5.0856     25.6647    129.3220     21.6199      2.2265      0.1183
   482.7000      5.0856     25.4995    132.3128     21.4643      2.2293      0.1254
   482.8000      5.0822     24.2597    129.1850     21.5562      2.2497      0.1270
   482.9000      5.0822     22.5127    117.8967     21.6114      2.2785      0.1723
   483.0000      5.0863     21.4892    108.6325     21.5145      2.2954      0.2123
   483.1000      5.0863     21.6203    103.4747     21.3765      2.2933      0.1967
   483.2000      5.0863     22.2122     99.2746     21.4831      2.2835      0.1757
   483.3000      5.0867     22.8365     99.5079     22.0529      2.2732      0.1483
   483.4000      5.0867     23.7948    104.8622     22.2774      2.2574      0.1667
   483.5000      5.0884     25.2202    111.5078     21.6428      2.2339      0.1240
   483.6000      5.0884     26.3566    116.8446     21.1244      2.2151      0.0798
   483.7000      5.0884     26.5919    117.7257     21.0807      2.2112      0.1438
   483.8000      5.0909     26.4101    114.8535     20.8419      2.2142      0.1101
   483.9000      5.0909     26.0404    114.9610     20.4132      2.2203      0.0996
   484.0000      5.0869     25.1589    120.0428     20.6256      2.2349      0.1281
   484.1000      5.0869     23.8292    127.1969     21.5810      2.2568      0.1133
   484.2000      5.0869     22.6606    130.0874     22.6864      2.2761      0.1678
   484.3000      5.0788     22.3680    123.4724     23.5521      2.2809      0.1688
   484.4000      5.0788     22.9367    114.2838     23.8157      2.2715      0.1708
   484.5000      5.0831     24.0223    111.4970     23.2224      2.2536      0.1377
   484.6000      5.0831     25.0752    113.8069     22.1546      2.2363      0.1002
   484.7000      5.0831     25.0901    117.3755     21.1617      2.2360      0.0882
   484.8000      5.0843     23.7294    121.7503     20.7669      2.2585      0.1259
   484.9000      5.0843     21.7309    124.5353     20.9721      2.2914      0.1671
   485.0000      5.0927     19.8666    121.0527     21.3325      2.3222      0.1842
   485.1000      5.0927     18.5701    115.6431     22.0133      2.3436      0.1989
   485.2000      5.0927     18.3018    115.3945     22.4867      2.3480      0.1769
   485.3000      5.0842     19.0455    119.0998     21.6880      2.3357      0.1648
   485.4000      5.0842     20.1665    123.4517     20.2480      2.3173      0.1687
   485.5000      5.0824     20.7767    125.9058     19.5111      2.3072      0.1146
   485.6000      5.0824     19.9203    126.6103     20.1819      2.3213      0.0815
   485.7000      5.0824     18.1832    124.8812     21.8446      2.3500      0.1807
   485.8000      5.0793     17.9648    115.0425     22.6744      2.3536      0.2384
   485.9000      5.0793     19.8958    101.5862     21.6561      2.3217      0.1340
   486.0000      5.0770     22.1100     96.4538     19.7296      2.2852      0.1445
   486.1000      5.0770     23.6239     99.7889     18.4040      2.2602      0.1341
   486.2000      5.0770     24.7801    104.8005     18.4671      2.2411      0.0941
   486.3000      5.0779     25.6875    105.1351     19.2058      2.2262      0.1044
   486.4000      5.0779     25.9333    100.3384     19.5993      2.2221      0.0921
   486.5000      5.0681     25.1828     97.2167     19.6670      2.2345      0.1209
   486.6000      5.0681     24.3206     96.4035     19.7402      2.2487      0.1543
   486.7000      5.0681     24.8233     94.3009     19.9197      2.2404      0.1597
   486.8000      5.0788     26.3584     92.9931     19.8084      2.2151      0.1231
   486.9000      5.0788     27.0144     94.9286     18.9716      2.2043      0.0787
   487.0000      5.0878     26.3349     96.7515     17.8931      2.2155      0.1766
   487.1000      5.0878     25.4723     94.4340     16.9480      2.2297      0.1541
   487.2000      5.0878     24.5791     87.1919     16.0491      2.2444      0.1628
   487.3000      5.0851     23.0947     77.6262     15.6674      2.2689      0.2171
   487.4000      5.0851     21.2003     71.1408     16.1760      2.3002      0.2130
   487.5000      5.0850     19.9072     71.1501     16.9466      2.3215      0.2524
   487.6000      5.0850     19.8402     74.5204     17.1092      2.3226      0.2266
   487.7000      5.0850     20.0361     74.8531     16.7499      2.3194      0.2054
   487.8000      5.0874     19.4289     71.5796     16.5197      2.3294      0.2411
   487.9000      5.0874     18.3801     69.2860     16.4967      2.3467      0.2187
   488.0000      5.0838     17.8285     71.2507     16.2772      2.3558      0.2201
   488.1000      5.0838     18.3580     76.2226     15.8548      2.3471      0.2254
   488.2000      5.0838     20.2241     80.3595     15.4350      2.3163      0.2229
   488.3000      5.0759     22.8973     81.5349     14.9163      2.2722      0.1870
   488.4000      5.0759     24.6058     80.9442     14.6057      2.2440      0.1543
   488.5000      5.0846     23.5314     82.1496     15.1748      2.2617      0.0974
   488.6000      5.0846     20.0297     85.4380     16.4175      2.3195      0.2168
   488.7000      5.0846     16.8696     85.7139     17.3148      2.3717      0.2618
   488.8000      5.0836     16.0685     84.0186     17.2906      2.3849      0.2203
   488.9000      5.0836     17.2210     89.4860     16.9327      2.3659      0.2341
   489.0000      5.0896     18.8577     98.7924     17.0064      2.3388      0.1635
   489.1000      5.0896     20.1318     99.6144     17.5542      2.3178      0.2331
   489.2000      5.0896     21.3509     94.6522     18.1398      2.2977      0.1980
   489.3000      5.0863     22.7789     96.1400     18.3866      2.2741      0.1991
   489.4000      5.0863     24.0330    105.5572     18.2570      2.2535      0.1685
   489.5000      5.0879     24.4024    109.5624     17.8708      2.2474      0.1421
