~Version Information
VERS.                      2.0: CWLS Log ASCII Standard - VERSION 2.0
WRAP.                       NO: One line per depth step
~Well Information Block
STRT.FT                -8.7500: 
STOP.FT              1035.7500: 
STEP.FT                 0.2500: 
NULL.                -999.2500: 
COMP.          Pioneer Natural Resources: COMPANY
WELL.                Mac 22-36: WELL
FLD.           Purgatorie River: FIELD
LOC.           2545' FNL & 1398' FWL--: LOCATION
PROV.                       CO: PROVINCE
CNTY.               Las Animas: COUNTRY
SRVC.          Patterson Wireline: SERVICE COMPANY
DATE.          Thu Dec 08 13:20:05 2005: LOG DATE
UWI.           08 071 08594 00: UNIQUE WELL ID
~Curve Information Block
DEPT.FT            0 000 00 00: Depth
CCL.                          : Casing Collar Locator
TT3.usec                      : CBL 3' Travel Time
AMP3.mV                       : CBL 3' Amplitude
GR.GAPI                       : Gamma Ray
~Parameter Information Block
~A  Depth       CCL         TT3         AMP3         GR     
    -8.7500   -999.2500   -999.2500   -999.2500     79.7494
    -8.5000   -999.2500   -999.2500   -999.2500     80.8464
    -8.2500   -999.2500   -999.2500   -999.2500     83.4317
    -8.0000   -999.2500   -999.2500   -999.2500     85.8707
    -7.7500   -999.2500   -999.2500   -999.2500     86.5322
    -7.5000   -999.2500   -999.2500   -999.2500     84.9619
    -7.2500   -999.2500   -999.2500   -999.2500     81.8208
    -7.0000   -999.2500   -999.2500   -999.2500     78.1806
    -6.7500   -999.2500   -999.2500   -999.2500     74.9022
    -6.5000   -999.2500   -999.2500   -999.2500     72.2901
    -6.2500   -999.2500   -999.2500   -999.2500     70.0753
    -6.0000   -999.2500   -999.2500   -999.2500     67.9228
    -5.7500   -999.2500   -999.2500   -999.2500     66.1211
    -5.5000   -999.2500   -999.2500   -999.2500     65.6561
    -5.2500   -999.2500   -999.2500   -999.2500     67.4403
    -5.0000   -999.2500   -999.2500   -999.2500     71.3954
    -4.7500   -999.2500   -999.2500   -999.2500     76.2791
    -4.5000   -999.2500   -999.2500   -999.2500     80.3792
    -4.2500   -999.2500   -999.2500   -999.2500     82.4347
    -4.0000   -999.2500   1170.0000      1.0846     82.1917
    -3.7500   -999.2500   1170.0000      1.0851     80.4652
    -3.5000   -999.2500   1170.0000      1.0830     78.5816
    -3.2500   -999.2500   1170.0000      1.0822     77.3632
    -3.0000   -999.2500   1170.0000      1.0855     76.5547
    -2.7500   -999.2500   1170.0000      1.0918     75.3954
    -2.5000   -999.2500   1170.0000      1.0979     73.6021
    -2.2500   -999.2500   1170.0000      1.1018     71.3782
    -2.0000   -999.2500   1170.0000      1.1035     68.5058
    -1.7500   -999.2500   1170.0000      1.1035     64.0856
    -1.5000   -999.2500   1170.0000      1.1021     57.6435
    -1.2500   -999.2500   1170.0000      1.0987     50.1745
    -1.0000   -999.2500   1170.0000      1.0927     43.5682
    -0.7500   -999.2500   1170.0000      1.0850     39.1299
    -0.5000   -999.2500   1170.0000      1.0777     37.0276
    -0.2500   -999.2500   1170.0000      1.0731     36.8784
     0.0000   -999.2500   1170.0000      1.0727     38.2075
     0.2500   -999.2500   1170.0000      1.0801     41.9410
     0.5000   -999.2500   1170.0000      1.0822     41.8434
     0.7500   -999.2500   1170.0000      1.0798     39.1826
     1.0000   -999.2500   1170.0000      1.0725     34.4448
     1.2500      0.0000   1170.0000      1.0628     29.5045
     1.5000      0.0000   1170.0000      1.0548     26.5644
     1.7500      0.0000   1170.0000      1.0517     26.7589
     2.0000      0.0000   1170.0000      1.0548     29.8057
     2.2500      0.0000   1170.0000      1.0630     34.7476
     2.5000      0.0000   1170.0000      1.0730     40.5868
     2.7500      0.0000   1170.0000      1.0812     46.3968
     3.0000      0.0000   1170.0000      1.0853     51.4924
     3.2500      0.0000   1170.0000      1.0850     55.7287
     3.5000      0.0000   1170.0000      1.0815     59.3388
     3.7500      0.0000   1169.9867      1.0774     62.4777
     4.0000      0.0000   1169.8920      1.0756     65.1907
     4.2500      0.0000   1169.3608      1.0837     67.8273
     4.5000      0.0000   1167.1016      1.1294     71.2800
     4.7500      0.0000   1159.4064      1.3341     76.6364
     5.0000      0.0000   1138.2478      2.0934     84.2714
     5.2500      0.0000   1090.9156      4.3495     93.1250
     5.5000      0.0000   1004.2864      9.6590    101.1781
     5.7500      0.0000    874.3388     19.5171    106.8145
     6.0000      0.0000    715.0139     33.9169    109.6914
     6.2500      0.0000    556.3497     50.4184    110.4376
     6.5000      0.0000    429.0402     65.1527    109.6749
     6.7500      0.0000    347.3942     75.1356    107.3034
     7.0000      0.0000    305.8448     79.6179    102.6136
     7.2500      0.0000    289.2076     79.5290     95.1784
     7.5000      0.0000    284.1551     76.2437     85.6895
     7.7500      0.0000    283.4776     70.9313     75.8632
     8.0000      0.0000    284.7706     64.4810     67.4270
     8.2500      0.0000    288.0398     57.5391     61.2610
     8.5000      0.0000    294.2499     50.5439     57.3974
     8.7500      0.0000    304.9473     43.8046     55.4083
     9.0000      0.0000    323.2070     37.5451     54.6176
     9.2500      0.0000    354.9950     31.8993     54.3066
     9.5000      0.0000    407.6672     26.9232     53.9511
     9.7500      0.0000    483.4517     22.6405     53.2513
    10.0000      0.0000    572.6098     19.0652     52.1578
    10.2500      0.0000    654.8935     16.1972     50.9137
    10.5000      0.0000    710.8510     14.0159     49.7708
    10.7500      0.0000    734.1725     12.4736     48.7214
    11.0000      0.0000    735.2026     11.4857     47.9176
    11.2500      0.0000    733.3891     10.9288     48.1691
    11.5000      0.0000    744.7352     10.6595     50.3685
    11.7500      0.0000    773.0368     10.5474     54.2142
    12.0000      0.0000    809.7689     10.5059     57.8439
    12.2500      0.0000    840.9384     10.5013     59.2406
    12.5000      0.0000    855.1918     10.5381     58.1144
    12.7500      0.0000    848.6430     10.6318     56.1608
    13.0000      0.0000    826.7763     10.7771     55.3962
    13.2500      0.0000    804.6873     10.9294     56.3855
    13.5000      0.0000    802.4982     11.0188     58.0771
    13.7500      0.0000    833.2481     10.9996     59.1313
    14.0000      0.0000    890.6673     10.8962     59.1007
    14.2500      0.0000    951.1813     10.7984     58.2413
    14.5000      0.0000    992.2612     10.7955     56.6533
    14.7500      0.0000   1008.8308     10.9076     54.1218
    15.0000      2.0000   1010.9615     11.0898     50.6482
    15.2500      0.0000   1010.1213     11.3042     46.7914
    15.5000      0.0000   1010.6245     11.5704     43.5856
    15.7500      0.0000   1008.1928     11.9452     42.1902
    16.0000      0.0000    991.0270     12.4416     43.3546
    16.2500      0.0000    947.3273     12.9521     47.0766
    16.5000      0.0000    878.1429     13.2684     52.8145
    16.7500      0.0000    800.1194     13.2320     60.0214
    17.0000      0.0000    730.8866     12.8813     68.3071
    17.2500      0.0000    673.5223     12.4134     76.9412
    17.5000      0.0000    619.5074     12.0033     84.3867
    17.7500      0.0000    565.3795     11.6983     89.0070
    18.0000      0.0000    520.7529     11.4619     90.6799
    18.2500      0.0000    499.1050     11.2549     91.2606
    18.5000      0.0000    505.6214     11.0600     92.7892
    18.7500      0.0000    535.8654     10.8671     95.3710
    19.0000      0.0000    581.4927     10.6699     97.3820
    19.2500      0.0000    632.5779     10.4834     97.7388
    19.5000      0.0000    675.3638     10.3498     97.3043
    19.7500      0.0000    693.0585     10.3132     97.7484
    20.0000      0.0000    673.3767     10.3844     99.4597
    20.2500      0.0000    617.5345     10.5310    101.0668
    20.5000      0.0000    542.0859     10.6955    100.8442
    20.7500      0.0000    470.0795     10.8235     98.1834
    21.0000      0.0000    417.8026     10.8889     93.8325
    21.2500      0.0000    388.2442     10.8999     89.1708
    21.5000      0.0000    375.0554     10.8818     85.3570
    21.7500      0.0000    370.3134     10.8545     83.0296
    22.0000      0.0000    368.8611     10.8327     82.5949
    22.2500      0.0000    368.4037     10.8429     84.2898
    22.5000      0.0000    368.1627     10.9213     87.5792
    22.7500      0.0000    367.9532     11.0860     90.7977
    23.0000      0.0000    367.8765     11.3124     92.0805
    23.2500      0.0000    368.5474     11.5399     91.1186
    23.5000      0.0000    371.8340     11.7065     89.8587
    23.7500      0.0000    382.1046     11.7822     90.8442
    24.0000      0.0000    406.2580     11.7782     94.6255
    24.2500      0.0000    449.4708     11.7287     99.1951
    24.5000      0.0000    506.7654     11.6681    102.0225
