~Version Information
VERS.                      2.0: CWLS Log ASCII Standard - VERSION 2.0
WRAP.                       NO: One line per depth step
~Well Information Block
STRT.FT               620.0000: 
STOP.FT              3067.2500: 
STEP.FT                 0.2500: 
NULL.                -999.2500: 
COMP.          Pioneer Natural Resources: COMPANY
WELL.          Interceptor 43-13 Kv: WELL
FLD.           Purgatoire River: FIELD
LOC.           2073' FSL & 519' FEL--: LOCATION
PROV.                 Colorado: PROVINCE
CNTY.               Las Animas: COUNTRY
SRVC.                Patterson: SERVICE COMPANY
DATE.          Sat Jan 14 19:35:17 2006: LOG DATE
UWI.           05 071 08655 00: UNIQUE WELL ID
~Curve Information Block
DEPT.FT            0 000 00 00: Depth
SN.Ohm-m                      : IEL Short Normal
SP.mV                         : IEL Spontaneous Potential
DIR.Ohm-m                     : IEL Induction Resistivity
GR.GAPI                       : Gamma Ray
~Parameter Information Block
~A  Depth        SN          SP         DIR          GR     
# ...
  2697.0000     14.1176     56.6856     13.3265    113.8003
  2697.2500     14.3647     56.1820     13.6628    108.7417
  2697.5000     14.6683     55.7198     14.0048    101.7555
  2697.7500     15.0381     55.3144     14.3400     97.7967
  2698.0000     15.4718     54.9778     14.6626     92.9421
  2698.2500     15.9501     54.7169     14.9745     90.4034
  2698.5000     16.4453     54.5313     15.2825     87.6781
  2698.7500     16.9361     54.4139     15.5935     86.6208
  2699.0000     17.4103     54.3510     15.9092     86.1397
  2699.2500     17.8544     54.3253     16.2242     86.3942
  2699.5000     18.2473     54.3182     16.5276     87.0117
  2699.7500     18.5649     54.3128     16.8077     87.0327
  2700.0000     18.7930     54.2959     17.0565     85.4649
  2700.2500     18.9378     54.2591     17.2725     82.9910
  2700.5000     19.0284     54.1988     17.4629     77.6714
  2700.7500     19.1107     54.1149     17.6432     74.1864
  2701.0000     19.2353     54.0097     17.8339     71.1820
  2701.2500     19.4420     53.8857     18.0538     71.0055
  2701.5000     19.7428     53.7449     18.3119     72.2302
  2701.7500     20.1127     53.5879     18.6023     73.0963
  2702.0000     20.4989     53.4146     18.9033     73.7820
  2702.2500     20.8468     53.2256     19.1850     73.8581
  2702.5000     21.1252     53.0235     19.4229     73.5082
  2702.7500     21.3316     52.8146     19.6082     73.0204
  2703.0000     21.4815     52.6095     19.7488     72.0948
  2703.2500     21.5920     52.4234     19.8611     71.4038
  2703.5000     21.6752     52.2741     19.9602     70.0598
  2703.7500     21.7392     52.1800     20.0555     68.7911
  2704.0000     21.7929     52.1567     20.1495     66.3726
  2704.2500     21.8468     52.2135     20.2390     64.7748
  2704.5000     21.9072     52.3510     20.3183     63.4358
  2704.7500     21.9695     52.5596     20.3837     63.7672
  2705.0000     22.0141     52.8211     20.4342     66.0529
  2705.2500     22.0107     53.1108     20.4667     68.0821
  2705.5000     21.9306     53.4024     20.4734     70.4373
  2705.7500     21.7634     53.6725     20.4445     71.1858
  2706.0000     21.5248     53.9044     20.3768     71.5717
  2706.2500     21.2494     54.0913     20.2772     71.8606
  2706.5000     20.9746     54.2361     20.1561     72.8112
  2706.7500     20.7285     54.3504     20.0179     73.7255
  2707.0000     20.5271     54.4512     19.8567     75.0764
  2707.2500     20.3733     54.5563     19.6633     75.7032
  2707.5000     20.2576     54.6793     19.4359     76.2123
  2707.7500     20.1636     54.8260     19.1865     76.5787
  2708.0000     20.0790     54.9913     18.9381     77.7470
  2708.2500     20.0043     55.1589     18.7158     78.9045
  2708.5000     19.9529     55.3024     18.5391     80.5117
  2708.7500     19.9438     55.3886     18.4191     81.0887
  2709.0000     19.9951     55.3818     18.3605     81.0881
  2709.2500     20.1198     55.2485     18.3646     80.7206
  2709.5000     20.3262     54.9633     18.4326     79.9253
  2709.7500     20.6187     54.5139     18.5671     79.2500
  2710.0000     20.9964     53.9050     18.7700     78.0391
  2710.2500     21.4439     53.1616     19.0377     77.1785
  2710.5000     21.9200     52.3286     19.3567     75.6174
  2710.7500     22.3619     51.4678     19.7023     73.9423
  2711.0000     22.7147     50.6515     20.0443     69.7489
  2711.2500     22.9714     49.9530     20.3540     66.0295
  2711.5000     23.1867     49.4361     20.6091     60.7638
  2711.7500     23.4455     49.1452     20.7934     58.7475
  2712.0000     23.7994     49.0986     20.8945     59.3462
  2712.2500     24.2170     49.2857     20.9059     62.0722
  2712.5000     24.5861     49.6695     20.8319     68.1097
  2712.7500     24.7689     50.1941     20.6888     72.1443
  2713.0000     24.6754     50.7943     20.4988     76.3011
  2713.2500     24.3063     51.4064     20.2788     77.3155
  2713.5000     23.7441     51.9769     20.0362     76.8067
  2713.7500     23.1087     52.4686     19.7748     76.0834
  2714.0000     22.5079     52.8626     19.5064     75.8311
  2714.2500     22.0072     53.1568     19.2567     76.2133
  2714.5000     21.6240     53.3623     19.0571     76.3802
  2714.7500     21.3400     53.4982     18.9287     75.6263
  2715.0000     21.1229     53.5862     18.8705     73.5942
  2715.2500     20.9454     53.6468     18.8610     72.4629
  2715.5000     20.7942     53.6961     18.8709     72.1446
  2715.7500     20.6681     53.7452     18.8782     72.8210
  2716.0000     20.5727     53.7998     18.8761     74.3437
  2716.2500     20.5217     53.8622     18.8705     75.2002
  2716.5000     20.5370     53.9323     18.8727     75.8994
  2716.7500     20.6382     54.0092     18.8936     76.0915
  2717.0000     20.8242     54.0918     18.9429     76.3893
  2717.2500     21.0671     54.1792     19.0296     76.7698
  2717.5000     21.3266     54.2695     19.1613     77.7161
  2717.7500     21.5739     54.3596     19.3401     78.5452
  2718.0000     21.8047     54.4439     19.5585     79.6838
  2718.2500     22.0351     54.5135     19.8020     80.0464
  2718.5000     22.2897     54.5558     20.0585     79.8199
  2718.7500     22.5923     54.5546     20.3295     79.3668
  2719.0000     22.9617     54.4902     20.6313     78.7692
  2719.2500     23.4113     54.3409     20.9853     78.7665
  2719.5000     23.9519     54.0838     21.4026     80.0836
  2719.7500     24.5945     53.6980     21.8768     82.0389
  2720.0000     25.3476     53.1661     22.3878     85.7078
  2720.2500     26.2127     52.4777     22.9146     87.5547
  2720.5000     27.1873     51.6308     23.4470     87.8908
  2720.7500     28.2738     50.6336     23.9915     86.2758
  2721.0000     29.4865     49.5058     24.5698     81.7123
  2721.2500     30.8406     48.2785     25.2118     77.8757
  2721.5000     32.3252     46.9947     25.9446     72.0976
  2721.7500     33.8745     45.7086     26.7773     68.7370
  2722.0000     35.3546     44.4845     27.6798     64.5891
  2722.2500     36.5757     43.3941     28.5650     62.1871
  2722.5000     37.3290     42.5120     29.2839     58.8965
  2722.7500     37.4435     41.9092     29.6510     57.0524
  2723.0000     36.8514     41.6449     29.5042     55.1628
  2723.2500     35.6297     41.7580     28.7772     54.6686
  2723.5000     33.9860     42.2611     27.5399     55.7932
  2723.7500     32.1802     43.1363     25.9783     58.5261
  2724.0000     30.4195     44.3365     24.3223     66.5798
  2724.2500     28.7863     45.7896     22.7692     74.4418
  2724.5000     27.2417     47.4064     21.4388     88.3742
  2724.7500     25.6954     49.0900     20.3717     97.7130
  2725.0000     24.0896     50.7455     19.5540    109.3452
  2725.2500     22.4516     52.2885     18.9489    114.2814
  2725.5000     20.9053     53.6518     18.5241    116.4392
  2725.7500     19.6528     54.7900     18.2637    114.9251
  2726.0000     18.9236     55.6815     18.1671    110.9013
  2726.2500     18.8933     56.3279     18.2395    108.6287
  2726.5000     19.5981     56.7501     18.4803    106.7370
  2726.7500     20.8985     56.9828     18.8751    106.0150
  2727.0000     22.5318     57.0671     19.3937    104.7587
  2727.2500     24.2309     57.0431     19.9981    103.7585
  2727.5000     25.8303     56.9436     20.6551    102.7953
  2727.7500     27.2873     56.7908     21.3450    103.1202
  2728.0000     28.6258     56.5956     22.0580    105.6118
  2728.2500     29.8701     56.3604     22.7824    108.3361
  2728.5000     31.0123     56.0838     23.4953    112.6839
  2728.7500     32.0164     55.7658     24.1645    114.9586
  2729.0000     32.8378     55.4113     24.7582    116.6767
  2729.2500     33.4450     55.0325     25.2550    116.5407
  2729.5000     33.8334     54.6476     25.6502    114.4675
  2729.7500     34.0289     54.2779     25.9614    112.2134
  2730.0000     34.0847     53.9442     26.2300    108.8378
  2730.2500     34.0717     53.6631     26.5112    107.4227
