~Version Information
VERS.                      2.0: CWLS Log ASCII Standard - VERSION 2.0
WRAP.                       NO: One line per depth step
~Well Information Block
STRT.FT               800.0000: 
STOP.FT              3500.0000: 
STEP.FT                 0.1000: 
NULL.                -999.2500: 
COMP.          Pioneer Natural Resources: COMPANY
WELL.          Cordillera 34-7: WELL
FLD.           Purgatoire River: FIELD
LOC.           598' FSL & 1770' FEL--: LOCATION
PROV.                 Colorado: PROVINCE
CNTY.               Las Animas: COUNTRY
SRVC.                Patterson: SERVICE COMPANY
DATE.          Fri Oct 28 07:22:44 2005: LOG DATE
UWI.           05 071 08552 00: UNIQUE WELL ID
~Curve Information Block
DEPT.FT            0 000 00 00: Depth
DCAL.in                       : CDL Caliper
RHOB.g/cc                     : CDL Bulk Density
RHOC.g/cc                     : CDL Density Correction
DPOR.pu                       : CDL Density Porosity
NPOR.pu                       : Neutron Porosity
GR.GAPI                       : Gamma Ray
~Parameter Information Block
~A  Depth       DCAL        RHOB        RHOC        DPOR        NPOR         GR     
# ...
  2220.8000      8.0456      2.6449     -0.0267      0.3120     29.6516    111.5378
  2220.9000      8.0456      2.6518     -0.0176     -0.1105     29.3907    105.9532
  2221.0000      8.0456      2.6631      0.0671     -0.7967     29.4740     97.4495
  2221.1000      8.0456      2.6645      0.0190     -0.8767     29.8939     92.5778
  2221.2000      8.0456      2.6707      0.0536     -1.2522     30.1652     95.9142
  2221.3000      8.0446      2.6858      0.0612     -2.1706     30.1947    103.5029
  2221.4000      8.0446      2.6987      0.0734     -2.9534     30.1759    108.8339
  2221.5000      8.0437      2.7084      0.0708     -3.5366     30.1611    112.2341
  2221.6000      8.0437      2.7210      0.0612     -4.3019     30.0180    112.0827
  2221.7000      8.0437      2.7262      0.0971     -4.6174     29.5981    108.1282
  2221.8000      8.0441      2.7126      0.0547     -3.7935     29.2257    104.0578
  2221.9000      8.0441      2.7042      0.0410     -3.2819     29.2114    101.9959
  2222.0000      8.0469      2.7144      0.1043     -3.9043     29.2307    105.6106
  2222.1000      8.0469      2.7167      0.1047     -4.0418     29.4345    115.0356
  2222.2000      8.0469      2.7012      0.0653     -3.1051     30.2737    123.5674
  2222.3000      8.0497      2.6955      0.0262     -2.7590     30.9699    125.6904
  2222.4000      8.0497      2.7071      0.0808     -3.4625     30.5107    124.4032
  2222.5000      8.0497      2.7099      0.0571     -3.6316     29.5326    124.9304
  2222.6000      8.0497      2.6994      0.0304     -2.9927     29.3150    123.6563
  2222.7000      8.0497      2.6946      0.0540     -2.7035     29.8023    120.0902
  2222.8000      8.0492      2.7027      0.0271     -3.1952     29.9200    119.4294
  2222.9000      8.0492      2.7136      0.0574     -3.8570     29.4675    120.9301
  2223.0000      8.0510      2.7104      0.0669     -3.6618     29.0031    120.5426
  2223.1000      8.0510      2.6976      0.0252     -2.8845     28.6892    118.3488
  2223.2000      8.0510      2.7044      0.0080     -3.2950     28.5044    116.7450
  2223.3000      8.0547      2.7371      0.0608     -5.2760     28.7002    115.3555
  2223.4000      8.0547      2.7705      0.0556     -7.3050     29.4255    113.0618
  2223.5000      8.0553      2.7951      0.0258     -8.7951     30.1060    110.4754
  2223.6000      8.0553      2.8120      0.1145     -9.8178     30.0622    110.5313
  2223.7000      8.0553      2.8044      0.0897     -9.3601     29.5339    114.2825
  2223.8000      8.0522      2.7717      0.0521     -7.3767     29.2329    118.2281
  2223.9000      8.0522      2.7403      0.0220     -5.4741     29.6604    121.8952
  2224.0000      8.0496      2.7225     -0.0034     -4.3929     30.6684    126.3049
  2224.1000      8.0496      2.7064     -0.0021     -3.4193     31.3267    129.7106
  2224.2000      8.0496      2.6841      0.0283     -2.0655     31.0259    133.0100
  2224.3000      8.0487      2.6671     -0.0083     -1.0355     30.1550    136.6238
  2224.4000      8.0487      2.6696      0.0150     -1.1854     29.5001    136.1803
  2224.5000      8.0483      2.6799      0.0657     -1.8093     29.6796    130.8171
  2224.6000      8.0483      2.6716      0.0586     -1.3099     30.2036    125.6899
  2224.7000      8.0483      2.6339      0.0669      0.9739     30.2220    122.5221
  2224.8000      8.0476      2.5764      0.0433      4.4578     29.8825    119.0070
  2224.9000      8.0476      2.5228      0.0155      7.7099     29.5290    116.2736
  2225.0000      8.0472      2.4937      0.0092      9.4732     29.1710    117.7925
  2225.1000      8.0472      2.4848      0.0552     10.0142     29.0343    123.8642
  2225.2000      8.0472      2.4720      0.0214     10.7898     29.1984    129.2599
  2225.3000      8.0465      2.4429      0.0536     12.5487     29.4044    129.5001
  2225.4000      8.0465      2.4110      0.0096     14.4866     29.6572    126.0118
  2225.5000      8.0457      2.3982      0.0240     15.2630     29.7926    120.7125
  2225.6000      8.0457      2.4081      0.0541     14.6580     29.3869    114.9101
  2225.7000      8.0457      2.4311      0.0402     13.2692     28.3042    110.3532
  2225.8000      8.0470      2.4602      0.1163     11.5015     27.0260    106.1313
  2225.9000      8.0470      2.4872      0.1757      9.8646     26.2119    102.3501
  2226.0000      8.0473      2.5089      0.1339      8.5524     25.8959    105.5222
  2226.1000      8.0473      2.5304      0.1268      7.2462     25.6613    116.1922
  2226.2000      8.0473      2.5493      0.1324      6.1051     25.3991    122.8668
  2226.3000      8.0464      2.5578      0.1364      5.5850     25.3484    117.2169
  2226.4000      8.0464      2.5562      0.1112      5.6854     25.8591    104.2377
  2226.5000      8.0469      2.5501      0.0553      6.0526     27.0746     96.5711
  2226.6000      8.0469      2.5459      0.0044      6.3105     28.3592     98.8322
  2226.7000      8.0469      2.5376      0.0515      6.8097     29.1465    104.8362
  2226.8000      8.0464      2.5079      0.0255      8.6132     29.5781    105.6258
  2226.9000      8.0464      2.4533      0.0069     11.9198     29.7972    100.1177
  2227.0000      8.0452      2.3850     -0.0147     16.0624     29.8972     97.7352
  2227.1000      8.0452      2.3164     -0.0353     20.2182     29.9083     99.7639
  2227.2000      8.0452      2.2621     -0.0745     23.5111     29.6271     97.7989
  2227.3000      8.0445      2.2270     -0.0251     25.6357     29.2487     91.6218
  2227.4000      8.0445      2.2026     -0.0149     27.1154     29.2187     85.3351
  2227.5000      8.0441      2.1781      0.0154     28.6012     29.3920     78.1183
  2227.6000      8.0441      2.1477      0.0043     30.4409     29.4044     69.4651
  2227.7000      8.0441      2.1180      0.0312     32.2454     29.6571     62.2634
  2227.8000      8.0405      2.0999      0.1052     33.3379     30.4275     62.5153
  2227.9000      8.0405      2.0976      0.1191     33.4787     30.9934     70.2028
  2228.0000      8.0319      2.1133      0.1064     32.5292     30.9366     74.3124
  2228.1000      8.0319      2.1434      0.1037     30.7014     30.5671     68.4138
  2228.2000      8.0319      2.1700      0.0787     29.0881     30.1381     59.9477
  2228.3000      8.0276      2.1760      0.1342     28.7269     29.7933     57.3299
  2228.4000      8.0276      2.1648      0.1012     29.4047     29.6007     62.1656
  2228.5000      8.0341      2.1572      0.1017     29.8666     29.3901     70.1119
  2228.6000      8.0341      2.1656      0.1412     29.3574     29.2955     75.3843
  2228.7000      8.0341      2.1868      0.1433     28.0704     29.4796     79.7338
  2228.8000      8.0405      2.2162      0.1262     26.2913     29.7090     88.5466
  2228.9000      8.0405      2.2492      0.1013     24.2925     29.7421    101.2985
  2229.0000      8.0429      2.2819      0.1063     22.3115     29.5877    110.9938
  2229.1000      8.0429      2.3165      0.1083     20.2143     29.3659    111.5675
  2229.2000      8.0429      2.3605      0.1052     17.5471     29.1637    107.2428
  2229.3000      8.0436      2.4137      0.1019     14.3240     28.9590    106.4259
  2229.4000      8.0436      2.4634      0.1555     11.3101     28.4676    111.2687
  2229.5000      8.0450      2.4996      0.1384      9.1175     27.4958    117.8445
  2229.6000      8.0450      2.5213      0.1171      7.8002     26.3657    120.5950
  2229.7000      8.0450      2.5343      0.0716      7.0100     26.0479    119.7121
  2229.8000      8.0461      2.5465      0.0978      6.2713     27.1063    120.5148
  2229.9000      8.0461      2.5547      0.0935      5.7769     28.6080    124.1978
  2230.0000      8.0453      2.5558      0.0744      5.7119     28.9757    127.2461
  2230.1000      8.0453      2.5614      0.0715      5.3670     28.0415    124.5902
  2230.2000      8.0453      2.5783      0.1167      4.3457     26.9969    115.7370
  2230.3000      8.0441      2.5944      0.1239      3.3677     26.4098    106.4138
