~Version Information
VERS.                      2.0: CWLS Log ASCII Standard - VERSION 2.0
WRAP.                       NO: One line per depth step
~Well Information Block
STRT.FT              1186.0000: 
STOP.FT              1577.0000: 
STEP.FT                 0.2500: 
NULL.                -999.2500: 
COMP.          XTO Energy Inc.: COMPANY
WELL.          Golden Eagle 19-10: WELL
FLD.           Purgatorie River: FIELD
LOC.           2684' FSL & 1825' FEL--: LOCATION
CNTY.               Las Animas: COUNTY
SRVC.          Superior Well Services: SERVICE COMPANY
DATE.          Mon Dec 11 16:19:11 2006: LOG DATE
UWI.           05 071 08697 00: UNIQUE WELL ID
STAT.                       CO: STATE
~Curve Information Block
DEPT.FT            0 000 00 00: Depth
CCL.                          : Casing Collar Locator
TT3.usec                      : CBL 3' Travel Time
AMP3.mV                       : CBL 3' Amplitude
GR.GAPI                       : Gamma Ray
~Parameter Information Block
~A  Depth       CCL         TT3         AMP3         GR     
# ...
  1521.0000      0.0000    769.7941      6.7209    122.6284
  1521.2500      0.0000    767.0526      6.7466    121.1215
  1521.5000      0.0000    764.8234      6.7621    118.9132
  1521.7500      0.0000    762.7385      6.7652    116.6903
  1522.0000      0.0000    760.6213      6.7554    115.0535
  1522.2500      0.0000    759.0574      6.7348    113.9231
  1522.5000      0.0000    758.7043      6.7082    112.3373
  1522.7500      0.0000    759.1407      6.6816    109.2441
  1523.0000      0.0000    758.9832      6.6606    104.7292
  1523.2500      0.0000    757.3054      6.6491    100.0687
  1523.5000      0.0000    754.5618      6.6452     96.5385
  1523.7500      0.0000    751.9576      6.6332     94.6591
  1524.0000      0.0000    750.2911      6.5827     94.3781
  1524.2500      0.0000    749.5570      6.4651     95.2471
  1524.5000      0.0000    749.2961      6.2843     96.5295
  1524.7500      0.0000    749.0413      6.0858     97.6908
  1525.0000      0.0000    748.5552      5.9292     98.6678
  1525.2500      0.0000    747.8400      5.8489     99.3700
  1525.5000      0.0000    746.9147      5.8405     99.1826
  1525.7500      0.0000    745.5034      5.8789     97.3938
  1526.0000      0.0000    742.9792      5.9438     94.2336
  1526.2500      0.0000    738.8729      6.0255     91.2916
  1526.5000      0.0000    733.6790      6.1161     90.5721
  1526.7500      0.0000    729.0272      6.2023     92.9095
  1527.0000      0.0000    726.6581      6.2764     97.2784
  1527.2500      0.0000    727.0809      6.3473    101.6054
  1527.5000      0.0000    729.1902      6.4319    104.2652
  1527.7500      0.0000    730.9135      6.5312    104.9803
  1528.0000      0.0000    730.2952      6.6233    104.4773
  1528.2500      0.0000    726.6820      6.6816    103.5885
  1528.5000      0.0000    721.3580      6.6948    102.8975
  1528.7500      0.0000    716.7675      6.6670    102.8300
  1529.0000      0.0000    714.7366      6.6022    103.5433
  1529.2500      0.0000    715.3882      6.4960    104.7941
  1529.5000      0.0000    717.7594      6.3401    106.2442
  1529.7500      0.0000    721.1605      6.1325    107.8202
  1530.0000      0.0000    725.5079      5.8847    109.7172
  1530.2500      0.0000    730.4647      5.6253    112.2266
  1530.5000      0.0000    734.9894      5.4011    115.3836
  1530.7500      0.0000    738.0867      5.2653    118.4516
  1531.0000      0.0000    739.5917      5.2534    120.0108
  1531.2500      0.0000    739.9973      5.3651    119.1739
  1531.5000      0.0000    739.7950      5.5683    116.8120
  1531.7500      0.0000    739.1125      5.8215    114.9474
  1532.0000      0.0000    737.6947      6.1009    114.5693
  1532.2500      0.0000    734.9760      6.4129    114.6733
  1532.5000      0.0000    730.3250      6.7851    113.9835
  1532.7500      0.0000    723.3146      7.2476    113.0524
  1533.0000      0.0000    713.2849      7.8288    113.8188
  1533.2500      0.0000    697.5775      8.5549    117.0596
  1533.5000      0.0000    670.1170      9.4284    120.8320
  1533.7500      0.0000    624.0617     10.3985    122.0158
  1534.0000      0.0000    558.9675     11.3691    119.4929
  1534.2500      0.0000    485.4366     12.2624    115.1511
  1534.5000      0.0000    419.8021     13.0914    111.4597
  1534.7500      0.0000    372.8035     13.9664    108.8341
  1535.0000      0.0000    344.1927     15.0095    105.9196
  1535.2500      0.0000    327.3239     16.2354    101.7500
  1535.5000      0.0000    316.3206     17.5097     96.8615
  1535.7500      0.0000    308.7040     18.6359     92.4795
  1536.0000      0.0000    303.8742     19.4931     89.1501
  1536.2500      0.0000    301.2810     20.0988     86.1809
  1536.5000      0.0000    300.0701     20.5552     82.2597
  1536.7500      0.0000    299.4934     20.9490     76.8077
  1537.0000      0.0000    299.1767     21.2877     70.8660
  1537.2500      0.0000    299.0710     21.5001     66.3859
  1537.5000      0.0000    299.3914     21.4781     64.5832
  1537.7500      0.0000    300.6367     21.1338     65.4137
  1538.0000      0.0000    303.5348     20.4413     68.6343
  1538.2500      0.0000    308.6829     19.4401     74.5086
  1538.5000      0.0000    315.9236     18.2129     82.9978
  1538.7500      0.0000    324.0713     16.8642     92.8562
  1539.0000      0.0000    331.5782     15.5056    102.0845
  1539.2500      0.0000    337.9576     14.2325    109.0915
  1539.5000      0.0000    345.1409     13.1006    113.3646
  1539.7500      0.0000    358.2813     12.1203    115.4905
  1540.0000      0.0000    385.0955     11.2733    116.8905
  1540.2500      0.0000    431.9619     10.5322    119.1658
  1540.5000      0.0000    497.4678      9.8742    122.9672
  1540.7500      0.0000    569.5698      9.2892    127.3191
  1541.0000      0.0000    631.8013      8.7801    130.5228
  1541.2500      0.0000    673.8648      8.3553    131.8633
  1541.5000      0.0000    696.1325      8.0231    132.1120
  1541.7500      0.0000    705.3618      7.7893    132.4464
  1542.0000      0.0000    708.3144      7.6528    133.2793
  1542.2500      0.0000    708.9624      7.5980    134.1158
  1542.5000      0.0000    708.9590      7.5984    134.3685
  1542.7500      0.0000    708.8345      7.6295    134.2378
  1543.0000      0.0000    708.7228      7.6777    134.4140
  1543.2500      0.0000    708.6733      7.7398    134.8201
  1543.5000      0.0000    708.7231      7.8188    134.3707
  1543.7500      0.0000    708.8673      7.9200    132.2342
  1544.0000      0.0000    709.0027      8.0489    128.5923
  1544.2500      0.0000    708.9565      8.2116    124.1333
  1544.5000      0.0000    708.5950      8.4195    119.6132
  1544.7500      0.0000    707.9216      8.6922    115.7517
  1545.0000      0.0000    707.0593      9.0593    112.7612
  1545.2500      0.0000    706.1052      9.5565    110.1145
  1545.5000      0.0000    704.7111     10.2160    107.1772
  1545.7500      0.0000    701.1969     11.0429    104.0208
  1546.0000      0.0000    691.2322     11.9981    101.6503
  1546.2500      0.0000    667.4926     13.0139    101.4554
  1546.5000      0.0000    622.8915     14.0363    104.1143
  1546.7500      0.0000    557.3026     15.0535    108.8333
  1547.0000      0.0000    481.5251     16.0783    113.6901
  1547.2500      0.0000    412.0935     17.1024    116.8609
  1547.5000      0.0000    360.7549     18.0684    117.7523
  1547.7500      0.0000    329.2408     18.8882    117.1238
  1548.0000      0.0000    312.5890     19.4914    116.2010
  1548.2500      0.0000    304.7963     19.8695    115.7349
  1548.5000      0.0000    301.5457     20.0886    115.8053
  1548.7500      0.0000    300.3150     20.2644    116.1909
  1549.0000      0.0000    299.8157     20.5181    116.7785
  1549.2500      0.0000    299.5115     20.9402    117.6592
  1549.5000      0.0000    299.2296     21.5711    118.7129
  1549.7500      0.0000    298.9412     22.3939    119.2643
  1550.0000      0.0000    298.6606     23.3480    118.6267
  1550.2500      0.0000    298.4140     24.3831    117.0420
  1550.5000      0.0000    298.2119     25.5220    115.5330
  1550.7500      0.0000    298.0466     26.8624    114.6687
  1551.0000      0.0000    297.9227     28.4878    113.8188
  1551.2500      0.0000    297.9249     30.3391    111.7774
  1551.5000      0.0000    298.2964     32.1444    107.8961
  1551.7500      0.0000    299.4909     33.4700    102.4632
  1552.0000      0.0000    301.9452     33.9245     96.2455
  1552.2500      0.0000    305.4304     33.4334     90.0351
  1552.5000      0.0000    308.6194     32.3141     84.5461
  1552.7500      0.0000    309.8994     30.9656     80.2354
  1553.0000      0.0000    308.9616     29.5107     77.0306
  1553.2500      0.0000    307.1246     27.8803     74.5186
  1553.5000      0.0000    305.8726     26.1581     72.4510
  1553.7500      0.0000    305.5973     24.6250     70.7818
  1554.0000      0.0000    305.8704     23.5108     69.3633
  1554.2500      0.0000    306.3200     22.8761     68.1366
