~Version Information
VERS.                      2.0: CWLS Log ASCII Standard - VERSION 2.0
WRAP.                       NO: One line per depth step
~Well Information Block
STRT.FT               555.0000: 
STOP.FT              2322.2500: 
STEP.FT                 0.2500: 
NULL.                -999.2500: 
COMP.          Pioneer Natural Resources: COMPANY
WELL.          Fittipaldi 21-12: WELL
FLD.           Purgatoire River: FIELD
LOC.           207' FNL & 2110' FWL--: LOCATION
CNTY.               Las Animas: COUNTY
SRVC.                Patterson: SERVICE COMPANY
DATE.          Tue Mar 21 10:27:48 2006: LOG DATE
UWI.           05 071 08492 00: UNIQUE WELL ID
STAT.                 Colorado: STATE
~Curve Information Block
DEPT.FT            0 000 00 00: Depth
SN.Ohm-m                      : IEL Short Normal
SP.mV                         : IEL Spontaneous Potential
DIR.Ohm-m                     : IEL Induction Resistivity
GR.GAPI                       : Gamma Ray
~Parameter Information Block
~A  Depth        SN          SP         DIR          GR     
# ...
  2196.5000     15.1518     45.8854     14.7533    106.0490
  2196.7500     14.7020     45.8581     14.0446    107.8575
  2197.0000     14.2642     45.8089     13.3493    109.4198
  2197.2500     13.8385     45.7431     12.7078    110.1513
  2197.5000     13.4288     45.6678     12.1457    111.3400
  2197.7500     13.0432     45.5915     11.6697    112.4799
  2198.0000     12.6906     45.5242     11.2715    115.1568
  2198.2500     12.3764     45.4764     10.9347    117.5409
  2198.5000     12.0989     45.4591     10.6428    120.9771
  2198.7500     11.8513     45.4827     10.3834    122.3475
  2199.0000     11.6282     45.5565     10.1498    122.7092
  2199.2500     11.4299     45.6875      9.9376    122.6188
  2199.5000     11.2610     45.8801      9.7429    123.6984
  2199.7500     11.1262     46.1348      9.5626    125.4384
  2200.0000     11.0290     46.4480      9.3957    128.4721
  2200.2500     10.9755     46.8114      9.2450    130.1378
  2200.5000     10.9776     47.2116      9.1159    132.1236
  2200.7500     11.0503     47.6312      9.0142    133.3753
  2201.0000     11.2014     48.0492      8.9457    134.7193
  2201.2500     11.4177     48.4427      8.9160    134.5273
  2201.5000     11.6632     48.7891      8.9313    131.8022
  2201.7500     11.8947     49.0682      8.9962    128.4870
  2202.0000     12.0788     49.2641      9.1115    121.9762
  2202.2500     12.1872     49.3664      9.2717    117.0386
  2202.5000     12.1815     49.3713      9.4620    109.4675
  2202.7500     12.0157     49.2813      9.6579    104.6534
  2203.0000     11.6654     49.1045      9.8275     97.9441
  2203.2500     11.1603     48.8538      9.9387     93.8200
  2203.5000     10.5871     48.5452      9.9686     88.8717
  2203.7500     10.0567     48.1969      9.9090     87.3970
  2204.0000      9.6541     47.8273      9.7659     89.6858
  2204.2500      9.4032     47.4540      9.5524     94.4444
  2204.5000      9.2665     47.0924      9.2817    104.6729
  2204.7500      9.1785     46.7551      8.9650    111.6609
  2205.0000      9.0916     46.4512      8.6119    119.5365
  2205.2500      9.0004     46.1871      8.2344    122.4480
  2205.5000      8.9332     45.9663      7.8493    124.0347
  2205.7500      8.9223     45.7902      7.4779    124.0254
  2206.0000      8.9758     45.6589      7.1427    123.4753
  2206.2500      9.0690     45.5712      6.8622    123.0258
  2206.5000      9.1548     45.5251      6.6471    121.9055
  2206.7500      9.1894     45.5176      6.4992    120.5055
  2207.0000      9.1550     45.5447      6.4122    117.7769
  2207.2500      9.0673     45.6017      6.3731    116.4350
  2207.5000      8.9648     45.6834      6.3645    116.2153
  2207.7500      8.8893     45.7842      6.3672    116.7599
  2208.0000      8.8684     45.8986      6.3649    116.4976
  2208.2500      8.9035     46.0216      6.3467    114.9547
  2208.5000      8.9693     46.1488      6.3087    111.9264
  2208.7500      9.0287     46.2770      6.2524    110.9389
  2209.0000      9.0521     46.4038      6.1810    112.1065
  2209.2500      9.0279     46.5282      6.0976    113.7741
  2209.5000      8.9594     46.6501      6.0047    115.0135
  2209.7500      8.8588     46.7703      5.9049    114.1943
  2210.0000      8.7441     46.8906      5.8025    111.3496
  2210.2500      8.6342     47.0134      5.7038    109.5614
  2210.5000      8.5444     47.1418      5.6170    108.2229
  2210.7500      8.4845     47.2794      5.5514    107.8461
  2211.0000      8.4604     47.4307      5.5163    106.5151
  2211.2500      8.4760     47.6007      5.5191    104.7708
  2211.5000      8.5328     47.7954      5.5646    101.9349
  2211.7500      8.6295     48.0215      5.6547    100.7403
  2212.0000      8.7621     48.2857      5.7889    100.1568
  2212.2500      8.9272     48.5941      5.9661    100.0098
  2212.5000      9.1250     48.9504      6.1850     99.6004
  2212.7500      9.3578     49.3549      6.4451     99.5943
  2213.0000      9.6244     49.8023      6.7470    101.1091
  2213.2500      9.9154     50.2812      7.0930    103.2863
  2213.5000     10.2155     50.7731      7.4870    106.9603
  2213.7500     10.5085     51.2535      7.9332    108.2705
  2214.0000     10.7754     51.6933      8.4317    106.6223
  2214.2500     10.9853     52.0622      8.9739    103.0232
  2214.5000     11.0977     52.3315      9.5400     95.1209
  2214.7500     11.0931     52.4786     10.1015     88.9757
  2215.0000     11.0132     52.4902     10.6287     79.5175
  2215.2500     10.9700     52.3652     11.0998     74.0220
  2215.5000     11.0961     52.1160     11.5062     69.5031
  2215.7500     11.4654     51.7674     11.8491     70.1806
  2216.0000     12.0420     51.3531     12.1297     76.9152
  2216.2500     12.7016     50.9112     12.3411     84.3328
  2216.5000     13.3131     50.4772     12.4671     97.8409
  2216.7500     13.8152     50.0789     12.4913    107.2980
  2217.0000     14.2263     49.7322     12.4112    120.2589
  2217.2500     14.5924     49.4408     12.2479    127.2618
  2217.5000     14.9359     49.1984     12.0433    135.2176
  2217.7500     15.2498     48.9929     11.8487    139.3601
  2218.0000     15.5234     48.8119     11.7103    144.1101
  2218.2500     15.7589     48.6453     11.6613    145.5135
  2218.5000     15.9689     48.4881     11.7190    143.1800
  2218.7500     16.1679     48.3391     11.8863    138.5303
  2219.0000     16.3701     48.2006     12.1559    128.8395
  2219.2500     16.5911     48.0757     12.5129    122.1138
  2219.5000     16.8514     47.9678     12.9382    113.3019
  2219.7500     17.1751     47.8788     13.4117    108.5027
  2220.0000     17.5817     47.8086     13.9168    102.5858
  2220.2500     18.0751     47.7551     14.4458     99.1568
  2220.5000     18.6400     47.7139     15.0016     94.3121
  2220.7500     19.2456     47.6791     15.5917     91.2401
  2221.0000     19.8472     47.6447     16.2147     87.1063
  2221.2500     20.3829     47.6058     16.8425     84.7373
  2221.5000     20.7784     47.5604     17.4063     81.6161
  2221.7500     20.9653     47.5103     17.8018     79.8910
  2222.0000     20.9053     47.4614     17.9235     78.7385
  2222.2500     20.6064     47.4229     17.7195     79.6465
  2222.5000     20.1217     47.4063     17.2231     83.7341
  2222.7500     19.5289     47.4237     16.5353     87.5061
  2223.0000     18.9020     47.4866     15.7755     93.2636
  2223.2500     18.2932     47.6050     15.0408     97.1114
  2223.5000     17.7295     47.7870     14.3905    103.6960
  2223.7500     17.2201     48.0388     13.8502    108.5710
  2224.0000     16.7678     48.3648     13.4197    115.0079
  2224.2500     16.3777     48.7673     13.0834    117.6070
  2224.5000     16.0618     49.2459     12.8202    118.1911
  2224.7500     15.8329     49.7963     12.6127    116.8602
  2225.0000     15.6952     50.4095     12.4547    114.3426
  2225.2500     15.6394     51.0699     12.3530    113.4485
  2225.5000     15.6498     51.7552     12.3254    113.4736
  2225.7500     15.7167     52.4356     12.3942    113.5040
  2226.0000     15.8417     53.0753     12.5784    112.2735
  2226.2500     16.0298     53.6353     12.8861    110.8391
  2226.5000     16.2728     54.0764     13.3099    109.0964
  2226.7500     16.5346     54.3649     13.8262    108.3988
  2227.0000     16.7532     54.4787     14.3966    106.5189
  2227.2500     16.8624     54.4126     14.9703    103.4686
  2227.5000     16.8250     54.1816     15.4904     95.5515
  2227.7500     16.6623     53.8209     15.9051     88.9469
  2228.0000     16.4610     53.3794     16.1860     79.6468
  2228.2500     16.3444     52.9101     16.3379     75.1088
  2228.5000     16.4158     52.4576     16.3933     71.9679
  2228.7500     16.7066     52.0480     16.3914     72.5601
  2229.0000     17.1621     51.6840     16.3568     77.1733
  2229.2500     17.6744     51.3489     16.2902     82.0386
  2229.5000     18.1392     51.0153     16.1748     90.1793
  2229.7500     18.4972     50.6580     15.9932     95.0951
