~Version Information
VERS.                      2.0: CWLS Log ASCII Standard - VERSION 2.0
WRAP.                       NO: One line per depth step
~Well Information Block
STRT.FT                -8.0000: 
STOP.FT              1323.7500: 
STEP.FT                 0.2500: 
NULL.                -999.2500: 
COMP.          Pioneer Natural Resources: COMPANY
WELL.              Geyser 41-2: WELL
FLD.           Purgatorie River: FIELD
LOC.           506' FNL & 1127' FEL--: LOCATION
PROV.                       CO: PROVINCE
CNTY.               Las Animas: COUNTRY
SRVC.          Patterson Wireline: SERVICE COMPANY
DATE.          Tue Dec 06 09:28:14 2005: LOG DATE
UWI.           08 071 08598 00: UNIQUE WELL ID
~Curve Information Block
DEPT.FT            0 000 00 00: Depth
CCL.                          : Casing Collar Locator
TT3.usec                      : CBL 3' Travel Time
AMP3.mV                       : CBL 3' Amplitude
GR.GAPI                       : Gamma Ray
~Parameter Information Block
~A  Depth       CCL         TT3         AMP3         GR     
# ...
   863.0000      0.0000    824.9933     12.6390    162.8291
   863.2500      0.0000    820.9023     11.5786    150.3391
   863.5000      0.0000    817.7577     10.4344    136.9145
   863.7500      0.0000    819.5336      9.3533    123.5249
   864.0000      0.0000    829.1219      8.4907    111.4551
   864.2500      0.0000    846.6235      7.9630    101.5571
   864.5000      0.0000    868.4190      7.8182     94.2722
   864.7500      0.0000    888.6777      8.0252     90.2864
   865.0000      0.0000    902.8875      8.4894     90.7193
   865.2500      2.0000    909.8115      9.1059     96.4545
   865.5000     -2.0000    910.3267      9.8055    107.1566
   865.7500      0.0000    905.1755     10.5622    120.8861
   866.0000      0.0000    892.4651     11.3992    134.8465
   866.2500      0.0000    865.8518     12.4190    146.7655
   866.5000      0.0000    817.0831     13.7922    155.8203
   866.7500      0.0000    743.6059     15.6292    162.4302
   867.0000      0.0000    654.7970     17.8074    167.3452
   867.2500      0.0000    568.9030     19.9331    170.9262
   867.5000      0.0000    500.9021     21.5365    172.7874
   867.7500      0.0000    454.0590     22.3613    171.7168
   868.0000      0.0000    426.5147     22.4761    166.5128
   868.2500      0.0000    423.3381     22.1265    157.5094
   868.5000      0.0000    455.0264     21.5341    146.8888
   868.7500      0.0000    522.7525     20.8288    137.0760
   869.0000      0.0000    609.6396     20.0786    129.1234
   869.2500      0.0000    689.8451     19.3066    122.8289
   869.5000      0.0000    745.6928     18.4924    117.8597
   869.7500      0.0000    775.4820     17.6069    114.2067
   870.0000      0.0000    787.8224     16.6669    111.7287
   870.2500      0.0000    792.2752     15.7454    109.8641
   870.5000      0.0000    794.7670     14.9196    108.2107
   870.7500      0.0000    797.6681     14.2122    107.2137
   871.0000      0.0000    801.1334     13.5893    107.8587
   871.2500      0.0000    804.4277     13.0075    110.5722
   871.5000      0.0000    807.0911     12.4590    114.6574
   871.7500      0.0000    809.3124     11.9748    118.8494
   872.0000      0.0000    811.4957     11.5935    122.2301
   872.2500      0.0000    814.0836     11.3271    124.4376
   872.5000      0.0000    817.7988     11.1530    125.0865
   872.7500      0.0000    822.9073     11.0332    123.3670
   873.0000      0.0000    827.5703     10.9344    118.4227
   873.2500      0.0000    828.1393     10.8376    109.9834
   873.5000      0.0000    822.5656     10.7430     98.8862
   873.7500      0.0000    812.9716     10.6724     87.3941
   874.0000      0.0000    803.7380     10.6532     78.5626
   874.2500      0.0000    797.6983     10.6883     74.5374
   874.5000      0.0000    794.9459     10.7444     75.4252
   874.7500      0.0000    794.3784     10.7717     79.7799
   875.0000      0.0000    795.3360     10.7321     85.8018
   875.2500      0.0000    797.9610     10.6155     92.1211
   875.5000      0.0000    802.5743     10.4382     98.1198
   875.7500      0.0000    808.6956     10.2263    103.9509
   876.0000      0.0000    814.5736     10.0003    110.1799
   876.2500      0.0000    817.9950      9.7806    117.1797
   876.5000      0.0000    817.7249      9.6040    124.6634
   876.7500      0.0000    814.0793      9.5239    131.7185
   877.0000      0.0000    808.2989      9.5803    137.3071
   877.2500      0.0000    801.8369      9.7645    140.7413
   877.5000      0.0000    796.0763     10.0158    141.9605
   877.7500      0.0000    791.9933     10.2612    141.7816
   878.0000      0.0000    789.7814     10.4682    141.6263
   878.2500      0.0000    788.9564     10.6592    142.2702
   878.5000      0.0000    788.8699     10.8775    142.8373
   878.7500      0.0000    789.0999     11.1391    141.6227
   879.0000      0.0000    789.5356     11.4170    138.0194
   879.2500      0.0000    790.3331     11.6675    133.2180
   879.5000      0.0000    791.9454     11.8713    128.9180
   879.7500      0.0000    795.1345     12.0432    125.7205
   880.0000      0.0000    800.6360     12.2014    123.1974
   880.2500      0.0000    808.3839     12.3374    121.5544
   880.5000      0.0000    817.0189     12.4261    122.5949
   880.7500      0.0000    824.5212     12.4577    128.3099
   881.0000      0.0000    829.5429     12.4520    138.5402
   881.2500      0.0000    832.0727     12.4425    150.3822
   881.5000      0.0000    832.9463     12.4545    159.9127
   881.7500      0.0000    833.0234     12.4991    164.5130
   882.0000      0.0000    832.8135     12.5828    163.9512
   882.2500      0.0000    832.5302     12.7196    159.6278
   882.5000      0.0000    832.2531     12.9263    152.9398
   882.7500      0.0000    832.0348     13.1948    144.5572
   883.0000      0.0000    831.9311     13.4651    135.1240
   883.2500      0.0000    831.9648     13.6457    125.9182
   883.5000      0.0000    832.0969     13.6849    118.2697
   883.7500      0.0000    832.2527     13.6229    112.4736
   884.0000      0.0000    832.3788     13.5581    107.6226
   884.2500      0.0000    832.4653     13.5598    102.5278
   884.5000      0.0000    832.5148     13.6198     96.6871
   884.7500      0.0000    832.5079     13.6726     90.4849
   885.0000      0.0000    832.4108     13.6441     84.9163
   885.2500      0.0000    832.1734     13.4902     81.1799
   885.5000      0.0000    831.6462     13.2130     79.9499
   885.7500      0.0000    830.3439     12.8531     80.5395
   886.0000      0.0000    827.2275     12.4651     81.1139
   886.2500      0.0000    820.8320     12.0938     80.2389
   886.5000      0.0000    810.0284     11.7673     78.1674
   886.7500      0.0000    795.1359     11.5037     76.5181
   887.0000      0.0000    778.4433     11.3102     76.9522
   887.2500      0.0000    763.5134     11.1777     80.1147
   887.5000      0.0000    753.8079     11.0855     85.3585
   887.7500      0.0000    751.3740     11.0138     91.1607
   888.0000      0.0000    755.7807     10.9464     95.9727
   888.2500      0.0000    764.2401     10.8707     98.9699
   888.5000      0.0000    773.7480     10.7941    100.1769
   888.7500      0.0000    782.9824     10.7578    100.0286
   889.0000      0.0000    791.1281     10.8155     98.9502
   889.2500      0.0000    796.0318     10.9880     97.3493
   889.5000      0.0000    795.4613     11.2392     95.7834
   889.7500      0.0000    789.9209     11.4942     94.8287
   890.0000      0.0000    783.0991     11.6820     94.9551
   890.2500      0.0000    779.5893     11.7662     96.9546
   890.5000      0.0000    782.1873     11.7400    102.1672
   890.7500      0.0000    790.2668     11.6001    111.2723
   891.0000      0.0000    800.0535     11.3420    122.6213
   891.2500      0.0000    807.1037     10.9883    132.7377
   891.5000      0.0000    809.1325     10.6078    139.1211
   891.7500      0.0000    806.6016     10.2925    142.1066
   892.0000      0.0000    801.2562     10.1063    143.7594
   892.2500      0.0000    794.5673     10.0482    145.2976
   892.5000      0.0000    787.1286     10.0640    145.7945
   892.7500      0.0000    779.1768     10.0969    143.3246
   893.0000      0.0000    771.5630     10.1241    137.3366
   893.2500      0.0000    765.8216     10.1463    130.0530
   893.5000      0.0000    763.0645     10.1613    125.5750
   893.7500      0.0000    763.4682     10.1630    127.2998
   894.0000      0.0000    766.8206     10.1590    135.5478
   894.2500      0.0000    772.4761     10.1712    147.0746
   894.5000      0.0000    778.7090     10.2204    156.8701
   894.7500      0.0000    783.2355     10.3217    161.2083
   895.0000      0.0000    784.7318     10.4915    159.7293
   895.2500      0.0000    783.6517     10.7429    154.6356
   895.5000      0.0000    781.8308     11.0675    147.9704
   895.7500      0.0000    781.3061     11.4239    140.1236
   896.0000      0.0000    782.9496     11.7532    130.6236
   896.2500      0.0000    785.9509     12.0128    119.3813
