~Version Information
VERS.                      2.0: CWLS Log ASCII Standard - VERSION 2.0
WRAP.                       NO: One line per depth step
~Well Information Block
STRT.FT                -7.2500: 
STOP.FT              1221.7500: 
STEP.FT                 0.2500: 
NULL.                -999.2500: 
COMP.          Pioneer Natural Resources: COMPANY
WELL.           Tennis 7-12 Tr: WELL
FLD.           Purgatorie River: FIELD
LOC.           1794' FNL & 1563' FEL--: LOCATION
PROV.                       CO: PROVINCE
CNTY.               Las Animas: COUNTRY
SRVC.          Patterson Wireline: SERVICE COMPANY
DATE.          Tue Dec 27 14:16:59 2005: LOG DATE
UWI.           05 071 008635 00: UNIQUE WELL ID
~Curve Information Block
DEPT.FT            0 000 00 00: Depth
CCL.                          : Casing Collar Locator
TT3.usec                      : CBL 3' Travel Time
AMP3.mV                       : CBL 3' Amplitude
GR.GAPI                       : Gamma Ray
~Parameter Information Block
~A  Depth       CCL         TT3         AMP3         GR     
# ...
  1198.7500      0.0000    603.5831      5.3784     90.6315
  1199.0000      0.0000    550.0998      5.4157     84.9843
  1199.2500      0.0000    486.6957      5.4768     81.3753
  1199.5000      0.0000    428.5340      5.5485     78.6525
  1199.7500      0.0000    387.3486      5.6182     75.9444
  1200.0000      0.0000    367.0128      5.6739     72.9658
  1200.2500      0.0000    367.0596      5.7033     69.6653
  1200.5000      0.0000    388.2011      5.6968     66.2701
  1200.7500      0.0000    432.1155      5.6527     63.5318
  1201.0000      0.0000    495.3687      5.5791     62.3381
  1201.2500      0.0000    565.4155      5.4945     62.9627
  1201.5000      0.0000    625.5306      5.4245     65.0129
  1201.7500      0.0000    664.5965      5.3904     68.2352
  1202.0000      0.0000    681.1072      5.3960     73.1281
  1202.2500      0.0000    678.7914      5.4262     80.3774
  1202.5000      0.0000    661.4325      5.4575     89.5823
  1202.7500      0.0000    632.4528      5.4712     98.8446
  1203.0000      0.0000    597.5759      5.4586    105.8116
  1203.2500      0.0000    566.7413      5.4202    109.2583
  1203.5000      0.0000    552.2106      5.3630    109.9394
  1203.7500      0.0000    561.4398      5.2979    109.9578
  1204.0000      0.0000    590.0153      5.2331    110.8077
  1204.2500      0.0000    624.0186      5.1677    111.9923
  1204.5000      0.0000    650.9799      5.0965    111.9865
  1204.7500      0.0000    667.4357      5.0242    110.3576
  1205.0000      0.0000    676.7913      4.9719    108.3014
  1205.2500      0.0000    683.0394      4.9645    107.2872
  1205.5000      0.0000    687.3494      5.0125    107.7771
  1205.7500      0.0000    688.8019      5.1072    108.9882
  1206.0000      0.0000    686.7495      5.2294    109.3357
  1206.2500      0.0000    682.2144      5.3622    107.5048
  1206.5000      0.0000    677.2935      5.4963    103.8401
  1206.7500      0.0000    673.6108      5.6258    100.4601
  1207.0000      0.0000    671.4360      5.7390     99.2443
  1207.2500      0.0000    669.7921      5.8147     99.3638
  1207.5000      0.0000    666.7872      5.8293     96.9162
  1207.7500      0.0000    659.7863      5.7710     87.4786
  1208.0000      0.0000    646.2881      5.6520     69.8249
  1208.2500      0.0000    626.2145      5.5092     47.6090
  1208.5000      0.0000    604.2200      5.3906     27.0371
  1208.7500      0.0000    588.9360      5.3305     12.5571
  1209.0000      0.0000    588.0377      5.3321      4.7069
  1209.2500      0.0000    602.3290      5.3689      1.4102
  1209.5000      0.0000    623.9161      5.4042      0.3349
  1209.7500      0.0000    640.1760      5.4169      0.0621
  1210.0000      0.0000    640.3439      5.4141      0.0083
  1210.2500      0.0000    621.3510      5.4192      0.0000
  1210.5000      0.0000    591.4495      5.4463   -999.2500
  1210.7500      0.0000    568.0246      5.4883   -999.2500
  1211.0000      0.0000    566.5684      5.5296   -999.2500
  1211.2500      0.0000    588.7160      5.5627   -999.2500
  1211.5000      0.0000    622.4176      5.5860   -999.2500
  1211.7500      0.0000    653.4841      5.5907   -999.2500
  1212.0000      0.0000    674.1655      5.5571   -999.2500
  1212.2500      0.0000    681.2528      5.4565   -999.2500
  1212.5000      0.0000    669.2386      5.2391   -999.2500
  1212.7500      0.0000    627.0330      4.8218   -999.2500
  1213.0000      0.0000    543.5193      4.1234   -999.2500
  1213.2500      0.0000    420.5486      3.1581   -999.2500
  1213.5000      0.0000    280.7733      2.0922   -999.2500
  1213.7500      0.0000    157.3072      1.1652   -999.2500
  1214.0000      0.0000     72.4272      0.5340   -999.2500
  1214.2500      0.0000     26.9935      0.1983   -999.2500
  1214.5000      0.0000      8.0547      0.0590   -999.2500
  1214.7500      0.0000      1.9075      0.0139   -999.2500
  1215.0000      0.0000      0.3529      0.0026   -999.2500
  1215.2500      0.0000      0.0469      0.0003   -999.2500
  1215.5000      0.0000   -999.2500   -999.2500   -999.2500
  1215.7500      0.0000   -999.2500   -999.2500   -999.2500
  1216.0000      0.0000   -999.2500   -999.2500   -999.2500
  1216.2500      0.0000   -999.2500   -999.2500   -999.2500
  1216.5000      0.0000   -999.2500   -999.2500   -999.2500
  1216.7500      0.0000   -999.2500   -999.2500   -999.2500
  1217.0000      0.0000   -999.2500   -999.2500   -999.2500
  1217.2500      0.0000   -999.2500   -999.2500   -999.2500
  1217.5000      0.0000   -999.2500   -999.2500   -999.2500
  1217.7500      0.0000   -999.2500   -999.2500   -999.2500
  1218.0000      0.0000   -999.2500   -999.2500   -999.2500
  1218.2500      0.0000   -999.2500   -999.2500   -999.2500
  1218.5000      0.0000   -999.2500   -999.2500   -999.2500
  1218.7500      0.0000   -999.2500   -999.2500   -999.2500
  1219.0000      0.0000   -999.2500   -999.2500   -999.2500
  1219.2500      0.0000   -999.2500   -999.2500   -999.2500
  1219.5000      0.0000   -999.2500   -999.2500   -999.2500
  1219.7500      0.0000   -999.2500   -999.2500   -999.2500
  1220.0000      0.0000   -999.2500   -999.2500   -999.2500
  1220.2500      0.0000   -999.2500   -999.2500   -999.2500
  1220.5000      0.0000   -999.2500   -999.2500   -999.2500
  1220.7500      0.0000   -999.2500   -999.2500   -999.2500
  1221.0000      0.0000   -999.2500   -999.2500   -999.2500
  1221.2500      0.0000   -999.2500   -999.2500   -999.2500
  1221.5000   -999.2500   -999.2500   -999.2500   -999.2500
  1221.7500   -999.2500   -999.2500   -999.2500   -999.2500
