~Version Information
VERS.                      2.0: CWLS Log ASCII Standard - VERSION 2.0
WRAP.                       NO: One line per depth step
~Well Information Block
STRT.FT                -8.0000: 
STOP.FT              1472.2500: 
STEP.FT                 0.2500: 
NULL.                -999.2500: 
COMP.          Pioneer Natural Resources: COMPANY
WELL.           Amore 32-09 Tr: WELL
FLD.           Purgatoire River: FIELD
LOC.           1941' FNL & 2297' FEL--: LOCATION
PROV.                       CO: PROVINCE
CNTY.               Las Animas: COUNTRY
SRVC.          Patterson Wireline: SERVICE COMPANY
DATE.          Tue Nov 22 11:37:00 2005: LOG DATE
UWI.           05 071 08584 00: UNIQUE WELL ID
~Curve Information Block
DEPT.FT            0 000 00 00: Depth
CCL.                          : Casing Collar Locator
TT3.usec                      : CBL 3' Travel Time
AMP3.mV                       : CBL 3' Amplitude
GR.GAPI                       : Gamma Ray
~Parameter Information Block
~A  Depth       CCL         TT3         AMP3         GR     
# ...
   863.0000      0.0000    748.0935      6.3425    130.7935
   863.2500      0.0000    756.3454      6.4700    124.6813
   863.5000      0.0000    766.1217      6.5871    120.7806
   863.7500      0.0000    772.9512      6.6882    119.5835
   864.0000      0.0000    772.6775      6.7678    121.3139
   864.2500      0.0000    764.9944      6.8197    125.6397
   864.5000      0.0000    753.5399      6.8444    130.9187
   864.7500      0.0000    742.7207      6.8490    134.3023
   865.0000      0.0000    735.2155      6.8414    133.1849
   865.2500      0.0000    731.8256      6.8273    126.9647
   865.5000      0.0000    732.0358      6.8099    117.3346
   865.7500      0.0000    734.3755      6.7839    106.8455
   866.0000      0.0000    737.1389      6.7341     97.5439
   866.2500      0.0000    739.2566      6.6470     90.7623
   866.5000      0.0000    740.4907      6.5267     87.2304
   866.7500      0.0000    741.0260      6.3969     86.9677
   867.0000      0.0000    741.1085      6.2866     89.4252
   867.2500      0.0000    740.9462      6.2159     93.7790
   867.5000      0.0000    740.7070      6.1920     98.7652
   867.7500      0.0000    740.4963      6.2141    102.5153
   868.0000      0.0000    740.3530      6.2788    103.2537
   868.2500      0.0000    740.2715      6.3804    100.5508
   868.5000      0.0000    740.2336      6.5078     95.8555
   868.7500      0.0000    740.2220      6.6453     91.6203
   869.0000      0.0000    740.2217      6.7765     89.5802
   869.2500      0.0000    740.2186      6.8859     89.6688
   869.5000      0.0000    740.2098      6.9581     90.5836
   869.7500      0.0000    740.2626      6.9830     91.2216
   870.0000      0.0000    740.6743      6.9644     91.4161
   870.2500      0.0000    742.2188      6.9254     91.6043
   870.5000      0.0000    746.2894      6.8990     92.2566
   870.7500      0.0000    754.4574      6.9094     93.5282
   871.0000      0.0000    767.1813      6.9583     94.9686
   871.2500      0.0000    782.3615      7.0258     95.5211
   871.5000      0.0000    795.3549      7.0832     94.2290
   871.7500      0.0000    801.1017      7.1085     91.2545
   872.0000      0.0000    797.0599      7.0961     88.0681
   872.2500      0.0000    784.8792      7.0536     86.3222
   872.5000      0.0000    769.6142      6.9888     86.4711
   872.7500      0.0000    756.7098      6.9031     87.7823
   873.0000      0.0000    748.7836      6.7986     89.6227
   873.2500      0.0000    744.9718      6.6888     92.0764
   873.5000      0.0000    743.0897      6.5958     94.9778
   873.7500      0.0000    741.8015      6.5377     97.1549
   874.0000      0.0000    740.8598      6.5195     97.5054
   874.2500      0.0000    740.3199      6.5339     96.4396
   874.5000      0.0000    740.1109      6.5683     95.4468
   874.7500      0.0000    740.0958      6.6125     95.5314
   875.0000      0.0000    740.2698      6.6617     96.6931
   875.2500      0.0000    740.9518      6.7144     98.5649
   875.5000      0.0000    743.0219      6.7675    100.7387
   875.7500      0.0000    747.9024      6.8176    102.5741
   876.0000      0.0000    756.7860      6.8656    103.4660
   876.2500      0.0000    769.2551      6.9131    103.6846
   876.5000      0.0000    782.5840      6.9516    104.5819
   876.7500      0.0000    792.8371      6.9596    107.4688
   877.0000      0.0000    796.9753      6.9193    112.2381
   877.2500      0.0000    794.1626      6.8370    117.4053
   877.5000      0.0000    785.4530      6.7421    121.5965
   877.7500      0.0000    772.7607      6.6620    124.7242
   878.0000      0.0000    758.5065      6.6049    127.5775
   878.2500      0.0000    745.7609      6.5676    130.5563
   878.5000      0.0000    737.3707      6.5526    132.9267
   878.7500      0.0000    734.2275      6.5705    133.3224
   879.0000      0.0000    734.8010      6.6294    131.1013
   879.2500      0.0000    736.6436      6.7234    127.2801
   879.5000      0.0000    738.1230      6.8332    124.0469
   879.7500      0.0000    738.8287      6.9351    123.3427
   880.0000      0.0000    739.0034      7.0161    125.6999
   880.2500      0.0000    739.0014      7.0792    129.9910
   880.5000      0.0000    739.1338      7.1325    134.0987
   880.7500      0.0000    739.7769      7.1767    136.2242
   881.0000      0.0000    741.5178      7.2064    136.0098
   881.2500      0.0000    744.9907      7.2205    134.3900
   881.5000      0.0000    750.0964      7.2257    132.3386
   881.7500      0.0000    755.2463      7.2272    129.9160
   882.0000      0.0000    758.1055      7.2200    126.5269
   882.2500      0.0000    757.7369      7.1920    122.0594
   882.5000      0.0000    755.4736      7.1369    117.7244
   882.7500      0.0000    753.0967      7.0630    115.4400
   883.0000      0.0000    750.9058      6.9874    116.0684
   883.2500      0.0000    748.2545      6.9241    118.5166
   883.5000      0.0000    745.1389      6.8757    120.9354
   883.7500      0.0000    742.3606      6.8370    122.6682
   884.0000      0.0000    740.5447      6.8062    124.6727
   884.2500      0.0000    739.6540      6.7893    128.1147
   884.5000      0.0000    739.3138      6.7916    133.0471
   884.7500      0.0000    739.2092      6.8074    138.5422
   885.0000      0.0000    739.1906      6.8237    143.5699
   885.2500      0.0000    739.1924      6.8348    147.3615
   885.5000      0.0000    739.1736      6.8461    149.2765
   885.7500      0.0000    739.1230      6.8599    149.0376
   886.0000      0.0000    739.0831      6.8647    147.3540
   886.2500      0.0000    739.1262      6.8456    145.9015
   886.5000      0.0000    739.3083      6.8004    146.1668
   886.7500      0.0000    739.6427      6.7391    148.3749
   887.0000      0.0000    740.0862      6.6694    151.7955
   887.2500      0.0000    740.5236      6.5894    155.5971
   887.5000      0.0000    740.7920      6.4951    158.7948
   887.7500      0.0000    740.7845      6.3939    160.0788
   888.0000      0.0000    740.6022      6.3090    158.8456
   888.2500      0.0000    740.6259      6.2677    156.0703
   888.5000      0.0000    741.6014      6.2823    153.0136
   888.7500      0.0000    744.7192      6.3435    149.0653
   889.0000      0.0000    751.4601      6.4321    142.1015
   889.2500      0.0000    762.6917      6.5339    131.4096
   889.5000      0.0000    776.9976      6.6416    119.1680
   889.7500      0.0000    789.8488      6.7461    108.4180
   890.0000      0.0000    795.8325      6.8336    100.4493
   890.2500      0.0000    792.8780      6.8923     94.6920
   890.5000      0.0000    783.6207      6.9196     90.2011
   890.7500      0.0000    772.2502      6.9210     86.4051
   891.0000      0.0000    761.4301      6.9036     82.8354
   891.2500      0.0000    752.3979      6.8719     79.0406
   891.5000      0.0000    745.9215      6.8304     74.9663
   891.7500      0.0000    742.1517      6.7888     71.1646
   892.0000      0.0000    740.4402      6.7602     68.5560
   892.2500      0.0000    739.8915      6.7558     67.8527
   892.5000      0.0000    739.9608      6.7814     68.9337
   892.7500      0.0000    740.7634      6.8357     70.8328
   893.0000      0.0000    743.4504      6.9095     72.5801
   893.2500      0.0000    750.6520      6.9959     73.9681
   893.5000      0.0000    765.7993      7.1022     75.3613
   893.7500      0.0000    790.2174      7.2451     76.9860
   894.0000      0.0000    820.4587      7.4287     78.8247
   894.2500      0.0000    850.7263      7.6330     81.1253
   894.5000      0.0000    877.9855      7.8278     84.1937
   894.7500      0.0000    900.6978      7.9919     87.2607
   895.0000      0.0000    912.8946      8.1143     88.3209
   895.2500      0.0000    907.5821      8.1769     85.9230
   895.5000      0.0000    888.0081      8.1410     80.8768
   895.7500      0.0000    867.3252      7.9625     75.6386
   896.0000      0.0000    854.5917      7.6312     72.0986
   896.2500      0.0000    849.2536      7.1896     70.2358
