~Version Information
VERS.                      2.0: CWLS Log ASCII Standard - VERSION 2.0
WRAP.                       NO: One line per depth step
~Well Information Block
STRT.FT                10.0000: 
STOP.FT              1063.0000: 
STEP.FT                 0.1000: 
NULL.                -999.2500: 
COMP.          Pioneer Natural Resources: COMPANY
WELL.                Mac 22-36: WELL
FLD.           Purgatorie River: FIELD
LOC.           2545' FNL & 1398' FWL: LOCATION
PROV.                 Colorado: PROVINCE
CNTY.               Las Animas: COUNTRY
SRVC.                Patterson: SERVICE COMPANY
DATE.          Mon Dec 05 10:55:42 2005: LOG DATE
UWI.                          : UNIQUE WELL ID
~Curve Information Block
DEPT.FT            0 000 00 00: Depth
DCAL.in                       : CDL Caliper
RHOB.g/cc                     : CDL Bulk Density
RHOC.g/cc                     : CDL Density Correction
DPOR.pu                       : CDL Density Porosity
GR.GAPI                       : Gamma Ray
NPOR.pu                       : Neutron Porosity
~Parameter Information Block
~A  Depth       DCAL        RHOB        RHOC        DPOR         GR         NPOR    
# ...
   634.0000      7.9487      2.5330      0.0378      7.0895    124.0839     26.1284
   634.1000      7.9487      2.5420      0.0496      6.5430    122.8125     26.2526
   634.2000      7.9487      2.5470      0.0561      6.2444    121.3204     26.3484
   634.3000      7.9406      2.5543      0.0531      5.7974    119.5424     26.0932
   634.4000      7.9406      2.5651      0.0806      5.1439    117.0967     25.7816
   634.5000      7.9322      2.5697      0.0922      4.8646    114.6248     25.6364
   634.6000      7.9322      2.5605      0.0307      5.4217    113.0660     25.4557
   634.7000      7.9322      2.5456      0.0176      6.3291    111.9556     25.1598
   634.8000      7.9338      2.5357      0.0227      6.9297    112.1243     24.9507
   634.9000      7.9338      2.5237      0.0277      7.6525    114.5638     25.0838
   635.0000      7.9538      2.4977     -0.0018      9.2304    117.6577     25.4172
   635.1000      7.9538      2.4763     -0.0774     10.5247    119.7007     25.4637
   635.2000      7.9538      2.4833      0.0054     10.1049    120.3171     25.1284
   635.3000      7.9662      2.5011      0.0342      9.0232    119.2070     24.6956
   635.4000      7.9662      2.5089      0.0113      8.5536    116.7857     24.3803
   635.5000      7.9648      2.5114     -0.0046      8.3983    114.7701     24.2110
   635.6000      7.9648      2.5129      0.0258      8.3116    112.5903     23.9588
   635.7000      7.9648      2.5106      0.0078      8.4514    109.7557     23.6385
   635.8000      7.9675      2.5061      0.0218      8.7204    109.2921     23.6705
   635.9000      7.9675      2.4951      0.0397      9.3855    112.1403     23.9667
   636.0000      7.9734      2.4762      0.0297     10.5327    114.1122     24.0426
   636.1000      7.9734      2.4613     -0.0104     11.4378    112.7010     23.6475
   636.2000      7.9734      2.4524      0.0059     11.9772    110.8009     22.7316
   636.3000      7.9630      2.4253      0.0396     13.6176    112.4228     21.5826
   636.4000      7.9630      2.3506      0.0390     18.1441    120.0294     20.7346
   636.5000      7.9619      2.2259     -0.0080     25.7027    129.2973     20.1586
   636.6000      7.9619      2.0885     -0.0868     34.0289    132.1784     19.3643
   636.7000      7.9619      1.9814     -0.1041     40.5199    128.1355     18.3071
   636.8000      7.9674      1.9104     -0.0905     44.8220    122.3845     17.3279
   636.9000      7.9674      1.8595     -0.1032     47.9075    117.4811     16.7510
   637.0000      7.9860      1.8255     -0.0933     49.9716    114.1524     16.8432
   637.1000      7.9860      1.8154     -0.0111     50.5808    113.7838     17.5212
   637.2000      7.9860      1.8406      0.0362     49.0560    114.6857     18.3736
   637.3000      7.9904      1.9189      0.1164     44.3105    115.0001     19.2556
   637.4000      7.9904      2.0413      0.3491     36.8939    115.7524     20.4603
   637.5000      7.9733      2.1618      0.3664     29.5862    117.5907     22.0574
   637.6000      7.9733      2.2545      0.3177     23.9676    120.3870     23.6995
   637.7000      7.9733      2.3284      0.2321     19.4918    124.4996     25.1131
   637.8000      7.9563      2.3887      0.2328     15.8373    130.6476     26.1195
   637.9000      7.9563      2.4275      0.1500     13.4859    138.0580     26.5851
   638.0000      7.9571      2.4460      0.1021     12.3657    144.5510     26.7794
   638.1000      7.9571      2.4562      0.0988     11.7473    147.5155     27.2123
   638.2000      7.9571      2.4675      0.1083     11.0628    146.0849     27.9293
   638.3000      7.9484      2.4806      0.1240     10.2646    142.9220     28.4178
   638.4000      7.9484      2.4955      0.1357      9.3652    139.4358     28.3392
   638.5000      7.9482      2.5136      0.1277      8.2682    136.7428     28.0508
   638.6000      7.9482      2.5305      0.1204      7.2455    136.7707     28.0297
   638.7000      7.9482      2.5464      0.0830      6.2815    136.8628     28.1971
   638.8000      7.9482      2.5656      0.1293      5.1159    134.7045     28.2237
   638.9000      7.9482      2.5794      0.1156      4.2802    134.0321     28.0475
   639.0000      7.9470      2.5805      0.1127      4.2136    137.0327     27.8762
   639.1000      7.9470      2.5670      0.1407      5.0317    140.4657     27.7811
   639.2000      7.9470      2.5309      0.1189      7.2189    142.2514     27.6493
   639.3000      7.9463      2.4780      0.0211     10.4272    143.0156     27.4286
   639.4000      7.9463      2.4350      0.0330     13.0288    142.1911     26.9653
   639.5000      7.9484      2.4161      0.0590     14.1766    140.2991     26.2300
   639.6000      7.9484      2.4102      0.0767     14.5310    139.1732     25.5646
   639.7000      7.9484      2.4070      0.0396     14.7300    140.5195     25.2338
   639.8000      7.9432      2.4060      0.0373     14.7882    144.8713     25.0037
   639.9000      7.9432      2.4054      0.0843     14.8265    148.9666     24.4032
   640.0000      7.9529      2.4078      0.0740     14.6784    149.1607     23.5809
   640.1000      7.9529      2.4281      0.1232     13.4472    146.5879     23.3513
   640.2000      7.9529      2.4706      0.1616     10.8721    144.4697     23.9004
   640.3000      8.0024      2.5110      0.2135      8.4227    143.1971     24.5672
   640.4000      8.0024      2.5217      0.2071      7.7768    143.4572     24.7683
   640.5000      8.0295      2.5064      0.1674      8.7029    145.3637     24.4661
   640.6000      8.0295      2.4812      0.1686     10.2273    146.4335     23.9215
   640.7000      8.0295      2.4429      0.2141     12.5536    144.9592     23.3541
   640.8000      8.1271      2.3941      0.1191     15.5085    142.9159     22.8523
   640.9000      8.1271      2.3574      0.1611     17.7321    141.4585     22.3575
   641.0000      8.2049      2.3327      0.1381     19.2317    138.9279     21.7548
   641.1000      8.2049      2.2993      0.0732     21.2516    136.3545     21.0327
   641.2000      8.2049      2.2492      0.0188     24.2927    135.4234     20.2715
   641.3000      8.0217      2.1843     -0.0053     28.2214    135.7191     19.4050
   641.4000      8.0217      2.1142      0.0212     32.4719    136.7340     18.5558
   641.5000      8.0000      2.0610      0.0588     35.6980    138.1009     18.0224
   641.6000      8.0000      2.0447      0.1513     36.6825    139.3730     17.9658
   641.7000      8.0000      2.0575      0.2505     35.9117    138.4783     18.4765
   641.8000      7.9937      2.0682      0.2912     35.2612    132.5356     19.3672
   641.9000      7.9937      2.0685      0.1966     35.2397    125.1073     20.2901
   642.0000      7.9583      2.0887      0.1513     34.0199    121.2214     21.2418
   642.1000      7.9583      2.1512      0.2302     30.2290    120.2758     22.3441
   642.2000      7.9583      2.2418      0.2862     24.7397    120.6926     23.4825
   642.3000      7.9616      2.3321      0.2899     19.2684    122.8965     24.5794
   642.4000      7.9616      2.4027      0.2444     14.9885    127.0282     25.4829
   642.5000      7.9625      2.4480      0.1849     12.2446    130.1822     25.9379
   642.6000      7.9625      2.4741      0.1265     10.6591    129.7205     26.0016
   642.7000      7.9625      2.4891      0.0996      9.7538    128.2364     26.0013
   642.8000      7.9673      2.4935      0.0786      9.4848    128.2583     26.1837
   642.9000      7.9673      2.4843      0.0692     10.0439    129.2402     26.4820
   643.0000      7.9591      2.4682      0.0436     11.0156    131.9925     26.6331
   643.1000      7.9591      2.4587      0.0602     11.5967    137.6616     26.3809
   643.2000      7.9591      2.4581      0.0540     11.6273    143.2478     25.7688
   643.3000      7.9612      2.4647      0.0645     11.2302    145.2499     25.2117
   643.4000      7.9612      2.4811      0.0332     10.2393    143.6609     25.0593
   643.5000      7.9696      2.4994      0.1004      9.1248    140.7116     25.2395
