~Version Information
VERS.                      2.0: CWLS Log ASCII Standard - VERSION 2.0
WRAP.                       NO: One line per depth step
~Well Information Block
STRT.FT                10.0000: 
STOP.FT              1485.0000: 
STEP.FT                 0.1000: 
NULL.                -999.2500: 
COMP.          Pioneer Natural Resources: COMPANY
WELL.          Old Faithful 21-2: WELL
FLD.           Purgatorie River: FIELD
LOC.           806' FNL & 2509' FWL: LOCATION
PROV.                 Colorado: PROVINCE
CNTY.               Las Animas: COUNTRY
SRVC.                Patterson: SERVICE COMPANY
DATE.          Wed Dec 07 13:17:12 2005: LOG DATE
UWI.                          : UNIQUE WELL ID
~Curve Information Block
DEPT.FT            0 000 00 00: Depth
DCAL.in                       : CDL Caliper
RHOB.g/cc                     : CDL Bulk Density
RHOC.g/cc                     : CDL Density Correction
DPOR.pu                       : CDL Density Porosity
GR.GAPI                       : Gamma Ray
NPOR.pu                       : Neutron Porosity
~Parameter Information Block
~A  Depth       DCAL        RHOB        RHOC        DPOR         GR         NPOR    
# ...
   691.6000      8.3660      2.5194      0.0568      7.9172    113.9228     20.9242
   691.7000      8.3660      2.5216      0.0854      7.7789    112.2641     21.2395
   691.8000      8.3747      2.5324      0.1046      7.1291    109.9662     21.3385
   691.9000      8.3747      2.5420      0.0765      6.5463    110.0703     21.2576
   692.0000      8.3780      2.5479      0.1327      6.1890    113.5684     20.9188
   692.1000      8.3780      2.5493      0.0998      6.1027    117.2752     20.4752
   692.2000      8.3780      2.5492      0.0795      6.1075    118.3190     20.1678
   692.3000      8.3777      2.5452      0.1284      6.3516    117.4339     20.0429
   692.4000      8.3777      2.5351      0.0540      6.9633    116.5486     20.2333
   692.5000      8.3907      2.5293      0.0851      7.3181    115.6126     20.6476
   692.6000      8.3907      2.5334      0.0914      7.0659    114.0958     20.8604
   692.7000      8.3907      2.5421      0.0707      6.5369    113.3315     20.7750
   692.8000      8.3836      2.5452      0.0903      6.3545    114.8012     20.6943
   692.9000      8.3836      2.5386      0.0330      6.7507    118.6012     20.7031
   693.0000      8.3838      2.5369      0.0509      6.8562    121.8587     20.6677
   693.1000      8.3838      2.5539      0.0685      5.8254    122.2516     20.5965
   693.2000      8.3838      2.5761      0.1303      4.4762    120.7079     20.7555
   693.3000      8.3842      2.5810      0.0898      4.1826    118.0919     21.1607
   693.4000      8.3842      2.5700      0.0663      4.8474    116.1646     21.3913
   693.5000      8.3777      2.5570      0.0631      5.6339    114.4095     21.3293
   693.6000      8.3777      2.5490      0.0596      6.1227    112.4583     21.0326
   693.7000      8.3777      2.5444      0.0478      6.3972    111.7940     20.6163
   693.8000      8.3863      2.5362      0.0509      6.8963    111.6415     20.5070
   693.9000      8.3863      2.5237      0.0264      7.6533    112.7158     20.7642
   694.0000      8.3886      2.5158     -0.0042      8.1356    116.0819     21.0795
   694.1000      8.3886      2.5108      0.0471      8.4372    119.9841     21.2386
   694.2000      8.3886      2.4964      0.0222      9.3083    121.1325     21.0677
   694.3000      8.3779      2.4771     -0.0544     10.4785    118.6425     20.5777
   694.4000      8.3779      2.4741     -0.0594     10.6612    115.2643     20.2627
   694.5000      8.3820      2.4927      0.0079      9.5356    113.1877     20.4715
   694.6000      8.3820      2.5138      0.0201      8.2549    111.6654     20.7369
   694.7000      8.3820      2.5218      0.0274      7.7697    110.0613     20.5131
   694.8000      8.3777      2.5200      0.0406      7.8812    110.1424     20.1595
   694.9000      8.3777      2.5155      0.0200      8.1516    113.1710     20.2504
   695.0000      8.3851      2.5116      0.0176      8.3894    117.6633     20.6047
   695.1000      8.3851      2.5130      0.0017      8.3010    119.5624     20.7953
   695.2000      8.3851      2.5197      0.0417      7.8962    116.5658     20.9044
   695.3000      8.3720      2.5269      0.0164      7.4614    111.6408     21.1492
   695.4000      8.3720      2.5383      0.0259      6.7673    109.2114     21.4546
   695.5000      8.3878      2.5485      0.0643      6.1507    110.0592     21.5888
   695.6000      8.3878      2.5469      0.0208      6.2477    110.4397     21.3603
   695.7000      8.3878      2.5420      0.0358      6.5480    109.4542     20.9462
   695.8000      8.3775      2.5381      0.0665      6.7810    110.2886     20.6668
   695.9000      8.3775      2.5323      0.0119      7.1348    113.6454     20.5553
   696.0000      8.3761      2.5298      0.0193      7.2849    117.0231     20.4781
   696.1000      8.3761      2.5312      0.0214      7.2030    117.0092     20.3322
   696.2000      8.3761      2.5303      0.0153      7.2564    114.4614     20.1117
   696.3000      8.3590      2.5252      0.0172      7.5654    112.8085     19.9645
   696.4000      8.3590      2.5160     -0.0004      8.1204    112.3984     19.9305
   696.5000      8.3575      2.4995      0.0293      9.1211    112.6008     19.8399
   696.6000      8.3575      2.4792     -0.0293     10.3510    114.6088     19.6197
   696.7000      8.3575      2.4732     -0.0281     10.7153    117.9470     19.3912
   696.8000      8.3709      2.4857      0.0341      9.9554    119.0888     19.2884
   696.9000      8.3709      2.4998      0.0169      9.1011    116.7495     19.4365
   697.0000      8.3574      2.5127     -0.0023      8.3191    114.1920     19.7963
   697.1000      8.3574      2.5340      0.0518      7.0321    113.1625     20.0793
   697.2000      8.3574      2.5537      0.0861      5.8349    112.2738     20.1264
   697.3000      8.3645      2.5563      0.0525      5.6765    112.3986     20.0879
   697.4000      8.3645      2.5482      0.0409      6.1700    114.1589     20.1073
   697.5000      8.3484      2.5421      0.0609      6.5423    114.6238     20.1672
   697.6000      8.3484      2.5368      0.0819      6.8585    111.6785     20.3198
   697.7000      8.3484      2.5267      0.0760      7.4712    107.5492     20.5343
   697.8000      8.3511      2.5120      0.0340      8.3638    106.2684     20.5438
   697.9000      8.3511      2.4980      0.0068      9.2099    107.4226     20.2470
   698.0000      8.3419      2.4848      0.0675     10.0133    107.9742     19.8915
   698.1000      8.3419      2.4656      0.0304     11.1757    107.5340     19.7136
   698.2000      8.3419      2.4420      0.0074     12.6086    106.6399     19.6316
   698.3000      8.3452      2.4196     -0.0232     13.9653    105.5590     19.5331
   698.4000      8.3452      2.3961     -0.0138     15.3861    105.5642     19.3119
   698.5000      8.3482      2.3642      0.0128     17.3219    107.0178     18.8221
   698.6000      8.3482      2.3287      0.0053     19.4738    107.5046     18.2160
   698.7000      8.3482      2.3111     -0.0096     20.5404    106.3671     17.7894
   698.8000      8.3296      2.3202      0.0491     19.9893    105.9732     17.7658
   698.9000      8.3296      2.3359      0.0671     19.0379    107.2359     18.1299
   699.0000      8.3403      2.3474      0.0144     18.3393    110.3075     18.5036
   699.1000      8.3403      2.3723      0.0198     16.8275    115.6457     18.7670
   699.2000      8.3403      2.4151      0.1086     14.2336    122.5364     19.2288
   699.3000      8.3348      2.4508      0.1317     12.0712    128.3283     19.8685
   699.4000      8.3348      2.4667      0.0944     11.1081    130.8002     20.5853
   699.5000      8.3379      2.4827      0.0653     10.1365    130.5468     21.3366
   699.6000      8.3379      2.5101      0.1172      8.4783    128.8351     21.8661
   699.7000      8.3379      2.5260      0.1187      7.5165    127.8077     22.1920
   699.8000      8.3385      2.5147      0.0712      8.1977    129.2595     22.5194
   699.9000      8.3385      2.4967      0.0055      9.2917    131.9797     22.9029
   700.0000      8.3294      2.4948      0.0084      9.4081    134.0040     23.3615
   700.1000      8.3294      2.5058      0.0159      8.7395    134.2622     23.6352
   700.2000      8.3294      2.5181      0.0054      7.9961    133.6343     23.4881
   700.3000      8.3261      2.5258      0.0550      7.5276    133.3719     23.2687
   700.4000      8.3261      2.5220      0.0343      7.7603    133.9711     23.4180
   700.5000      8.3137      2.5096      0.0171      8.5113    136.8986     23.7505
   700.6000      8.3137      2.4969      0.0123      9.2797    141.9129     23.6845
   700.7000      8.3137      2.4738      0.0423     10.6772    145.1839     23.3154
   700.8000      8.3257      2.4225      0.0253     13.7868    144.6338     23.2330
   700.9000      8.3257      2.3492     -0.0282     18.2325    142.7943     23.4937
   701.0000      8.3121      2.2814     -0.0332     22.3390    142.8431     23.7079
   701.1000      8.3121      2.2343     -0.0575     25.1938    145.0851     23.6341
