~Version Information
VERS.                      2.0: CWLS Log ASCII Standard - VERSION 2.0
WRAP.                       NO: One line per depth step
~Well Information Block
STRT.FT                 0.0000: 
STOP.FT              1923.5000: 
STEP.FT                 0.2500: 
NULL.                -999.2500: 
COMP.          Petrogulf Corporation: COMPANY
WELL.            Montoya 7-14R: WELL
FLD.           Purgatorie River: FIELD
LOC.           628' FSL & 454' FWL: LOCATION
STAT.                 Colorado: State
CNTY.               Las Animas: COUNTY
CTRY. USA : Country
SECT. 7 : Section
TOWN. 33S : Township
RANG. 67W : Range
SRVC.                Patterson: SERVICE COMPANY
DATE.          Wed Nov 09 12:02:27 2005: LOG DATE
API. 05-071-08554                         : UNIQUE WELL ID
~Curve Information Block
DEPT.FT            0 000 00 00: Depth
CCL.                          : Casing Collar Locator
TT3.usec                      : CBL 3' Travel Time
AMP3.mV                       : CBL 3' Amplitude
GR.GAPI                       : Gamma Ray
~Parameter Information Block
~A  Depth       CCL         TT3         AMP3         GR     
# ...
   636.5000      0.0000    619.5146     13.9891    114.5169
   636.7500      0.0000    624.4928     14.0011    115.3363
   637.0000      0.0000    627.2670     14.0153    115.6572
   637.2500      0.0000    620.0149     14.0309    115.1462
   637.5000      0.0000    602.0862     14.0408    114.1540
   637.7500      0.0000    576.0289     14.0282    113.4029
   638.0000      0.0000    549.3793     13.9823    113.2578
   638.2500      0.0000    540.5842     13.9122    113.5624
   638.5000      0.0000    562.7153     13.8325    114.1124
   638.7500      0.0000    598.8723     13.7510    115.0681
   639.0000      0.0000    609.3002     13.6786    117.0053
   639.2500      0.0000    566.0233     13.6232    120.5049
   639.5000      0.0000    483.6348     13.5762    125.3129
   639.7500      0.0000    406.6704     13.5245    129.8865
   640.0000      0.0000    362.6605     13.4686    132.3736
   640.2500      0.0000    346.5441     13.4232    132.3907
   640.5000      0.0000    343.6677     13.3984    131.5156
   640.7500      0.0000    346.6654     13.3819    131.5723
   641.0000      0.0000    353.7154     13.3524    132.5051
   641.2500      0.0000    361.9326     13.3056    132.4363
   641.5000      0.0000    366.5505     13.2592    129.8554
   641.7500      0.0000    365.5762     13.2313    125.2438
   642.0000      0.0000    361.2828     13.2166    120.4823
   642.2500      0.0000    356.1783     13.1874    117.1464
   642.5000      0.0000    351.5903     13.1268    115.5175
   642.7500      0.0000    350.2506     13.0583    114.8276
   643.0000      0.0000    354.5733     13.0195    114.1578
   643.2500      0.0000    362.3795     13.0137    113.2077
   643.5000      0.0000    368.1714     13.0108    112.4500
   643.7500      0.0000    367.9601     12.9828    112.5984
   644.0000      0.0000    361.5829     12.9256    113.9284
   644.2500      0.0000    352.6153     12.8425    116.2410
   644.5000      0.0000    346.8148     12.6556    119.4851
   644.7500      0.0000    350.3020     12.1234    123.9304
   645.0000      0.0000    368.1606     11.0958    129.3762
   645.2500      0.0000    396.2286     10.0330    134.5517
   645.5000      0.0000    416.3953      9.6925    137.9057
   645.7500      0.0000    420.2924      9.9665    138.9496
   646.0000      0.0000    428.7614     10.0516    138.2066
   646.2500      0.0000    463.1329      9.7435    135.8922
   646.5000      0.0000    514.6624      9.3923    131.7098
   646.7500      0.0000    560.7904      9.1691    126.3752
   647.0000     -2.0000    595.3412      9.0499    122.2522
   647.2500      2.0000    629.9384      8.9835    121.4466
   647.5000      0.0000    668.1193      8.8978    123.6441
   647.7500      0.0000    686.0416      8.7697    126.6001
   648.0000      0.0000    654.7327      8.7606    128.6161
   648.2500      0.0000    576.1650      9.1011    129.7645
   648.5000      0.0000    485.1248      9.6952    130.5925
   648.7500      0.0000    418.9368     10.1978    130.5481
   649.0000      0.0000    387.7393     10.4897    128.5317
   649.2500      0.0000    377.9507     10.6446    124.7066
   649.5000      0.0000    375.2696     10.7231    120.9014
   649.7500      0.0000    373.4594     10.7855    118.9341
   650.0000      0.0000    370.5656     10.8711    118.9240
   650.2500      0.0000    366.9612     10.9798    119.4531
   650.5000      0.0000    365.5407     11.0945    119.0591
   650.7500      0.0000    369.2474     11.1798    117.3504
   651.0000      0.0000    380.4391     11.2055    114.9111
   651.2500      0.0000    404.3049     11.1843    112.6761
   651.5000      0.0000    441.4754     11.1476    111.7851
   651.7500      0.0000    473.9076     11.1005    113.7779
   652.0000      0.0000    481.5431     11.0310    119.9767
   652.2500      0.0000    477.8914     10.9347    130.0655
   652.5000      0.0000    494.0730     10.8297    141.5336
   652.7500      0.0000    526.2606     10.7577    151.0500
   653.0000      0.0000    541.9656     10.7487    156.5184
   653.2500      0.0000    530.6616     10.7847    157.8321
   653.5000      0.0000    506.8775     10.8120    156.1116
   653.7500      0.0000    490.5099     10.7881    152.7401
   654.0000      0.0000    504.8735     10.7166    149.0551
   654.2500      0.0000    552.7722     10.6341    146.3965
   654.5000      0.0000    602.2985     10.5771    145.8294
   654.7500      0.0000    623.2336     10.5569    147.4334
   655.0000      0.0000    617.1633     10.5469    149.8779
   655.2500      0.0000    603.9724     10.5130    151.0500
   655.5000      0.0000    597.8877     10.4522    149.3450
   655.7500      0.0000    602.4946     10.3836    144.5429
   656.0000      0.0000    613.2843     10.3330    137.7773
   656.2500      0.0000    614.0086     10.3235    130.8430
   656.5000      0.0000    583.6070     10.3583    125.2780
   656.7500      0.0000    520.9730     10.4172    121.6493
   657.0000      0.0000    452.6093     10.4711    119.2514
   657.2500      0.0000    405.6268     10.5039    116.6329
   657.5000      0.0000    384.4006     10.5148    112.9411
   657.7500      0.0000    377.9276     10.5027    108.7829
   658.0000      0.0000    376.3531     10.4671    105.4620
   658.2500      0.0000    375.7493     10.4206    103.5776
   658.5000      0.0000    375.3417     10.3824    102.7598
   658.7500      0.0000    375.1181     10.3623    102.6448
   659.0000      0.0000    375.0810     10.3564    103.5757
   659.2500      0.0000    375.1508     10.3594    106.1771
   659.5000      0.0000    375.1763     10.3743    110.5172
   659.7500      0.0000    375.0440     10.4078    115.7538
   660.0000      0.0000    374.8182     10.4588    120.2734
   660.2500      0.0000    374.6358     10.5145    122.2451
   660.5000      0.0000    374.3486     10.5644    120.6874
   660.7500      0.0000    373.1061     10.6068    116.2816
   661.0000      0.0000    369.2842     10.6374    110.9258
   661.2500      0.0000    361.8055     10.6481    106.3789
   661.5000      0.0000    352.3134     10.6346    103.2899
   661.7500      0.0000    344.4134     10.5995    101.3497
   662.0000      0.0000    340.0097     10.5554    100.0869
   662.2500      0.0000    338.2798     10.5172     99.2988
   662.5000      0.0000    337.9164     10.4903     98.7780
   662.7500      0.0000    338.8995     10.4714     98.1412
   663.0000      0.0000    342.5820     10.4459     97.3231
   663.2500      0.0000    349.9071     10.3900     96.8748
   663.5000      0.0000    358.9996     10.2998     97.2444
   663.7500      0.0000    366.2086     10.2103     98.0897
   664.0000      0.0000    369.9458     10.1640     98.9953
   664.2500      0.0000    371.5653     10.1709    100.6244
   664.5000      0.0000    373.7653     10.2064    104.3921
   664.7500      0.0000    381.4933     10.2368    110.8218
   665.0000      0.0000    403.5876     10.2291    118.5028
   665.2500      0.0000    444.0888     10.1538    124.7075
   665.5000      0.0000    483.7341     10.0256    127.0366
   665.7500      0.0000    487.0403      9.9193    124.7659
   666.0000      0.0000    445.9552      9.8830    119.1083
   666.2500      0.0000    393.1430      9.8788    112.5370
   666.5000      0.0000    359.6765      9.8561    107.5863
   666.7500      0.0000    349.6496      9.8187    105.6013
   667.0000      0.0000    360.0682      9.7879    106.2555
   667.2500      0.0000    400.2439      9.7628    108.2954
   667.5000      0.0000    478.0090      9.7431    110.7799
   667.7500      0.0000    570.2913      9.7576    113.5678
   668.0000      0.0000    630.6126      9.8414    116.7404
   668.2500      0.0000    630.2197      9.9900    119.8432
   668.5000      0.0000    574.0440     10.1655    121.9500
   668.7500      0.0000    492.5009     10.3330    122.4012
   669.0000      0.0000    424.4410     10.4644    121.3224
   669.2500      0.0000    387.7687     10.5383    119.5711
   669.5000      0.0000    372.7893     10.5609    118.4906
   669.7500      0.0000    364.8971     10.5647    119.4413
