~Version Information
VERS.                      2.0: CWLS Log ASCII Standard - VERSION 2.0
WRAP.                       NO: One line per depth step
~Well Information Block
STRT.FT               -10.7500: 
STOP.FT              1466.2500: 
STEP.FT                 0.2500: 
NULL.                -999.2500: 
COMP.          Pioneer Natural Resources: COMPANY
WELL.             Andrew 23-15: WELL
FLD.           Purgatorie River: FIELD
LOC.           2137' FSL & 2292' FWL--: LOCATION
PROV.                       CO: PROVINCE
CNTY.               Las Animas: COUNTRY
SRVC.          Patterson Wireline: SERVICE COMPANY
DATE.          Thu Aug 18 11:51:45 2005: LOG DATE
UWI.           05 071 08460 00: UNIQUE WELL ID
~Curve Information Block
DEPT.FT            0 000 00 00: Depth
CCL.                          : Casing Collar Locator
TT3.usec                      : CBL 3' Travel Time
AMP3.mV                       : CBL 3' Amplitude
GR.GAPI                       : Gamma Ray
~Parameter Information Block
~A  Depth       CCL         TT3         AMP3         GR     
# ...
  1128.2500      0.0000    828.3563      6.0517     92.5757
  1128.5000      0.0000    844.4875      6.2127     89.5913
  1128.7500      0.0000    858.2808      6.3366     86.9410
  1129.0000      2.0000    866.0902      6.3841     85.9920
  1129.2500      0.0000    868.9959      6.3574     88.0779
  1129.5000      0.0000    869.1178      6.3098     92.9906
  1129.7500      0.0000    866.3690      6.3377     99.4246
  1130.0000      0.0000    859.7213      6.5231    106.4632
  1130.2500      0.0000    849.2797      6.8485    113.7020
  1130.5000      0.0000    835.7295      7.1892    120.2302
  1130.7500      0.0000    819.8174      7.4281    124.6177
  1131.0000      0.0000    803.8843      7.5582    126.0439
  1131.2500      0.0000    792.0364      7.6521    124.8727
  1131.5000      0.0000    787.0079      7.7616    122.0981
  1131.7500      0.0000    787.7017      7.8778    118.6339
  1132.0000      0.0000    790.6967      7.9616    115.2857
  1132.2500      0.0000    793.3120      7.9809    113.0938
  1132.5000      0.0000    794.7604      7.9319    113.2629
  1132.7500      0.0000    795.3344      7.8466    116.4050
  1133.0000      0.0000    795.3888      7.7797    121.6965
  1133.2500      0.0000    794.8915      7.7724    126.7276
  1133.5000      0.0000    793.3894      7.8226    128.3732
  1133.7500      0.0000    790.2993      7.8885    124.6813
  1134.0000      0.0000    785.7039      7.9265    116.7037
  1134.2500      0.0000    781.0207      7.9254    108.1194
  1134.5000      0.0000    778.1930      7.9047    102.4069
  1134.7500      0.0000    777.3655      7.8840    100.5217
  1135.0000      0.0000    775.7861      7.8612    101.2964
  1135.2500      0.0000    770.1805      7.8248    103.1345
  1135.5000      0.0000    760.5087      7.7810    104.7647
  1135.7500      0.0000    750.6436      7.7608    105.1523
  1136.0000      0.0000    744.9413      7.7939    103.6658
  1136.2500      0.0000    744.4924      7.8760    100.5650
  1136.5000      0.0000    746.6217      7.9647     97.3333
  1136.7500      0.0000    747.1681      8.0115     96.2265
  1137.0000      0.0000    743.5919      7.9968     98.9810
  1137.2500      0.0000    737.4825      7.9342    105.7782
  1137.5000      0.0000    734.0910      7.8468    115.4190
  1137.7500      0.0000    737.6092      7.7508    125.9711
  1138.0000      0.0000    746.5790      7.6591    135.0217
  1138.2500      0.0000    755.5237      7.5892    140.0750
  1138.5000      0.0000    761.1946      7.5561    139.5754
  1138.7500      0.0000    765.2635      7.5606    133.5981
  1139.0000      0.0000    770.5077      7.5881    123.4595
  1139.2500      0.0000    776.5582      7.6195    110.9921
  1139.5000      0.0000    780.7178      7.6430     98.1340
  1139.7500      0.0000    781.5457      7.6531     86.6639
  1140.0000      0.0000    780.2392      7.6387     77.9663
  1140.2500      0.0000    779.0506      7.5811     72.8391
  1140.5000      0.0000    779.3945      7.4693     71.0907
  1140.7500      0.0000    781.3716      7.3172     71.1994
  1141.0000      0.0000    784.2729      7.1623     70.8937
  1141.2500      0.0000    787.1489      7.0425     68.5697
  1141.5000      0.0000    789.2781      6.9735     64.1822
  1141.7500      0.0000    790.4337      6.9443     58.8365
  1142.0000      0.0000    790.8062      6.9337     53.9070
  1142.2500      0.0000    790.6478      6.9252     50.4879
  1142.5000      0.0000    789.9483      6.9097     48.9844
  1142.7500      0.0000    788.2922      6.8802     48.8334
  1143.0000      0.0000    784.9944      6.8326     49.0034
  1143.2500      0.0000    779.6733      6.7702     49.2082
  1143.5000      0.0000    772.8085      6.7047     50.4497
  1143.7500      0.0000    765.5789      6.6527     53.9533
  1144.0000      0.0000    759.4351      6.6252     59.6347
  1144.2500      0.0000    756.4349      6.6205     66.0219
  1144.5000      0.0000    759.1428      6.6282     71.5016
  1144.7500      0.0000    768.2997      6.6390     75.1696
  1145.0000      0.0000    780.6777      6.6502     76.7223
  1145.2500      0.0000    790.9553      6.6644     76.2228
  1145.5000      0.0000    795.9800      6.6872     74.0787
  1145.7500      0.0000    796.4512      6.7259     70.9101
  1146.0000      0.0000    794.9655      6.7839     67.4750
  1146.2500      0.0000    793.5253      6.8547     64.9394
  1146.5000      0.0000    792.7809      6.9236     64.9870
  1146.7500      0.0000    792.5588      6.9775     69.1686
  1147.0000      0.0000    792.5180      7.0134     77.8192
  1147.2500      0.0000    792.4597      7.0362     89.3617
  1147.5000      0.0000    792.3000      7.0522    100.6735
  1147.7500      0.0000    791.9246      7.0644    108.7849
  1148.0000      0.0000    791.1489      7.0725    113.0128
  1148.2500      0.0000    789.9532      7.0739    115.5188
  1148.5000      0.0000    788.7648      7.0665    119.3948
  1148.7500      0.0000    788.3140      7.0521    126.0198
  1149.0000      0.0000    789.0043      7.0363    134.1728
  1149.2500      0.0000    790.4978      7.0248    141.3628
  1149.5000      0.0000    792.0579      7.0184    145.7676
  1149.7500      0.0000    793.1866      7.0115    147.2310
  1150.0000      0.0000    793.8327      6.9958    146.9114
  1150.2500      0.0000    794.1590      6.9649    146.2394
  1150.5000      0.0000    794.3011      6.9174    146.1434
  1150.7500      0.0000    794.3163      6.8550    146.7233
  1151.0000      0.0000    794.2341      6.7773    147.1904
  1151.2500      0.0000    794.0947      6.6816    146.3073
  1151.5000      0.0000    793.9506      6.5692    143.4430
  1151.7500      0.0000    793.8497      6.4531    139.2765
  1152.0000      0.0000    793.8236      6.3533    135.1596
  1152.2500      0.0000    793.8752      6.2837    131.7189
  1152.5000      0.0000    793.9750      6.2446    128.4659
  1152.7500      0.0000    794.0809      6.2296    124.8179
  1153.0000      0.0000    794.1710      6.2366    120.9666
  1153.2500      0.0000    794.2549      6.2686    117.5090
  1153.5000      0.0000    794.3505      6.3277    114.7343
  1153.7500      0.0000    794.4618      6.4097    112.7750
  1154.0000      0.0000    794.5838      6.5072    112.2037
  1154.2500      0.0000    794.7169      6.6190    113.9176
  1154.5000      0.0000    794.8640      6.7511    118.1359
  1154.7500      0.0000    795.0132      6.9063    123.5908
  1155.0000      0.0000    795.1381      7.0726    127.9376
  1155.2500      0.0000    795.2253      7.2235    129.1715
  1155.5000      0.0000    795.3010      7.3315    126.9232
  1155.7500      0.0000    795.4148      7.3892    122.6149
  1156.0000      0.0000    795.5806      7.4175    118.3638
  1156.2500      0.0000    795.7302      7.4474    115.3736
  1156.5000      0.0000    795.7507      7.4904    113.0876
  1156.7500      0.0000    795.5863      7.5287    109.9217
  1157.0000      0.0000    795.2874      7.5382    105.1156
  1157.2500      0.0000    794.9556      7.5155    100.1272
  1157.5000      0.0000    794.6681      7.4795     98.0319
  1157.7500      0.0000    794.4626      7.4496    100.9614
  1158.0000      0.0000    794.3546      7.4277    107.9877
  1158.2500      0.0000    794.3409      7.4051    115.8778
  1158.5000      0.0000    794.4023      7.3872    121.7622
  1158.7500      0.0000    794.5189      7.3974    124.6237
  1159.0000      0.0000    794.6803      7.4505    124.7503
  1159.2500      0.0000    794.8765      7.5317    122.7825
  1159.5000      0.0000    795.0894      7.6108    119.3717
  1159.7500      0.0000    795.2959      7.6687    115.2024
  1160.0000      0.0000    795.4668      7.7025    111.1261
  1160.2500      0.0000    795.5640      7.7112    108.1896
  1160.5000      0.0000    795.5530      7.6862    107.3195
  1160.7500      0.0000    795.4295      7.6154    108.8025
  1161.0000      0.0000    795.2328      7.4981    111.9645
  1161.2500      0.0000    795.0299      7.3591    115.3166
  1161.5000      0.0000    794.8823      7.2420    117.2568
