~Version Information
VERS.                      2.0: CWLS Log ASCII Standard - VERSION 2.0
WRAP.                       NO: One line per depth step
~Well Information Block
STRT.FT               710.0000: 
STOP.FT              1983.0000: 
STEP.FT                 0.1000: 
NULL.                -999.2500: 
COMP.          Petrogulf Corporation: COMPANY
WELL.           State 16-23R-X: WELL
FLD.           Purgatorie River: FIELD
LOC.           2381' FSL & 2072' FWL: LOCATION
PROV.                 Colorado: PROVINCE
CNTY.               Las Animas: COUNTRY
SRVC.                Patterson: SERVICE COMPANY
DATE.          Mon Aug 08 07:36:34 2005: LOG DATE
UWI.                          : UNIQUE WELL ID
~Curve Information Block
DEPT.FT            0 000 00 00: Depth
DCAL.in                       : CDL Caliper
RHOB.g/cc                     : CDL Bulk Density
RHOC.g/cc                     : CDL Density Correction
DPOR.pu                       : CDL Density Porosity
GR.GAPI                       : Gamma Ray
NPOR.pu                       : Neutron Porosity
~Parameter Information Block
~A  Depth       DCAL        RHOB        RHOC        DPOR         GR         NPOR    
# ...
  1372.4000      7.9342      2.3952      0.0959     15.4407    172.4173     25.9034
  1372.5000      7.9014      2.3438      0.0245     18.5551    169.3074     25.9353
  1372.6000      7.9014      2.2994      0.0002     21.2494    168.5853     25.7406
  1372.7000      7.9014      2.2531      0.0251     24.0559    169.0391     25.1887
  1372.8000      7.8839      2.2028      0.0208     27.1052    167.9093     24.2847
  1372.9000      7.8839      2.1656      0.0755     29.3573    165.6362     23.4218
  1373.0000      7.8738      2.1552      0.0679     29.9882    164.2809     23.1310
  1373.1000      7.8738      2.1746      0.0742     28.8095    163.9798     23.5065
  1373.2000      7.8738      2.2215      0.1808     25.9710    163.3610     24.2832
  1373.3000      7.8738      2.2869      0.1982     22.0078    161.4907     25.1937
  1373.4000      7.8738      2.3530      0.2937     17.9982    158.2357     25.9548
  1373.5000      7.8462      2.3929      0.3299     15.5835    155.6796     26.4202
  1373.6000      7.8462      2.3906      0.2900     15.7205    156.5609     26.4987
  1373.7000      7.8462      2.3540      0.1719     17.9381    159.2030     26.0400
  1373.8000      7.8468      2.3053      0.0366     20.8882    159.9541     25.0933
  1373.9000      7.8468      2.2673     -0.0171     23.1955    157.6469     24.0984
  1374.0000      7.7852      2.2446      0.0193     24.5681    152.7460     23.6947
  1374.1000      7.7852      2.2306     -0.0133     25.4167    147.4811     23.9324
  1374.2000      7.7852      2.2289      0.0353     25.5204    144.8008     24.2680
  1374.3000      7.8698      2.2442      0.0799     24.5965    144.6345     24.5213
  1374.4000      7.8698      2.2637      0.1716     23.4099    146.6206     24.7563
  1374.5000      8.1061      2.2702      0.1812     23.0158    151.5368     24.8832
  1374.6000      8.1061      2.2655      0.1853     23.3022    157.3145     24.8928
  1374.7000      8.1061      2.2657      0.1155     23.2922    160.3895     25.1165
  1374.8000      8.0816      2.2767      0.1447     22.6252    160.5595     25.7337
  1374.9000      8.0816      2.2891      0.1247     21.8716    160.0796     26.3186
  1375.0000      7.8908      2.2952      0.1464     21.5016    160.0575     26.5797
  1375.1000      7.8908      2.2999      0.1141     21.2199    162.0169     26.6877
  1375.2000      7.8908      2.3195      0.0804     20.0296    165.6496     26.7954
  1375.3000      7.8285      2.3560      0.1553     17.8172    167.2733     26.8666
  1375.4000      7.8285      2.3924      0.1724     15.6091    166.3802     26.7474
  1375.5000      7.8498      2.4249      0.1794     13.6436    165.8400     26.3922
  1375.6000      7.8498      2.4591      0.2030     11.5723    166.4317     26.1674
  1375.7000      7.8498      2.4877      0.2273      9.8382    166.7496     26.3815
  1375.8000      7.8204      2.4995      0.2292      9.1183    165.7688     26.7672
  1375.9000      7.8204      2.4993      0.2183      9.1319    162.6670     27.0387
  1376.0000      7.8084      2.5004      0.1903      9.0641    157.6584     27.2712
  1376.1000      7.8084      2.5048      0.2158      8.8005    153.2516     27.5653
  1376.2000      7.8084      2.5053      0.1466      8.7718    151.0850     27.8436
  1376.3000      7.8001      2.5032      0.1313      8.8994    151.7380     28.2307
  1376.4000      7.8001      2.5079      0.0778      8.6095    156.1583     28.7691
  1376.5000      7.8016      2.5279      0.1142      7.3983    161.6237     28.9483
  1376.6000      7.8016      2.5574      0.1367      5.6113    164.2712     28.5336
  1376.7000      7.8016      2.5756      0.2022      4.5105    164.8495     27.8523
  1376.8000      7.7930      2.5686      0.1792      4.9352    164.6893     27.1702
  1376.9000      7.7930      2.5427      0.1526      6.5012    162.8969     26.6451
  1377.0000      7.8023      2.5076      0.1510      8.6320    159.5524     26.4613
  1377.1000      7.8023      2.4667      0.0713     11.1112    156.4785     26.8000
  1377.2000      7.8023      2.4268      0.0919     13.5296    154.7960     27.4924
  1377.3000      7.8054      2.4028     -0.0015     14.9795    152.2305     27.8386
  1377.4000      7.8054      2.4123      0.0084     14.4034    146.0359     27.4513
  1377.5000      7.8076      2.4507      0.0739     12.0802    140.5561     27.0278
  1377.6000      7.8076      2.4890      0.1612      9.7586    142.5545     27.1657
  1377.7000      7.8076      2.5049      0.1612      8.7948    149.2726     27.4599
  1377.8000      7.8039      2.4995      0.1429      9.1203    152.5576     27.4266
  1377.9000      7.8039      2.4877      0.1118      9.8361    151.4520     27.1589
  1378.0000      7.8015      2.4795      0.1321     10.3353    149.8633     26.9459
  1378.1000      7.8015      2.4703      0.1289     10.8911    148.5202     26.8359
  1378.2000      7.8015      2.4563      0.1297     11.7374    147.6079     26.7131
  1378.3000      7.7977      2.4451      0.0999     12.4153    147.1588     26.4107
  1378.4000      7.7977      2.4408      0.0959     12.6808    146.9759     25.9364
  1378.5000      7.7961      2.4378      0.1098     12.8586    146.0896     25.5982
  1378.6000      7.7961      2.4342      0.0858     13.0769    144.1693     25.4107
  1378.7000      7.7961      2.4321      0.1254     13.2034    142.9859     25.1256
  1378.8000      7.7769      2.4316      0.1307     13.2392    141.2382     24.7051
  1378.9000      7.7769      2.4324      0.1039     13.1858    136.8755     24.1125
  1379.0000      7.8315      2.4307      0.1405     13.2903    131.8447     23.5454
  1379.1000      7.8315      2.4169      0.1864     14.1268    129.0404     23.2735
  1379.2000      7.8315      2.3947      0.0958     15.4748    128.2755     22.9891
  1379.3000      7.8365      2.3794      0.1035     16.3971    126.7743     22.3683
  1379.4000      7.8365      2.3714      0.0998     16.8842    124.0962     21.6665
  1379.5000      7.8495      2.3592      0.1039     17.6252    122.6005     21.2509
  1379.6000      7.8495      2.3392      0.1430     18.8374    123.3033     21.0320
  1379.7000      7.8495      2.3200      0.1103     19.9987    123.3785     20.7337
  1379.8000      7.8283      2.3179      0.0925     20.1248    120.6862     20.3551
  1379.9000      7.8283      2.3381      0.1543     18.9028    118.9628     20.1218
  1380.0000      7.8362      2.3640      0.2088     17.3313    121.3497     20.1708
  1380.1000      7.8362      2.3793      0.2133     16.4052    125.0135     20.3346
  1380.2000      7.8362      2.3851      0.2304     16.0536    127.5687     20.4364
  1380.3000      7.8423      2.3875      0.2068     15.9084    130.5919     20.4770
  1380.4000      7.8423      2.3854      0.2037     16.0348    135.4426     20.3582
  1380.5000      7.8389      2.3707      0.1817     16.9272    141.5744     20.3107
  1380.6000      7.8389      2.3392      0.1412     18.8334    146.7399     20.7272
  1380.7000      7.8389      2.2964      0.1288     21.4326    149.5120     21.4075
  1380.8000      7.8312      2.2508      0.1212     24.1942    150.4960     21.9721
  1380.9000      7.8312      2.2147      0.0640     26.3829    150.7212     22.5262
  1381.0000      7.7984      2.1986      0.0511     27.3549    151.8285     23.2409
  1381.1000      7.7984      2.2057      0.0308     26.9288    154.1977     23.9133
  1381.2000      7.7984      2.2352      0.0622     25.1373    156.4360     24.3322
  1381.3000      7.8699      2.2780      0.1833     22.5476    158.1067     24.5572
  1381.4000      7.8699      2.3248      0.1795     19.7097    158.9223     24.8064
  1381.5000      7.8590      2.3830      0.1411     16.1825    158.5227     25.2380
  1381.6000      7.8590      2.4511      0.1763     12.0526    157.6324     25.6728
  1381.7000      7.8590      2.5049      0.2468      8.7968    156.8998     26.0719
  1381.8000      7.7637      2.5265      0.2053      7.4878    154.9813     26.7666
  1381.9000      7.7637      2.5234      0.1537      7.6755    150.2704     27.7380
