~Version Information
VERS.                      2.0: CWLS Log ASCII Standard - VERSION 2.0
WRAP.                       NO: One line per depth step
~Well Information Block
STRT.FT               260.0000: 
STOP.FT               713.2500: 
STEP.FT                 0.2500: 
NULL.                -999.2500: 
COMP.          Pioneer Natural Resources: COMPANY
WELL.           Quintessa 23-7: WELL
FLD.           Purgatoire River: FIELD
LOC.           1964' FSL & 2589' FWL--: LOCATION
PROV.                 Colorado: PROVINCE
CNTY.               Las Animas: COUNTRY
SRVC.                Patterson: SERVICE COMPANY
DATE.          Fri Nov 18 16:07:34 2005: LOG DATE
UWI.           05 071 08558 00: UNIQUE WELL ID
~Curve Information Block
DEPT.FT            0 000 00 00: Depth
SN.Ohm-m                      : IEL Short Normal
SP.mV                         : IEL Spontaneous Potential
DIR.Ohm-m                     : IEL Induction Resistivity
GR.GAPI                       : Gamma Ray
~Parameter Information Block
~A  Depth        SN          SP         DIR          GR     
# ...
   695.5000     14.7399    125.2726     12.8898   -999.2500
   695.7500     14.7442    125.3491     12.7569   -999.2500
   696.0000     14.7451    125.3552     12.6389   -999.2500
   696.2500     14.6724    125.2788     12.5263   -999.2500
   696.5000     14.4977    125.1077     12.4052   -999.2500
   696.7500     14.2652    124.8323     12.2683   -999.2500
   697.0000     14.0756    124.4465     12.1256   -999.2500
   697.2500     14.0303    123.9509     12.0064   -999.2500
   697.5000     14.1749    123.3531     11.9483   -999.2500
   697.7500     14.4785    122.6691     11.9790   -999.2500
   698.0000     14.8603    121.9230     12.1027   -999.2500
   698.2500     15.2441    121.1459     12.2976   -999.2500
   698.5000     15.6076    120.3740     12.5275   -999.2500
   698.7500     15.9964    119.6456     12.7622   -999.2500
   699.0000     16.4936    118.9977     12.9955   -999.2500
   699.2500     17.1585    118.4625     13.2453   -999.2500
   699.5000     17.9673    118.0640     13.5387   -999.2500
   699.7500     18.8004    117.8158     13.8915   -999.2500
   700.0000     19.4937    117.7198     14.2967   -999.2500
   700.2500     19.9173    117.7669     14.7821   -999.2500
   700.5000     20.0259    117.9387     15.1913   -999.2500
   700.7500     19.8564    118.2098     15.5309   -999.2500
   701.0000     19.4946    118.5513     15.7597   -999.2500
   701.2500     19.0393    118.9339     15.8548   -999.2500
   701.5000     18.5814    119.3303     15.8225   -999.2500
   701.7500     18.1893    119.7169     15.7032   -999.2500
   702.0000     17.8969    120.0750     15.5581   -999.2500
   702.2500     17.6948    120.3907     15.4505   -999.2500
   702.5000     17.5372    120.6550     15.4360   -999.2500
   702.7500     17.3686    120.8631     15.5772   -999.2500
   703.0000     17.1574    121.0142     15.9848   -999.2500
   703.2500     16.9193    121.1104     16.8764   -999.2500
   703.5000     16.7116    121.1555     18.6563   -999.2500
   703.7500     16.6032    121.1553     21.9287   -999.2500
   704.0000     16.6350    121.1156     28.4436   -999.2500
   704.2500     16.7925    121.0410     41.6889   -999.2500
   704.5000     17.0073    120.9347     72.2804   -999.2500
   704.7500     17.1927    120.7967    166.8995   -999.2500
   705.0000     17.2905    120.6244   1188.6824   -999.2500
   705.2500     17.2975    120.4112 100000.0000   -999.2500
   705.5000     17.2557    120.1471 100000.0000   -999.2500
   705.7500     17.2219    119.8187 100000.0000   -999.2500
   706.0000     17.2375    119.4094 100000.0000   -999.2500
   706.2500     17.3166    118.9004 100000.0000   -999.2500
   706.5000     17.4512    118.2721 100000.0000   -999.2500
   706.7500     17.6247    117.5064 100000.0000   -999.2500
   707.0000     17.8175    116.5895 100000.0000   -999.2500
   707.2500     18.0043    115.5158 100000.0000   -999.2500
   707.5000     18.1394    114.2905 100000.0000   -999.2500
   707.7500     18.1217    112.9324 100000.0000   -999.2500
   708.0000     17.7330    111.4739 100000.0000   -999.2500
   708.2500     16.6165    109.9591 100000.0000   -999.2500
   708.5000     14.4317    108.4402 100000.0000   -999.2500
   708.7500     11.1964    106.9713 100000.0000   -999.2500
   709.0000      7.4960    105.6028 100000.0000   -999.2500
   709.2500      4.2107    104.3750 100000.0000   -999.2500
   709.5000      1.9432    103.3148 100000.0000   -999.2500
   709.7500      0.7256    102.4343 100000.0000   -999.2500
   710.0000      0.2169    101.7308 100000.0000   -999.2500
   710.2500      0.0514    101.1905 100000.0000   -999.2500
   710.5000      0.0095    100.7916 100000.0000   -999.2500
   710.7500      0.0013    100.5084 100000.0000   -999.2500
   711.0000   -999.2500    100.3151 100000.0000   -999.2500
   711.2500   -999.2500    100.1885 100000.0000   -999.2500
   711.5000   -999.2500    100.1086 100000.0000   -999.2500
   711.7500   -999.2500    100.0603   8578.8564   -999.2500
   712.0000   -999.2500    100.0322   5229.3755   -999.2500
   712.2500   -999.2500    100.0165   4498.5361   -999.2500
   712.5000   -999.2500    100.0080   4286.2686   -999.2500
   712.7500   -999.2500    100.0037   4226.0854   -999.2500
   713.0000   -999.2500    100.0015   4210.8818   -999.2500
   713.2500   -999.2500    100.0005 100000.0000   -999.2500
