~Version Information
VERS.                      2.0: CWLS Log ASCII Standard - VERSION 2.0
WRAP.                       NO: One line per depth step
~Well Information Block
STRT.FT               370.0000: 
STOP.FT              2832.5000: 
STEP.FT                 0.1000: 
NULL.                -999.2500: 
COMP.          Pioneer Natural Resources: COMPANY
WELL.          Black Cat 13-32: WELL
FLD.           Purgatoire River: FIELD
LOC.           1865' FSL & 1120' FWL--: LOCATION
PROV.                 Colorado: PROVINCE
CNTY.               Las Animas: COUNTRY
SRVC.                Patterson: SERVICE COMPANY
DATE.          Sun Jul 31 08:38:44 2005: LOG DATE
UWI.           05 071 08450 00: UNIQUE WELL ID
~Curve Information Block
DEPT.FT            0 000 00 00: Depth
DCAL.in                       : CDL Caliper
DPOR.pu                       : CDL Density Porosity
NPOR.pu                       : Neutron Porosity
RHOB.g/cc                     : CDL Bulk Density
RHOC.g/cc                     : CDL Density Correction
GR.GAPI                       : Gamma Ray
~Parameter Information Block
~A  Depth       DCAL        DPOR        NPOR        RHOB        RHOC         GR     
# ...
  1138.0000      8.0605      4.1956     25.1799      2.5808      0.0610    103.4490
  1138.1000      8.0605      4.1263     25.1871      2.5819      0.0730     97.9985
  1138.2000      8.0605      4.3138     25.2161      2.5788      0.0418     96.3229
  1138.3000      8.0579      3.5979     25.4926      2.5906      0.0573     94.5683
  1138.4000      8.0579      2.2223     25.2530      2.6133      0.0716     93.5883
  1138.5000      8.0651      1.2652     24.1764      2.6291      0.0743     93.2755
  1138.6000      8.0651      1.1119     23.0099      2.6317      0.0893     91.6051
  1138.7000      8.0651      1.4845     22.1791      2.6255      0.0662     89.7135
  1138.8000      8.0709      1.7870     21.6141      2.6205      0.0338     89.8714
  1138.9000      8.0709      2.0117     21.4739      2.6168      0.0590     91.2534
  1139.0000      8.0728      2.7069     21.5398      2.6053      0.0153     91.8499
  1139.1000      8.0728      3.5131     21.3750      2.5920      0.0175     90.3245
  1139.2000      8.0728      3.2499     20.6697      2.5964      0.0192     84.6215
  1139.3000      8.0741      1.7341     19.1828      2.6214      0.0687     76.3255
  1139.4000      8.0741      0.6008     17.7928      2.6401      0.1013     72.5388
  1139.5000      8.0741      0.9783     17.6134      2.6339      0.0835     74.0955
  1139.6000      8.0741      2.0542     18.2528      2.6161      0.0788     75.4271
  1139.7000      8.0741      3.0528     18.6765      2.5996      0.0711     75.1847
  1139.8000      8.0735      3.8400     18.7701      2.5866      0.0401     73.2932
  1139.9000      8.0735      3.9798     19.0316      2.5843      0.0247     70.3256
  1140.0000      8.0728      3.3894     19.3132      2.5941      0.0355     70.7021
  1140.1000      8.0728      3.0191     19.1193      2.6002      0.0942     78.1083
  1140.2000      8.0728      3.7563     18.8513      2.5880      0.0568     86.1001
  1140.3000      8.0702      5.5186     19.1861      2.5589      0.0723     86.4193
  1140.4000      8.0702      7.6107     19.8433      2.5244      0.0164     81.1167
  1140.5000      8.0658      9.1428     19.7629      2.4991      0.0315     75.6730
  1140.6000      8.0658      9.7051     18.7375      2.4899      0.0389     71.2337
  1140.7000      8.0658      9.2972     18.0748      2.4966      0.0243     68.0520
  1140.8000      8.0636      8.1246     18.7580      2.5159      0.0548     67.3887
  1140.9000      8.0636      7.0002     19.8029      2.5345      0.0531     68.6039
  1141.0000      8.0648      6.8615     19.7938      2.5368      0.0758     67.9810
  1141.1000      8.0648      8.1976     19.0568      2.5147      0.0672     64.6671
  1141.2000      8.0648     10.5359     18.3383      2.4762      0.0276     63.1044
  1141.3000      8.0616     12.5323     17.3992      2.4432      0.0377     64.1679
  1141.4000      8.0616     13.4847     16.1834      2.4275      0.0493     62.7359
  1141.5000      8.0533     13.9071     15.4473      2.4205      0.0497     58.8973
  1141.6000      8.0533     14.2236     15.4685      2.4153      0.0355     57.9500
  1141.7000      8.0533     14.1024     15.6794      2.4173      0.0556     58.8935
  1141.8000      8.0492     13.3934     15.7236      2.4290      0.0666     57.2782
  1141.9000      8.0492     12.6233     15.7021      2.4417      0.0423     52.9218
  1142.0000      8.0527     12.2309     15.6249      2.4482      0.0563     50.9392
  1142.1000      8.0527     12.0008     15.5546      2.4520      0.0573     54.9911
  1142.2000      8.0527     11.6851     15.3795      2.4572      0.0826     60.1828
  1142.3000      8.0575     11.4973     14.8793      2.4603      0.0582     59.6983
  1142.4000      8.0575     11.9601     14.3917      2.4527      0.0960     53.7375
  1142.5000      8.0600     13.0746     14.4821      2.4343      0.0401     47.6083
  1142.6000      8.0600     13.7824     15.0087      2.4226      0.0461     44.3045
  1142.7000      8.0600     13.8906     15.2345      2.4208      0.0519     42.0358
  1142.8000      8.0634     14.3716     14.9886      2.4129      0.0370     41.1678
  1142.9000      8.0634     14.9306     14.7202      2.4036      0.0043     42.9221
  1143.0000      8.0693     14.4690     14.5941      2.4113      0.0150     43.3223
  1143.1000      8.0693     13.5474     14.5270      2.4265      0.0827     40.1966
  1143.2000      8.0693     13.2128     14.6554      2.4320      0.0302     38.0076
  1143.3000      8.0716     13.0431     14.9903      2.4348      0.0696     41.0775
  1143.4000      8.0716     12.7343     15.3024      2.4399      0.0726     46.0279
  1143.5000      8.0675     12.8391     15.2326      2.4382      0.0812     47.2768
  1143.6000      8.0675     13.5596     14.6659      2.4263      0.0498     45.4765
  1143.7000      8.0675     14.2947     14.2585      2.4141      0.0334     44.8070
  1143.8000      8.0645     14.1848     14.3889      2.4160      0.0393     47.1295
  1143.9000      8.0645     12.8930     14.6799      2.4373      0.0283     50.0341
  1144.0000      8.0665     11.2315     14.8902      2.4647      0.0605     50.4711
  1144.1000      8.0665     10.6661     14.9840      2.4740      0.0957     48.9971
  1144.2000      8.0665     11.2884     14.7450      2.4637      0.0502     47.7273
  1144.3000      8.0691     11.6683     14.2147      2.4575      0.0324     48.1662
  1144.4000      8.0691     11.5117     13.8452      2.4601      0.0846     51.4235
  1144.5000      8.0681     11.8301     13.9926      2.4548      0.0477     55.3646
  1144.6000      8.0681     12.4571     14.4967      2.4445      0.0333     56.0719
  1144.7000      8.0681     12.4104     14.8646      2.4452      0.0452     53.5747
  1144.8000      8.0644     11.5993     14.9160      2.4586      0.0442     50.5441
  1144.9000      8.0644     10.6610     14.9843      2.4741      0.0767     48.2379
  1145.0000      8.0637     10.0223     15.5486      2.4846      0.0871     46.5815
  1145.1000      8.0637      9.3255     16.3848      2.4961      0.0653     45.2293
  1145.2000      8.0637      8.0904     16.8876      2.5165      0.0698     44.6456
  1145.3000      8.0662      6.5456     16.9303      2.5420      0.0935     45.7516
  1145.4000      8.0662      5.8655     16.7640      2.5532      0.1207     48.1453
  1145.5000      8.0683      6.8223     16.4156      2.5374      0.0529     49.8418
  1145.6000      8.0683      8.7420     15.8681      2.5058      0.0433     50.3492
  1145.7000      8.0683     10.7259     15.3789      2.4730      0.0391     51.0364
  1145.8000      8.0686     11.8295     15.1426      2.4548      0.0037     51.6513
  1145.9000      8.0686     11.3944     15.2505      2.4620      0.0578     51.7732
  1146.0000      8.0703     10.2627     15.6602      2.4807      0.0325     53.0666
  1146.1000      8.0703      9.4984     16.0747      2.4933      0.0171     57.3410
  1146.2000      8.0703      9.2313     16.3552      2.4977      0.0478     60.6361
  1146.3000      8.0713      9.0046     16.5633      2.5014      0.0232     58.9472
  1146.4000      8.0713      8.0349     16.8547      2.5174      0.0343     57.2110
  1146.5000      8.0675      6.5222     17.3135      2.5424      0.0872     60.3240
  1146.6000      8.0675      5.6040     17.9312      2.5575      0.0841     65.5290
  1146.7000      8.0675      5.7045     18.4840      2.5559      0.0897     70.0829
  1146.8000      8.0613      6.4837     18.5228      2.5430      0.0749     73.4677
  1146.9000      8.0613      7.3574     18.2683      2.5286      0.0447     72.0388
  1147.0000      8.0571      7.8026     18.2908      2.5213      0.0280     65.5349
  1147.1000      8.0571      7.9463     18.5030      2.5189      0.0593     60.9070
  1147.2000      8.0571      8.4860     18.4152      2.5100      0.0475     62.3569
  1147.3000      8.0576      9.5996     18.0836      2.4916      0.0318     65.2739
  1147.4000      8.0576     10.8516     17.9369      2.4709      0.0576     65.5915
  1147.5000      8.0603     11.7203     17.9098      2.4566      0.0247     63.8857
