~Version Information
VERS.                      2.0: CWLS Log ASCII Standard - VERSION 2.0
WRAP.                       NO: One line per depth step
~Well Information Block
STRT.FT               875.0000: 
STOP.FT              2947.2000: 
STEP.FT                 0.1000: 
NULL.                -999.2500: 
COMP.          Pioneer Natural Resources: COMPANY
WELL.          Hanginstone 21-27: WELL
FLD.           Purgatoire River: FIELD
LOC.           1186' FNL & 1606' FWL--: LOCATION
PROV.                 Colorado: PROVINCE
CNTY.               Las Animas: COUNTRY
SRVC.                Patterson: SERVICE COMPANY
DATE.          Mon Jan 09 07:31:45 2006: LOG DATE
UWI.           05 071 08632 00: UNIQUE WELL ID
~Curve Information Block
DEPT.FT            0 000 00 00: Depth
DCAL.in                       : CDL Caliper
RHOB.g/cc                     : CDL Bulk Density
RHOC.g/cc                     : CDL Density Correction
DPOR.pu                       : CDL Density Porosity
NPOR.pu                       : Neutron Porosity
GR.GAPI                       : Gamma Ray
~Parameter Information Block
~A  Depth       DCAL        RHOB        RHOC        DPOR        NPOR         GR     
# ...
  2785.4000      7.9987      2.5604      0.0935      5.4299     24.1129     46.3571
  2785.5000      7.9760      2.5529      0.0980      5.8868     23.9637     44.0537
  2785.6000      7.9760      2.5351      0.0877      6.9614     23.9292     47.6575
  2785.7000      7.9760      2.4896      0.0637      9.7205     24.1614     50.6851
  2785.8000      7.9663      2.4197      0.0350     13.9552     24.8931     49.2782
  2785.9000      7.9663      2.3439     -0.0155     18.5543     25.5745     46.0408
  2786.0000      7.9709      2.2752      0.0101     22.7125     25.6640     46.0183
  2786.1000      7.9709      2.2161     -0.0151     26.2973     25.6440     52.2769
  2786.2000      7.9709      2.1734     -0.0704     28.8831     26.0485     62.5150
  2786.3000      7.9792      2.1586     -0.0658     29.7830     26.8229     70.1963
  2786.4000      7.9792      2.1708     -0.0647     29.0396     27.5028     72.7008
  2786.5000      7.9910      2.2026     -0.0173     27.1132     27.4443     75.5544
  2786.6000      7.9910      2.2505      0.0461     24.2102     26.5282     85.1595
  2786.7000      7.9910      2.3134      0.1223     20.3985     25.5638     99.7927
  2786.8000      8.0056      2.3898      0.1585     15.7669     25.3417    111.0123
  2786.9000      8.0056      2.4785      0.1804     10.3910     25.8006    113.1718
  2787.0000      8.0138      2.5604      0.2334      5.4293     26.2899    111.7374
  2787.1000      8.0138      2.5958      0.1763      3.2873     26.2337    114.8389
  2787.2000      8.0138      2.5776      0.0741      4.3857     25.6481    120.4407
  2787.3000      8.0160      2.5449      0.0747      6.3688     24.9604    124.0904
  2787.4000      8.0160      2.5267      0.0629      7.4713     24.3506    125.5039
  2787.5000      8.0160      2.5223      0.0774      7.7395     23.8819    127.5753
  2787.6000      8.0160      2.5221      0.0809      7.7495     23.8138    130.8682
  2787.7000      8.0160      2.5289      0.0546      7.3382     24.1160    132.7019
  2787.8000      8.0150      2.5519      0.0417      5.9453     24.3783    129.4417
  2787.9000      8.0150      2.5763      0.0971      4.4661     24.5616    120.7025
  2788.0000      8.0139      2.5753      0.0745      4.5268     24.8644    111.4976
  2788.1000      8.0139      2.5539      0.0421      5.8243     25.0236    104.4520
  2788.2000      8.0139      2.5380      0.0771      6.7904     24.7411    101.0897
  2788.3000      8.0137      2.5417      0.0508      6.5651     24.2671     98.4158
  2788.4000      8.0137      2.5633      0.0736      5.2538     23.7174     95.0784
  2788.5000      8.0151      2.5834      0.0944      4.0383     22.9803     97.5751
  2788.6000      8.0151      2.5794      0.0631      4.2762     22.4831    107.5548
  2788.7000      8.0151      2.5533      0.0484      5.8577     22.6146    117.2950
  2788.8000      8.0206      2.5291      0.0421      7.3300     22.8928    119.0352
  2788.9000      8.0206      2.5258      0.0377      7.5260     22.7016    117.2074
  2789.0000      8.0329      2.5384      0.0725      6.7624     22.1387    118.0598
  2789.1000      8.0329      2.5488      0.0605      6.1306     21.7589    114.4642
  2789.2000      8.0329      2.5514      0.0261      5.9770     21.9756    102.4374
  2789.3000      8.0460      2.5535      0.0094      5.8474     22.5372     92.7069
  2789.4000      8.0460      2.5533      0.0769      5.8586     22.9588     94.2707
  2789.5000      8.0596      2.5422      0.0447      6.5320     23.1415    103.5886
  2789.6000      8.0596      2.5284      0.0378      7.3693     23.1014    111.6376
  2789.7000      8.0596      2.5243      0.0436      7.6160     22.6523    111.0762
  2789.8000      8.0755      2.5246      0.0482      7.5983     22.0047    101.2351
  2789.9000      8.0755      2.5229      0.0213      7.7033     21.5931     92.5511
  2790.0000      8.0896      2.5265      0.0414      7.4875     21.2691     94.8656
  2790.1000      8.0896      2.5347      0.0645      6.9875     20.8867    102.9232
  2790.2000      8.0896      2.5403      0.0220      6.6457     20.4622    107.6224
  2790.3000      8.0965      2.5478      0.0529      6.1947     19.7695    108.6238
  2790.4000      8.0965      2.5613      0.0691      5.3771     18.6563    107.8738
  2790.5000      8.0986      2.5777      0.0744      4.3808     17.3654    103.7276
  2790.6000      8.0986      2.5978      0.0411      3.1616     16.3275     95.5067
  2790.7000      8.0986      2.6206      0.0974      1.7845     15.7283     85.5131
  2790.8000      8.0993      2.6346      0.0483      0.9305     15.3627     78.1084
  2790.9000      8.0993      2.6314      0.0921      1.1288     14.8265     76.0510
  2791.0000      8.0981      2.6178      0.0239      1.9492     14.2190     76.8012
  2791.1000      8.0981      2.6125      0.0490      2.2752     14.0608     79.5646
  2791.2000      8.0981      2.6186      0.0219      1.9046     14.3216     83.4776
  2791.3000      8.0970      2.6251      0.0403      1.5092     14.5205     83.4928
  2791.4000      8.0970      2.6239      0.0658      1.5808     14.4155     78.5957
  2791.5000      8.0978      2.6177      0.0342      1.9553     14.1001     72.9096
  2791.6000      8.0978      2.6176      0.0511      1.9619     13.8625     70.6700
  2791.7000      8.0978      2.6305      0.0548      1.1792     13.7483     69.9368
  2791.8000      8.0987      2.6517      0.0893     -0.1056     13.6130     66.2581
  2791.9000      8.0987      2.6625      0.0995     -0.7603     13.7065     63.0096
  2792.0000      8.0987      2.6493      0.0594      0.0409     14.4665     65.5463
  2792.1000      8.0987      2.6259      0.0400      1.4618     15.5718     68.8022
  2792.2000      8.0987      2.6112      0.0410      2.3533     16.2833     67.3733
  2792.3000      8.0976      2.6023      0.0444      2.8931     16.6371     66.9521
  2792.4000      8.0976      2.5866      0.0419      3.8451     17.2623     70.5710
  2792.5000      8.0962      2.5675     -0.0037      4.9984     18.3528     77.0033
  2792.6000      8.0962      2.5554      0.0363      5.7321     19.4830     88.5377
  2792.7000      8.0962      2.5448      0.0417      6.3770     20.2098     98.6132
  2792.8000      8.0958      2.5329      0.0330      7.0991     20.4006     98.3182
  2792.9000      8.0958      2.5337      0.0070      7.0478     20.0686     94.3361
  2793.0000      8.0962      2.5499      0.0483      6.0665     19.5079     92.4009
  2793.1000      8.0962      2.5629      0.0565      5.2785     19.4198     87.5233
  2793.2000      8.0962      2.5659      0.0400      5.0992     20.1144     79.2452
  2793.3000      8.0962      2.5696      0.0450      4.8705     21.1622     76.7418
  2793.4000      8.0962      2.5782      0.0411      4.3522     21.9086     86.5076
  2793.5000      8.0968      2.5827      0.0645      4.0776     22.0409    100.0700
  2793.6000      8.0968      2.5738      0.0584      4.6206     21.8849    106.4491
  2793.7000      8.0968      2.5570      0.0348      5.6343     21.8947    107.4482
  2793.8000      8.0979      2.5462      0.0030      6.2934     22.3292    109.3490
  2793.9000      8.0979      2.5393      0.0230      6.7079     23.2843    111.8009
  2794.0000      8.0987      2.5287      0.0283      7.3488     24.5023    112.0799
  2794.1000      8.0987      2.5271      0.0164      7.4505     25.3665    111.2916
  2794.2000      8.0987      2.5436      0.0361      6.4503     25.5639    110.9486
  2794.3000      8.0982      2.5600      0.0571      5.4519     25.5260    108.8309
  2794.4000      8.0982      2.5623      0.0246      5.3144     25.5246    104.7070
  2794.5000      8.0983      2.5562      0.0582      5.6818     25.3970    105.2689
  2794.6000      8.0983      2.5438      0.0571      6.4335     25.1575    112.7878
  2794.7000      8.0983      2.5240      0.0432      7.6340     24.9662    121.4666
  2794.8000      8.0989      2.5045      0.0012      8.8153     24.9811    129.8477
  2794.9000      8.0989      2.4902      0.0098      9.6832     25.3160    137.5766
