~Version Information
 VERS.                                  2.0 : CWLS LAS VERSION
 WRAP.                                   NO : WRAPING MODE
 SWARE .                 MController 2.5.0N : SOFTWARE VERSION
~Well Information
 WELL.                         Quartz 13-22 : WELL
 COMP.    Pioneer Natural Resouces USA Inc. : COMPANY
 FLD.                      Purgatoire River : FIELD
 LOC.             NW/SW Sec 22 , T34S, R65W : LOCATION
 DATE.                             12/15/05 : DATE(S) LOGGED
 SRVC.       BLANCO Geological Services LLC : SERVICE COMPANY
 STAT.                                   CO : STATE
 CNTY.                           Las Animas : COUNTY
 CTRY.                                  USA : COUNTRY
 API.                          05-071-08638 : API NUMBER
 STRT.FT                             437.00 : START DEPTH
 STOP.FT                            1030.00 : STOP DEPTH
 STEP.FT                               1.00 : DEPTH INCREMENT
 NULL.                                -9999 : NULL VALUE
~Curve information
 DEPTH.FT                                   :
 ROP.MIN/FT                                 :
 GAS.UNITS                                  :
~ASCII Log data
       437.0     -9999.00          3.3 
       438.0         6.93          4.0 
       439.0         0.25          3.1 
       440.0         0.50          2.9 
       441.0         0.80          2.7 
       442.0         0.23          2.9 
       443.0         0.40          2.5 
       444.0         0.73          3.6 
       445.0         0.33          3.4 
       446.0         0.32          4.0 
       447.0         0.10          3.4 
       448.0         0.97          4.0 
       449.0         0.50          4.0 
       450.0         0.57          3.9 
       451.0         1.28          4.0 
       452.0         0.37          3.3 
       453.0         0.13          2.8 
       454.0         0.27          3.0 
       455.0         0.90          4.5 
       456.0         0.23          2.9 
       457.0         0.17          3.9 
       458.0         0.23          3.1 
       459.0         0.13          2.9 
       460.0         1.52          3.4 
       461.0         1.10          3.7 
       462.0         0.20          3.6 
       463.0         0.13          3.7 
       464.0         1.03          4.0 
       465.0         0.18          3.7 
       466.0         0.50          3.4 
       467.0         1.17          3.4 
       468.0         1.03          2.8 
       469.0         0.17          2.7 
       470.0         0.13          2.8 
       471.0         0.23          2.3 
       472.0         0.75          2.9 
       473.0         0.67          3.3 
       474.0         0.97          3.6 
       475.0         0.30          3.4 
       476.0         0.92          3.5 
       477.0         0.20          3.5 
       478.0         0.23          3.3 
       479.0         0.77          3.5 
       480.0         9.98          4.3 
       481.0         0.10          3.3 
       482.0         0.10          3.4 
       483.0         0.13          3.2 
       484.0         0.13          3.9 
       485.0         0.10          3.9 
       486.0         0.13          3.5 
       487.0         0.10          3.5 
       488.0         0.13          3.6 
       489.0         0.10          3.6 
       490.0         0.13          3.9 
       491.0         0.13          4.0 
       492.0         0.10          3.9 
       493.0         0.13          4.1 
       494.0         0.13          4.6 
       495.0         0.10          4.3 
       496.0         0.13          3.9 
       497.0         0.13          3.7 
       498.0         0.12          3.3 
       499.0         0.20          3.3 
       500.0         0.13          3.7 
       501.0         2.50          3.9 
       502.0         0.13          4.1 
       503.0         0.13          4.7 
       504.0         0.13          3.9 
       505.0         0.12          5.1 
       506.0         0.13          5.3 
       507.0         0.20          5.0 
       508.0         0.17          4.5 
       509.0         0.20          4.1 
       510.0         0.17          4.0 
       511.0         0.20          4.1 
       512.0         0.20          4.3 
       513.0         0.17          4.1 
       514.0         0.20          4.4 
       515.0         0.17          4.4 
       516.0         0.17          4.2 
       517.0         0.20          4.6 
       518.0         0.17          4.6 
       519.0         0.13          4.7 
       520.0         0.13          4.6 
       521.0         0.13          4.6 
       522.0         0.13          4.7 
       523.0         0.13          4.7 
       524.0         0.13          4.2 
       525.0         0.15          4.3 
       526.0         0.17          4.2 
       527.0         0.13          4.0 
       528.0         0.23          4.0 
       529.0         0.10          4.2 
       530.0         0.27          3.9 
       531.0         1.83          4.2 
       532.0         0.27          3.8 
       533.0         0.27          4.2 
       534.0         0.22          4.3 
       535.0         0.20          4.2 
       536.0         0.20          4.0 
       537.0         0.20          4.5 
       538.0         0.13          4.6 
       539.0         0.13          4.8 
       540.0         0.17          4.7 
       541.0         0.13          4.6 
       542.0         0.13          4.8 
       543.0         0.13          4.5 
       544.0         0.17          4.5 
       545.0         0.13          4.4 
       546.0         0.13          4.3 
       547.0         0.10          4.0 
       548.0         0.13          4.2 
       549.0         0.13          4.4 
       550.0         0.13          4.2 
       551.0         0.17          4.3 
       552.0         0.20          4.2 
       553.0         0.20          4.3 
       554.0         0.17          4.1 
       555.0         0.15          4.3 
       556.0         0.13          4.2 
       557.0         0.13          4.3 
       558.0         0.13          4.1 
       559.0         0.13          4.3 
       560.0         0.27          3.7 
       561.0         3.48          4.0 
       562.0         0.27          3.7 
       563.0         0.27          4.0 
       564.0         0.23          4.2 
       565.0         0.20          4.3 
       566.0         0.20          4.0 
       567.0         0.20          4.2 
       568.0         0.17          4.0 
       569.0         0.17          4.4 
       570.0         0.20          4.4 
       571.0         0.13          4.4 
       572.0         0.13          4.8 
       573.0         0.13          4.5 
       574.0         0.12          4.6 
       575.0         0.13          4.4 
       576.0         0.13          4.8 
       577.0         0.13          4.3 
       578.0         0.17          4.3 
       579.0         0.20          4.6 
       580.0         0.17          4.7 
       581.0         0.23          4.6 
       582.0         0.20          4.3 
       583.0         0.17          4.4 
       584.0         0.17          4.3 
       585.0         0.17          3.9 
       586.0         0.17          4.2 
       587.0         0.17          4.2 
       588.0         0.23          4.6 
       589.0         0.17          4.2 
       590.0         0.27          4.1 
       591.0         3.22          3.9 
       592.0         0.30          3.8 
       593.0         0.23          4.1 
       594.0         0.25          4.1 
       595.0         0.20          4.3 
       596.0         0.17          4.5 
       597.0         0.13          4.5 
       598.0         0.17          4.8 
       599.0         0.17          5.4 
       600.0         0.13          5.3 
       601.0         0.20          4.8 
       602.0         0.27          5.7 
       603.0         0.33          6.6 
       604.0         0.27         12.6 
       605.0         0.20         18.4 
       606.0         0.20         19.4 
       607.0         0.13         18.9 
       608.0         0.17         18.4 
       609.0         0.23         14.1 
       610.0         0.25         18.6 
       611.0         0.27         23.4 
       612.0         0.20         26.5 
       613.0         0.20         19.1 
       614.0         0.23         28.0 
       615.0         0.33         27.8 
       616.0         0.37         26.3 
       617.0         0.43         22.4 
       618.0         0.33         17.6 
       619.0         0.40         20.1 
       620.0         0.68         20.0 
       621.0         1.77        139.4 
       622.0         0.27        105.1 
       623.0         0.30         63.2 
       624.0         0.27         54.9 
       625.0         0.30         54.1 
       626.0         0.35         48.5 
       627.0         0.23         46.1 
       628.0         0.23         43.1 
       629.0         0.23         42.9 
       630.0         0.20         37.6 
       631.0         0.27         43.4 
       632.0         0.27         51.5 
       633.0         0.23         56.7 
       634.0         0.23         56.4 
       635.0         0.23         51.0 
       636.0         0.27         45.6 
