~Version Information
VERS.                      2.0: CWLS Log ASCII Standard - VERSION 2.0
WRAP.                       NO: One line per depth step
~Well Information Block
STRT.FT               770.0000: 
STOP.FT              2171.0000: 
STEP.FT                 0.1000: 
NULL.                -999.2500: 
COMP.          Pioneer Natural Resources: COMPANY
WELL.              Kermit 32-7: WELL
FLD.           Purgatoire River: FIELD
LOC.           2002' FNL & 2103' FEL: LOCATION
PROV.                 Colorado: PROVINCE
CNTY.               Las Animas: COUNTRY
SRVC.                Patterson: SERVICE COMPANY
DATE.          Thu Jan 12 03:02:28 2006: LOG DATE
UWI.           05 071 08647 00: UNIQUE WELL ID
~Curve Information Block
DEPT.FT            0 000 00 00: Depth
DCAL.in                       : CDL Caliper
RHOB.g/cc                     : CDL Bulk Density
RHOC.g/cc                     : CDL Density Correction
DPOR.pu                       : CDL Density Porosity
GR.GAPI                       : Gamma Ray
NPOR.pu                       : Neutron Porosity
~Parameter Information Block
~A  Depth       DCAL        RHOB        RHOC        DPOR         GR         NPOR    
# ...
  1787.6000      7.8936      2.4744      0.2089     10.6452     58.0386     14.5829
  1787.7000      7.8936      2.4342      0.1408     13.0776     57.5849     14.6412
  1787.8000      7.9083      2.4117      0.1121     14.4411     55.4558     14.6511
  1787.9000      7.9083      2.4024      0.0652     15.0056     52.3885     15.0699
  1788.0000      7.9378      2.3964      0.0876     15.3700     50.6787     15.8200
  1788.1000      7.9378      2.3908      0.0907     15.7075     51.8155     16.1812
  1788.2000      7.9378      2.3916      0.0601     15.6588     54.8433     15.8478
  1788.3000      7.9478      2.4061      0.0815     14.7802     57.4616     15.5097
  1788.4000      7.9478      2.4230      0.1093     13.7574     58.9132     15.7163
  1788.5000      7.9395      2.4190      0.1194     14.0013     59.8006     16.2836
  1788.6000      7.9395      2.3934      0.0900     15.5509     59.9804     16.8226
  1788.7000      7.9395      2.3706      0.0603     16.9328     57.9713     16.9675
  1788.8000      7.9340      2.3627      0.0966     17.4148     54.0930     16.5642
  1788.9000      7.9340      2.3622      0.0807     17.4434     49.0520     15.9908
  1789.0000      7.9278      2.3656      0.1062     17.2360     43.2471     15.7793
  1789.1000      7.9278      2.3703      0.0976     16.9517     39.5550     15.8037
  1789.2000      7.9278      2.3736      0.0901     16.7521     38.5219     15.6940
  1789.3000      7.9262      2.3764      0.0885     16.5811     38.6344     15.6752
  1789.4000      7.9262      2.3727      0.1407     16.8041     39.4282     15.9147
  1789.5000      7.9490      2.3585      0.0569     17.6663     38.7288     16.0903
  1789.6000      7.9490      2.3461      0.0853     18.4201     36.4528     16.1551
  1789.7000      7.9490      2.3480      0.0546     18.3046     34.8336     16.3250
  1789.8000      7.9797      2.3708      0.0640     16.9226     34.2860     16.4596
  1789.9000      7.9797      2.4074      0.1401     14.7010     35.1543     16.4889
  1790.0000      7.9796      2.4393      0.1287     12.7723     37.9699     16.6201
  1790.1000      7.9796      2.4621      0.1382     11.3874     40.3684     16.6459
  1790.2000      7.9796      2.4810      0.1656     10.2399     40.0861     16.4279
  1790.3000      7.9892      2.4900      0.2076      9.6963     39.3767     16.1180
  1790.4000      7.9892      2.4794      0.1523     10.3422     40.4110     15.6788
  1790.5000      7.9715      2.4462      0.1618     12.3537     42.2066     15.3296
  1790.6000      7.9715      2.3957      0.1206     15.4107     42.8975     15.3722
  1790.7000      7.9715      2.3510      0.0639     18.1199     42.0641     15.7323
  1790.8000      7.9590      2.3387      0.0445     18.8686     41.5326     16.2599
  1790.9000      7.9590      2.3557      0.1072     17.8337     42.5764     16.9706
  1791.0000      7.9523      2.3749      0.1354     16.6720     44.9389     17.7459
  1791.1000      7.9523      2.3798      0.1129     16.3754     46.8373     18.3408
  1791.2000      7.9523      2.3768      0.0661     16.5569     46.6671     18.4575
  1791.3000      7.9526      2.3796      0.0944     16.3880     46.0539     17.9079
  1791.4000      7.9526      2.3929      0.1100     15.5840     47.2919     17.0566
  1791.5000      7.9616      2.4167      0.0875     14.1371     50.1924     16.5724
  1791.6000      7.9616      2.4447      0.1475     12.4429     51.8457     16.8362
  1791.7000      7.9616      2.4606      0.1505     11.4777     51.5665     17.6305
  1791.8000      7.9280      2.4680      0.0778     11.0273     51.6123     18.1662
  1791.9000      7.9280      2.4815      0.0947     10.2132     51.8099     17.9796
  1792.0000      7.9392      2.4905      0.1008      9.6663     49.7667     17.3605
  1792.1000      7.9392      2.4841      0.0456     10.0564     47.5184     16.7771
  1792.2000      7.9392      2.4703      0.0580     10.8884     49.6361     16.3960
  1792.3000      7.9393      2.4564      0.0877     11.7327     55.0168     16.1298
  1792.4000      7.9393      2.4450      0.1101     12.4224     60.6342     15.9910
  1792.5000      7.9056      2.4367      0.0899     12.9274     66.1302     15.8989
  1792.6000      7.9056      2.4251      0.1018     13.6316     69.0633     15.6791
  1792.7000      7.9056      2.4041      0.0785     14.9033     66.7599     15.2621
  1792.8000      7.9095      2.3763      0.0740     16.5874     62.9418     14.6857
  1792.9000      7.9095      2.3523      0.0584     18.0439     62.2066     14.1612
  1793.0000      7.9251      2.3388      0.1143     18.8598     62.0999     13.8598
  1793.1000      7.9251      2.3308      0.0725     19.3448     57.9845     13.7819
  1793.2000      7.9251      2.3241      0.1171     19.7506     53.2899     13.7837
  1793.3000      7.9281      2.3203      0.0987     19.9829     53.3914     13.5970
  1793.4000      7.9281      2.3213      0.1034     19.9238     55.7951     13.1474
  1793.5000      7.9523      2.3206      0.1469     19.9634     55.0604     12.8314
  1793.6000      7.9523      2.3107      0.0630     20.5640     51.5269     12.8374
  1793.7000      7.9523      2.2922      0.1252     21.6837     48.1802     12.7307
  1793.8000      7.9442      2.2686      0.1036     23.1139     45.5646     12.4547
  1793.9000      7.9442      2.2509      0.0560     24.1876     42.5361     12.4737
  1794.0000      7.9629      2.2545      0.0584     23.9707     38.8787     12.7459
  1794.1000      7.9629      2.2802      0.0972     22.4125     35.9116     12.6974
  1794.2000      7.9629      2.3161      0.0681     20.2364     33.2941     12.4750
  1794.3000      7.9616      2.3509      0.1780     18.1263     29.0499     12.7236
  1794.4000      7.9616      2.3773      0.1803     16.5252     23.9433     13.2995
  1794.5000      7.9595      2.3944      0.2003     15.4902     21.5113     13.5637
  1794.6000      7.9595      2.4009      0.2026     15.0956     22.8244     13.3814
  1794.7000      7.9595      2.3967      0.1352     15.3519     26.8321     13.1983
  1794.8000      7.9567      2.3827      0.1758     16.1979     32.3571     13.1517
  1794.9000      7.9567      2.3640      0.0841     17.3346     36.2066     12.8948
  1795.0000      7.9559      2.3563      0.0708     17.8020     36.2254     12.5171
  1795.1000      7.9559      2.3622      0.1172     17.4414     33.8088     12.5026
  1795.2000      7.9559      2.3708      0.0986     16.9197     30.5739     12.7921
  1795.3000      8.0030      2.3746      0.1080     16.6930     28.3189     12.9187
  1795.4000      8.0030      2.3647      0.1323     17.2927     27.8676     12.7514
  1795.5000      8.0295      2.3379      0.0964     18.9181     27.8374     12.5054
  1795.6000      8.0295      2.3111      0.0722     20.5405     27.4347     12.3026
  1795.7000      8.0295      2.3042      0.0579     20.9579     27.2100     12.1948
  1795.8000      8.0016      2.3100      0.0706     20.6056     27.2415     12.3063
  1795.9000      8.0016      2.3106      0.0581     20.5700     27.1851     12.4994
  1796.0000      7.9750      2.3092      0.0202     20.6571     26.9769     12.4537
  1796.1000      7.9750      2.3163      0.0894     20.2231     26.2007     12.1736
  1796.2000      7.9750      2.3301      0.0455     19.3870     24.8650     11.9302
  1796.3000      7.9678      2.3419      0.0878     18.6714     23.1404     11.9270
  1796.4000      7.9678      2.3441      0.0922     18.5389     21.4866     12.0735
  1796.5000      7.9924      2.3378      0.0951     18.9230     20.9971     12.0838
  1796.6000      7.9924      2.3288      0.0741     19.4648     21.7687     12.0400
  1796.7000      7.9924      2.3184      0.0704     20.0977     23.0837     12.1766
  1796.8000      8.0092      2.3097      0.0415     20.6261     25.0671     12.3397
  1796.9000      8.0092      2.3097      0.0895     20.6232     27.2101     12.4741
  1797.0000      8.0172      2.3205      0.0584     19.9719     27.9402     12.8300
  1797.1000      8.0172      2.3416      0.0511     18.6928     26.8803     13.2339
