~Version Information
VERS.                      2.0: CWLS Log ASCII Standard - VERSION 2.0
WRAP.                       NO: One line per depth step
~Well Information Block
STRT.FT               452.0000: 
STOP.FT              1726.5000: 
STEP.FT                 0.1000: 
NULL.                -999.2500: 
COMP.          Pioneer Natural Resources: COMPANY
WELL.          Parrothead 31-31 Tr: WELL
FLD.           Purgatoire River: FIELD
LOC.           496' FNL & 1546' FEL: LOCATION
PROV.                 Colorado: PROVINCE
CNTY.               Las Animas: COUNTRY
SRVC.                Patterson: SERVICE COMPANY
DATE.          Thu Nov 10 07:29:36 2005: LOG DATE
UWI.           05 071 08610 00: UNIQUE WELL ID
~Curve Information Block
DEPT.FT            0 000 00 00: Depth
DCAL.in                       : CDL Caliper
RHOB.g/cc                     : CDL Bulk Density
RHOC.g/cc                     : CDL Density Correction
DPOR.pu                       : CDL Density Porosity
GR.GAPI                       : Gamma Ray
NPOR.pu                       : Neutron Porosity
~Parameter Information Block
~A  Depth       DCAL        RHOB        RHOC        DPOR         GR         NPOR    
# ...
  1124.0000      7.9854      2.5779      0.0901      4.3693    122.1199     24.9834
  1124.1000      7.9854      2.5655      0.0800      5.1206    120.7432     24.7129
  1124.2000      7.9854      2.5542      0.0070      5.8076    114.1459     24.7706
  1124.3000      7.9786      2.5552      0.0644      5.7484    107.2007     24.9867
  1124.4000      7.9786      2.5606      0.0659      5.4188    104.7556     25.2839
  1124.5000      7.9918      2.5614      0.0532      5.3684    109.8054     25.3742
  1124.6000      7.9918      2.5670      0.0255      5.0330    117.4920     25.2321
  1124.7000      7.9918      2.5829      0.0536      4.0691    122.6804     25.3222
  1124.8000      7.9900      2.5950      0.1037      3.3309    128.1267     25.4399
  1124.9000      7.9900      2.5940      0.0694      3.3951    132.3704     25.0877
  1125.0000      7.9764      2.5894      0.0833      3.6722    129.5173     24.5014
  1125.1000      7.9764      2.5862      0.0977      3.8643    123.3872     24.3665
  1125.2000      7.9764      2.5829      0.0864      4.0689    120.7727     24.7765
  1125.3000      7.9578      2.5817      0.0697      4.1415    121.2136     25.1223
  1125.4000      7.9578      2.5833      0.0817      4.0408    123.1473     24.9296
  1125.5000      7.9555      2.5879      0.0754      3.7611    127.0223     24.4354
  1125.6000      7.9555      2.5995      0.1005      3.0627    127.6702     24.0745
  1125.7000      7.9555      2.6186      0.1293      1.9031    121.7953     23.9322
  1125.8000      7.9497      2.6368      0.1291      0.8016    114.4296     23.8060
  1125.9000      7.9497      2.6495      0.1038      0.0279    108.7745     23.5284
  1126.0000      7.9351      2.6587      0.0963     -0.5252    103.6245     23.2158
  1126.1000      7.9351      2.6606      0.1125     -0.6402     97.1079     23.1663
  1126.2000      7.9351      2.6486      0.0973      0.0850     87.0293     23.4162
  1126.3000      7.9423      2.6267      0.0435      1.4137     76.2134     23.5626
  1126.4000      7.9423      2.6120      0.0548      2.3014     70.5295     23.4769
  1126.5000      7.9505      2.6084      0.0714      2.5194     71.9038     23.4354
  1126.6000      7.9505      2.6119      0.0484      2.3070     77.8921     23.3675
  1126.7000      7.9505      2.6353      0.0475      0.8939     83.0887     22.8734
  1126.8000      7.9633      2.6797      0.1120     -1.8006     79.8861     22.0183
  1126.9000      7.9633      2.7180      0.1238     -4.1242     69.7558     21.4683
  1127.0000      7.9507      2.7220      0.1593     -4.3610     62.7074     21.2884
  1127.1000      7.9507      2.6839      0.1066     -2.0573     59.8841     21.1475
  1127.2000      7.9507      2.6297      0.0072      1.2307     58.8311     21.1079
  1127.3000      7.9369      2.5904      0.0513      3.6135     60.9122     21.0993
  1127.4000      7.9369      2.5720      0.0408      4.7271     66.2290     20.9913
  1127.5000      7.9391      2.5720      0.0505      4.7275     73.1933     20.9033
  1127.6000      7.9391      2.5798      0.1078      4.2525     79.7180     20.7043
  1127.7000      7.9391      2.5771      0.0748      4.4182     82.6212     20.1545
  1127.8000      7.9493      2.5610      0.0671      5.3933     80.4918     19.6002
  1127.9000      7.9493      2.5396      0.0822      6.6933     77.9179     19.4866
  1128.0000      7.9390      2.5270      0.0257      7.4545     78.0776     19.9016
  1128.1000      7.9390      2.5386      0.0382      6.7525     77.2954     20.5814
  1128.2000      7.9390      2.5647      0.0893      5.1700     75.5866     21.0634
  1128.3000      7.9352      2.5868      0.0800      3.8297     76.9468     21.1618
  1128.4000      7.9352      2.6106      0.0835      2.3865     81.5531     21.2502
  1128.5000      7.9385      2.6450      0.1149      0.3056     85.2956     21.9160
  1128.6000      7.9385      2.6675      0.1688     -1.0632     83.6787     22.9511
  1128.7000      7.9385      2.6633      0.1036     -0.8061     78.2575     23.5248
  1128.8000      7.9392      2.6577      0.0709     -0.4684     73.3554     23.6805
  1128.9000      7.9392      2.6660      0.1018     -0.9725     70.0983     24.0819
  1129.0000      7.9428      2.6800      0.1186     -1.8158     69.0982     24.6732
  1129.1000      7.9428      2.6971      0.1158     -2.8522     72.7739     24.8404
  1129.2000      7.9428      2.7092      0.1361     -3.5858     79.5287     24.7313
  1129.3000      7.9372      2.7036      0.1011     -3.2484     83.2510     24.8345
  1129.4000      7.9372      2.6830      0.0887     -2.0022     81.4775     24.8390
  1129.5000      7.9491      2.6592      0.0110     -0.5551     76.7390     24.4442
  1129.6000      7.9491      2.6426     -0.0067      0.4464     71.9039     23.6382
  1129.7000      7.9491      2.6322      0.0105      1.0759     69.8147     22.5152
  1129.8000      7.9492      2.6238     -0.0374      1.5899     71.4862     21.6594
  1129.9000      7.9492      2.6169      0.0367      2.0045     73.2674     21.2858
  1130.0000      7.9505      2.6021      0.0340      2.9012     72.8116     20.7058
  1130.1000      7.9505      2.5819      0.0022      4.1294     71.5726     19.5911
  1130.2000      7.9505      2.5691      0.0844      4.9001     68.8472     18.4804
  1130.3000      7.9551      2.5572      0.0916      5.6216     64.0368     17.6511
  1130.4000      7.9551      2.5418      0.0390      6.5585     61.5144     17.0325
  1130.5000      7.9541      2.5297      0.0987      7.2879     63.4586     16.8323
  1130.6000      7.9541      2.5191      0.0524      7.9330     63.6346     17.1013
  1130.7000      7.9541      2.5051      0.0909      8.7810     58.3286     17.4796
  1130.8000      7.9598      2.4943      0.0293      9.4343     51.9728     17.9618
  1130.9000      7.9598      2.4994      0.0764      9.1278     49.8494     18.8866
  1131.0000      7.9629      2.5113      0.1233      8.4034     52.8844     19.9869
  1131.1000      7.9629      2.5154      0.0825      8.1550     56.8687     20.7079
  1131.2000      7.9629      2.5260      0.0450      7.5171     58.6927     21.1381
  1131.3000      7.9620      2.5637      0.0490      5.2327     58.9606     21.7631
  1131.4000      7.9620      2.6234      0.0920      1.6151     59.4745     22.7758
  1131.5000      7.9579      2.6753      0.1535     -1.5331     61.2356     23.8497
  1131.6000      7.9579      2.7003      0.1396     -3.0483     62.6772     24.4488
  1131.7000      7.9579      2.7165      0.1385     -4.0292     64.7215     24.5210
  1131.8000      7.9659      2.7373      0.1787     -5.2939     69.0164     24.3856
  1131.9000      7.9659      2.7421      0.1719     -5.5842     73.0931     24.1661
  1132.0000      7.9338      2.7169      0.1272     -4.0522     76.1662     23.9651
  1132.1000      7.9338      2.6801      0.0525     -1.8212     79.5188     24.0606
  1132.2000      7.9338      2.6489      0.0121      0.0676     79.7854     24.4174
  1132.3000      7.8889      2.6198     -0.0238      1.8316     76.1353     24.6933
  1132.4000      7.8889      2.6029     -0.0221      2.8543     73.8864     24.6337
  1132.5000      7.9630      2.6148      0.0482      2.1347     74.0500     24.1490
  1132.6000      7.9630      2.6327      0.0810      1.0490     75.5867     23.4499
  1132.7000      7.9630      2.6279      0.0497      1.3374     79.0428     23.0109
  1132.8000      7.9668      2.6071      0.0845      2.5973     85.3162     22.9709
  1132.9000      7.9668      2.5870      0.0688      3.8211     92.4162     23.2171
  1133.0000      7.9521      2.5743      0.0898      4.5853     93.4948     23.4749
  1133.1000      7.9521      2.5724      0.0423      4.7038     88.3480     23.2444
  1133.2000      7.9521      2.5856      0.0531      3.9046     84.6500     22.4475
  1133.3000      7.9597      2.6070      0.0936      2.6082     81.7250     21.6859
  1133.4000      7.9597      2.6169      0.1018      2.0077     72.8092     21.5942
  1133.5000      7.9662      2.6081      0.0680      2.5383     63.6874     22.0115
