~Version Information
VERS.                      2.0: CWLS Log ASCII Standard - VERSION 2.0
WRAP.                       NO: One line per depth step
~Well Information Block
STRT.FT               400.0000: 
STOP.FT              1804.7000: 
STEP.FT                 0.1000: 
NULL.                -999.2500: 
COMP.          Pioneer Natural Resources: COMPANY
WELL.           Lynch 43-30 Tr: WELL
FLD.           Purgatoire River: FIELD
LOC.           1431' FSL & 296' FEL--: LOCATION
PROV.                 Colorado: PROVINCE
CNTY.               Las Animas: COUNTRY
SRVC.                Patterson: SERVICE COMPANY
DATE.          Thu Jul 28 10:43:37 2005: LOG DATE
UWI.           05 071 08447 00: UNIQUE WELL ID
~Curve Information Block
DEPT.FT            0 000 00 00: Depth
DCAL.in                       : CDL Caliper
RHOB.g/cc                     : CDL Bulk Density
RHOC.g/cc                     : CDL Density Correction
DPOR.pu                       : CDL Density Porosity
NPOR.pu                       : Neutron Porosity
GR.GAPI                       : Gamma Ray
~Parameter Information Block
~A  Depth       DCAL        RHOB        RHOC        DPOR        NPOR         GR     
   400.0000      8.0269      2.4877     -0.1752      9.8364     41.8197     62.4003
   400.1000      8.0269      2.4675     -0.1749     11.0605     42.0977     59.2105
   400.2000      8.0269      2.4542     -0.1902     11.8650     41.8517     58.4806
   400.3000      8.0260      2.4543     -0.1776     11.8632     41.4163     60.8387
   400.4000      8.0260      2.4651     -0.1909     11.2048     41.3120     64.0031
   400.5000      8.0249      2.4733     -0.1510     10.7102     41.3401     66.8194
   400.6000      8.0249      2.4665     -0.1872     11.1221     40.9975     68.9942
   400.7000      8.0249      2.4551     -0.1788     11.8095     40.4966     67.7020
   400.8000      8.0237      2.4537     -0.1895     11.8993     40.2695     60.4470
   400.9000      8.0237      2.4595     -0.1728     11.5470     40.2104     52.2637
   401.0000      8.0223      2.4567     -0.1711     11.7121     40.0415     50.8260
   401.1000      8.0223      2.4379     -0.1821     12.8535     39.6646     57.0782
   401.2000      8.0223      2.4179     -0.2044     14.0665     39.2731     63.3515
   401.3000      8.0218      2.4152     -0.1971     14.2288     39.2122     62.3083
   401.4000      8.0218      2.4265     -0.1931     13.5474     39.4435     56.2196
   401.5000      8.0221      2.4298     -0.1751     13.3462     39.7085     53.0252
   401.6000      8.0221      2.4143     -0.2012     14.2872     39.8016     52.4389
   401.7000      8.0221      2.3980     -0.2182     15.2713     39.6213     49.5422
   401.8000      8.0219      2.3995     -0.2098     15.1796     39.2676     45.9613
   401.9000      8.0219      2.4095     -0.2033     14.5780     39.0443     44.9943
   402.0000      8.0213      2.4064     -0.1953     14.7614     39.0302     46.8673
   402.1000      8.0213      2.3885     -0.2277     15.8512     38.8223     49.6210
   402.2000      8.0213      2.3736     -0.2281     16.7541     38.3832     49.6762
   402.3000      8.0210      2.3709     -0.2248     16.9140     38.2938     46.7999
   402.4000      8.0210      2.3788     -0.2360     16.4339     38.7112     44.2668
   402.5000      8.0220      2.3920     -0.2169     15.6384     39.0648     42.7923
   402.6000      8.0220      2.3983     -0.2177     15.2560     39.0887     40.7672
   402.7000      8.0220      2.3951     -0.2306     15.4494     39.0404     38.6830
   402.8000      8.0243      2.3937     -0.2305     15.5363     39.2128     38.3888
   402.9000      8.0243      2.4010     -0.2340     15.0912     39.5345     40.5497
   403.0000      8.0251      2.4116     -0.2158     14.4501     39.6644     43.1883
   403.1000      8.0251      2.4196     -0.2320     13.9651     39.5980     43.5889
   403.2000      8.0251      2.4273     -0.2241     13.4952     39.5972     43.0494
   403.3000      8.0249      2.4308     -0.2117     13.2865     39.5308     44.0736
   403.4000      8.0249      2.4246     -0.2336     13.6598     39.1445     47.2799
   403.5000      8.0280      2.4144     -0.2221     14.2774     38.7000     52.4490
   403.6000      8.0280      2.4082     -0.2429     14.6521     38.6403     56.5903
   403.7000      8.0280      2.4085     -0.2298     14.6346     38.9557     56.0406
   403.8000      8.0308      2.4061     -0.2230     14.7838     39.3872     52.1660
   403.9000      8.0308      2.3988     -0.2472     15.2242     39.6857     50.3527
   404.0000      8.0307      2.3995     -0.2438     15.1821     39.6006     51.0862
   404.1000      8.0307      2.4053     -0.2271     14.8277     39.3706     50.2317
   404.2000      8.0307      2.4013     -0.2358     15.0697     39.3849     47.3963
   404.3000      8.0297      2.3940     -0.2559     15.5129     39.6073     44.9167
   404.4000      8.0297      2.4001     -0.2518     15.1467     39.6946     42.8761
   404.5000      8.0283      2.4116     -0.2246     14.4477     39.3513     39.9460
   404.6000      8.0283      2.4148     -0.2494     14.2573     39.0373     38.1077
   404.7000      8.0283      2.4190     -0.2502     14.0004     39.4819     39.6946
   404.8000      8.0279      2.4285     -0.2308     13.4251     40.4500     43.6624
   404.9000      8.0279      2.4283     -0.2303     13.4388     41.0844     48.9483
   405.0000      8.0270      2.4172     -0.2485     14.1102     41.0824     53.9341
   405.1000      8.0270      2.4123     -0.2477     14.4032     40.8248     54.5210
   405.2000      8.0270      2.4202     -0.2353     13.9268     40.4509     51.9001
   405.3000      8.0266      2.4348     -0.2284     13.0435     40.0560     51.0753
   405.4000      8.0266      2.4559     -0.2326     11.7648     40.1146     52.8037
   405.5000      8.0278      2.4791     -0.1975     10.3573     40.7108     56.2168
   405.6000      8.0278      2.4868     -0.1980      9.8881     41.6265     61.3625
   405.7000      8.0278      2.4771     -0.2046     10.4772     42.6315     68.6256
   405.8000      8.0274      2.4729     -0.2236     10.7322     43.3095     73.9344
   405.9000      8.0274      2.4863     -0.1913      9.9193     43.2634     71.1287
   406.0000      8.0268      2.5007     -0.1852      9.0470     42.6664     63.1848
   406.1000      8.0268      2.5053     -0.1914      8.7706     42.1868     58.9081
   406.2000      8.0268      2.5110     -0.1956      8.4265     42.1624     60.5698
   406.3000      8.0274      2.5224     -0.1773      7.7333     42.3013     63.4793
   406.4000      8.0274      2.5278     -0.1734      7.4079     42.3224     64.2340
   406.5000      8.0279      2.5234     -0.1872      7.6728     42.3741     62.7310
   406.6000      8.0279      2.5174     -0.1870      8.0362     42.2845     59.9940
   406.7000      8.0279      2.5088     -0.1745      8.5560     41.7654     59.6079
   406.8000      8.0286      2.4994     -0.2031      9.1298     41.4433     63.3438
   406.9000      8.0286      2.5064     -0.2014      8.7012     41.7625     67.3060
   407.0000      8.0285      2.5335     -0.1721      7.0622     42.0583     67.6960
   407.1000      8.0285      2.5666     -0.1807      5.0569     41.8407     65.0859
   407.2000      8.0285      2.5961     -0.1570      3.2695     41.4206     62.0304
   407.3000      8.0279      2.6090     -0.1592      2.4842     41.2235     60.9331
   407.4000      8.0279      2.5901     -0.1475      3.6286     41.4822     63.4388
   407.5000      8.0287      2.5474     -0.2071      6.2176     41.9149     66.5813
   407.6000      8.0287      2.5088     -0.2013      8.5550     41.9777     66.0193
   407.7000      8.0287      2.4830     -0.2130     10.1207     41.7398     62.7709
   407.8000      8.0289      2.4645     -0.2193     11.2402     41.7733     60.0535
   407.9000      8.0289      2.4590     -0.2367     11.5770     42.1433     60.2902
   408.0000      8.0275      2.4710     -0.2138     10.8462     42.2291     62.7891
   408.1000      8.0275      2.4912     -0.2146      9.6244     41.8019     65.0545
   408.2000      8.0275      2.5072     -0.2000      8.6525     41.3216     66.4059
   408.3000      8.0255      2.5124     -0.1985      8.3394     41.0606     66.8506
   408.4000      8.0255      2.5081     -0.2091      8.6021     40.9496     65.6819
   408.5000      8.0253      2.4964     -0.1961      9.3098     41.0882     63.5865
   408.6000      8.0253      2.4757     -0.2165     10.5635     41.4509     62.2100
   408.7000      8.0253      2.4537     -0.2179     11.8990     41.8836     60.9608
   408.8000      8.0275      2.4474     -0.2446     12.2779     42.2598     57.5795
   408.9000      8.0275      2.4612     -0.2094     11.4453     42.5275     51.8638
   409.0000      8.0289      2.4773     -0.2162     10.4667     42.5800     46.5529
   409.1000      8.0289      2.4854     -0.2148      9.9758     42.2470     44.2668
   409.2000      8.0289      2.4909     -0.2222      9.6432     41.5959     45.0689
   409.3000      8.0294      2.4956     -0.2122      9.3573     41.1501     46.4707
   409.4000      8.0294      2.4922     -0.2163      9.5650     41.0783     47.5449
   409.5000      8.0293      2.4784     -0.2249     10.3978     41.0067     48.3944
