~Version Information
VERS.                      2.0: CWLS Log ASCII Standard - VERSION 2.0
WRAP.                       NO: One line per depth step
~Well Information Block
STRT.FT               -14.0000: 
STOP.FT               951.0000: 
STEP.FT                 0.2500: 
NULL.                -999.2500: 
COMP.          Pioneer Natural Resources: COMPANY
WELL.             Giggle 21-22: WELL
FLD.           Purgatoire River: FIELD
LOC.           950' FNL & 2094' FWL: LOCATION
CNTY.               Las Animas: COUNTY
SRVC.                         : SERVICE COMPANY
DATE.          Mon Apr 17 17:51:33 2006: LOG DATE
UWI.           05 071 08726 00: UNIQUE WELL ID
STAT.                       CO: STATE
~Curve Information Block
DEPT.FT            0 000 00 00: Depth
CCL.                          : Casing Collar Locator
TT3.usec                      : CBL 3' Travel Time
AMP3.mV                       : CBL 3' Amplitude
GR.GAPI                       : Gamma Ray
~Parameter Information Block
~A  Depth       CCL         TT3         AMP3         GR     
# ...
   354.5000      0.0000    750.1617      5.0695    119.5179
   354.7500      0.0000    738.0395      5.2497    126.6161
   355.0000      0.0000    728.3708      5.5969    133.5085
   355.2500      0.0000    721.4689      5.9792    138.6107
   355.5000      0.0000    715.3959      6.1897    141.0762
   355.7500      0.0000    709.0553      6.1271    140.9915
   356.0000      0.0000    702.9998      5.8914    139.1012
   356.2500      0.0000    698.3633      5.6761    136.2654
   356.5000      0.0000    695.6426      5.5902    133.1336
   356.7500      0.0000    694.4524      5.6065    130.0555
   357.0000      0.0000    694.0969      5.6493    126.8777
   357.2500      0.0000    694.0942      5.6859    123.0631
   357.5000      0.0000    694.2576      5.7263    118.7093
   357.7500      0.0000    694.5828      5.7706    115.4525
   358.0000      0.0000    695.2115      5.7940    115.7085
   358.2500      0.0000    696.4376      5.7837    120.6796
   358.5000      0.0000    698.6732      5.7672    129.0505
   358.7500      0.0000    702.0710      5.7912    137.5035
   359.0000      0.0000    705.8550      5.8809    142.8232
   359.2500      0.0000    708.2203      6.0176    144.1743
   359.5000      0.0000    707.5846      6.1477    143.3683
   359.7500      0.0000    704.2267      6.2154    142.6589
   360.0000      0.0000    700.4348      6.2052    142.6299
   360.2500      0.0000    698.9588      6.1530    142.2522
   360.5000      0.0000    701.3476      6.1082    140.2416
   360.7500      0.0000    707.2752      6.0891    136.2526
   361.0000      0.0000    714.9113      6.0873    131.4488
   361.2500      0.0000    722.0438      6.1006    128.0715
   361.5000      0.0000    727.2209      6.1328    127.9538
   361.7500      0.0000    729.8848      6.1599    131.3306
   362.0000      0.0000    729.5244      6.1290    137.1837
   362.2500      0.0000    725.3939      6.0104    144.4194
   362.5000      0.0000    717.5377      5.8384    152.3376
   362.7500      0.0000    707.4459      5.6873    160.0290
   363.0000      0.0000    696.7430      5.6157    165.7319
   363.2500      0.0000    686.2034      5.6375    167.3506
   363.5000      0.0000    677.7742      5.7273    164.1218
   363.7500      0.0000    676.2242      5.8377    157.6561
   364.0000      0.0000    685.3563      5.9268    150.6610
   364.2500      0.0000    702.1673      5.9846    144.4396
   364.5000      0.0000    717.4783      6.0288    138.1122
   364.7500      0.0000    723.5134      6.0728    130.2748
   365.0000      0.0000    719.7220      6.1115    120.7652
   365.2500      0.0000    711.1864      6.1417    110.5994
   365.5000      0.0000    703.1851      6.1795    100.9319
   365.7500      0.0000    697.9916      6.2492     92.7919
   366.0000      0.0000    695.3897      6.3622     87.5368
   366.2500      0.0000    694.5123      6.5088     86.6033
   366.5000      0.0000    694.9139      6.6598     90.1890
   366.7500      0.0000    696.6219      6.7787     96.3561
   367.0000      0.0000    699.6382      6.8488    102.0828
   367.2500      0.0000    703.4044      6.8892    105.5948
   367.5000      0.0000    706.6882      6.9294    107.5429
   367.7500      0.0000    708.1769      6.9710    109.8773
   368.0000      0.0000    707.3887      6.9956    113.8325
   368.2500      0.0000    705.2001      7.0028    118.9623
   368.5000      0.0000    703.4380      7.0135    123.6004
   368.7500      0.0000    703.6308      7.0378    125.8103
   369.0000      0.0000    705.8597      7.0682    124.2109
   369.2500      0.0000    708.8029      7.1043    118.7515
   369.5000      0.0000    711.0095      7.1591    111.0648
   369.7500      0.0000    712.2067      7.2335    103.6997
   370.0000      0.0000    713.3790      7.3049     98.7499
   370.2500      0.0000    715.4573      7.3541     97.2094
   370.5000      0.0000    717.9766      7.3874     99.2323
   370.7500      0.0000    719.4050      7.4157    104.4624
   371.0000      0.0000    719.0007      7.4207    112.1476
   371.2500      0.0000    717.8229      7.3690    121.2791
   371.5000      0.0000    717.5229      7.2534    130.7360
   371.7500      0.0000    718.6432      7.0937    139.3779
   372.0000      0.0000    720.6517      6.9034    146.2403
   372.2500      0.0000    723.1274      6.6872    150.7696
   372.5000      0.0000    726.0173      6.4745    152.7850
   372.7500      0.0000    728.9186      6.3162    152.3492
   373.0000      0.0000    730.6803      6.2306    150.1334
   373.2500      0.0000    729.6456      6.1766    147.7345
   373.5000      0.0000    724.3972      6.1037    146.7514
   373.7500      0.0000    715.3578      6.0187    147.4167
   374.0000      0.0000    706.1473      5.9770    148.5784
   374.2500      0.0000    702.0061      6.0096    148.8939
   374.5000      0.0000    705.4304      6.0836    147.8552
   374.7500      0.0000    713.5651      6.1439    146.2070
   375.0000      0.0000    720.4302      6.1750    145.5535
   375.2500      0.0000    721.2039      6.1966    146.8883
   375.5000      0.0000    714.4366      6.2101    149.3840
   375.7500      0.0000    702.1444      6.1846    151.1937
   376.0000      0.0000    689.3890      6.1129    151.3660
   376.2500      0.0000    682.5340      6.0506    150.5821
   376.5000      0.0000    685.3936      6.0681    150.2553
   376.7500      0.0000    696.3366      6.1686    151.0495
   377.0000      0.0000    709.8465      6.2825    152.0126
   377.2500      0.0000    721.0165      6.3460    151.1951
   377.5000      0.0000    728.1058      6.3592    147.5966
   377.7500      0.0000    731.4535      6.3564    142.5314
   378.0000      0.0000    731.5298      6.3530    138.5907
   378.2500      0.0000    728.8983      6.3497    137.0572
   378.5000      0.0000    725.2823      6.3615    136.4622
   378.7500      0.0000    723.0898      6.4023    133.8178
   379.0000      0.0000    723.2285      6.4515    127.3811
   379.2500      0.0000    724.0753      6.4739    118.2057
   379.5000      0.0000    723.1676      6.4720    109.1102
   379.7500      0.0000    719.7948      6.4888    102.4312
   380.0000      0.0000    715.8641      6.5514     98.6861
   380.2500      0.0000    714.4045      6.6325     96.7124
   380.5000      0.0000    717.0578      6.6845     94.4473
   380.7500      0.0000    722.7444      6.7055     89.9801
   381.0000      0.0000    728.8298      6.7473     82.8585
   381.2500      0.0000    733.7446      6.8515     74.6583
   381.5000      0.0000    738.1782      6.9875     67.8693
   381.7500      0.0000    743.3469      7.0717     64.1229
   382.0000      0.0000    748.5464      7.0514     63.7548
   382.2500      0.0000    751.2917      6.9553     66.6758
   382.5000      0.0000    749.8685      6.8516     72.7751
   382.7500      0.0000    745.0350      6.7692     81.5316
   383.0000      0.0000    739.0646      6.6865     92.1315
   383.2500      0.0000    733.5775      6.5899    104.0480
   383.5000      0.0000    728.4652      6.5054    116.7701
   383.7500      0.0000    722.6245      6.4568    128.8292
   384.0000      0.0000    715.4827      6.4240    137.8178
   384.2500      0.0000    707.8345      6.3714    141.9703
   384.5000      0.0000    701.2538      6.3062    141.8133
   384.7500      0.0000    696.8196      6.2818    140.1763
   385.0000      0.0000    694.5027      6.3338    140.3572
   385.2500      0.0000    693.5775      6.4325    143.8313
   385.5000      0.0000    693.3016      6.5140    149.1889
   385.7500      0.0000    693.2213      6.5524    153.2403
   386.0000      0.0000    693.1399      6.5791    153.5876
   386.2500      0.0000    693.0149      6.6308    150.4668
   386.5000      0.0000    692.8604      6.6978    146.2573
   386.7500      0.0000    692.6275      6.7391    143.4587
   387.0000      0.0000    692.0855      6.7320    143.0762
   387.2500      0.0000    690.8947      6.6901    144.2556
   387.5000      0.0000    689.0393      6.6387    144.8469
   387.7500      0.0000    687.2761      6.5869    142.6061
