~Version Information
VERS.                      2.0: CWLS Log ASCII Standard - VERSION 2.0
WRAP.                       NO: One line per depth step
~Well Information Block
STRT.FT                -8.7500: 
STOP.FT              1035.7500: 
STEP.FT                 0.2500: 
NULL.                -999.2500: 
COMP.          Pioneer Natural Resources: COMPANY
WELL.                Mac 22-36: WELL
FLD.           Purgatorie River: FIELD
LOC.           2545' FNL & 1398' FWL--: LOCATION
PROV.                       CO: PROVINCE
CNTY.               Las Animas: COUNTRY
SRVC.          Patterson Wireline: SERVICE COMPANY
DATE.          Thu Dec 08 13:20:05 2005: LOG DATE
UWI.           08 071 08594 00: UNIQUE WELL ID
~Curve Information Block
DEPT.FT            0 000 00 00: Depth
CCL.                          : Casing Collar Locator
TT3.usec                      : CBL 3' Travel Time
AMP3.mV                       : CBL 3' Amplitude
GR.GAPI                       : Gamma Ray
~Parameter Information Block
~A  Depth       CCL         TT3         AMP3         GR     
# ...
   192.2500      0.0000    765.9556      9.5901     59.2079
   192.5000      0.0000    765.6713      9.5509     62.6844
   192.7500      0.0000    769.0547      9.5043     65.4626
   193.0000      0.0000    774.9065      9.4443     67.7569
   193.2500      0.0000    780.2621      9.3795     69.4098
   193.5000      0.0000    782.9829      9.3317     69.8833
   193.7500      0.0000    783.3916      9.3173     68.9615
   194.0000      0.0000    783.4865      9.3349     67.1911
   194.2500      0.0000    784.8257      9.3720     65.4625
   194.5000      0.0000    787.3303      9.4135     64.3326
   194.7500      0.0000    789.8938      9.4425     63.7962
   195.0000      0.0000    791.5847      9.4411     63.4284
   195.2500      0.0000    792.0441      9.3996     62.6363
   195.5000      0.0000    791.1116      9.3229     61.1116
   195.7500      0.0000    788.5120      9.2258     59.2880
   196.0000      0.0000    784.2134      9.1195     58.1124
   196.2500      0.0000    779.1957      9.0083     58.0735
   196.5000      0.0000    775.4886      8.8981     58.5009
   196.7500      0.0000    774.7141      8.8056     58.0576
   197.0000      0.0000    776.4744      8.7515     56.1261
   197.2500      0.0000    778.8179      8.7476     53.7118
   197.5000      0.0000    780.4343      8.7924     52.6573
   197.7500      0.0000    781.7526      8.8798     53.7868
   198.0000      0.0000    783.7369      9.0044     56.1655
   198.2500      0.0000    786.3940      9.1561     58.3619
   198.5000      0.0000    788.8866      9.3086     60.0383
   198.7500      0.0000    790.5665      9.4235     62.0926
   199.0000      0.0000    791.4265      9.4719     65.5862
   199.2500      0.0000    791.8107      9.4559     70.6824
   199.5000      0.0000    792.0462      9.4046     76.4321
   199.7500      0.0000    792.3082      9.3491     81.4746
   200.0000      0.0000    792.6327      9.3027     84.9448
   200.2500      0.0000    792.9744      9.2579     86.8927
   200.5000      0.0000    793.2794      9.1909     88.2408
   200.7500      0.0000    793.5195      9.0774     90.3424
   201.0000      0.0000    793.6794      8.9157     94.0165
   201.2500      0.0000    793.7323      8.7345     98.7244
   201.5000      0.0000    793.6517      8.5668    102.8120
   201.7500      0.0000    793.4468      8.4182    104.6480
   202.0000      0.0000    793.1754      8.2684    103.6233
   202.2500      0.0000    792.9271      8.0994    100.3578
   202.5000      0.0000    792.8023      7.9152     96.1423
   202.7500      0.0000    792.8804      7.7362     92.1898
   203.0000      0.0000    793.1780      7.5849     89.2872
   203.2500      0.0000    793.6523      7.4809     87.9476
   203.5000      0.0000    794.3172      7.4416     88.5727
   203.7500      0.0000    795.5092      7.4789     91.1258
   204.0000      0.0000    798.3793      7.5875     94.5833
   204.2500      0.0000    805.3561      7.7353     97.2015
   204.5000      0.0000    819.6434      7.8723     97.9190
   204.7500      0.0000    842.3843      7.9541     97.5659
   205.0000      0.0000    868.4725      7.9579     98.2022
   205.2500      0.0000    886.1340      7.8846    100.7885
   205.5000      0.0000    884.3689      7.7586    103.6484
   205.7500      0.0000    862.8791      7.6232    103.7875
   206.0000      0.0000    833.2408      7.5242     99.9011
   206.2500      0.0000    809.3665      7.4903     93.6644
   206.5000      0.0000    797.7925      7.5282     88.0103
   206.7500      0.0000    796.3881      7.6256     84.8202
   207.0000      0.0000    799.2369      7.7494     84.3500
   207.2500      0.0000    801.3813      7.8512     85.8040
   207.5000      0.0000    800.6932      7.8898     87.7559
   207.7500      0.0000    797.2700      7.8546     88.6694
   208.0000      0.0000    791.6830      7.7701     87.7334
   208.2500      0.0000    783.8358      7.6838     85.1513
   208.5000      0.0000    773.5632      7.6496     81.6179
   208.7500      0.0000    762.0224      7.7059     77.8454
   209.0000      0.0000    751.9802      7.8553     74.5268
   209.2500      0.0000    746.3217      8.0649     72.3251
   209.5000      0.0000    746.0673      8.2919     71.7163
   209.7500      0.0000    749.6625      8.5113     72.8422
   210.0000      0.0000    754.0308      8.7207     75.3327
   210.2500      0.0000    756.5131      8.9286     78.1722
   210.5000      0.0000    756.4103      9.1429     80.1551
   210.7500      0.0000    755.2159      9.3655     80.8627
   211.0000      0.0000    755.4223      9.5873     80.9949
   211.2500      0.0000    758.7756      9.7880     81.4310
   211.5000      0.0000    765.0591      9.9440     82.3773
   211.7500      0.0000    772.1196     10.0376     83.9274
   212.0000      0.0000    777.3312     10.0624     86.8312
   212.2500      0.0000    779.3948     10.0271     91.6002
   212.5000      0.0000    778.6396      9.9537     96.9750
   212.7500      0.0000    775.7388      9.8695    100.3921
   213.0000      0.0000    770.9315      9.7964    100.2207
   213.2500      0.0000    764.7357      9.7467     96.8696
   213.5000      0.0000    758.5092      9.7247     91.6960
   213.7500      0.0000    753.6647      9.7289     85.7463
   214.0000      0.0000    750.6749      9.7516     79.9661
   214.2500      0.0000    749.1266      9.7802     75.8865
   214.5000      0.0000    748.4517      9.8011     75.0978
   214.7500      0.0000    748.4244      9.8024     77.9168
   215.0000      0.0000    749.2295      9.7758     83.0857
   215.2500      0.0000    751.2254      9.7210     88.8600
   215.5000      0.0000    754.3782      9.6506     94.0405
   215.7500      0.0000    757.5641      9.5797     97.9903
   216.0000      0.0000    758.5197      9.4968    100.3452
   216.2500      0.0000    755.4519      9.3585    100.9801
   216.5000      0.0000    750.1202      9.1497     99.8413
   216.7500      0.0000    750.3090      8.9470     96.7006
   217.0000      0.0000    767.9019      8.8592     91.4594
   217.2500      0.0000    810.9586      8.8905     84.8032
   217.5000      0.0000    874.9167      8.9215     78.2617
   217.7500      0.0000    942.0690      8.8385     73.3022
   218.0000      0.0000    991.5475      8.6282     70.3515
   218.2500      2.0000   1011.4078      8.3510     68.9361
   218.5000     -2.0000   1004.1467      8.0758     68.6287
   218.7500      0.0000    983.2881      7.8495     69.3479
   219.0000      0.0000    962.3793      7.7146     70.8103
   219.2500      0.0000    943.5442      7.7522     72.3546
   219.5000      0.0000    918.1108      8.0679     73.5900
   219.7500      0.0000    880.0620      8.6690     74.9053
   220.0000      0.0000    835.3500      9.3754     77.0403
   220.2500      0.0000    796.1643      9.9351     80.1268
   220.5000      0.0000    769.9559     10.2349     83.4701
   220.7500      0.0000    756.2112     10.3447     86.4081
   221.0000      0.0000    750.4807     10.3759     89.0768
   221.2500      0.0000    748.6517     10.3614     92.0453
   221.5000      0.0000    748.3609     10.2705     95.3232
   221.7500      0.0000    748.7507     10.0914     97.9713
   222.0000      0.0000    749.9682      9.8700     98.8075
   222.2500      0.0000    752.7386      9.6770     97.3727
   222.5000      0.0000    757.7610      9.5551     94.1077
   222.7500      0.0000    764.9668      9.5052     89.8010
   223.0000      0.0000    773.1925      9.5174     85.1142
   223.2500      0.0000    780.4203      9.6055     80.6485
   223.5000      0.0000    784.3668      9.8064     77.2608
   223.7500      0.0000    783.7420     10.1432     76.0492
   224.0000      0.0000    780.4761     10.5862     77.7817
   224.2500      0.0000    780.9299     11.0564     82.2596
   224.5000      0.0000    793.4808     11.4754     88.3831
   224.7500      0.0000    823.3580     11.8114     94.8412
   225.0000      0.0000    868.2045     12.0734    100.6331
   225.2500      0.0000    917.2544     12.2700    105.0038
   225.5000      0.0000    955.7127     12.3925    107.2278
