~Version Information
VERS.                      2.0: CWLS Log ASCII Standard - VERSION 2.0
WRAP.                       NO: One line per depth step
~Well Information Block
STRT.FT                -9.5000: 
STOP.FT              1401.5000: 
STEP.FT                 0.2500: 
NULL.                -999.2500: 
COMP.          Pioneer Natural Resources: COMPANY
WELL.             John K 12-28: WELL
FLD.           Purgatorie River: FIELD
LOC.           1476' FNL & 465' FWL--: LOCATION
CNTY.               Las Animas: COUNTY
SRVC.          Patterson Wireline: SERVICE COMPANY
DATE.          Fri Apr 28 08:36:46 2006: LOG DATE
UWI.           05 071 08723 00: UNIQUE WELL ID
STAT.                       CO: STATE
~Curve Information Block
DEPT.FT            0 000 00 00: Depth
CCL.                          : Casing Collar Locator
TT3.usec                      : CBL 3' Travel Time
AMP3.mV                       : CBL 3' Amplitude
GR.GAPI                       : Gamma Ray
~Parameter Information Block
~A  Depth       CCL         TT3         AMP3         GR     
# ...
   627.0000      0.0000    733.8827      7.2538    118.1685
   627.2500      0.0000    727.9949      7.2096    118.9113
   627.5000      0.0000    721.6364      7.1531    118.1923
   627.7500      0.0000    718.5371      7.0969    116.3713
   628.0000      0.0000    721.6594      7.0530    114.0197
   628.2500      0.0000    730.1128      7.0317    111.6777
   628.5000      0.0000    739.7830      7.0382    109.8037
   628.7500      0.0000    746.6753      7.0711    108.9127
   629.0000      0.0000    748.8711      7.1217    109.5752
   629.2500      0.0000    745.8734      7.1756    111.9225
   629.5000      0.0000    737.6673      7.2142    115.1190
   629.7500      0.0000    725.1949      7.2209    117.8785
   630.0000      0.0000    711.1016      7.1904    119.8468
   630.2500      0.0000    698.8589      7.1367    122.0233
   630.5000      0.0000    690.6952      7.0877    125.3915
   630.7500      0.0000    686.5840      7.0661    129.4082
   631.0000      0.0000    685.0931      7.0733    132.3033
   631.2500      0.0000    684.7703      7.0920    132.8710
   631.5000      0.0000    684.7780      7.1026    131.5226
   631.7500      0.0000    684.7858      7.0980    129.2842
   632.0000      0.0000    684.7523      7.0856    126.1706
   632.2500      0.0000    684.9174      7.0789    121.3149
   632.5000      0.0000    685.9114      7.0844    114.7277
   632.7500      0.0000    688.6156      7.0957    108.1188
   633.0000      0.0000    693.4371      7.1023    103.5254
   633.2500      0.0000    699.4642      7.1010    101.4819
   633.5000      0.0000    704.9471      7.0958    100.8525
   633.7500      0.0000    709.4003      7.0872    100.1689
   634.0000      0.0000    714.7584      7.0710     98.6898
   634.2500      0.0000    723.0996      7.0463     96.2434
   634.5000      0.0000    733.2056      7.0210     92.7243
   634.7500      0.0000    740.6149      7.0042     88.2159
   635.0000      0.0000    741.4074      6.9989     83.3722
   635.2500      0.0000    735.1154      7.0042     79.2458
   635.5000      0.0000    724.0324      7.0215     76.6941
   635.7500      0.0000    711.0422      7.0516     75.9996
   636.0000      0.0000    698.3384      7.0885     76.8210
   636.2500      0.0000    687.0004      7.1195     78.4220
   636.5000      0.0000    677.2639      7.1352     80.2147
   636.7500      0.0000    669.4704      7.1375     82.2424
   637.0000      0.0000    664.3119      7.1377     84.9169
   637.2500      0.0000    661.7545      7.1453     88.0410
   637.5000      0.0000    660.5966      7.1580     90.2981
   637.7500      0.0000    659.7280      7.1642     90.2255
   638.0000      0.0000    659.0192      7.1567     87.7977
   638.2500      0.0000    658.4879      7.1471     84.6064
   638.5000      0.0000    657.5549      7.1622     82.3065
   638.7500      0.0000    655.6039      7.2249     81.2467
   639.0000      0.0000    652.4472      7.3363     80.8263
   639.2500      0.0000    646.8858      7.4744     80.8231
   639.5000      0.0000    634.4875      7.6058     81.9527
   639.7500      0.0000    608.9136      7.7017     85.0493
   640.0000      0.0000    568.6442      7.7506     90.0502
   640.2500      0.0000    522.8635      7.7628     96.1955
   640.5000      0.0000    487.7779      7.7610    103.0359
   640.7500      0.0000    475.3419      7.7633    110.5567
   641.0000      0.0000    486.3059      7.7716    118.1659
   641.2500      0.0000    513.7481      7.7736    124.2578
   641.5000      0.0000    550.7352      7.7558    127.3119
   641.7500      0.0000    593.2312      7.7180    127.3220
   642.0000      0.0000    637.0559      7.6806    126.0184
   642.2500      0.0000    674.3228      7.6782    125.7004
   642.5000      0.0000    694.4063      7.7390    127.6005
   642.7500      0.0000    690.6984      7.8625    130.9344
   643.0000      0.0000    668.8381      8.0158    133.4843
   643.2500      0.0000    646.6370      8.1518    133.3336
   643.5000      0.0000    640.8995      8.2329    130.2380
   643.7500      0.0000    652.7589      8.2414    125.4050
   644.0000      0.0000    668.1415      8.1769    120.1823
   644.2500      0.0000    671.9027      8.0510    115.2583
   644.5000      0.0000    659.6163      7.8840    111.0006
   644.7500      0.0000    639.0338      7.7048    107.8680
   645.0000      0.0000    623.9778      7.5462    106.1808
   645.2500      0.0000    624.2088      7.4279    105.7245
   645.5000      0.0000    637.1076      7.3396    105.6414
   645.7500      0.0000    649.8188      7.2446    104.8692
   646.0000      0.0000    650.9520      7.1146    103.0715
   646.2500      0.0000    639.5316      6.9679    101.1119
   646.5000      0.0000    622.9077      6.8602    100.3680
   646.7500      0.0000    608.1804      6.8215    101.4632
   647.0000      0.0000    597.6064      6.8166    103.5149
   647.2500      0.0000    591.6703      6.7895    104.5482
   647.5000      0.0000    592.8842      6.7236    102.9890
   647.7500      0.0000    602.7746      6.6365     99.0044
   648.0000      0.0000    615.2828      6.5408     94.2901
   648.2500      0.0000    617.3353      6.4362     90.5998
   648.5000      0.0000    599.9216      6.3207     88.4960
   648.7500      0.0000    568.7316      6.1946     87.0070
   649.0000      0.0000    542.0342      6.0632     84.1915
   649.2500      0.0000    537.6642      5.9403     78.5585
   649.5000      0.0000    561.2499      5.8378     70.4771
   649.7500      0.0000    603.7892      5.7583     62.1667
   650.0000      0.0000    647.8328      5.7069     56.0774
   650.2500      0.0000    677.7440      5.6970     53.1975
   650.5000      0.0000    688.1511      5.7329     52.7287
   650.7500      0.0000    685.4971      5.7942     53.0504
   651.0000      0.0000    681.8444      5.8487     52.8211
   651.2500      0.0000    685.3862      5.8745     51.4290
   651.5000      0.0000    695.5827      5.8694     49.0357
   651.7500      0.0000    706.6451      5.8450     46.5027
   652.0000      0.0000    714.0834      5.8146     44.8505
   652.2500      0.0000    717.1534      5.7860     44.4270
   652.5000      0.0000    716.9257      5.7589     44.7631
   652.7500      0.0000    714.2482      5.7285     45.2743
   653.0000      0.0000    709.8660      5.6895     45.7803
   653.2500      0.0000    705.5257      5.6423     46.1863
   653.5000      0.0000    703.7997      5.5943     46.0070
   653.7500      0.0000    706.2694      5.5566     44.6377
   654.0000      0.0000    712.1749      5.5361     42.1011
   654.2500      0.0000    719.2433      5.5313     39.3057
   654.5000      0.0000    725.4977      5.5336     37.4957
   654.7500      0.0000    730.3447      5.5355     37.5306
   655.0000      0.0000    734.6170      5.5406     39.6191
   655.2500      0.0000    739.6642      5.5667     43.4906
   655.5000      0.0000    745.9823      5.6323     48.5812
   655.7500      0.0000    752.8181      5.7380     54.0917
   656.0000      0.0000    759.1253      5.8647     59.2541
   656.2500      0.0000    764.3282      5.9898     63.8994
   656.5000      0.0000    767.9585      6.1002     68.6978
   656.7500      0.0000    769.3454      6.1921     74.7185
   657.0000      0.0000    768.2915      6.2644     82.8250
   657.2500      0.0000    765.6689      6.3168     93.3858
   657.5000      0.0000    762.7386      6.3518    105.9294
   657.7500      0.0000    759.8976      6.3736    118.6434
   658.0000      0.0000    756.2850      6.3803    128.6899
   658.2500      0.0000    750.4532      6.3596    133.7461
   658.5000      0.0000    741.1887      6.2991    133.4086
   658.7500      0.0000    727.5653      6.2029    128.9722
   659.0000      0.0000    708.5101      6.0947    122.1835
   659.2500      0.0000    683.9434      6.0031    114.6989
   659.5000      0.0000    658.0624      5.9432    108.3434
   659.7500      0.0000    640.2102      5.9120    104.7304
   660.0000      0.0000    638.9013      5.9004    104.2285
   660.2500      0.0000    654.0574      5.9086    105.8205
