~Version Information
VERS.                      2.0: CWLS Log ASCII Standard - VERSION 2.0
WRAP.                       NO: One line per depth step
~Well Information Block
STRT.FT                -1.5000: 
STOP.FT              2898.5000: 
STEP.FT                 0.2500: 
NULL.                -999.2500: 
COMP.          Pioneer Natural Resources: COMPANY
WELL.          Hanginstone 21-27: WELL
FLD.           Purgatoire River: FIELD
LOC.           1186' FNL & 1606' FWL--: LOCATION
PROV.                 Colorado: PROVINCE
CNTY.               Las Animas: COUNTRY
SRVC.                Patterson: SERVICE COMPANY
DATE.          Mon Jan 23 11:03:53 2006: LOG DATE
UWI.           05 071 08632 00: UNIQUE WELL ID
~Curve Information Block
DEPT.FT            0 000 00 00: Depth
CCL.                          : Casing Collar Locator
TT3.usec                      : CBL 3' Travel Time
AMP3.mV                       : CBL 3' Amplitude
GR.GAPI                       : Gamma Ray
~Parameter Information Block
~A  Depth       CCL         TT3         AMP3         GR     
# ...
  1338.5000      0.0000    769.3635      4.3025    108.8906
  1338.7500      0.0000    768.9190      4.3464    110.3819
  1339.0000      0.0000    769.7625      4.4258    111.5058
  1339.2500      0.0000    773.4973      4.5435    112.7117
  1339.5000      0.0000    781.8260      4.6889    115.1144
  1339.7500      0.0000    795.3973      4.8455    118.6656
  1340.0000      0.0000    812.0390      4.9974    121.3859
  1340.2500      0.0000    827.5684      5.1270    120.8867
  1340.5000      0.0000    838.7370      5.2161    116.7191
  1340.7500      0.0000    844.9149      5.2568    111.1493
  1341.0000      0.0000    847.0163      5.2579    107.5986
  1341.2500      0.0000    845.2325      5.2356    108.4250
  1341.5000      0.0000    837.9006      5.2006    114.0421
  1341.7500      0.0000    822.7751      5.1579    123.3931
  1342.0000      0.0000    800.1115      5.1123    134.0508
  1342.2500      0.0000    774.6852      5.0707    141.9374
  1342.5000      0.0000    753.9415      5.0418    142.8105
  1342.7500      0.0000    743.3723      5.0327    135.5872
  1343.0000      0.0000    743.3149      5.0440    123.9170
  1343.2500      0.0000    749.4127      5.0666    113.5862
  1343.5000      0.0000    755.5427      5.0869    108.1495
  1343.7500      0.0000    757.1703      5.0971    107.1736
  1344.0000      0.0000    753.6116      5.0998    108.2363
  1344.2500      0.0000    748.0864      5.1031    109.8036
  1344.5000      0.0000    745.6907      5.1131    112.0173
  1344.7500      0.0000    750.6646      5.1288    115.3011
  1345.0000      0.0000    764.1531      5.1379    118.9250
  1345.2500      0.0000    783.3472      5.1216    121.4922
  1345.5000      0.0000    803.0510      5.0718    122.5764
  1345.7500      0.0000    818.7380      5.0005    123.1110
  1346.0000      0.0000    828.2380      4.9282    124.0397
  1346.2500      0.0000    831.3284      4.8690    125.0571
  1346.5000      0.0000    829.2046      4.8300    124.7873
  1346.7500      0.0000    824.4174      4.8144    122.1919
  1347.0000      0.0000    819.8483      4.8208    117.9171
  1347.2500      0.0000    816.8373      4.8434    114.0191
  1347.5000      0.0000    814.6717      4.8749    112.1123
  1347.7500      0.0000    812.2087      4.9120    112.2973
  1348.0000      0.0000    809.5917      4.9626    114.2528
  1348.2500      0.0000    808.2509      5.0434    118.2710
  1348.5000      0.0000    809.8353      5.1675    124.0577
  1348.7500      0.0000    815.3742      5.3317    129.3422
  1349.0000      0.0000    824.7400      5.5152    131.3807
  1349.2500      0.0000    836.2236      5.6892    129.8962
  1349.5000      0.0000    846.8532      5.8344    127.2667
  1349.7500      0.0000    853.8442      5.9467    125.5999
  1350.0000      0.0000    856.1549      6.0276    124.8714
  1350.2500      0.0000    854.6204      6.0796    124.4496
  1350.5000      0.0000    850.5439      6.1138    125.0458
  1350.7500      0.0000    844.5389      6.1465    127.6744
  1351.0000      0.0000    837.1727      6.1858    131.3471
  1351.2500      0.0000    830.4001      6.2243    133.4453
  1351.5000      0.0000    827.0582      6.2450    132.2900
  1351.7500      0.0000    827.9182      6.2327    128.1275
  1352.0000      0.0000    829.5458      6.1880    122.0546
  1352.2500      0.0000    826.0455      6.1308    115.4273
  1352.5000      0.0000    813.8941      6.0866    110.0500
  1352.7500      0.0000    796.0777      6.0674    107.6136
  1353.0000      0.0000    781.1232      6.0650    108.8173
  1353.2500      0.0000    775.7043      6.0620    113.4512
  1353.5000      0.0000    777.1030      6.0515    120.8489
  1353.7500      0.0000    774.5108      6.0413    129.7550
  1354.0000      0.0000    758.4830      6.0371    138.0940
  1354.2500      0.0000    728.3159      6.0337    143.3525
  1354.5000      0.0000    691.3513      6.0231    143.5872
  1354.7500      0.0000    658.0266      6.0031    138.6952
  1355.0000      0.0000    637.6984      5.9786    131.0461
  1355.2500      0.0000    636.1260      5.9611    124.4967
  1355.5000      0.0000    654.2440      5.9639    122.1268
  1355.7500      0.0000    688.3934      5.9922    124.3960
  1356.0000      0.0000    731.4011      6.0339    129.2392
  1356.2500      0.0000    774.1774      6.0657    134.1270
  1356.5000      0.0000    808.6221      6.0667    138.2459
  1356.7500      0.0000    830.9351      6.0241    142.4439
  1357.0000      0.0000    842.4164      5.9373    147.1597
  1357.2500      0.0000    847.0161      5.8268    151.2805
  1357.5000      0.0000    848.3543      5.7293    153.3992
  1357.7500      0.0000    848.4930      5.6689    153.3455
  1358.0000      0.0000    848.2256      5.6359    151.9731
  1358.2500      0.0000    847.5066      5.6021    150.1577
  1358.5000      0.0000    845.2262      5.5595    148.5415
  1358.7500      0.0000    838.4172      5.5364    147.5662
  1359.0000      0.0000    822.0821      5.5675    147.0904
  1359.2500      0.0000    791.7656      5.6517    146.4267
  1359.5000      0.0000    748.8974      5.7467    145.4198
  1359.7500      0.0000    704.3730      5.8058    145.0793
  1360.0000      0.0000    674.6699      5.8153    146.4111
  1360.2500      0.0000    671.5863      5.7930    148.7482
  1360.5000      0.0000    693.8063      5.7620    149.9173
  1360.7500      0.0000    727.8297      5.7357    148.3321
  1361.0000      0.0000    758.2025      5.7211    144.4122
  1361.2500      0.0000    778.4473      5.7221    139.4553
  1361.5000      0.0000    792.5195      5.7378    133.6959
  1361.7500      0.0000    806.5569      5.7629    126.4509
  1362.0000      0.0000    821.5231      5.7883    118.0289
  1362.2500      0.0000    834.0687      5.8054    110.5242
  1362.5000      0.0000    841.4079      5.8126    106.4584
  1362.7500      0.0000    843.1506      5.8127    107.1201
  1363.0000      0.0000    839.9929      5.8021    112.1653
  1363.2500      0.0000    832.9702      5.7677    120.1340
  1363.5000      0.0000    824.0880      5.6993    129.1182
  1363.7500      0.0000    816.0939      5.5984    137.3083
  1364.0000      0.0000    810.6292      5.4689    143.2016
  1364.2500      0.0000    807.0037      5.3035    145.4301
  1364.5000      0.0000    803.2460      5.0923    142.8775
  1364.7500      0.0000    798.3292      4.8445    135.4581
  1365.0000      0.0000    793.5065      4.5916    124.4467
  1365.2500      0.0000    791.5275      4.3677    111.5843
  1365.5000      0.0000    794.1855      4.1916     98.1492
  1365.7500      0.0000    800.8434      4.0715     85.3805
  1366.0000      0.0000    809.4697      4.0117     75.4227
  1366.2500      2.0000    818.0132      4.0044     71.0507
  1366.5000     -2.0000    824.3534      4.0257     73.9324
  1366.7500     -2.0000    826.3192      4.0525     83.1906
  1367.0000      2.0000    823.0334      4.0859     95.8940
  1367.2500      0.0000    815.9838      4.1638    108.9643
  1367.5000      0.0000    808.3414      4.3464    120.5390
  1367.7500      0.0000    803.3334      4.6658    129.8492
  1368.0000      0.0000    803.0743      5.0755    136.5321
  1368.2500      0.0000    807.6865      5.4602    140.6411
  1368.5000      0.0000    814.6698      5.7144    143.0859
  1368.7500      0.0000    819.8521      5.8142    145.1798
  1369.0000      0.0000    820.2361      5.8090    147.0928
  1369.2500     -2.0000    816.1108      5.7561    147.0875
  1369.5000      0.0000    810.1519      5.6781    142.9993
  1369.7500      0.0000    804.7821      5.5689    134.4413
  1370.0000      0.0000    800.5897      5.4229    122.9615
  1370.2500      0.0000    796.7179      5.2560    110.3829
  1370.5000      0.0000    792.2916      5.1081     97.9318
  1370.7500      0.0000    787.6653      5.0261     86.8730
  1371.0000      0.0000    784.5170      5.0344     78.8763
  1371.2500      0.0000    784.4026      5.1111     75.2592
  1371.5000      0.0000    787.0522      5.2000     76.1937
  1371.7500      0.0000    790.2372      5.2538     80.9362
