~Version Information
 VERS.                                  2.0 : CWLS LAS VERSION
 WRAP.                                   NO : WRAPING MODE
 SWARE .                 MController 2.5.0E : SOFTWARE VERSION
~Well Information
 WELL.                      Black Cat 13-23 : WELL
 COMP.     Pioneer Natural Resources USA Inc: COMPANY
 FLD.                      Purgatorie River : FIELD
 LOC.                 NW/SW Sec32 T32S R67W : LOCATION
 DATE.                           7/30-31/05 : DATE(S) LOGGED
 SRVC.       Blanco Geological Services LLC : SERVICE COMPANY
 STAT.                                   CO : STATE
 CNTY.                           Las Animas : COUNTY
 CTRY.                                  USA : COUNTRY
 API.                       05-071-08450-00 : API NUMBER
 STRT.FT                             327.00 : START DEPTH
 STOP.FT                            2850.00 : STOP DEPTH
 STEP.FT                               1.00 : DEPTH INCREMENT
 NULL.                                -9999 : NULL VALUE
~Curve information
 DEPTH.FT                                   :
 ROP.MIN/FT                                 :
 GAS.UNITS                                  :
~ASCII Log data
# ...
      1127.0         0.13         26.5 
      1128.0         0.20         30.1 
      1129.0         0.27         31.6 
      1130.0         0.23         35.0 
      1131.0         0.23         37.5 
      1132.0         0.23         38.8 
      1133.0         0.23         36.8 
      1134.0         0.27         34.7 
      1135.0         0.38         29.6 
      1136.0         0.43         18.0 
      1137.0         0.47         13.5 
      1138.0         0.40          6.5 
      1139.0         0.37          5.3 
      1140.0         0.27          5.8 
      1141.0         6.23          9.5 
      1142.0         0.87          7.8 
      1143.0         0.33          8.7 
      1144.0         0.30         13.6 
      1145.0         0.33         14.8 
      1146.0         0.32         16.9 
      1147.0         0.27         14.8 
      1148.0         0.30         15.3 
      1149.0         0.30         16.0 
      1150.0         0.27         15.0 
      1151.0         0.37         16.1 
      1152.0         0.30         18.4 
      1153.0         0.30         20.9 
      1154.0         0.27         24.0 
      1155.0         0.40         25.8 
      1156.0         0.27         29.8 
      1157.0         0.35         30.7 
      1158.0         0.30         32.1 
      1159.0         0.27         33.2 
      1160.0         0.30         29.5 
      1161.0         0.30         25.1 
      1162.0         0.30         16.3 
      1163.0         0.27         15.7 
      1164.0         0.30         12.5 
      1165.0         0.27          7.6 
      1166.0         0.27          7.2 
      1167.0         0.92          7.4 
      1168.0         1.07          9.6 
      1169.0         1.27          8.9 
      1170.0         1.12          6.8 
      1171.0         4.05          9.7 
      1172.0         0.23         10.7 
      1173.0         0.27         12.4 
      1174.0         0.23         15.7 
      1175.0         0.40         17.1 
      1176.0         0.23         20.7 
      1177.0         0.27         23.0 
      1178.0         0.20         25.5 
      1179.0         0.32         29.5 
      1180.0         0.30         34.0 
      1181.0         0.30         38.8 
      1182.0         0.27         41.2 
      1183.0         0.20         43.3 
      1184.0         0.23         41.5 
      1185.0         0.23         37.8 
      1186.0         0.20         35.5 
      1187.0         0.23         32.8 
      1188.0         0.17         26.2 
      1189.0         0.23         21.4 
      1190.0         0.20         17.6 
      1191.0         0.20         15.9 
      1192.0         0.23         14.4 
      1193.0         0.20         11.6 
      1194.0         0.22         10.9 
      1195.0         0.20          7.7 
      1196.0         0.27          6.9 
      1197.0         0.23          7.2 
      1198.0         0.20          7.8 
      1199.0         0.23          8.4 
      1200.0         0.13          8.4 
      1201.0         6.83         44.7 
      1202.0         0.67         11.0 
      1203.0         0.27         12.0 
      1204.0         0.33         13.8 
      1205.0         0.30         18.4 
      1206.0         0.32         19.2 
      1207.0         0.23         21.7 
      1208.0         0.27         24.1 
      1209.0         0.30         25.9 
      1210.0         0.33         29.4 
      1211.0         0.33         38.2 
      1212.0         0.20         38.2 
      1213.0         0.27         40.7 
      1214.0         0.20         43.2 
      1215.0         0.20         43.6 
      1216.0         0.10         42.0 
      1217.0         0.10         42.0 
      1218.0         0.13         42.0 
      1219.0         0.10         38.1 
      1220.0         0.10         38.1 
      1221.0         0.13         31.6 
      1222.0         0.10         31.6 
      1223.0         0.12         30.2 
      1224.0         0.17         24.0 
      1225.0         0.27         25.1 
      1226.0         0.30         24.2 
      1227.0         0.30         25.5 
      1228.0         0.47         23.9 
      1229.0         0.37         14.1 
      1230.0         0.40          8.5 
      1231.0         6.63         36.8 
      1232.0         0.77         12.0 
      1233.0         0.38         10.0 
      1234.0         0.60         13.0 
      1235.0         0.30         14.2 
      1236.0         0.23         15.1 
      1237.0         0.20         17.0 
      1238.0         0.23         21.4 
      1239.0         0.23         24.0 
      1240.0         0.23         26.2 
      1241.0         0.23         26.2 
      1242.0         0.23         31.0 
      1243.0         0.23         34.0 
      1244.0         0.23         35.9 
      1245.0         0.20         37.1 
      1246.0         0.25         39.6 
      1247.0         0.20         39.6 
      1248.0         0.13         37.6 
      1249.0         0.10         37.6 
      1250.0         0.10         35.5 
      1251.0         0.10         36.1 
      1252.0         0.10         30.3 
      1253.0         0.20         25.7 
      1254.0         0.30         24.5 
      1255.0         0.27         21.3 
      1256.0         0.20         21.9 
      1257.0         0.23         22.1 
      1258.0         0.23         15.8 
      1259.0         0.13         15.8 
      1260.0         0.23         12.4 
      1261.0         3.42         11.1 
      1262.0         3.12         11.3 
      1263.0         0.33         12.1 
      1264.0         0.07         11.6 
      1265.0         0.13         11.6 
      1266.0         0.68         12.4 
      1267.0         0.40         11.9 
      1268.0         0.30         11.0 
      1269.0         0.27         11.0 
      1270.0         0.30         11.3 
      1271.0         0.23         11.3 
      1272.0         0.40         12.0 
      1273.0         0.33         10.9 
      1274.0         0.30         10.0 
      1275.0         0.30         10.5 
      1276.0         0.32         12.9 
      1277.0         0.27         14.5 
      1278.0         0.30         16.2 
      1279.0         0.30         17.6 
      1280.0         0.37         23.1 
      1281.0         0.47         26.8 
      1282.0         0.53         33.8 
      1283.0         0.37         37.4 
      1284.0         0.33         41.7 
      1285.0         0.32         42.5 
      1286.0         0.30         44.0 
      1287.0         0.30         40.9 
      1288.0         0.30         30.5 
      1289.0         0.30         25.5 
      1290.0         0.27         23.7 
      1291.0         9.72         31.3 
      1292.0         0.63         15.2 
      1293.0         0.13         12.3 
      1294.0         0.27         12.5 
      1295.0         0.27         12.9 
      1296.0         0.23         14.0 
      1297.0         0.27         16.6 
      1298.0         0.35         19.0 
      1299.0         0.30         25.2 
      1300.0         0.27         28.2 
      1301.0         0.30         31.2 
      1302.0         0.27         33.2 
      1303.0         0.33         39.2 
      1304.0         0.30         43.7 
      1305.0         0.30         47.2 
      1306.0         0.27         49.4 
      1307.0         0.27         49.5 
      1308.0         0.33         49.6 
      1309.0         0.33         43.3 
      1310.0         0.38         32.4 
      1311.0         0.20         25.5 
      1312.0         0.13         25.5 
      1313.0         0.20         23.9 
      1314.0         0.37         27.6 
      1315.0         0.23         27.8 
      1316.0         0.30         24.0 
      1317.0         0.30         22.8 
      1318.0         0.83         15.1 
      1319.0         0.23         11.9 
      1320.0         0.10         11.7 
      1321.0         6.77         15.8 
      1322.0         0.72         16.5 
      1323.0         0.13         16.2 
      1324.0         0.40         15.9 
      1325.0         0.33         16.8 
      1326.0         0.37         17.4 
