~Version Information
VERS.                      2.0: CWLS Log ASCII Standard - VERSION 2.0
WRAP.                       NO: One line per depth step
~Well Information Block
STRT.FT               860.0000: 
STOP.FT              2360.5000: 
STEP.FT                 0.1000: 
NULL.                -999.2500: 
COMP.          Pioneer Natural Resources: COMPANY
WELL.            Cayenne 23-23: WELL
FLD.           Purgatoire River: FIELD
LOC.           2555' FSL & 2386' FWL: LOCATION
PROV.                 Colorado: PROVINCE
CNTY.               Las Animas: COUNTRY
SRVC.                Patterson: SERVICE COMPANY
DATE.          Wed Aug 17 08:28:25 2005: LOG DATE
UWI.           05 071 08476 00: UNIQUE WELL ID
~Curve Information Block
DEPT.FT            0 000 00 00: Depth
DCAL.in                       : CDL Caliper
RHOB.g/cc                     : CDL Bulk Density
RHOC.g/cc                     : CDL Density Correction
DPOR.pu                       : CDL Density Porosity
GR.GAPI                       : Gamma Ray
NPOR.pu                       : Neutron Porosity
~Parameter Information Block
~A  Depth       DCAL        RHOB        RHOC        DPOR         GR         NPOR    
# ...
  1848.8000      8.2026      2.4183      0.1092     14.0401    138.6722     29.0586
  1848.9000      8.2026      2.4585      0.1484     11.6082    133.4769     29.4117
  1849.0000      8.2721      2.4753      0.1452     10.5865    129.3385     30.5823
  1849.1000      8.2721      2.4672      0.1380     11.0797    127.0961     30.8736
  1849.2000      8.2721      2.4590      0.0931     11.5748    126.9054     29.6206
  1849.3000      8.3418      2.4672      0.0939     11.0783    128.8769     28.6350
  1849.4000      8.3418      2.4876      0.1165      9.8394    129.5250     28.8819
  1849.5000      8.3456      2.5060      0.1551      8.7303    129.3250     29.5118
  1849.6000      8.3456      2.5101      0.1288      8.4788    131.5214     30.1808
  1849.7000      8.3456      2.5022      0.1354      8.9549    135.5619     30.8243
  1849.8000      8.3921      2.4951      0.1130      9.3874    138.2776     31.0336
  1849.9000      8.3921      2.4954      0.1819      9.3668    137.5872     30.8407
  1850.0000      8.4470      2.4948      0.1709      9.4071    137.5405     30.6565
  1850.1000      8.4470      2.4869      0.1336      9.8850    143.4245     30.9089
  1850.2000      8.4470      2.4739      0.1300     10.6729    150.2924     31.7189
  1850.3000      8.4586      2.4595      0.1318     11.5429    149.3349     32.4864
  1850.4000      8.4586      2.4585      0.0756     11.6045    142.1680     32.5907
  1850.5000      8.4717      2.4837      0.1341     10.0804    134.3920     32.2191
  1850.6000      8.4717      2.5205      0.2054      7.8507    131.1778     31.9377
  1850.7000      8.4717      2.5528      0.1337      5.8919    131.1197     31.2810
  1850.8000      8.5329      2.5795      0.1925      4.2742    128.7095     29.9844
  1850.9000      8.5329      2.5893      0.2033      3.6776    128.6690     29.1845
  1851.0000      8.5892      2.5791      0.1691      4.2984    133.8590     29.6072
  1851.1000      8.5892      2.5608      0.2134      5.4037    137.1819     30.6840
  1851.2000      8.5892      2.5331      0.1337      7.0871    139.4244     31.3081
  1851.3000      8.4317      2.4976      0.0572      9.2338    143.0978     31.3401
  1851.4000      8.4317      2.4692      0.0153     10.9552    143.3732     31.1918
  1851.5000      8.3960      2.4522      0.0442     11.9907    136.6515     31.0197
  1851.6000      8.3960      2.4432      0.0157     12.5351    127.1328     30.8562
  1851.7000      8.3960      2.4430      0.0043     12.5450    121.7585     30.4190
  1851.8000      8.2070      2.4473     -0.0274     12.2834    118.5265     29.7825
  1851.9000      8.2070      2.4443      0.0152     12.4658    115.1698     29.2719
  1852.0000      8.1657      2.4361     -0.0190     12.9663    117.0004     28.8097
  1852.1000      8.1657      2.4394      0.0024     12.7628    123.0509     28.1242
  1852.2000      8.1657      2.4452      0.0464     12.4111    128.0398     27.5249
  1852.3000      8.1563      2.4168      0.1404     14.1315    129.5838     27.7178
  1852.4000      8.1563      2.3501      0.0340     18.1774    129.1386     28.6610
  1852.5000      8.1438      2.2793      0.1082     22.4666    130.1313     29.3298
  1852.6000      8.1438      2.2271     -0.0028     25.6277    131.2319     29.3577
  1852.7000      8.1438      2.2061     -0.0489     26.9016    131.4953     29.2281
  1852.8000      8.1565      2.2158     -0.0057     26.3164    130.8555     28.9527
  1852.9000      8.1565      2.2412      0.0175     24.7727    126.8252     28.7617
  1853.0000      8.2857      2.2764      0.0943     22.6419    124.3993     28.7578
  1853.1000      8.2857      2.3242      0.1575     19.7452    130.8283     28.8605
  1853.2000      8.2857      2.3755      0.3279     16.6359    141.8433     29.1917
  1853.3000      8.6808      2.4115      0.3380     14.4569    148.5432     29.7821
  1853.4000      8.6808      2.4304      0.2534     13.3089    150.0119     30.5181
  1853.5000      9.1669      2.4331      0.2315     13.1455    149.8239     30.8942
  1853.6000      9.1669      2.4151      0.1307     14.2361    147.7074     30.7508
  1853.7000      9.1669      2.3905      0.1077     15.7252    144.5611     30.3438
  1853.8000      9.1256      2.3750      0.1012     16.6663    142.2780     30.1331
  1853.9000      9.1256      2.3671      0.0621     17.1463    140.7189     30.7968
  1854.0000      8.5389      2.3608      0.0694     17.5302    140.3902     32.3125
  1854.1000      8.5389      2.3555      0.0602     17.8474    139.9534     33.4049
  1854.2000      8.5389      2.3543      0.0841     17.9209    135.2804     33.2189
  1854.3000      8.5989      2.3588      0.0651     17.6458    129.9010     32.7265
  1854.4000      8.5989      2.3669      0.1059     17.1590    132.5218     33.0713
  1854.5000      8.6367      2.3806      0.0685     16.3285    141.4140     33.6821
  1854.6000      8.6367      2.4087      0.0946     14.6243    147.2213     33.6057
  1854.7000      8.6367      2.4390      0.1128     12.7900    143.3334     32.8006
  1854.8000      8.4149      2.4451      0.1162     12.4206    131.2445     31.4907
  1854.9000      8.4149      2.4203      0.0512     13.9230    120.2763     29.9716
  1855.0000      8.2644      2.3791      0.0551     16.4176    114.0913     28.8827
  1855.1000      8.2644      2.3303      0.0515     19.3768    109.6692     28.8740
  1855.2000      8.2644      2.2656      0.0684     23.2942    105.6351     29.8799
  1855.3000      8.2875      2.1794     -0.0228     28.5205    102.8757     30.9855
  1855.4000      8.2875      2.0851     -0.0628     34.2369    104.5656     31.2289
  1855.5000      8.2680      2.0067     -0.0769     38.9879    109.7094     30.7317
  1855.6000      8.2680      1.9548     -0.1029     42.1305    111.7775     30.4064
  1855.7000      8.2680      1.9081     -0.0354     44.9648    110.2055     30.4078
  1855.8000      8.1759      1.8414     -0.0204     49.0042    107.6465     30.4312
  1855.9000      8.1759      1.7731     -0.0631     53.1466    102.6946     30.4548
  1856.0000      8.1599      1.7381     -0.0210     55.2673     95.4156     30.3728
  1856.1000      8.1599      1.7349      0.0165     55.4604     88.8969     30.0826
  1856.2000      8.1599      1.7463     -0.0029     54.7720     84.0445     29.5684
  1856.3000      8.2163      1.7772      0.0164     52.8960     79.1512     29.5072
  1856.4000      8.2163      1.8325      0.0675     49.5449     75.4224     30.6534
  1856.5000      8.4046      1.8958      0.0939     45.7071     75.9970     32.0794
  1856.6000      8.4046      1.9547      0.0545     42.1376     80.4613     32.5558
  1856.7000      8.4046      2.0106      0.1362     38.7542     85.0167     31.9025
  1856.8000      8.4210      2.0621      0.1764     35.6329     87.1791     30.7726
  1856.9000      8.4210      2.1113      0.1746     32.6475     90.6916     30.2139
  1857.0000      8.2874      2.1567      0.2098     29.8995     98.7260     30.0214
  1857.1000      8.2874      2.1801      0.1527     28.4769    104.8799     29.3080
  1857.2000      8.2874      2.1750      0.0957     28.7900    103.8835     28.3371
  1857.3000      8.2843      2.1612      0.0553     29.6269    101.3815     28.0935
  1857.4000      8.2843      2.1626      0.0449     29.5395    104.8471     28.5568
  1857.5000      8.2407      2.1864      0.0650     28.0973    115.5124     28.7274
  1857.6000      8.2407      2.2292      0.0809     25.5014    125.0246     28.5032
  1857.7000      8.2407      2.2918      0.1282     21.7072    126.1575     28.4390
  1857.8000      8.2228      2.3763      0.2406     16.5865    123.6372     28.6617
  1857.9000      8.2228      2.4791      0.1988     10.3588    122.4613     28.9050
  1858.0000      8.2334      2.5775      0.2873      4.3955    119.1543     28.9027
  1858.1000      8.2334      2.6351      0.2342      0.9050    114.1567     28.6508
  1858.2000      8.2334      2.6411      0.2417      0.5402    114.0498     28.3270
  1858.3000      8.2112      2.6120      0.2131      2.3011    119.7062     28.0169
