~Version Information
VERS.                      2.0: CWLS Log ASCII Standard - VERSION 2.0
WRAP.                       NO: One line per depth step
~Well Information Block
STRT.FT               490.0000: 
STOP.FT              2303.5000: 
STEP.FT                 0.1000: 
NULL.                -999.2500: 
COMP.          Pioneer Natural Resources: COMPANY
WELL.             Baa Baa 34-1: WELL
FLD.           Purgatoire River: FIELD
LOC.           617' FSL & 2289' FEL: LOCATION
STAT.                 Colorado: State
CNTY.               Las Animas: COUNTY
CTRY. USA : Country
SECT. 1 : Section
TOWN. 33S : Township
RANG. 67W : Range
SRVC.                Patterson: SERVICE COMPANY
DATE.          Thu Sep 08 09:44:32 2005: LOG DATE
API.           05 071 08502 00: UNIQUE WELL ID
~Curve Information Block
DEPT.FT            0 000 00 00: Depth
DCAL.in                       : CDL Caliper
RHOB.g/cc                     : CDL Bulk Density
RHOC.g/cc                     : CDL Density Correction
DPOR.pu                       : CDL Density Porosity
GR.GAPI                       : Gamma Ray
NPOR.pu                       : Neutron Porosity
~Parameter Information Block
~A  Depth       DCAL        RHOB        RHOC        DPOR         GR         NPOR    
   490.0000      8.2908      1.8038     -0.6334     51.2829    152.1432     23.9448
   490.1000      8.2908      1.8149     -0.6083     50.6100    152.3111     22.6690
   490.2000      8.2908      1.8252     -0.5986     49.9905    147.9689     22.1287
   490.3000      8.2926      1.8308     -0.5726     49.6466    138.2529     22.9442
   490.4000      8.2926      1.8257     -0.5176     49.9559    131.2316     24.4021
   490.5000      8.2941      1.8173     -0.6570     50.4678    132.9692     25.1238
   490.6000      8.2941      1.8163     -0.5381     50.5247    135.2281     24.8488
   490.7000      8.2941      1.8211     -0.6169     50.2384    133.2931     24.2775
   490.8000      8.2890      1.8304     -0.5613     49.6709    131.8693     23.8917
   490.9000      8.2890      1.8298     -0.5368     49.7097    134.0563     23.3213
   491.0000      8.2873      1.8107     -0.5856     50.8666    136.3491     22.6015
   491.1000      8.2873      1.7956     -0.6703     51.7791    134.0970     22.1117
   491.2000      8.2873      1.8003     -0.5829     51.4997    129.5676     21.8379
   491.3000      8.2863      1.8082     -0.5653     51.0212    128.2224     21.8149
   491.4000      8.2863      1.8077     -0.5821     51.0483    132.7399     21.5883
   491.5000      8.2876      1.8091     -0.6109     50.9661    139.3442     21.0606
   491.6000      8.2876      1.8098     -0.5515     50.9226    145.0144     21.1411
   491.7000      8.2876      1.7956     -0.6000     51.7841    150.5826     22.0567
   491.8000      8.2944      1.7746     -0.6527     53.0519    152.5396     22.7867
   491.9000      8.2944      1.7632     -0.6007     53.7485    145.8839     22.9211
   492.0000      8.2901      1.7620     -0.6567     53.8155    135.4274     22.9890
   492.1000      8.2901      1.7641     -0.6252     53.6939    133.6752     22.9921
   492.2000      8.2901      1.7618     -0.6290     53.8294    142.0221     22.6146
   492.3000      8.2917      1.7546     -0.6400     54.2682    149.0783     22.0375
   492.4000      8.2917      1.7500     -0.6530     54.5462    147.5650     21.5673
   492.5000      8.2913      1.7595     -0.6500     53.9675    139.3295     21.3978
   492.6000      8.2913      1.7850     -0.6327     52.4249    128.6894     21.6655
   492.7000      8.2913      1.8149     -0.5979     50.6092    122.0565     22.2301
   492.8000      8.2895      1.8300     -0.5736     49.6966    127.7584     23.3013
   492.9000      8.2895      1.8114     -0.5572     50.8219    145.6112     24.7507
   493.0000      8.2865      1.7665     -0.6556     53.5474    157.4789     25.4307
   493.1000      8.2865      1.7230     -0.6280     56.1839    150.0387     24.9056
   493.2000      8.2865      1.6967     -0.6787     57.7746    140.1845     24.0125
   493.3000      8.2868      1.6912     -0.7038     58.1067    142.7473     23.4523
   493.4000      8.2868      1.6982     -0.6197     57.6834    147.1928     23.4647
   493.5000      8.2883      1.7036     -0.6610     57.3573    144.6188     23.8277
   493.6000      8.2883      1.7098     -0.6588     56.9836    141.2763     23.6933
   493.7000      8.2883      1.7230     -0.6483     56.1841    140.3951     22.8882
   493.8000      8.2890      1.7466     -0.6415     54.7521    136.3294     22.5461
   493.9000      8.2890      1.7811     -0.6153     52.6617    130.6363     23.2381
   494.0000      8.2882      1.8113     -0.5723     50.8280    132.6331     23.9572
   494.1000      8.2882      1.8252     -0.5859     49.9851    140.7689     24.0612
   494.2000      8.2882      1.8269     -0.5531     49.8876    143.2655     23.9754
   494.3000      8.2823      1.8198     -0.5560     50.3154    137.3441     23.8321
   494.4000      8.2823      1.8032     -0.5726     51.3195    130.7992     23.5203
   494.5000      8.2828      1.7834     -0.6032     52.5208    127.7253     23.4075
   494.6000      8.2828      1.7801     -0.6448     52.7213    126.7873     23.5159
   494.7000      8.2828      1.8052     -0.5824     51.1985    127.2281     23.4297
   494.8000      8.2864      1.8444     -0.6278     48.8232    127.9402     23.1264
   494.9000      8.2864      1.8695     -0.5231     47.3022    125.8852     23.0272
   495.0000      8.2886      1.8593     -0.5755     47.9213    121.0417     23.1766
   495.1000      8.2886      1.8238     -0.6224     50.0726    116.2838     22.9636
   495.2000      8.2886      1.7966     -0.6396     51.7235    114.3693     22.1455
   495.3000      8.2905      1.7957     -0.6797     51.7753    120.1070     21.5741
   495.4000      8.2905      1.8015     -0.5751     51.4239    132.9406     21.8951
   495.5000      8.2864      1.7945     -0.6301     51.8476    141.0936     22.5877
   495.6000      8.2864      1.7927     -0.6168     51.9604    135.5991     22.8817
   495.7000      8.2864      1.8096     -0.6035     50.9339    122.3760     22.6178
   495.8000      8.2880      1.8275     -0.5822     49.8482    117.8406     22.2822
   495.9000      8.2880      1.8326     -0.5746     49.5381    125.7483     21.8190
   496.0000      8.2875      1.8255     -0.5533     49.9726    130.8689     20.8547
   496.1000      8.2875      1.8115     -0.6458     50.8188    128.6221     19.7584
   496.2000      8.2875      1.8056     -0.6408     51.1776    127.0627     18.9885
   496.3000      8.2877      1.8108     -0.6088     50.8595    127.2529     18.9702
   496.4000      8.2877      1.8147     -0.6330     50.6244    126.8842     19.9584
   496.5000      8.2868      1.8127     -0.6389     50.7429    130.6326     21.3253
   496.6000      8.2868      1.8070     -0.5815     51.0896    141.9684     22.1551
   496.7000      8.2868      1.7987     -0.5999     51.5965    154.5381     22.0670
   496.8000      8.2829      1.7868     -0.6289     52.3175    160.5594     21.3966
   496.9000      8.2829      1.7733     -0.6451     53.1360    152.2816     21.2317
   497.0000      8.2855      1.7706     -0.6649     53.2991    130.4700     21.9997
   497.1000      8.2855      1.7825     -0.6027     52.5733    116.8528     22.7009
   497.2000      8.2855      1.7949     -0.6072     51.8247    126.1811     22.6446
   497.3000      8.2849      1.8064     -0.6079     51.1300    143.6018     22.3684
   497.4000      8.2849      1.8294     -0.6030     49.7328    150.4930     22.4178
   497.5000      8.2838      1.8568     -0.5592     48.0738    145.8949     22.1812
   497.6000      8.2838      1.8662     -0.5516     47.5022    138.4403     21.3890
   497.7000      8.2838      1.8561     -0.5861     48.1142    133.0733     20.9210
   497.8000      8.2836      1.8533     -0.6077     48.2830    131.2009     21.1653
   497.9000      8.2836      1.8747     -0.5738     46.9893    129.3217     21.6382
   498.0000      8.2830      1.8952     -0.4660     45.7431    121.1449     22.0012
   498.1000      8.2830      1.8775     -0.5301     46.8201    111.1881     22.6136
   498.2000      8.2830      1.8226     -0.5885     50.1450    109.7020     23.2875
   498.3000      8.2835      1.7722     -0.6917     53.1978    118.5708     23.1248
   498.4000      8.2835      1.7625     -0.6574     53.7882    134.6140     22.5548
   498.5000      8.2966      1.7833     -0.6657     52.5291    153.0256     22.2609
   498.6000      8.2966      1.8009     -0.6128     51.4628    165.7828     21.9618
   498.7000      8.2966      1.8023     -0.6199     51.3759    169.0555     21.7604
   498.8000      8.2851      1.7966     -0.6193     51.7211    164.2383     21.8134
   498.9000      8.2851      1.7912     -0.6270     52.0501    148.8015     21.9570
   499.0000      8.2815      1.7915     -0.6113     52.0309    130.7320     22.1607
   499.1000      8.2815      1.8034     -0.6069     51.3091    121.6506     22.0705
   499.2000      8.2815      1.8167     -0.5323     50.5011    118.9682     21.7242
   499.3000      8.2846      1.8184     -0.6215     50.3981    116.6907     21.8886
   499.4000      8.2846      1.8095     -0.5716     50.9392    111.3960     22.5997
   499.5000      8.2825      1.7950     -0.6095     51.8164    103.3009     22.8896
