~Version Information
VERS.                      2.0: CWLS Log ASCII Standard - VERSION 2.0
WRAP.                       NO: One line per depth step
~Well Information Block
STRT.FT               -10.2500: 
STOP.FT              2437.2500: 
STEP.FT                 0.2500: 
NULL.                -999.2500: 
COMP.          Pioneer Natural Resources: COMPANY
WELL.          Hellzonfire 32-31: WELL
FLD.           Purgatorie River: FIELD
LOC.           1993' FNL & 2265' FEL------: LOCATION
STAT.                       CO: State
CNTY.               Las Animas: COUNTY
CTRY. USA : Country
SECT. 31 : Section
TOWN. 32S : Township
RANG. 66W : Range
SRVC.          Patterson Wireline: SERVICE COMPANY
DATE.          Thu Sep 08 11:10:17 2005: LOG DATE
API.           05 071 08483 00: UNIQUE WELL ID
~Curve Information Block
DEPT.FT            0 000 00 00: Depth
CCL.                          : Casing Collar Locator
TT3.usec                      : CBL 3' Travel Time
AMP3.mV                       : CBL 3' Amplitude
GR.GAPI                       : Gamma Ray
~Parameter Information Block
~A  Depth       CCL         TT3         AMP3         GR     
# ...
  2234.2500      0.0000    680.5748     12.2692     63.1706
  2234.5000      0.0000    675.6910     12.4830     65.4350
  2234.7500      0.0000    679.9781     12.7456     68.9997
  2235.0000      0.0000    685.9046     13.1686     71.1339
  2235.2500      0.0000    685.9298     13.7779     70.6165
  2235.5000      0.0000    677.0176     14.4765     68.0774
  2235.7500      0.0000    662.7823     15.0777     65.1954
  2236.0000      0.0000    651.9309     15.4018     63.6322
  2236.2500      0.0000    652.1813     15.3759     64.2704
  2236.5000      0.0000    664.0016     15.0628     67.0414
  2236.7500      0.0000    680.9171     14.6056     71.1835
  2237.0000      0.0000    695.9456     14.1457     75.5795
  2237.2500      0.0000    706.4940     13.7789     79.1895
  2237.5000      0.0000    713.1665     13.5504     81.5453
  2237.7500      0.0000    715.3228     13.4616     82.8453
  2238.0000      0.0000    708.8217     13.4805     83.5570
  2238.2500      0.0000    688.8834     13.5577     84.1312
  2238.5000      0.0000    656.2413     13.6437     84.9923
  2238.7500      0.0000    619.9337     13.7023     86.2900
  2239.0000      0.0000    591.5732     13.7197     87.6086
  2239.2500      0.0000    575.8882     13.6985     88.4309
  2239.5000      0.0000    568.5001     13.6431     88.9738
  2239.7500      0.0000    563.1307     13.5520     90.0707
  2240.0000      0.0000    558.2289     13.4254     92.1907
  2240.2500      0.0000    555.8444     13.2701     94.8132
  2240.5000      0.0000    557.4810     13.0930     96.6257
  2240.7500      0.0000    563.6704     12.8912     96.2410
  2241.0000      0.0000    576.0192     12.6551     93.2386
  2241.2500      0.0000    596.7511     12.3854     88.8727
  2241.5000      0.0000    625.2173     12.1094     85.2965
  2241.7500      0.0000    655.8780     11.8748     83.6026
  2242.0000      0.0000    681.2879     11.7163     82.7844
  2242.2500      0.0000    697.2837     11.6253     80.9552
  2242.5000      0.0000    704.8094     11.5590     77.3478
  2242.7500      0.0000    707.3831     11.4824     72.8131
  2243.0000      0.0000    708.0078     11.3959     68.8770
  2243.2500      0.0000    708.1479     11.3259     66.8590
  2243.5000      0.0000    708.2163     11.3011     67.3872
  2243.7500      0.0000    708.2574     11.3391     70.0611
  2244.0000      0.0000    708.3113     11.4516     73.5552
  2244.2500      0.0000    708.4532     11.6559     76.2535
  2244.5000      0.0000    708.6305     11.9735     77.0838
  2244.7500      0.0000    708.3189     12.4110     76.0575
  2245.0000      0.0000    705.8245     12.9449     74.0034
  2245.2500      0.0000    697.2181     13.5343     71.7762
  2245.5000      0.0000    676.1324     14.1482     70.1016
  2245.7500      0.0000    637.0217     14.7685     70.0530
  2246.0000      0.0000    582.0872     15.3642     72.6132
  2246.2500      0.0000    526.0732     15.8765     77.2422
  2246.5000      0.0000    491.4745     16.2337     81.6297
  2246.7500      0.0000    495.0085     16.3812     83.5301
  2247.0000      0.0000    535.7812     16.3010     82.5571
  2247.2500      0.0000    595.5051     16.0166     79.9763
  2247.5000      0.0000    651.4603     15.5869     77.3260
  2247.7500      0.0000    691.1005     15.0887     75.5626
  2248.0000      0.0000    715.2617     14.5963     74.9761
  2248.2500      0.0000    729.7465     14.1623     75.3364
  2248.5000      0.0000    737.2479     13.8049     76.1590
  2248.7500      0.0000    737.3100     13.5058     77.1030
  2249.0000      0.0000    730.4465     13.2290     78.1422
  2249.2500      0.0000    719.8602     12.9485     79.2274
  2249.5000      0.0000    709.8892     12.6604     79.7884
  2249.7500      0.0000    703.7068     12.3704     78.7541
  2250.0000      0.0000    702.1850     12.0712     75.3589
  2250.2500      0.0000    704.4624     11.7306     70.0553
  2250.5000      0.0000    709.2275     11.2980     64.4947
  2250.7500      0.0000    715.1936     10.7337     60.4799
  2251.0000      0.0000    720.9118     10.0526     58.8446
  2251.2500      0.0000    725.2209      9.3491     59.2737
  2251.5000      0.0000    727.8713      8.7631     61.0648
  2251.7500      0.0000    729.0117      8.3936     63.7287
  2252.0000      0.0000    728.3875      8.2338     66.7311
  2252.2500      0.0000    725.5576      8.1911     69.2139
  2252.5000     -2.0000    720.5400      8.1607     70.5385
  2252.7500      0.0000    713.8001      8.0783     70.9544
  2253.0000      0.0000    705.8363      7.9307     71.3589
  2253.2500      0.0000    697.0831      7.7601     72.3489
  2253.5000      0.0000    688.3573      7.6637     73.6043
  2253.7500      0.0000    681.0864      7.7483     74.2764
  2254.0000      0.0000    676.6307      8.0550     74.0421
  2254.2500      0.0000    675.3817      8.5387     73.5687
  2254.5000      0.0000    676.8518      9.1171     73.6580
  2254.7500      0.0000    680.5100      9.7046     74.3502
  2255.0000      0.0000    686.0520     10.2070     75.3314
  2255.2500      0.0000    692.8211     10.5409     76.6696
  2255.5000      0.0000    699.6053     10.6763     78.5068
  2255.7500      0.0000    705.2359     10.6446     80.5417
  2256.0000      0.0000    708.7875     10.5082     82.2594
  2256.2500      0.0000    708.7180     10.3384     83.1916
  2256.5000      0.0000    702.5043     10.2050     82.7657
  2256.7500      0.0000    688.4565     10.1606     80.4886
  2257.0000      0.0000    668.7744     10.2168     76.4756
  2257.2500      0.0000    650.3047     10.3400     71.5161
  2257.5000      0.0000    640.6161     10.4744     66.6105
  2257.7500      0.0000    641.9002     10.5764     62.5083
  2258.0000      0.0000    648.9014     10.6346     59.5173
  2258.2500      0.0000    653.5223     10.6626     57.5600
  2258.5000      0.0000    651.2285     10.6755     56.3385
  2258.7500      0.0000    642.4144     10.6731     55.4893
  2259.0000      0.0000    629.1545     10.6489     54.7605
  2259.2500      0.0000    613.5032     10.6081     54.1853
  2259.5000      0.0000    599.4232     10.5715     53.9128
  2259.7500      0.0000    592.7303     10.5587     53.7797
  2260.0000      0.0000    595.6243     10.5735     53.2779
  2260.2500      0.0000    601.6754     10.6078     52.0869
  2260.5000      0.0000    598.4926     10.6558     50.4176
  2260.7500      0.0000    576.3119     10.7211     48.6764
  2261.0000      0.0000    535.3382     10.8087     46.9567
  2261.2500      0.0000    486.9906     10.9150     45.0681
  2261.5000      0.0000    448.6433     11.0248     43.0266
  2261.7500      0.0000    435.5534     11.1176     41.3633
  2262.0000      0.0000    454.8689     11.1768     40.8390
  2262.2500      0.0000    503.0999     11.1972     41.8089
  2262.5000      0.0000    566.7841     11.1848     43.9433
  2262.7500      0.0000    627.8092     11.1508     46.5941
  2263.0000      0.0000    672.4520     11.1057     49.3492
  2263.2500      0.0000    697.3785     11.0597     52.4015
  2263.5000      0.0000    707.9464     11.0250     56.6591
  2263.7500      0.0000    711.9609     11.0098     63.3007
  2264.0000      0.0000    715.0171     11.0099     72.7686
  2264.2500      0.0000    719.5991     11.0071     83.9701
  2264.5000      0.0000    726.1758     10.9807     94.5430
  2264.7500      0.0000    734.0678     10.9220    102.2392
  2265.0000      0.0000    741.3818     10.8399    106.3466
  2265.2500      0.0000    745.1906     10.7572    107.6442
  2265.5000      0.0000    743.1941     10.6979    106.9692
  2265.7500      0.0000    735.8336     10.6754    104.4164
  2266.0000      0.0000    726.6498     10.6859    100.1465
  2266.2500      0.0000    720.4186     10.7095     95.1835
  2266.5000      0.0000    720.5907     10.7135     90.8392
  2266.7500      0.0000    727.4642     10.6611     87.8404
  2267.0000      0.0000    738.0826     10.5287     86.5109
  2267.2500      0.0000    748.1181     10.3253     87.2622
  2267.5000      0.0000    754.0115     10.0995     90.1452
