~Version Information
VERS.                      2.0: CWLS Log ASCII Standard - VERSION 2.0
WRAP.                       NO: One line per depth step
~Well Information Block
STRT.FT                 0.0000: 
STOP.FT              1923.5000: 
STEP.FT                 0.2500: 
NULL.                -999.2500: 
COMP.          Petrogulf Corporation: COMPANY
WELL.            Montoya 7-14R: WELL
FLD.           Purgatorie River: FIELD
LOC.           628' FSL & 454' FWL: LOCATION
STAT.                 Colorado: State
CNTY.               Las Animas: COUNTY
CTRY. USA : Country
SECT. 7 : Section
TOWN. 33S : Township
RANG. 67W : Range
SRVC.                Patterson: SERVICE COMPANY
DATE.          Wed Nov 09 12:02:27 2005: LOG DATE
API. 05-071-08554                         : UNIQUE WELL ID
~Curve Information Block
DEPT.FT            0 000 00 00: Depth
CCL.                          : Casing Collar Locator
TT3.usec                      : CBL 3' Travel Time
AMP3.mV                       : CBL 3' Amplitude
GR.GAPI                       : Gamma Ray
~Parameter Information Block
~A  Depth       CCL         TT3         AMP3         GR     
# ...
  1005.0000      0.0000    626.3381      8.7581    102.1910
  1005.2500      0.0000    645.4779      8.5328    109.1436
  1005.5000      0.0000    656.0854      8.3439    117.6756
  1005.7500      0.0000    656.6652      8.3881    126.6968
  1006.0000      0.0000    642.8076      8.7902    134.9514
  1006.2500      0.0000    612.4346      9.5688    141.1285
  1006.5000      0.0000    574.0967     10.6879    144.3043
  1006.7500      0.0000    535.8506     12.0840    144.4037
  1007.0000      0.0000    487.9646     13.6681    142.0370
  1007.2500      0.0000    423.0861     15.3127    138.0837
  1007.5000      0.0000    360.4465     16.8035    133.7004
  1007.7500      0.0000    321.8449     17.9415    130.2325
  1008.0000      0.0000    306.5417     18.7445    128.3508
  1008.2500      0.0000    302.8070     19.3407    127.3878
  1008.5000      0.0000    304.0107     19.7192    126.0103
  1008.7500      0.0000    309.4178     19.8558    123.4963
  1009.0000      0.0000    317.3031     19.9426    120.2273
  1009.2500      0.0000    321.8375     20.2047    117.1213
  1009.5000      0.0000    321.8351     20.5091    114.7811
  1009.7500      0.0000    329.9937     20.3355    113.2935
  1010.0000      0.0000    364.6486     19.2723    112.6866
  1010.2500      0.0000    429.8027     17.4751    113.0308
  1010.5000      0.0000    505.8000     15.5184    113.9707
  1010.7500      0.0000    566.4663     13.8726    114.7789
  1011.0000      0.0000    602.3974     12.6299    115.0775
  1011.2500      0.0000    616.2240     11.6656    114.9104
  1011.5000      0.0000    604.1197     10.9148    113.8620
  1011.7500      0.0000    564.1021     10.4181    110.7646
  1012.0000      0.0000    522.9902     10.1308    104.8937
  1012.2500      0.0000    522.1071      9.8164     97.4788
  1012.5000      0.0000    564.6427      9.2308     91.5729
  1012.7500      0.0000    611.9030      8.3757     89.9917
  1013.0000      0.0000    634.7753      7.5071     93.2065
  1013.2500      0.0000    638.1497      6.8863     99.1894
  1013.5000      0.0000    639.7010      6.5899    105.2291
  1013.7500      0.0000    647.6947      6.5861    110.0060
  1014.0000      0.0000    660.8451      6.8562    114.0361
  1014.2500      0.0000    674.8712      7.3797    118.2081
  1014.5000      0.0000    683.0546      8.0690    122.2929
  1014.7500      0.0000    681.4284      8.7666    125.2232
  1015.0000      0.0000    674.6711      9.3312    126.4691
  1015.2500      0.0000    669.4905      9.7117    126.4761
  1015.5000      0.0000    667.3460      9.9442    125.7723
  1015.7500      0.0000    666.3025     10.1163    124.3112
  1016.0000      0.0000    663.5121     10.3249    121.9830
  1016.2500      0.0000    652.5790     10.6378    119.3527
  1016.5000      0.0000    620.8290     11.0930    117.4311
  1016.7500      0.0000    559.7422     11.6647    116.6507
  1017.0000      0.0000    485.1491     12.1897    116.1981
  1017.2500      0.0000    433.2306     12.4536    114.4659
  1017.5000      0.0000    430.9388     12.4038    110.2863
  1017.7500      0.0000    479.4919     12.1886    104.0229
  1018.0000      0.0000    554.2885     11.9708     97.6228
  1018.2500      0.0000    616.4782     11.8097     93.5004
  1018.5000      0.0000    637.9430     11.7441     93.0575
  1018.7500      0.0000    612.3868     11.8661     95.9136
  1019.0000      0.0000    551.3678     12.2268    100.4819
  1019.2500      0.0000    487.4550     12.6984    105.3210
  1019.5000      0.0000    464.3364     13.0160    109.6861
  1019.7500      0.0000    500.2626     13.0204    112.7076
  1020.0000      0.0000    567.0902     12.8081    112.6970
  1020.2500      0.0000    621.3652     12.6235    108.0114
  1020.5000      0.0000    649.5830     12.6637     98.5933
  1020.7500      0.0000    659.5206     13.0026     86.2003
  1021.0000      0.0000    640.4113     13.6521     73.1479
  1021.2500      0.0000    572.8669     14.6359     61.0746
  1021.5000      0.0000    474.6121     15.9904     50.6802
  1021.7500      0.0000    392.5513     17.6054     42.1509
  1022.0000      0.0000    350.3408     19.0513     35.5858
  1022.2500      0.0000    337.6138     19.8445     31.0685
  1022.5000      0.0000    339.5853     19.8971     28.6087
  1022.7500      0.0000    353.1905     19.3937     28.1725
  1023.0000      0.0000    380.3162     18.3205     29.6412
  1023.2500      0.0000    417.5060     16.5839     32.6761
  1023.5000      0.0000    456.9031     14.7227     36.8031
  1023.7500      0.0000    494.4821     13.7310     41.5881
  1024.0000      0.0000    534.7678     13.6674     46.5447
  1024.2500      0.0000    581.3220     13.6450     51.0692
  1024.5000      0.0000    617.3721     13.3552     54.9747
  1024.7500      0.0000    620.1228     13.1383     59.2831
  1025.0000      0.0000    600.6088     13.0897     66.1625
  1025.2500     -2.0000    587.8519     12.9971     77.3690
  1025.5000      2.0000    582.6020     12.6522     92.3082
  1025.7500      0.0000    568.6100     11.9822    108.0005
  1026.0000      0.0000    536.3142     11.1364    121.4570
  1026.2500      0.0000    489.4554     10.5683    131.8487
  1026.5000      0.0000    456.6436     10.6745    139.8429
  1026.7500      0.0000    463.1761     11.2637    145.3913
  1027.0000      0.0000    487.9282     12.1021    147.3643
  1027.2500      0.0000    484.6767     13.5910    145.4451
  1027.5000      0.0000    440.5403     15.9786    141.3623
  1027.7500      0.0000    382.9035     18.7661    137.6556
  1028.0000      0.0000    338.5750     21.3145    135.5637
  1028.2500      0.0000    313.9197     23.3008    134.5275
  1028.5000      0.0000    303.5786     24.6342    133.5895
  1028.7500      0.0000    300.4437     25.3237    132.7327
  1029.0000      0.0000    299.9004     25.4606    132.6477
  1029.2500      0.0000    300.0363     25.2275    133.4482
  1029.5000      0.0000    300.3379     24.8299    134.0687
  1029.7500      0.0000    301.3055     24.3548    133.2115
  1030.0000      0.0000    306.2536     23.6341    130.7660
  1030.2500      0.0000    325.0721     22.3374    127.9119
  1030.5000      0.0000    373.1769     20.3180    125.8006
  1030.7500      0.0000    455.4193     17.8005    124.5851
  1031.0000      0.0000    548.9329     15.2451    123.8998
  1031.2500      0.0000    619.1099     13.0662    123.8573
  1031.5000      0.0000    653.6337     11.4126    125.0411
  1031.7500      0.0000    664.6720     10.2383    127.4709
  1032.0000      0.0000    666.6598      9.4966    130.0801
  1032.2500      0.0000    664.9578      9.1920    131.5734
  1032.5000      0.0000    656.2949      9.4010    131.7080
  1032.7500      0.0000    632.5647     10.2402    131.4928
  1033.0000      0.0000    591.5077     11.7004    132.0677
  1033.2500      0.0000    541.9704     13.6029    133.4741
  1033.5000      0.0000    487.5469     15.7872    134.5070
  1033.7500      0.0000    424.2466     18.2606    133.6006
  1034.0000      0.0000    363.0132     21.1562    129.8989
  1034.2500      0.0000    322.1444     24.5805    123.9081
  1034.5000      0.0000    302.8573     28.4708    117.5877
  1034.7500      0.0000    293.2056     32.6589    113.6962
  1035.0000      0.0000    283.8428     37.0596    114.3459
  1035.2500      0.0000    273.3898     41.6384    119.4662
  1035.5000      0.0000    264.9095     46.1736    126.4618
  1035.7500      0.0000    260.2278     50.1749    131.7945
  1036.0000      0.0000    258.4121     53.1883    133.5445
  1036.2500      0.0000    257.8808     55.1442    132.6144
  1036.5000      0.0000    257.7860     56.1771    131.4120
  1036.7500      0.0000    258.0575     56.1706    131.3696
  1037.0000      0.0000    259.4870     54.6790    131.7685
  1037.2500      0.0000    263.7983     51.3238    130.8037
  1037.5000      0.0000    272.1481     46.3259    127.4821
  1037.7500      0.0000    282.6978     40.5379    122.3070
  1038.0000      0.0000    291.8921     34.7715    116.2316
  1038.2500      0.0000    299.6427     29.3184    109.4893
