~Version Information
VERS.                      2.0: CWLS Log ASCII Standard - VERSION 2.0
WRAP.                       NO: One line per depth step
~Well Information Block
STRT.FT               547.0000: 
STOP.FT              1685.5000: 
STEP.FT                 0.2500: 
NULL.                -999.2500: 
COMP.          Pioneer Natural Resources: COMPANY
WELL.           Pedri 42-33 Tr: WELL
FLD.           Purgatorie River: FIELD
LOC.           1933' FNL & 662' FEL: LOCATION
PROV.                 Colorado: PROVINCE
CNTY.               Las Animas: COUNTRY
SRVC.                Patterson: SERVICE COMPANY
DATE.          Mon Dec 19 10:09:44 2005: LOG DATE
UWI.                          : UNIQUE WELL ID
~Curve Information Block
DEPT.FT            0 000 00 00: Depth
DIR.Ohm-m                     : IEL Induction Resistivity
GR.GAPI                       : Gamma Ray
~Parameter Information Block
~A  Depth       DIR          GR     
# ...
   993.0000     61.4649    109.2077
   993.2500     60.7486    111.6681
   993.5000     59.5871    112.3442
   993.7500     58.1609    110.3932
   994.0000     56.7043    104.7475
   994.2500     55.3955     99.8476
   994.5000     54.2880     91.8062
   994.7500     53.3081     86.7008
   995.0000     52.3071     81.1291
   995.2500     51.1462     79.8933
   995.5000     49.7589     82.9143
   995.7500     48.1529     87.8915
   996.0000     46.3731     97.3592
   996.2500     44.4780    103.0540
   996.5000     42.5481    108.5973
   996.7500     40.6927    110.4851
   997.0000     39.0316    112.1652
   997.2500     37.6611    112.9890
   997.5000     36.6315    113.4738
   997.7500     35.9510    113.2938
   998.0000     35.6038    113.4428
   998.2500     35.5658    114.6351
   998.5000     35.8075    118.0715
   998.7500     36.2905    120.5488
   999.0000     36.9742    122.9324
   999.2500     37.8377    123.5774
   999.5000     38.8974    124.3759
   999.7500     40.1983    125.2269
  1000.0000     41.7784    125.7982
  1000.2500     43.6327    124.5309
  1000.5000     45.6998    119.6130
  1000.7500     47.8787    115.0886
  1001.0000     50.0604    107.7927
  1001.2500     52.1589    102.6729
  1001.5000     54.1235     94.1592
  1001.7500     55.9222     88.0795
  1002.0000     57.4978     79.8119
  1002.2500     58.7272     76.0375
  1002.5000     59.4354     74.5432
  1002.7500     59.4741     76.6205
  1003.0000     58.8158     83.5635
  1003.2500     57.5869     89.7076
  1003.5000     56.0081     99.3631
  1003.7500     54.3012    105.3896
  1004.0000     52.6281    112.9586
  1004.2500     51.0825    116.3874
  1004.5000     49.7118    118.2147
  1004.7500     48.5387    117.4741
  1005.0000     47.5672    115.2874
  1005.2500     46.7770    114.2146
  1005.5000     46.1241    113.7456
  1005.7500     45.5542    113.8707
  1006.0000     45.0260    114.1062
  1006.2500     44.5288    114.2873
  1006.5000     44.0796    115.1050
  1006.7500     43.6964    116.2104
  1007.0000     43.3714    118.1240
  1007.2500     43.0726    118.8075
  1007.5000     42.7793    117.9960
  1007.7500     42.5146    116.3530
  1008.0000     42.3345    113.4973
  1008.2500     42.2712    112.1413
  1008.5000     42.2842    111.3423
  1008.7500     42.2727    111.2768
  1009.0000     42.1512    111.3764
  1009.2500     41.9281    111.8228
  1009.5000     41.7151    113.8593
  1009.7500     41.6573    116.1240
  1010.0000     41.8440    119.7103
  1010.2500     42.2581    121.3876
  1010.5000     42.7851    122.2199
  1010.7500     43.2711    121.7938
  1011.0000     43.5976    120.1661
  1011.2500     43.7277    118.7817
  1011.5000     43.6988    117.2609
  1011.7500     43.5803    117.1996
  1012.0000     43.4312    118.4324
  1012.2500     43.2799    119.3630
  1012.5000     43.1297    119.7085
  1012.7500     42.9800    119.2603
  1013.0000     42.8355    118.5983
  1013.2500     42.6914    118.7302
  1013.5000     42.5104    119.9239
  1013.7500     42.2269    120.9637
  1014.0000     41.7845    121.9079
  1014.2500     41.1717    121.8597
  1014.5000     40.4233    121.2199
  1014.7500     39.5979    120.9351
  1015.0000     38.7580    121.2481
  1015.2500     37.9548    121.9222
  1015.5000     37.1955    123.3896
  1015.7500     36.4001    124.5391
  1016.0000     35.3885    126.1329
  1016.2500     33.9380    126.7161
  1016.5000     31.9019    126.3595
  1016.7500     29.3120    125.5012
  1017.0000     26.3866    124.5834
  1017.2500     23.4390    124.9670
  1017.5000     20.7568    127.1312
  1017.7500     18.5241    128.9577
  1018.0000     16.8108    130.8532
  1018.2500     15.6112    131.0846
  1018.5000     14.9034    129.6357
  1018.7500     14.7210    127.2240
  1019.0000     15.2626    120.4222
  1019.2500     17.1616    113.2537
  1019.5000     22.6333     99.1788
  1019.7500     46.0693     89.0874
  1020.0000 100000.0000     76.3911
  1020.2500 100000.0000     71.1216
  1020.5000 100000.0000     68.5543
  1020.7500 100000.0000     69.4285
  1021.0000 100000.0000     71.9327
  1021.2500 100000.0000     73.1343
  1021.5000 100000.0000     73.3855
  1021.7500 100000.0000     72.6254
  1022.0000 100000.0000     71.0298
  1022.2500 100000.0000     70.7672
  1022.5000 100000.0000     74.1750
  1022.7500 100000.0000     80.0834
  1023.0000 100000.0000     93.8329
  1023.2500 100000.0000    104.3652
  1023.5000 100000.0000    118.2876
  1023.7500 100000.0000    125.0440
  1024.0000 100000.0000    131.7469
  1024.2500 100000.0000    134.9654
  1024.5000 100000.0000    139.4928
  1024.7500 100000.0000    142.6182
  1025.0000 100000.0000    146.9112
  1025.2500 100000.0000    148.8820
  1025.5000 100000.0000    149.6409
  1025.7500 100000.0000    148.5669
  1026.0000 100000.0000    145.4042
  1026.2500      2.7951    143.2551
  1026.5000      0.8307    141.1484
  1026.7500      0.3626    139.7991
  1027.0000      0.1748    134.4273
  1027.2500      0.0947    127.0385
  1027.5000      0.0641    111.2811
  1027.7500      0.0579    100.0442
  1028.0000      0.0707     85.8089
  1028.2500      0.1117     78.8100
  1028.5000      0.2077     71.2575
  1028.7500      0.4051     67.2415
  1029.0000      0.7987     61.2138
  1029.2500      1.6343     56.6372
  1029.5000      3.3580     48.8933
  1029.7500      5.7448     43.5624
  1030.0000      6.6193     36.1901
  1030.2500      5.8702     32.0404
  1030.5000      5.2094     27.1303
  1030.7500      5.3125     24.6100
  1031.0000      6.9544     21.6272
  1031.2500     17.2734     20.1008
  1031.5000 100000.0000     18.5979
  1031.7500 100000.0000     18.0774
  1032.0000 100000.0000     17.6410
  1032.2500 100000.0000     17.4372
  1032.5000 100000.0000     17.7661
  1032.7500 100000.0000     19.1599
  1033.0000 100000.0000     24.2361
  1033.2500 100000.0000     29.6495
  1033.5000 100000.0000     39.3673
  1033.7500 100000.0000     45.7303
  1034.0000 100000.0000     53.8792
  1034.2500 100000.0000     58.3372
  1034.5000 100000.0000     63.9570
  1034.7500 100000.0000     67.2131
  1035.0000 100000.0000     71.7766
  1035.2500     14.4494     74.7424
  1035.5000      3.7565     78.4627
  1035.7500      2.2790     79.6430
  1036.0000      1.8162     78.5405
  1036.2500      1.7354     76.2245
  1036.5000      1.9369     72.1129
  1036.7500      2.4905     69.9458
  1037.0000      3.6223     68.4579
  1037.2500      5.7367     68.7513
  1037.5000      9.1211     70.8547
  1037.7500     12.8286     72.7987
  1038.0000     14.8770     74.6980
  1038.2500     15.5202     74.1815
  1038.5000     17.0266     70.1453
  1038.7500     23.3951     65.9403
  1039.0000     72.5002     59.2983
  1039.2500 100000.0000     55.5637
  1039.5000 100000.0000     51.7499
  1039.7500 100000.0000     50.5264
  1040.0000 100000.0000     50.5600
  1040.2500 100000.0000     51.4010
  1040.5000 100000.0000     52.4197
  1040.7500 100000.0000     52.0791
  1041.0000 100000.0000     49.6775
  1041.2500 100000.0000     47.3202
  1041.5000 100000.0000     43.8009
  1041.7500 100000.0000     41.8988
  1042.0000 100000.0000     40.0362
  1042.2500 100000.0000     39.5156
  1042.5000 100000.0000     39.7259
  1042.7500 100000.0000     40.3283
  1043.0000 100000.0000     41.3818
  1043.2500 100000.0000     41.9489
  1043.5000 100000.0000     42.8507
  1043.7500 100000.0000     43.9710
  1044.0000 100000.0000     46.9036
  1044.2500 100000.0000     49.3998
  1044.5000 100000.0000     52.9502
  1044.7500 100000.0000     54.8249
  1045.0000     12.7505     56.8005
  1045.2500      1.7956     57.5063
  1045.5000      0.6918     57.4327
  1045.7500      0.3230     56.7144
  1046.0000      0.1575     55.4933
  1046.2500      0.0822     55.3373
  1046.5000      0.0496     57.2614
  1046.7500      0.0360     60.3746
  1047.0000      0.0310     67.7315
  1047.2500      0.0306     73.9669
  1047.5000      0.0334     84.1518
  1047.7500      0.0392     90.7931
  1048.0000      0.0499     99.3135
  1048.2500      0.0708    103.2482
  1048.5000      0.1141    105.4488
