~Version Information
VERS.                      2.0: CWLS Log ASCII Standard - VERSION 2.0
WRAP.                       NO: One line per depth step
~Well Information Block
STRT.FT                 0.5000: 
STOP.FT              2166.0000: 
STEP.FT                 0.2500: 
NULL.                -999.2500: 
COMP.          Pioneer Natural Resources: COMPANY
WELL.          Bear Cub Federal 11-23: WELL
FLD.           Purgatoire River: FIELD
LOC.           1225' FNL & 1268 ' FWL--: LOCATION
CNTY.               Las Animas: COUNTY
SRVC.                Patterson: SERVICE COMPANY
DATE.          Mon Jul 17 10:21:31 2006: LOG DATE
UWI.           05 071 08509 00: UNIQUE WELL ID
STAT.                 Colorado: STATE
~Curve Information Block
DEPT.FT            0 000 00 00: Depth
CCL.                          : Casing Collar Locator
TT3.usec                      : CBL 3' Travel Time
AMP3.mV                       : CBL 3' Amplitude
GR.GAPI                       : Gamma Ray
~Parameter Information Block
~A  Depth       CCL         TT3         AMP3         GR     
# ...
  2010.5000      0.0000    639.3383      3.6807     87.2474
  2010.7500      0.0000    611.9949      3.6690     84.9548
  2011.0000      0.0000    551.0554      3.6553     80.8236
  2011.2500      0.0000    505.5306      3.6548     78.3809
  2011.5000      0.0000    450.3318      3.6394     76.4583
  2011.7500      0.0000    431.6480      3.5974     76.9259
  2012.0000      0.0000    437.4766      3.4820     80.9983
  2012.2500      0.0000    462.8041      3.3891     86.0101
  2012.5000      0.0000    522.7179      3.2703     95.5777
  2012.7500      0.0000    566.9809      3.2244    101.5737
  2013.0000      0.0000    621.8647      3.2149    106.5205
  2013.2500      0.0000    645.2935      3.2394    105.8487
  2013.5000      0.0000    662.5039      3.2928     99.4285
  2013.7500      0.0000    666.5100      3.3223     93.4158
  2014.0000      0.0000    668.0701      3.3434     86.0299
  2014.2500      0.0000    668.1445      3.3438     84.0657
  2014.5000      0.0000    667.9172      3.3325     86.1932
  2014.7500      0.0000    667.8707      3.3190     89.7240
  2015.0000      0.0000    669.0966      3.2860     94.5259
  2015.2500      0.0000    671.5417      3.2529     95.7255
  2015.5000      0.0000    677.7921      3.1896     94.1713
  2015.7500      0.0000    682.6027      3.1475     91.9174
  2016.0000      0.0000    687.7758      3.1088     88.6482
  2016.2500      0.0000    688.5575      3.1101     86.9837
  2016.5000      0.0000    685.6993      3.1516     84.8435
  2016.7500      0.0000    682.1357      3.1935     83.2803
  2017.0000      0.0000    676.4102      3.2510     80.7069
  2017.2500      0.0000    673.3137      3.2760     79.2688
  2017.5000      0.0000    670.8911      3.2921     78.6134
  2017.7500      0.0000    671.0255      3.2929     79.7106
  2018.0000      0.0000    673.3571      3.2869     83.8733
  2018.2500      0.0000    675.5812      3.2796     87.8225
  2018.5000      0.0000    678.5254      3.2651     93.5692
  2018.7500      0.0000    679.7357      3.2564     96.0228
  2019.0000      0.0000    680.3382      3.2550     96.9426
  2019.2500      0.0000    680.0954      3.2669     96.5021
  2019.5000      0.0000    678.9475      3.3049     96.0137
  2019.7500      0.0000    677.7285      3.3373     95.9483
  2020.0000      0.0000    675.5345      3.3768     95.0909
  2020.2500      0.0000    674.1876      3.3865     93.4874
  2020.5000      0.0000    672.9706      3.3717     90.1364
  2020.7500      0.0000    672.7061      3.3482     88.4186
  2021.0000      0.0000    672.2971      3.3073     88.6295
  2021.2500      0.0000    671.4692      3.2826     90.7953
  2021.5000      0.0000    669.3618      3.2547     94.9562
  2021.7500      0.0000    667.8514      3.2421     96.6572
  2022.0000      0.0000    666.1753      3.2295     96.7400
  2022.2500      0.0000    665.5928      3.2238     96.1964
  2022.5000      0.0000    665.5722      3.2185     96.8039
  2022.7500      0.0000    666.3283      3.2159     98.5513
  2023.0000      0.0000    669.3190      3.2081    101.9407
  2023.2500      0.0000    672.8339      3.1963    103.5533
  2023.5000      0.0000    679.8634      3.1676    103.6191
  2023.7500      0.0000    684.7808      3.1441    102.0954
  2024.0000      0.0000    690.7732      3.1073     98.6699
  2024.2500      0.0000    693.2903      3.0808     96.2805
  2024.5000      0.0000    694.7919      3.0331     92.3860
  2024.7500      0.0000    694.6350      2.9963     89.0329
  2025.0000      0.0000    693.8556      2.9404     82.4796
  2025.2500      0.0000    693.7518      2.9052     77.3874
  2025.5000      0.0000    694.7487      2.8502     69.5446
  2025.7500      0.0000    695.8339      2.8069     64.7552
  2026.0000      0.0000    697.1435      2.7308     58.9969
  2026.2500      0.0000    697.5360      2.6778     56.0490
  2026.5000      0.0000    697.5688      2.6043     52.0064
  2026.7500      0.0000    697.4563      2.5594     49.1951
  2027.0000      0.0000    697.3513      2.4956     45.5138
  2027.2500      0.0000    697.3502      2.4586     44.3673
  2027.5000      0.0000    697.3197      2.4300     46.0042
  2027.7500      0.0000    697.1021      2.4392     49.6464
  2028.0000      0.0000    695.8586      2.4977     58.4965
  2028.2500      0.0000    693.8971      2.5587     65.8525
  2028.5000      0.0000    688.6600      2.6667     77.0678
  2028.7500      0.0000    683.9016      2.7441     83.5800
  2029.0000      0.0000    676.5709      2.8689     91.1633
  2029.2500      0.0000    672.9285      2.9611     95.0541
  2029.5000      0.0000    671.3568      3.1130     99.9835
  2029.7500      0.0000    673.4232      3.2164    102.7467
  2030.0000      0.0000    680.3295      3.3542    105.1198
  2030.2500      0.0000    686.0145      3.4235    104.7106
  2030.5000      0.0000    693.2502      3.4880    101.0262
  2030.7500      0.0000    696.0600      3.5102     97.8195
  2031.0000      0.0000    696.6413      3.5230     95.3663
  2031.2500      0.0000    694.6987      3.5182     96.8422
  2031.5000      0.0000    688.6755      3.4875    103.9994
  2031.7500      0.0000    683.0869      3.4543    110.8333
  2032.0000      0.0000    674.1166      3.3978    120.5415
  2032.2500      0.0000    669.0432      3.3633    124.5035
  2032.5000      0.0000    664.1777      3.3275    124.6942
  2032.7500      0.0000    662.6813      3.3199    121.2827
  2033.0000      0.0000    661.9243      3.3350    113.3232
  2033.2500      0.0000    661.7329      3.3569    108.0802
  2033.5000      0.0000    661.2818      3.3946    103.3608
  2033.7500      0.0000    660.7911      3.4209    103.2310
  2034.0000      0.0000    659.8942      3.4692    106.8466
  2034.2500      0.0000    659.3203      3.5084    110.2680
  2034.5000      0.0000    658.7200      3.5602    113.8350
  2034.7500      0.0000    658.5831      3.5730    114.1024
  2035.0000      0.0000    658.8142      3.5429    111.9715
  2035.2500      0.0000    659.2274      3.4961    110.3161
  2035.5000      0.0000    660.1164      3.4111    109.5610
  2035.7500      0.0000    660.7878      3.3559    110.2620
  2036.0000      0.0000    661.7076      3.2833    111.8171
  2036.2500      0.0000    662.1620      3.2471    112.5114
  2036.5000      0.0000    662.5502      3.2267    112.8079
  2036.7500      0.0000    662.6482      3.2411    112.5640
  2037.0000      0.0000    662.6414      3.2987    111.1963
  2037.2500      0.0000    662.5575      3.3512    109.4065
  2037.5000      0.0000    662.3017      3.4355    106.0365
  2037.7500      0.0000    662.0319      3.4883    104.1086
  2038.0000      0.0000    661.4818      3.5510    102.4182
  2038.2500      0.0000    661.0442      3.5755    102.0110
  2038.5000      0.0000    660.3619      3.5826    102.3920
  2038.7500      0.0000    659.9429      3.5735    103.5315
  2039.0000      0.0000    659.4346      3.5593    106.9078
  2039.2500      0.0000    659.1957      3.5588    110.1249
  2039.5000      0.0000    659.0058      3.5692    115.4331
  2039.7500      0.0000    658.9949      3.5736    118.4812
  2040.0000      0.0000    659.1224      3.5657    121.0608
  2040.2500      0.0000    659.2578      3.5537    121.1366
  2040.5000      0.0000    659.4396      3.5367    119.1512
  2040.7500      0.0000    659.5062      3.5281    116.8861
  2041.0000      0.0000    659.5089      3.5176    112.4449
  2041.2500      0.0000    659.4647      3.5136    108.8224
  2041.5000      0.0000    659.3847      3.5209    103.2981
  2041.7500      0.0000    659.3508      3.5381    100.7914
  2042.0000      0.0000    659.3409      3.5763    100.5004
  2042.2500      0.0000    659.3466      3.6003    102.2694
  2042.5000      0.0000    659.3579      3.6180    105.0769
  2042.7500      0.0000    659.4301      3.6148    105.4013
  2043.0000      0.0000    660.0085      3.5961    103.0427
  2043.2500      0.0000    661.0583      3.5837    100.8054
  2043.5000      0.0000    663.7267      3.5782     99.2876
  2043.7500      0.0000    665.0639      3.5854    100.1112
