~Version Information
VERS.                      2.0: CWLS Log ASCII Standard - VERSION 2.0
WRAP.                       NO: One line per depth step
~Well Information Block
STRT.FT               -10.7500: 
STOP.FT              1466.2500: 
STEP.FT                 0.2500: 
NULL.                -999.2500: 
COMP.          Pioneer Natural Resources: COMPANY
WELL.             Andrew 23-15: WELL
FLD.           Purgatorie River: FIELD
LOC.           2137' FSL & 2292' FWL--: LOCATION
PROV.                       CO: PROVINCE
CNTY.               Las Animas: COUNTRY
SRVC.          Patterson Wireline: SERVICE COMPANY
DATE.          Thu Aug 18 11:51:45 2005: LOG DATE
UWI.           05 071 08460 00: UNIQUE WELL ID
~Curve Information Block
DEPT.FT            0 000 00 00: Depth
CCL.                          : Casing Collar Locator
TT3.usec                      : CBL 3' Travel Time
AMP3.mV                       : CBL 3' Amplitude
GR.GAPI                       : Gamma Ray
~Parameter Information Block
~A  Depth       CCL         TT3         AMP3         GR     
# ...
   190.2500      0.0000    405.4193     24.3451     66.8272
   190.5000      0.0000    428.3678     24.4148     67.3454
   190.7500      0.0000    440.9569     24.3911     68.6389
   191.0000      0.0000    430.6581     24.3018     70.1859
   191.2500      0.0000    403.6187     24.1778     71.1812
   191.5000      0.0000    376.0065     24.0406     70.9608
   191.7500      0.0000    360.3418     23.8886     69.7140
   192.0000      0.0000    362.1452     23.6994     68.4415
   192.2500      0.0000    384.4510     23.4491     67.9109
   192.5000      0.0000    427.3981     23.1407     67.9406
   192.7500      0.0000    480.4917     22.8193     67.9638
   193.0000      0.0000    520.3470     22.5514     68.0131
   193.2500      0.0000    524.9255     22.3790     68.8023
   193.5000      0.0000    492.8838     22.2917     70.8159
   193.7500      0.0000    444.8781     22.2478     73.5355
   194.0000      0.0000    404.5232     22.2189     75.7015
   194.2500      0.0000    381.4859     22.2081     76.2108
   194.5000      0.0000    372.3620     22.2294     74.7183
   194.7500      0.0000    372.3618     22.2772     71.6980
   195.0000      0.0000    383.6443     22.3229     68.2441
   195.2500      0.0000    413.8836     22.3417     65.7527
   195.5000      0.0000    466.0930     22.3352     65.3624
   195.7500      0.0000    526.9771     22.3213     67.3407
   196.0000      0.0000    567.6074     22.3067     70.9665
   196.2500      0.0000    563.3937     22.2768     75.2164
   196.5000      0.0000    516.3503     22.2114     79.7248
   196.7500      0.0000    453.7368     22.1065     84.9924
   197.0000      0.0000    404.2575     21.9800     91.4088
   197.2500      0.0000    378.9175     21.8639     97.9825
   197.5000      0.0000    371.9586     21.7928    102.3479
   197.7500      0.0000    372.1886     21.7976    102.4547
   198.0000      0.0000    370.9752     21.9007     98.4391
   198.2500      0.0000    364.1974     22.1043     92.7658
   198.5000      0.0000    351.7908     22.3764     88.3514
   198.7500      0.0000    336.7426     22.6603     86.3014
   199.0000      0.0000    323.1227     22.9121     85.4277
   199.2500      0.0000    313.6640     23.1296     84.0321
   199.5000      0.0000    308.7348     23.3383     81.8845
   199.7500      0.0000    307.6803     23.5526     80.1760
   200.0000      0.0000    311.4067     23.7422     79.9236
   200.2500      0.0000    324.4761     23.8202     80.9938
   200.5000      0.0000    354.5395     23.6445     82.4529
   200.7500      0.0000    406.2319     23.0683     83.2579
   201.0000      0.0000    472.6687     22.0629     82.6496
   201.2500      0.0000    535.9749     20.8187     80.4232
   201.5000      0.0000    582.7535     19.6459     77.1935
   201.7500      0.0000    619.0829     18.7288     74.1753
   202.0000      0.0000    664.6885     18.0416     72.2728
   202.2500      0.0000    730.4954     17.5046     71.2314
   202.5000      0.0000    802.7595     17.1062     69.8645
   202.7500      0.0000    848.1364     16.8552     67.2608
   203.0000      2.0000    835.2700     16.7239     63.8831
   203.2500     -2.0000    757.6393     16.6814     61.4571
   203.5000      0.0000    640.7798     16.7569     61.6078
   203.7500      0.0000    526.9199     17.0593     64.4873
   204.0000      0.0000    449.7329     17.7101     68.7869
   204.2500      0.0000    419.4865     18.7196     72.9803
   204.5000      0.0000    423.9441     19.9433     76.3211
   204.7500      0.0000    437.6899     21.2062     78.8064
   205.0000      0.0000    436.4383     22.4152     80.6974
   205.2500      0.0000    411.7624     23.5119     82.3266
   205.5000      0.0000    374.1337     24.4166     84.1702
   205.7500      0.0000    340.2231     25.0915     86.8210
   206.0000      0.0000    318.8816     25.5900     90.6644
   206.2500      0.0000    308.9613     25.9909     95.2581
   206.5000      0.0000    305.4440     26.3201     98.9784
   206.7500      0.0000    304.4663     26.5485     99.8524
   207.0000      0.0000    304.2610     26.6421     97.2981
   207.2500      0.0000    304.2644     26.6026     92.8611
   207.5000      0.0000    304.3290     26.4801     88.9069
   207.7500      0.0000    304.3853     26.3470     86.5809
   208.0000      0.0000    304.4093     26.2494     85.0865
   208.2500      0.0000    304.4077     26.1794     82.8902
   208.5000      0.0000    304.4082     26.0926     79.5816
   208.7500      0.0000    304.4354     25.9530     76.5078
   209.0000      0.0000    304.4983     25.7579     75.6053
   209.2500      0.0000    304.5955     25.5289     77.6910
   209.5000      0.0000    304.7249     25.2881     81.6986
   209.7500      0.0000    304.8825     25.0510     85.3138
   210.0000      0.0000    305.0501     24.8402     86.5210
   210.2500      0.0000    305.1889     24.6923     84.8962
   210.5000      0.0000    305.2590     24.6360     81.5037
   210.7500      0.0000    305.2467     24.6660     77.7539
   211.0000      0.0000    305.1706     24.7527     74.5681
   211.2500      0.0000    305.0597     24.8784     72.2347
   211.5000      0.0000    304.9286     25.0535     70.5518
   211.7500      0.0000    304.7710     25.2992     69.1531
   212.0000      0.0000    304.5717     25.6256     67.8843
   212.2500      0.0000    304.3310     26.0244     66.8840
   212.5000      0.0000    304.0797     26.4698     66.4035
   212.7500      0.0000    303.8682     26.9195     66.5714
   213.0000      0.0000    303.7351     27.3179     67.1747
   213.2500      0.0000    303.6873     27.6064     67.8343
   213.5000      0.0000    303.7047     27.7412     68.5868
   213.7500      0.0000    303.7598     27.7156     69.9849
   214.0000      0.0000    303.8290     27.5694     72.3724
   214.2500      0.0000    303.8938     27.3745     75.3137
   214.5000      0.0000    303.9373     27.1985     77.9127
   214.7500      0.0000    303.9518     27.0669     79.6590
   215.0000      0.0000    303.9500     26.9477     80.9503
   215.2500      0.0000    303.9667     26.7743     82.6019
   215.5000      0.0000    304.0426     26.4894     84.7418
   215.7500      0.0000    304.2028     26.0792     86.4992
   216.0000      0.0000    304.4384     25.5837     86.9646
   216.2500      0.0000    304.7036     25.0825     86.1148
   216.5000      0.0000    304.9421     24.6582     84.5343
   216.7500      0.0000    305.1259     24.3582     82.5507
   217.0000      0.0000    305.2941     24.1800     80.1046
   217.2500      0.0000    305.5922     24.0829     77.3685
   217.5000      0.0000    306.3098     24.0105     74.9680
   217.7500      0.0000    307.8110     23.9096     73.3858
   218.0000      0.0000    310.2539     23.7473     72.3947
   218.2500      0.0000    313.3679     23.5238     71.3722
   218.5000      0.0000    316.7769     23.2715     70.1490
   218.7500      0.0000    320.6495     23.0310     69.3633
   219.0000      0.0000    325.6248     22.8248     69.8842
   219.2500      0.0000    331.8971     22.6544     71.7845
   219.5000      0.0000    338.7260     22.5179     73.8388
   219.7500      0.0000    344.9061     22.4207     74.4233
   220.0000      0.0000    349.3132     22.3706     73.3017
   220.2500      0.0000    351.1402     22.3680     72.2396
   220.5000      0.0000    350.2240     22.4051     73.3866
   220.7500      0.0000    347.1295     22.4715     77.0870
   221.0000      0.0000    342.5293     22.5618     81.3687
   221.2500      0.0000    336.6924     22.6795     83.4741
   221.5000      0.0000    330.0333     22.8309     82.0807
   221.7500      0.0000    323.8820     23.0115     78.1912
   222.0000      0.0000    320.0180     23.2027     73.7920
   222.2500      0.0000    319.2676     23.3846     70.0899
   222.5000      0.0000    320.9815     23.5492     67.5665
   222.7500      0.0000    324.0655     23.6960     67.0859
   223.0000      0.0000    328.0375     23.8181     69.7487
   223.2500      0.0000    332.6351     23.9039     75.5707
   223.5000      0.0000    336.7466     23.9506     83.1264
