~Version Information
VERS.                      2.0: CWLS Log ASCII Standard - VERSION 2.0
WRAP.                       NO: One line per depth step
~Well Information Block
STRT.FT               680.0000: 
STOP.FT              1585.5000: 
STEP.FT                 0.1000: 
NULL.                -999.2500: 
COMP.          Pioneer Natural Resources: COMPANY
WELL.          Screamin' 12-29: WELL
FLD.           Purgatoire River: FIELD
LOC.           2038' FNL & 612' FWL: LOCATION
CNTY.               Las Animas: COUNTY
SRVC.                Patterson: SERVICE COMPANY
DATE.          Wed Mar 29 10:01:18 2006: LOG DATE
UWI.           05 071 08661 00: UNIQUE WELL ID
STAT.                 Colorado: STATE
~Curve Information Block
DEPT.FT            0 000 00 00: Depth
DCAL.in                       : CDL Caliper
RHOB.g/cc                     : CDL Bulk Density
RHOC.g/cc                     : CDL Density Correction
DPOR.pu                       : CDL Density Porosity
GR.GAPI                       : Gamma Ray
NPOR.pu                       : Neutron Porosity
~Parameter Information Block
~A  Depth       DCAL        RHOB        RHOC        DPOR         GR         NPOR    
# ...
   862.4000      7.7897      2.6058     -0.0004      2.6813     74.8729     21.4770
   862.5000      7.7934      2.5977      0.0376      3.1672     84.0224     21.7867
   862.6000      7.7934      2.5758     -0.0012      4.4973     86.8786     21.8048
   862.7000      7.7934      2.5616      0.0100      5.3598     81.8426     21.6859
   862.8000      7.7930      2.5707      0.0122      4.8053     75.5954     21.8359
   862.9000      7.7930      2.5883      0.0371      3.7375     73.1885     22.2379
   863.0000      7.7900      2.5927      0.0123      3.4705     76.5378     22.3548
   863.1000      7.7900      2.5853      0.0145      3.9195     81.4708     21.9464
   863.2000      7.7900      2.5728      0.0378      4.6807     82.7227     21.4161
   863.3000      7.7886      2.5583     -0.0148      5.5553     83.1466     21.0638
   863.4000      7.7886      2.5598     -0.0255      5.4672     84.9954     20.9311
   863.5000      7.7912      2.5878      0.0101      3.7672     85.8117     20.8557
   863.6000      7.7912      2.6151      0.0836      2.1145     85.1311     20.8421
   863.7000      7.7912      2.6103      0.0387      2.4048     84.6117     21.2200
   863.8000      7.7964      2.5843     -0.0032      3.9820     85.6915     21.8806
   863.9000      7.7964      2.5667     -0.0491      5.0509     87.2788     22.3854
   864.0000      7.8035      2.5672      0.0120      5.0158     86.4171     22.9056
   864.1000      7.8035      2.5744      0.0107      4.5842     83.3128     23.7053
   864.2000      7.8035      2.5748     -0.0119      4.5604     81.5139     24.4388
   864.3000      7.8120      2.5666     -0.0182      5.0566     82.1550     24.8810
   864.4000      7.8120      2.5609      0.0222      5.4022     82.7759     24.7992
   864.5000      7.8115      2.5689      0.0102      4.9143     83.0208     23.9983
   864.6000      7.8115      2.5882      0.0244      3.7468     85.0132     22.9095
   864.7000      7.8115      2.6051      0.0240      2.7215     88.4608     22.2400
   864.8000      7.8045      2.6134      0.0040      2.2161     91.8862     22.2333
   864.9000      7.8045      2.6216      0.0115      1.7218     94.5143     22.7760
   865.0000      7.8022      2.6315      0.0195      1.1195     96.7754     23.6566
   865.1000      7.8022      2.6276      0.0232      1.3606     98.8675     24.3125
   865.2000      7.8022      2.6060     -0.0044      2.6637    100.9332     24.5279
   865.3000      7.8066      2.5841      0.0351      3.9960    103.0335     24.5866
   865.4000      7.8066      2.5761      0.0146      4.4818    102.8861     24.6356
   865.5000      7.8191      2.5849     -0.0218      3.9474    102.2794     24.8917
   865.6000      7.8191      2.6023      0.0239      2.8939    107.9631     25.4682
   865.7000      7.8191      2.6183     -0.0079      1.9239    119.0755     25.8537
   865.8000      7.8364      2.6293      0.0358      1.2575    124.6668     25.5431
   865.9000      7.8364      2.6297      0.0683      1.2277    117.7050     24.9235
   866.0000      7.8428      2.6197      0.0389      1.8366    106.2087     24.8378
   866.1000      7.8428      2.6106      0.0327      2.3885    103.8662     25.4005
   866.2000      7.8428      2.6038      0.0670      2.7975    113.6777     25.9599
   866.3000      7.8295      2.5911      0.0490      3.5684    125.9235     25.9911
   866.4000      7.8295      2.5735      0.0627      4.6374    131.7854     25.4868
   866.5000      7.8080      2.5539      0.0571      5.8231    131.5267     24.8660
   866.6000      7.8080      2.5327      0.0230      7.1102    126.9005     24.4875
   866.7000      7.8080      2.5179      0.0260      8.0062    119.4070     24.2666
   866.8000      7.7968      2.5166      0.0329      8.0831    113.9239     23.8991
   866.9000      7.7968      2.5162      0.0444      8.1102    114.2164     23.6455
   867.0000      7.7973      2.4990      0.0273      9.1541    119.4587     23.9261
   867.1000      7.7973      2.4715      0.0368     10.8155    128.2495     24.6690
   867.2000      7.7973      2.4548      0.0166     11.8328    138.3167     25.1664
   867.3000      7.8020      2.4590      0.0260     11.5731    145.4731     24.8019
   867.4000      7.8020      2.4811      0.0846     10.2365    146.3143     23.9729
   867.5000      7.8147      2.5093      0.1168      8.5275    142.4065     23.3581
   867.6000      7.8147      2.5269      0.1285      7.4609    139.9977     23.1326
   867.7000      7.8147      2.5257      0.1057      7.5332    142.5106     23.1186
   867.8000      7.8454      2.5155      0.0867      8.1506    146.9772     23.1714
   867.9000      7.8454      2.5048      0.1387      8.7971    149.4388     23.3862
   868.0000      7.8765      2.4838      0.1376     10.0717    149.0675     23.7899
   868.1000      7.8765      2.4406      0.1472     12.6938    148.8691     24.2166
   868.2000      7.8765      2.3804      0.0777     16.3392    151.8635     24.8135
   868.3000      7.8906      2.3250      0.0487     19.6978    156.8862     25.7084
   868.4000      7.8906      2.2926      0.0308     21.6581    160.5945     26.5556
   868.5000      7.8931      2.2846      0.0281     22.1474    157.8093     27.2498
   868.6000      7.8931      2.2996     -0.0140     21.2366    152.7917     28.3065
   868.7000      7.8931      2.3411      0.0159     18.7232    153.3975     29.5405
   868.8000      7.8922      2.3939      0.0654     15.5220    153.3694     29.9707
   868.9000      7.8922      2.4337      0.1064     13.1077    147.9548     29.6712
   869.0000      7.8905      2.4663      0.0676     11.1362    144.5082     29.6081
   869.1000      7.8905      2.5093      0.1043      8.5275    145.1726     30.0780
   869.2000      7.8905      2.5463      0.1075      6.2847    145.4046     30.6060
   869.3000      7.8885      2.5565      0.0515      5.6692    144.4736     30.6831
   869.4000      7.8885      2.5581      0.0114      5.5718    144.3095     30.1521
   869.5000      7.8837      2.5768      0.0112      4.4355    142.2169     29.4999
   869.6000      7.8837      2.6047      0.0657      2.7467    137.4870     29.6451
   869.7000      7.8837      2.6131      0.0659      2.2359    135.2952     30.4673
   869.8000      7.8708      2.5968     -0.0094      3.2212    133.7741     30.7707
   869.9000      7.8708      2.5779     -0.0240      4.3675    129.9391     30.2633
   870.0000      7.8492      2.5689     -0.0206      4.9140    128.0554     29.6585
   870.1000      7.8492      2.5740     -0.0461      4.6081    130.2664     29.3488
   870.2000      7.8492      2.6047     -0.0315      2.7462    131.3774     29.3116
   870.3000      7.8326      2.6587      0.0529     -0.5265    126.7420     29.5559
   870.4000      7.8326      2.7039      0.1037     -3.2654    119.6362     29.7895
   870.5000      7.8350      2.7186      0.0415     -4.1558    116.1862     29.5457
   870.6000      7.8350      2.7199      0.0740     -4.2374    116.7114     28.9892
   870.7000      7.8350      2.7205      0.0773     -4.2736    116.8931     28.4160
   870.8000      7.8552      2.7063      0.0860     -3.4111    117.6911     27.8051
   870.9000      7.8552      2.6621      0.0432     -0.7306    125.2651     27.1085
   871.0000      7.8728      2.5959     -0.0079      3.2801    136.5346     26.1998
   871.1000      7.8728      2.5318     -0.0348      7.1627    144.6926     25.3972
   871.2000      7.8728      2.4879     -0.0512      9.8237    149.1849     25.1650
   871.3000      7.8775      2.4706     -0.0202     10.8727    148.6995     25.3518
   871.4000      7.8775      2.4678      0.0811     11.0400    145.1908     25.5894
   871.5000      7.8801      2.4589      0.0351     11.5828    145.3423     25.9164
   871.6000      7.8801      2.4463      0.0413     12.3433    149.7625     26.2725
   871.7000      7.8801      2.4457      0.0687     12.3796    151.1447     26.0126
   871.8000      7.8820      2.4603      0.0911     11.4969    147.3494     25.1440
   871.9000      7.8820      2.4821      0.1089     10.1734    142.7627     24.6347
