~Version Information
VERS.                      2.0: CWLS Log ASCII Standard - VERSION 2.0
WRAP.                       NO: One line per depth step
~Well Information Block
STRT.FT                -8.0000: 
STOP.FT              1323.7500: 
STEP.FT                 0.2500: 
NULL.                -999.2500: 
COMP.          Pioneer Natural Resources: COMPANY
WELL.              Geyser 41-2: WELL
FLD.           Purgatorie River: FIELD
LOC.           506' FNL & 1127' FEL--: LOCATION
PROV.                       CO: PROVINCE
CNTY.               Las Animas: COUNTRY
SRVC.          Patterson Wireline: SERVICE COMPANY
DATE.          Tue Dec 06 09:28:14 2005: LOG DATE
UWI.           08 071 08598 00: UNIQUE WELL ID
~Curve Information Block
DEPT.FT            0 000 00 00: Depth
CCL.                          : Casing Collar Locator
TT3.usec                      : CBL 3' Travel Time
AMP3.mV                       : CBL 3' Amplitude
GR.GAPI                       : Gamma Ray
~Parameter Information Block
~A  Depth       CCL         TT3         AMP3         GR     
# ...
   595.0000      0.0000    623.1464     13.7583    157.7784
   595.2500      0.0000    655.3049     13.6742    151.3876
   595.5000      0.0000    690.8574     13.5177    144.4486
   595.7500      0.0000    719.0524     13.3166    141.0562
   596.0000      0.0000    735.7982     13.0864    142.3365
   596.2500      0.0000    743.3848     12.8337    145.9573
   596.5000      0.0000    746.0237     12.5687    148.7749
   596.7500      0.0000    746.5502     12.3127    149.6239
   597.0000      0.0000    745.8064     12.0914    149.6522
   597.2500      0.0000    743.3874     11.9206    150.7250
   597.5000      0.0000    738.6438     11.8038    153.7925
   597.7500      0.0000    731.8436     11.7465    158.2514
   598.0000      0.0000    724.7755     11.7642    162.3386
   598.2500      0.0000    720.1531     11.8631    164.4315
   598.5000      0.0000    719.9968     12.0121    164.3581
   598.7500      0.0000    724.2971     12.1466    163.1350
   599.0000      0.0000    731.0578     12.2066    161.4740
   599.2500      0.0000    737.6550     12.1713    159.4052
   599.5000      0.0000    742.3798     12.0580    157.3135
   599.7500      0.0000    744.9781     11.8976    156.1899
   600.0000      0.0000    746.0679     11.7168    156.5576
   600.2500      0.0000    746.2819     11.5378    158.0238
   600.5000      0.0000    745.8055     11.3829    160.0848
   600.7500      0.0000    744.4677     11.2687    162.6489
   601.0000      0.0000    742.2498     11.1976    165.4655
   601.2500      0.0000    739.7518     11.1584    167.5110
   601.5000      0.0000    737.8867     11.1395    167.6226
   601.7500      0.0000    736.9531     11.1434    165.7500
   602.0000      0.0000    736.4357     11.1896    162.9321
   602.2500      0.0000    736.0287     11.2950    159.8643
   602.5000      0.0000    736.3229     11.4448    156.0993
   602.7500      0.0000    737.9777     11.5898    150.8289
   603.0000      0.0000    740.6577     11.6806    143.6851
   603.2500      0.0000    743.2912     11.7034    134.6211
   603.5000      0.0000    745.0903     11.6832    124.2043
   603.7500      0.0000    745.9788     11.6591    114.4894
   604.0000      0.0000    746.2847     11.6594    108.4024
   604.2500      0.0000    746.3580     11.6929    107.5125
   604.5000      0.0000    746.4127     11.7595    111.0524
   604.7500      0.0000    746.4826     11.8696    117.3895
   605.0000      0.0000    746.3502     12.0381    125.5578
   605.2500      0.0000    745.4531     12.2538    134.8876
   605.5000      0.0000    742.9151     12.4679    144.0844
   605.7500      0.0000    738.0024     12.6201    151.5462
   606.0000      0.0000    730.9937     12.6773    156.2911
   606.2500      0.0000    723.7412     12.6475    157.9275
   606.5000      0.0000    719.0298     12.5692    155.8527
   606.7500      0.0000    718.9150     12.4879    149.1435
   607.0000      0.0000    723.3477     12.4326    137.6932
   607.2500      0.0000    730.1924     12.4039    123.5572
   607.5000      0.0000    736.5549     12.3848    111.0823
   607.7500      0.0000    740.2537     12.3653    105.1436
   608.0000      0.0000    740.3346     12.3536    108.2642
   608.2500      0.0000    736.8259     12.3604    118.6584
   608.5000      0.0000    730.6943     12.3722    130.9396
   608.7500      0.0000    724.0477     12.3492    139.2326
   609.0000      0.0000    719.6682     12.2530    140.5665
   609.2500      0.0000    719.6267     12.0770    136.1572
   609.5000      0.0000    724.0140     11.8508    129.7040
   609.7500      0.0000    730.9152     11.6191    124.2024
   610.0000      0.0000    737.7070     11.4164    120.0854
   610.2500      0.0000    742.6262     11.2574    116.0324
   610.5000      0.0000    745.3685     11.1431    110.9204
   610.7500      0.0000    746.5539     11.0684    104.7794
   611.0000      0.0000    746.9132     11.0217     98.5481
   611.2500      0.0000    746.9016     10.9885     93.5689
   611.5000      0.0000    746.6950     10.9595     90.9456
   611.7500      0.0000    746.2257     10.9321     90.6871
   612.0000      0.0000    745.1284     10.9039     91.5840
   612.2500      0.0000    742.7733     10.8682     92.3695
   612.5000      0.0000    738.6871     10.8160     92.9352
   612.7500      0.0000    733.2194     10.7429     94.1189
   613.0000      0.0000    727.5912     10.6545     96.4051
   613.2500      0.0000    722.8762     10.5660     99.3276
   613.5000      0.0000    719.0655     10.4945    102.3865
   613.7500      0.0000    715.5360     10.4493    106.1134
   614.0000      0.0000    712.2061     10.4281    111.5570
   614.2500      0.0000    709.7582     10.4181    118.7720
   614.5000      0.0000    708.9700     10.4010    126.3482
   614.7500      0.0000    710.2385     10.3611    132.5750
   615.0000      0.0000    713.5450     10.2960    136.7423
   615.2500      0.0000    718.4879     10.2227    139.1662
   615.5000      0.0000    724.3903     10.1713    140.3247
   615.7500      0.0000    730.5480     10.1664    140.5458
   616.0000      0.0000    736.3122     10.2085    140.5993
   616.2500      0.0000    740.9854     10.2737    141.8076
   616.5000      0.0000    743.9343     10.3306    144.9753
   616.7500      0.0000    744.8300     10.3577    149.6505
   617.0000      0.0000    743.6465     10.3489    154.8891
   617.2500      0.0000    740.5349     10.3073    160.1657
   617.5000      0.0000    735.8456     10.2379    165.0878
   617.7500      0.0000    730.1186     10.1462    168.9198
   618.0000      0.0000    723.9178     10.0410    170.9975
   618.2500      0.0000    717.8025      9.9337    171.3732
   618.5000      0.0000    712.4478      9.8344    170.6290
   618.7500      0.0000    708.4714      9.7459    169.1244
   619.0000      0.0000    706.1158      9.6648    166.4919
   619.2500      0.0000    705.2632      9.5913    161.8412
   619.5000      0.0000    705.7625      9.5361    154.5996
   619.7500      0.0000    707.4641      9.5007    145.1703
   620.0000      0.0000    709.8892      9.4380    134.4904
   620.2500      0.0000    712.4753      9.2455    123.0981
   620.5000      0.0000    715.9924      8.8440    111.1074
   620.7500      0.0000    723.1579      8.2918     99.0193
   621.0000      0.0000    736.1019      7.7918     88.0312
   621.2500      0.0000    753.1041      7.5423     79.3872
   621.5000      0.0000    769.5169      7.5794     73.6344
   621.7500      0.0000    781.9421      7.7791     70.6131
   622.0000      0.0000    790.0138      7.9937     69.8551
   622.2500      2.0000    794.6813      8.1563     70.6660
   622.5000      0.0000    796.6419      8.2847     71.9338
   622.7500      0.0000    795.9579      8.4394     72.4436
   623.0000      0.0000    791.4381      8.6749     71.7297
   623.2500      0.0000    780.5593      8.9842     70.3224
   623.5000      0.0000    761.4953      9.2949     68.8900
   623.7500      0.0000    735.0193      9.5558     67.4897
   624.0000      0.0000    703.9811      9.7983     65.8217
   624.2500      0.0000    672.6262     10.0670     63.8663
   624.5000      0.0000    647.7368     10.3337     62.0531
   624.7500      0.0000    637.3510     10.5266     60.8762
   625.0000      0.0000    644.4808     10.6066     60.3354
   625.2500      0.0000    663.1462     10.5841     59.8519
   625.5000      0.0000    683.3582     10.4954     58.9343
   625.7500      0.0000    699.1971     10.3896     57.8521
   626.0000      0.0000    710.7676     10.3203     57.3938
   626.2500      0.0000    720.2562     10.3273     58.1756
   626.5000      0.0000    728.0739     10.4189     60.5034
   626.7500      0.0000    731.9154     10.5692     64.6180
   627.0000      0.0000    727.4298     10.7362     70.4609
   627.2500      0.0000    709.3658     10.8871     77.1285
   627.5000      0.0000    674.4724     11.0118     83.2339
   627.7500      0.0000    626.2841     11.1168     88.4043
   628.0000      0.0000    577.6240     11.2098     94.2229
   628.2500      0.0000    545.8881     11.2938    103.1341
