~Version Information
VERS.                      2.0: CWLS Log ASCII Standard - VERSION 2.0
WRAP.                       NO: One line per depth step
~Well Information Block
STRT.FT               460.0000: 
STOP.FT              2311.7000: 
STEP.FT                 0.1000: 
NULL.                -999.2500: 
COMP.          Pioneer Natural Resources: COMPANY
WELL.          McDonald 33-31 R: WELL
FLD.           Purgatoire River: FIELD
LOC.           1386' FSL & 1926' FEL: LOCATION
STAT.                 Colorado: State
CNTY.               Las Animas: COUNTY
CTRY.                      USA: Country
SECT.                       31: Section
TOWN.                      32S: Township
RANG.                      66W: Range
SRVC.                Patterson: SERVICE COMPANY
DATE.          Sat Sep 24 09:00:13 2005: LOG DATE
API.           05 071 08533 00: API
~Curve Information Block
DEPT.FT            0 000 00 00: Depth
DCAL.in                       : CDL Caliper
RHOB.g/cc                     : CDL Bulk Density
RHOC.g/cc                     : CDL Density Correction
DPOR.pu                       : CDL Density Porosity
NPOR.pu                       : Neutron Porosity
GR.GAPI                       : Gamma Ray
~Parameter Information Block
~A  Depth       DCAL        RHOB        RHOC        DPOR        NPOR         GR     
# ...
  2159.2000      7.8785      2.5237      0.0430      7.6557     23.1125    152.2803
  2159.3000      7.8781      2.5177      0.0623      8.0161     22.4081    154.2856
  2159.4000      7.8781      2.5013      0.0134      9.0129     21.6970    154.8515
  2159.5000      7.8778      2.4857      0.0127      9.9549     21.3661    148.7693
  2159.6000      7.8778      2.4805      0.0334     10.2700     21.0296    142.8936
  2159.7000      7.8778      2.4809      0.0321     10.2487     20.3893    142.5143
  2159.8000      7.8788      2.4809      0.0500     10.2475     20.0056    141.1776
  2159.9000      7.8788      2.4832      0.0469     10.1111     20.1866    135.2211
  2160.0000      7.8801      2.4880      0.0694      9.8181     20.3301    128.7017
  2160.1000      7.8801      2.4908      0.0300      9.6493     20.1589    122.9818
  2160.2000      7.8801      2.4968      0.0260      9.2869     20.0953    116.6006
  2160.3000      7.8786      2.5097      0.0471      8.5050     20.2025    113.2546
  2160.4000      7.8786      2.5174      0.0838      8.0361     19.9991    116.3877
  2160.5000      7.8784      2.5108      0.0578      8.4362     19.2881    121.1026
  2160.6000      7.8784      2.4977      0.0413      9.2326     18.4571    119.8803
  2160.7000      7.8784      2.4892      0.0416      9.7456     18.0054    117.4441
  2160.8000      7.8794      2.4879      0.0470      9.8255     18.1566    121.9861
  2160.9000      7.8794      2.4867      0.0588      9.8953     18.7443    128.0361
  2161.0000      7.8784      2.4776      0.0467     10.4455     19.1028    127.2543
  2161.1000      7.8784      2.4626      0.0390     11.3571     18.8373    121.1483
  2161.2000      7.8784      2.4523      0.0308     11.9847     18.5282    115.9327
  2161.3000      7.8783      2.4544      0.0119     11.8537     18.6534    116.5686
  2161.4000      7.8783      2.4617      0.0693     11.4099     18.7983    124.1271
  2161.5000      7.8789      2.4611      0.0394     11.4458     18.6623    129.7684
  2161.6000      7.8789      2.4605      0.0186     11.4825     18.4098    124.8150
  2161.7000      7.8789      2.4698      0.0420     10.9229     18.2330    115.9693
  2161.8000      7.8782      2.4782      0.0438     10.4132     18.4136    111.0853
  2161.9000      7.8782      2.4808      0.0317     10.2570     18.8131    107.4147
  2162.0000      7.8761      2.4867      0.0437      9.8989     18.9867    104.2168
  2162.1000      7.8761      2.4946      0.0711      9.4152     18.9452    104.6969
  2162.2000      7.8761      2.4942      0.0675      9.4418     18.8425    108.1556
  2162.3000      7.8744      2.4886      0.0442      9.7802     18.6438    114.2430
  2162.4000      7.8744      2.4891      0.0519      9.7495     18.3502    125.0362
  2162.5000      7.8754      2.4961      0.0499      9.3254     18.2845    137.7785
  2162.6000      7.8754      2.4989      0.0465      9.1566     18.5231    142.6920
  2162.7000      7.8754      2.4904      0.0431      9.6747     18.6863    136.8293
  2162.8000      7.8770      2.4781      0.0271     10.4212     18.4638    128.0631
  2162.9000      7.8770      2.4728      0.0489     10.7402     17.9034    122.2728
  2163.0000      7.8776      2.4728      0.0456     10.7415     17.3545    120.0963
  2163.1000      7.8776      2.4703      0.0528     10.8923     17.2486    119.8335
  2163.2000      7.8776      2.4656      0.0491     11.1754     17.5148    120.2076
  2163.3000      7.8774      2.4683      0.0181     11.0103     17.6082    120.0904
  2163.4000      7.8774      2.4798      0.0538     10.3143     17.4091    119.5796
  2163.5000      7.8773      2.4871      0.0621      9.8730     17.2526    121.3609
  2163.6000      7.8773      2.4852      0.0545      9.9868     17.2338    126.2054
  2163.7000      7.8773      2.4811      0.0422     10.2341     17.3654    131.1668
  2163.8000      7.8778      2.4801      0.0841     10.2942     17.7867    129.5972
  2163.9000      7.8778      2.4835      0.0705     10.0891     18.3225    119.6791
  2164.0000      7.8767      2.4907      0.1003      9.6549     18.5839    111.8879
  2164.1000      7.8767      2.4973      0.0787      9.2561     18.6465    112.1436
  2164.2000      7.8767      2.5007      0.0773      9.0482     18.7777    113.9556
  2164.3000      7.8754      2.4981      0.0842      9.2039     18.9652    113.9063
  2164.4000      7.8754      2.4860      0.0760      9.9372     19.1344    116.5954
  2164.5000      7.8767      2.4697      0.0443     10.9272     19.2527    124.2142
  2164.6000      7.8767      2.4636      0.0308     11.2973     19.0355    131.9019
  2164.7000      7.8767      2.4759      0.0402     10.5545     18.4648    133.3127
  2164.8000      7.8771      2.4956      0.0945      9.3548     17.9614    130.9572
  2164.9000      7.8771      2.5052      0.0972      8.7778     17.8741    132.1152
  2165.0000      7.8762      2.5009      0.0512      9.0375     18.3059    134.6982
  2165.1000      7.8762      2.4906      0.0721      9.6635     18.8304    130.4414
  2165.2000      7.8762      2.4833      0.0356     10.1019     19.0348    120.9405
  2165.3000      7.8767      2.4858      0.0598      9.9496     19.0267    112.8993
  2165.4000      7.8767      2.4929      0.0498      9.5221     19.1393    109.3578
  2165.5000      7.8771      2.4922      0.0662      9.5615     19.5686    113.4001
  2165.6000      7.8771      2.4781      0.0408     10.4196     19.9691    122.7111
  2165.7000      7.8771      2.4565      0.0192     11.7247     19.8527    129.5180
  2165.8000      7.8759      2.4379     -0.0042     12.8530     19.3222    129.7183
  2165.9000      7.8759      2.4302     -0.0315     13.3240     18.9023    122.6477
  2166.0000      7.8746      2.4323      0.0333     13.1960     18.6924    111.9979
  2166.1000      7.8746      2.4368      0.0235     12.9234     18.5691    107.1470
  2166.2000      7.8746      2.4387      0.0243     12.8038     18.4610    111.4603
  2166.3000      7.8724      2.4360      0.0306     12.9687     18.4118    116.6568
  2166.4000      7.8724      2.4299      0.0433     13.3384     18.6308    117.1981
  2166.5000      7.8686      2.4250      0.0291     13.6380     18.8559    117.7163
  2166.6000      7.8686      2.4225      0.0549     13.7906     18.5263    122.0959
  2166.7000      7.8686      2.4236      0.0367     13.7239     18.1299    126.9464
  2166.8000      7.8650      2.4360      0.0334     12.9696     18.3440    126.0752
  2166.9000      7.8650      2.4544      0.0818     11.8561     18.6499    119.6202
  2167.0000      7.8627      2.4596      0.0765     11.5422     18.4233    112.2966
  2167.1000      7.8627      2.4480      0.0580     12.2414     18.0788    104.8126
  2167.2000      7.8627      2.4277      0.0632     13.4717     18.1020    100.7676
  2167.3000      7.8620      2.4042      0.0485     14.8956     18.1633    105.5736
  2167.4000      7.8620      2.3859      0.0146     16.0066     18.0790    112.6533
  2167.5000      7.8656      2.3795      0.0163     16.3966     18.0475    111.3956
  2167.6000      7.8656      2.3828      0.0127     16.1920     17.9103    102.9011
  2167.7000      7.8656      2.3902      0.0320     15.7426     17.6116     97.2397
  2167.8000      7.8703      2.3977      0.0343     15.2916     17.4343     98.9488
  2167.9000      7.8703      2.4067      0.0322     14.7433     17.5096    104.2834
  2168.0000      7.8720      2.4216      0.0452     13.8433     17.8003    109.2620
  2168.1000      7.8720      2.4379      0.0684     12.8531     18.1091    111.4272
  2168.2000      7.8720      2.4490      0.0538     12.1805     18.1884    112.9441
  2168.3000      7.8730      2.4603      0.0390     11.4941     18.3148    119.0134
  2168.4000      7.8730      2.4739      0.0855     10.6725     18.6576    127.6045
  2168.5000      7.8733      2.4798      0.0767     10.3141     18.7132    131.6226
  2168.6000      7.8733      2.4775      0.0301     10.4571     18.4647    128.0739
  2168.7000      7.8733      2.4717      0.0676     10.8072     18.3828    120.7283
