~Version Information
VERS.                      2.0: CWLS Log ASCII Standard - VERSION 2.0
WRAP.                       NO: One line per depth step
~Well Information Block
STRT.FT                -9.0000: 
STOP.FT              1841.0000: 
STEP.FT                 0.2500: 
NULL.                -999.2500: 
COMP.          Pioneer Natural Resources: COMPANY
WELL.          Cooper 11-13 Tr: WELL
FLD.           Purgatorie River: FIELD
LOC.           476' FNL & 738' FWL: LOCATION
STAT.                       CO: State
CNTY.               Las Animas: COUNTY
CTRY. USA : Country
SECT. 13 : Section
TOWN. 32S : Township
RANG. 67W : Range
SRVC.          Patterson Wireline: SERVICE COMPANY
DATE.          Thu Sep 29 08:59:13 2005: LOG DATE
API.           05 071 08525 00: UNIQUE WELL ID
~Curve Information Block
DEPT.FT            0 000 00 00: Depth
CCL.                          : Casing Collar Locator
TT3.usec                      : CBL 3' Travel Time
AMP3.mV                       : CBL 3' Amplitude
GR.GAPI                       : Gamma Ray
~Parameter Information Block
~A  Depth       CCL         TT3         AMP3         GR     
# ...
  1666.0000      0.0000    597.8275      4.0795    108.3528
  1666.2500      0.0000    585.1319      4.1428    104.2787
  1666.5000      0.0000    568.4435      4.2385    101.8993
  1666.7500      0.0000    549.2417      4.3561    100.5595
  1667.0000      0.0000    533.6183      4.4760     99.4172
  1667.2500      0.0000    526.7385      4.5714     98.2041
  1667.5000      0.0000    529.6949      4.6200     97.3588
  1667.7500      0.0000    540.7176      4.6166     97.2109
  1668.0000      0.0000    555.8836      4.5751     97.2636
  1668.2500      0.0000    568.2286      4.5184     96.4264
  1668.5000      0.0000    569.9061      4.4636     93.9750
  1668.7500      0.0000    558.7636      4.4124     90.4415
  1669.0000      0.0000    542.3376      4.3524     87.6530
  1669.2500      0.0000    532.9765      4.2732     87.5549
  1669.5000      0.0000    538.3080      4.1825     90.6741
  1669.7500      0.0000    556.9006      4.1044     95.7311
  1670.0000      0.0000    582.9435      4.0607    100.6547
  1670.2500      0.0000    613.6658      4.0570    103.8032
  1670.5000      0.0000    649.7976      4.0853    104.7295
  1670.7500      0.0000    689.2476      4.1303    104.5471
  1671.0000      0.0000    724.9582      4.1717    105.3004
  1671.2500      0.0000    750.9576      4.1898    108.1203
  1671.5000      0.0000    767.1563      4.1768    111.9890
  1671.7500      0.0000    776.0548      4.1425    114.9305
  1672.0000      0.0000    777.0732      4.1049    116.3227
  1672.2500      0.0000    765.8234      4.0749    117.5080
  1672.5000      0.0000    738.0133      4.0514    120.3363
  1672.7500      0.0000    693.6846      4.0307    125.4515
  1673.0000      0.0000    638.9916      4.0173    131.7019
  1673.2500      0.0000    584.4655      4.0155    136.9004
  1673.5000      0.0000    540.6304      4.0163    139.3216
  1673.7500      0.0000    514.1512      4.0019    138.5735
  1674.0000      0.0000    506.7147      3.9664    135.2630
  1674.2500      0.0000    515.0845      3.9258    130.4007
  1674.5000      0.0000    531.3570      3.9033    125.4080
  1674.7500      0.0000    545.8735      3.9099    122.1027
  1675.0000      0.0000    552.2628      3.9396    121.8584
  1675.2500      0.0000    548.9174      3.9778    124.4237
  1675.5000      0.0000    536.4193      4.0111    127.6718
  1675.7500      0.0000    517.4378      4.0314    128.8565
  1676.0000      0.0000    499.7042      4.0359    126.3871
  1676.2500      0.0000    495.0582      4.0242    120.6564
  1676.5000      0.0000    512.8090      3.9958    113.7563
  1676.7500      0.0000    553.1990      3.9494    108.6564
  1677.0000      0.0000    606.3012      3.8866    107.7690
  1677.2500      0.0000    657.4354      3.8191    111.2817
  1677.5000      0.0000    695.3378      3.7650    116.8985
  1677.7500      0.0000    716.9790      3.7370    121.4219
  1678.0000      0.0000    726.3479      3.7390    122.4670
  1678.2500      0.0000    729.8035      3.7761    118.9663
  1678.5000      0.0000    732.0529      3.8547    111.0448
  1678.7500      0.0000    735.0280      3.9652    100.1562
  1679.0000      0.0000    739.1763      4.0726     89.1420
  1679.2500      0.0000    744.4919      4.1344     81.3674
  1679.5000      0.0000    749.9883      4.1249     79.2542
  1679.7500      0.0000    753.3535      4.0444     83.4851
  1680.0000      0.0000    752.3453      3.9109     93.1206
  1680.2500      0.0000    746.6369      3.7478    105.8796
  1680.5000      0.0000    738.0728      3.5802    118.4109
  1680.7500      0.0000    729.1215      3.4458    127.3860
  1681.0000      0.0000    721.1113      3.4022    131.4556
  1681.2500      0.0000    713.9931      3.4998    132.2303
  1681.5000      0.0000    707.6294      3.7343    132.7453
  1681.7500      0.0000    702.7814      4.0365    134.8221
  1682.0000      0.0000    700.4406      4.3214    138.0729
  1682.2500      0.0000    700.7985      4.5446    140.8954
  1682.5000      0.0000    703.7778      4.7057    141.8478
  1682.7500      0.0000    710.0127      4.8107    140.5647
  1683.0000      0.0000    719.6641      4.8446    138.0429
  1683.2500      0.0000    730.0732      4.7883    135.6876
  1683.5000      0.0000    736.2825      4.6512    133.6558
  1683.7500      0.0000    734.8540      4.4828    130.6556
  1684.0000      0.0000    726.2781      4.3480    125.7160
  1684.2500      0.0000    712.5719      4.2908    119.6462
  1684.5000      0.0000    693.3055      4.3165    114.3747
  1684.7500      0.0000    666.6123      4.4056    111.2467
  1685.0000      0.0000    635.7774      4.5331    110.2423
  1685.2500      0.0000    612.5645      4.6654    110.5603
  1685.5000      0.0000    609.8349      4.7461    111.4069
  1685.7500      0.0000    629.8194      4.7032    112.0812
  1686.0000      0.0000    661.2949      4.4832    111.8192
  1686.2500      0.0000    687.7518      4.0894    110.1427
  1686.5000      0.0000    696.4916      3.6015    107.3814
  1686.7500      0.0000    681.6675      3.1572    104.4867
  1687.0000      0.0000    643.5952      2.8868    102.1141
  1687.2500      0.0000    588.7515      2.8357    100.0426
  1687.5000      0.0000    529.8730      2.9412     97.6710
  1687.7500      0.0000    482.3082      3.0845     95.0052
  1688.0000      2.0000    457.6186      3.1599     93.0803
  1688.2500      0.0000    460.2035      3.1056     93.3048
  1688.5000      0.0000    488.3477      2.9124     96.0299
  1688.7500      0.0000    535.4713      2.6380     99.6592
  1689.0000      0.0000    590.5698      2.3995    101.6439
  1689.2500      0.0000    641.2064      2.3179    100.8588
  1689.5000      0.0000    678.7895      2.4539     98.9912
  1689.7500      0.0000    701.2744      2.7901     99.2223
  1690.0000      0.0000    711.1292      3.2541    103.3891
  1690.2500      0.0000    711.1948      3.7483    110.6179
  1690.5000      0.0000    701.8840      4.1745    118.4977
  1690.7500      0.0000    681.5425      4.4591    124.9090
  1691.0000      0.0000    649.5845      4.5761    128.7493
  1691.2500      0.0000    609.5054      4.5512    129.9203
  1691.5000      0.0000    568.6971      4.4412    129.1957
  1691.7500      0.0000    535.4370      4.3015    127.7738
  1692.0000      0.0000    515.7266      4.1693    126.5586
  1692.2500      0.0000    511.0223      4.0658    125.7467
  1692.5000      0.0000    517.4407      4.0052    125.0359
  1692.7500      0.0000    528.2336      3.9956    124.1716
  1693.0000      0.0000    538.7796      4.0325    123.2142
  1693.2500      0.0000    549.0506      4.0935    122.1726
  1693.5000      0.0000    560.6714      4.1487    120.5742
  1693.7500      0.0000    572.5014      4.1831    117.7385
  1694.0000      0.0000    580.6230      4.2077    113.5132
  1694.2500      0.0000    582.8080      4.2453    108.4593
  1694.5000      0.0000    581.7721      4.3071    103.3515
  1694.7500      0.0000    583.3355      4.3843     98.9337
  1695.0000      0.0000    591.4379      4.4565     96.0732
  1695.2500      0.0000    604.3043      4.5062     95.5857
  1695.5000      0.0000    614.8425      4.5291     97.5770
  1695.7500      0.0000    615.8815      4.5335    100.9147
  1696.0000      0.0000    606.2108      4.5289    103.3643
  1696.2500      0.0000    591.1089      4.5131    102.7451
  1696.5000      0.0000    576.8185      4.4729     98.5993
  1696.7500      0.0000    565.3496      4.3948     92.6887
  1697.0000      0.0000    554.2255      4.2743     87.5289
  1697.2500      0.0000    539.5592      4.1159     84.5863
  1697.5000      0.0000    519.1082      3.9297     83.9385
  1697.7500      0.0000    493.8152      3.7289     84.8997
  1698.0000      0.0000    467.3682      3.5261     86.3995
  1698.2500      0.0000    443.8321      3.3324     87.2527
  1698.5000      0.0000    425.1403      3.1619     86.7355
  1698.7500      0.0000    410.8405      3.0339     84.9609
  1699.0000      0.0000    399.8674      2.9655     82.6639
  1699.2500      0.0000    391.8357      2.9600     80.9070
