~Version Information
VERS.                      2.0: CWLS Log ASCII Standard - VERSION 2.0
WRAP.                       NO: One line per depth step
~Well Information Block
STRT.FT               555.0000: 
STOP.FT              1158.0000: 
STEP.FT                 0.1000: 
NULL.                -999.2500: 
COMP.          Pioneer Natural Resources: COMPANY
WELL.              Draco 31-21: WELL
FLD.           Purgatoire River: FIELD
LOC.           491' FNL & 2446' FEL: LOCATION
CNTY.               Las Animas: COUNTY
SRVC.                Patterson: SERVICE COMPANY
DATE.          Wed Feb 01 07:01:32 2006: LOG DATE
UWI.           05 071 08672 00: UNIQUE WELL ID
STAT.                 Colorado: STATE
~Curve Information Block
DEPT.FT            0 000 00 00: Depth
DCAL.in                       : CDL Caliper
RHOB.g/cc                     : CDL Bulk Density
RHOC.g/cc                     : CDL Density Correction
DPOR.pu                       : CDL Density Porosity
GR.GAPI                       : Gamma Ray
NPOR.pu                       : Neutron Porosity
~Parameter Information Block
~A  Depth       DCAL        RHOB        RHOC        DPOR         GR         NPOR    
# ...
   823.8000      7.8610      2.5796      0.0794      4.2673    102.4033     23.7114
   823.9000      7.8610      2.5968      0.0854      3.2267     98.0053     23.5454
   824.0000      7.8602      2.6323      0.0927      1.0750     92.3563     23.3272
   824.1000      7.8602      2.6648      0.1384     -0.8946     88.6063     22.9777
   824.2000      7.8602      2.6662      0.1403     -0.9843     85.9359     22.6954
   824.3000      7.8594      2.6394      0.0725      0.6431     80.7401     22.7046
   824.4000      7.8594      2.6134      0.0615      2.2181     74.1609     22.8953
   824.5000      7.8602      2.6004      0.0515      3.0064     74.2170     22.9863
   824.6000      7.8602      2.5954      0.0415      3.3102     79.7278     23.0492
   824.7000      7.8602      2.5927      0.0487      3.4713     82.2045     23.3393
   824.8000      7.8605      2.5795      0.0559      4.2753     79.1147     23.8623
   824.9000      7.8605      2.5509      0.0107      6.0049     76.7432     24.4676
   825.0000      7.8616      2.5271     -0.0261      7.4488     79.3822     25.0810
   825.1000      7.8616      2.5255      0.0195      7.5455     82.3054     25.3462
   825.2000      7.8616      2.5392      0.0333      6.7145     82.5954     24.8620
   825.3000      7.8592      2.5558      0.0375      5.7113     82.8296     23.8916
   825.4000      7.8592      2.5681      0.0770      4.9623     84.3993     22.5683
   825.5000      7.8483      2.5727      0.0577      4.6874     85.0746     21.3132
   825.6000      7.8483      2.5687      0.0723      4.9279     82.5966     21.0639
   825.7000      7.8483      2.5584      0.0569      5.5526     79.0943     21.6115
   825.8000      7.8592      2.5522      0.0288      5.9276     77.5487     22.3476
   825.9000      7.8592      2.5556      0.0322      5.7221     77.6615     23.2299
   826.0000      7.8592      2.5555      0.0649      5.7292     77.4198     24.0852
   826.1000      7.8592      2.5457      0.0342      6.3195     77.0225     24.9259
   826.2000      7.8592      2.5413      0.0005      6.5850     78.5775     25.7633
   826.3000      7.8610      2.5458      0.0191      6.3131     80.5062     25.9010
   826.4000      7.8610      2.5439      0.0273      6.4303     78.1509     25.2995
   826.5000      7.8643      2.5355     -0.0039      6.9414     72.4984     24.8644
   826.6000      7.8643      2.5376      0.0477      6.8148     69.0544     24.8068
   826.7000      7.8643      2.5565      0.0423      5.6673     69.7607     24.6423
   826.8000      7.8615      2.5816      0.0734      4.1445     72.9509     23.7443
   826.9000      7.8615      2.5999      0.0560      3.0392     78.1200     22.0574
   827.0000      7.8583      2.6122      0.0241      2.2882     83.8516     20.7740
   827.1000      7.8583      2.6212      0.0809      1.7483     84.2106     20.8359
   827.2000      7.8583      2.6166      0.0928      2.0237     78.7023     21.6665
   827.3000      7.8597      2.5967      0.0503      3.2332     74.4455     22.3916
   827.4000      7.8597      2.5734      0.0619      4.6444     73.5083     22.9842
   827.5000      7.8605      2.5584      0.0352      5.5527     73.1455     23.5075
   827.6000      7.8605      2.5629     -0.0226      5.2773     73.0094     23.7972
   827.7000      7.8605      2.5829      0.0683      4.0673     71.7129     23.4366
   827.8000      7.8615      2.5937      0.0424      3.4131     68.3800     22.4940
   827.9000      7.8615      2.5825      0.0443      4.0903     66.0458     22.2828
   828.0000      7.8599      2.5625     -0.0127      5.3010     67.2624     23.3457
   828.1000      7.8599      2.5556     -0.0229      5.7218     68.1661     24.3881
   828.2000      7.8599      2.5681     -0.0001      4.9614     63.8275     24.4436
   828.3000      7.8604      2.5873      0.0337      3.7975     58.9973     23.7420
   828.4000      7.8604      2.5960      0.0440      3.2715     60.8461     23.0886
   828.5000      7.8587      2.5926      0.0058      3.4788     65.6025     23.3686
   828.6000      7.8587      2.5875      0.0386      3.7887     65.4631     24.3965
   828.7000      7.8587      2.5799      0.0339      4.2500     62.3773     24.9688
   828.8000      7.8589      2.5670      0.0128      5.0319     63.4995     24.4319
   828.9000      7.8589      2.5542      0.0258      5.8035     68.3291     23.2565
   829.0000      7.8601      2.5490     -0.0061      6.1215     71.8626     22.3819
   829.1000      7.8601      2.5519      0.0338      5.9484     73.6371     22.3143
   829.2000      7.8601      2.5564      0.0306      5.6724     73.7224     22.7260
   829.3000      7.8595      2.5657      0.0214      5.1070     72.5425     22.9243
   829.4000      7.8595      2.5810      0.0437      4.1843     73.3490     23.0533
   829.5000      7.8586      2.5902      0.0373      3.6216     74.4466     23.5333
   829.6000      7.8586      2.5922      0.0150      3.5028     72.7584     24.2637
   829.7000      7.8586      2.5923      0.0586      3.4958     70.3954     24.7692
   829.8000      7.8616      2.5839      0.0731      4.0058     72.3467     24.6409
   829.9000      7.8616      2.5694      0.0406      4.8821     80.3512     24.1593
   830.0000      7.8579      2.5625      0.0649      5.3027     88.1482     23.9949
   830.1000      7.8579      2.5620      0.0645      5.3359     90.4792     24.3807
   830.2000      7.8579      2.5602      0.0470      5.4445     90.8874     24.7601
   830.3000      7.8568      2.5601      0.0463      5.4508     91.3259     25.0579
   830.4000      7.8568      2.5618      0.0578      5.3477     90.1300     25.8382
   830.5000      7.8479      2.5619      0.0525      5.3415     91.1103     26.8594
   830.6000      7.8479      2.5646      0.0713      5.1786     95.4756     27.5063
   830.7000      7.8479      2.5678      0.0881      4.9841     96.7767     27.6515
   830.8000      7.8581      2.5598      0.1083      5.4636     93.7732     27.4735
   830.9000      7.8581      2.5426      0.0737      6.5100     91.9247     26.9451
   831.0000      7.8602      2.5299      0.0674      7.2759     93.6108     26.0351
   831.1000      7.8602      2.5263      0.0556      7.4959     94.5483     25.7026
   831.2000      7.8602      2.5273      0.0581      7.4340     94.9737     26.3512
   831.3000      7.8586      2.5263      0.0594      7.4956    101.6859     26.8274
   831.4000      7.8586      2.5136      0.0378      8.2660    108.8216     26.9505
   831.5000      7.8521      2.4870      0.0322      9.8764    108.9941     27.4070
   831.6000      7.8521      2.4651      0.0010     11.2085    108.3677     28.2971
   831.7000      7.8521      2.4684      0.0082     11.0051    111.0164     29.0650
   831.8000      7.8613      2.4929      0.0204      9.5199    114.5553     28.7781
   831.9000      7.8613      2.5173      0.0545      8.0454    115.1759     27.5582
   832.0000      7.8598      2.5286      0.0467      7.3564    108.9137     26.8850
   832.1000      7.8598      2.5306      0.0944      7.2351     99.5924     27.2170
   832.2000      7.8598      2.5280      0.0583      7.3918     96.3360     27.2786
   832.3000      7.8608      2.5234      0.0540      7.6729     99.2469     26.6316
   832.4000      7.8608      2.5194      0.0550      7.9127    100.8699     26.2935
   832.5000      7.8621      2.5231      0.0492      7.6938     95.9079     26.5558
   832.6000      7.8621      2.5400      0.0685      6.6666     89.5583     26.8733
   832.7000      7.8621      2.5613      0.0819      5.3785     90.7561     26.9862
   832.8000      7.8596      2.5746      0.0696      4.5683     96.1202     26.8816
   832.9000      7.8596      2.5785      0.1061      4.3313    100.8836     26.7856
   833.0000      7.8592      2.5740      0.1199      4.6034    106.1383     26.8684
   833.1000      7.8592      2.5600      0.0966      5.4566    109.8818     26.8161
   833.2000      7.8592      2.5324      0.1311      7.1252    111.6835     26.7776
   833.3000      7.8574      2.4974      0.0332      9.2470    113.6746     27.1075
