~Version Information
VERS.                      2.0: CWLS Log ASCII Standard - VERSION 2.0
WRAP.                       NO: One line per depth step
~Well Information Block
STRT.FT               240.0000: 
STOP.FT              1456.0000: 
STEP.FT                 0.1000: 
NULL.                -999.2500: 
COMP.          Pioneer Natural Resources: COMPANY
WELL.              Darren 11-7: WELL
FLD.           Purgatoire River: FIELD
LOC.           230' FNL & 596' FWL: LOCATION
CNTY.               Las Animas: COUNTY
SRVC.                Patterson: SERVICE COMPANY
DATE.          Mon Mar 20 07:16:06 2006: LOG DATE
UWI.           05 071 08720 00: UNIQUE WELL ID
STAT.                 Colorado: STATE
~Curve Information Block
DEPT.FT            0 000 00 00: Depth
DCAL.in                       : CDL Caliper
RHOB.g/cc                     : CDL Bulk Density
RHOC.g/cc                     : CDL Density Correction
DPOR.pu                       : CDL Density Porosity
GR.GAPI                       : Gamma Ray
NPOR.pu                       : Neutron Porosity
~Parameter Information Block
~A  Depth       DCAL        RHOB        RHOC        DPOR         GR         NPOR    
# ...
  1123.2000      7.8445      2.5009      0.0169      9.0355     70.5018     25.5196
  1123.3000      7.8594      2.4988      0.0481      9.1643     76.1038     25.2351
  1123.4000      7.8594      2.5016      0.0648      8.9966     85.2747     24.8669
  1123.5000      7.8484      2.5044      0.0596      8.8244     93.9031     24.6313
  1123.6000      7.8484      2.4979      0.1150      9.2183     96.4448     24.8216
  1123.7000      7.8484      2.4809      0.1393     10.2487     95.8716     25.2518
  1123.8000      7.8805      2.4700      0.1068     10.9112     97.0444     25.5216
  1123.9000      7.8805      2.4684      0.1898     11.0084     98.4637     25.6291
  1124.0000      7.9575      2.4532      0.1404     11.9245     99.5804     25.9120
  1124.1000      7.9575      2.4174      0.0940     14.0991    103.4857     26.2753
  1124.2000      7.9575      2.3782      0.0811     16.4707    109.1071     26.3272
  1124.3000      7.8741      2.3582      0.0540     17.6869    112.6167     26.0557
  1124.4000      7.8741      2.3730      0.0908     16.7906    113.2474     25.7725
  1124.5000      7.8527      2.4152      0.0868     14.2287    109.4525     25.6678
  1124.6000      7.8527      2.4650      0.1555     11.2147    102.9625     25.7135
  1124.7000      7.8527      2.5161      0.1678      8.1144    101.0976     25.6843
  1124.8000      7.8436      2.5665      0.2620      5.0601    105.3039     25.3958
  1124.9000      7.8436      2.5984      0.3052      3.1266    108.2113     25.0264
  1125.0000      7.8675      2.5996      0.2377      3.0561    104.7432     24.7924
  1125.1000      7.8675      2.5830      0.2162      4.0618     99.6599     24.3152
  1125.2000      7.8675      2.5598      0.1864      5.4658     99.8011     23.2523
  1125.3000      7.8802      2.5233      0.1396      7.6775    102.1384     22.1235
  1125.4000      7.8802      2.4653      0.1087     11.1923    102.1100     21.6823
  1125.5000      7.9115      2.3872      0.0347     15.9282    101.3963     21.9845
  1125.6000      7.9115      2.2932     -0.0135     21.6262     99.6978     22.4975
  1125.7000      7.9115      2.1832     -0.0095     28.2892     96.2640     22.9099
  1125.8000      7.9348      2.0713     -0.0830     35.0734     94.1475     23.2267
  1125.9000      7.9348      1.9914     -0.0451     39.9174     95.6403     23.3543
  1126.0000      8.0487      1.9613     -0.0354     41.7376     97.7312     23.2411
  1126.1000      8.0487      1.9683      0.0207     41.3174     97.7337     22.9897
  1126.2000      8.0487      1.9946      0.0129     39.7218     97.7069     22.7214
  1126.3000      7.9918      2.0430      0.0220     36.7862     98.3314     22.7417
  1126.4000      7.9918      2.1205      0.1466     32.0882     98.4747     23.2420
  1126.5000      7.9574      2.2092      0.2587     26.7171     99.0694     24.0181
  1126.6000      7.9574      2.2901      0.2145     21.8144    100.9544     24.6844
  1126.7000      7.9574      2.3689      0.1973     17.0369    101.1309     24.9598
  1126.8000      7.9436      2.4441      0.1904     12.4777     98.0789     24.9780
  1126.9000      7.9436      2.4972      0.1823      9.2606     94.9729     25.1215
  1127.0000      7.9362      2.5218      0.1713      7.7716     90.6997     25.4298
  1127.1000      7.9362      2.5280      0.1356      7.3931     86.7704     25.6020
  1127.2000      7.9362      2.5279      0.1445      7.4010     90.0405     25.6644
  1127.3000      7.8713      2.5225      0.1567      7.7277     97.9015     25.8843
  1127.4000      7.8713      2.5068      0.1132      8.6790    102.8135     26.2440
  1127.5000      7.8921      2.4873      0.0510      9.8635    105.5724     26.5460
  1127.6000      7.8921      2.4680      0.0805     11.0306    108.5375     26.5039
  1127.7000      7.8921      2.4453      0.0842     12.4072    109.0541     26.2603
  1127.8000      7.8984      2.4304      0.0464     13.3099    107.5495     26.3032
  1127.9000      7.8984      2.4383      0.0534     12.8295    105.7335     26.6783
  1128.0000      7.9051      2.4649      0.0844     11.2207    101.5695     27.1316
  1128.1000      7.9051      2.4946      0.0799      9.4179     94.9849     27.3044
  1128.2000      7.9051      2.5118      0.1282      8.3730     89.3610     26.9599
  1128.3000      7.8779      2.5071      0.1351      8.6581     86.6653     26.4041
  1128.4000      7.8779      2.4899      0.0830      9.7056     87.4822     26.1111
  1128.5000      7.8591      2.4749      0.0925     10.6101     90.7044     26.0498
  1128.6000      7.8591      2.4576      0.1329     11.6584     93.2592     25.9361
  1128.7000      7.8591      2.4347      0.0297     13.0501     92.8207     25.8336
  1128.8000      7.8522      2.4207      0.0401     13.8984     90.3074     26.0364
  1128.9000      7.8522      2.4198      0.0208     13.9534     89.1886     26.4472
  1129.0000      7.8483      2.4218      0.0678     13.8317     89.9660     26.6389
  1129.1000      7.8483      2.4239      0.0234     13.7049     88.9514     26.4849
  1129.2000      7.8483      2.4394      0.0392     12.7618     84.2874     26.2778
  1129.3000      7.8535      2.4709      0.0627     10.8527     77.5720     26.2529
  1129.4000      7.8535      2.4982      0.0872      9.1980     73.4569     26.4106
  1129.5000      7.8598      2.5114      0.1215      8.4014     73.9490     26.7222
  1129.6000      7.8598      2.5244      0.0939      7.6094     76.2028     27.0395
  1129.7000      7.8598      2.5491      0.1359      6.1141     78.7096     27.2055
  1129.8000      7.8818      2.5710      0.1822      4.7890     82.7133     27.3068
  1129.9000      7.8818      2.5720      0.1916      4.7275     87.6529     27.2252
  1130.0000      7.8791      2.5602      0.1020      5.4451     89.8068     26.7818
  1130.1000      7.8791      2.5527      0.1127      5.8973     88.1047     26.3747
  1130.2000      7.8791      2.5587      0.0921      5.5352     85.0828     26.2070
  1130.3000      7.8665      2.5818      0.0776      4.1342     81.1607     26.1043
  1130.4000      7.8665      2.6075      0.1409      2.5762     75.4038     26.2599
  1130.5000      7.8698      2.6096      0.1509      2.4462     69.9028     26.7100
  1130.6000      7.8698      2.5805      0.1577      4.2150     67.7709     27.0234
  1130.7000      7.8698      2.5383      0.0978      6.7678     69.1669     27.0873
  1130.8000      7.8598      2.5091      0.0589      8.5421     72.6563     27.3552
  1130.9000      7.8598      2.4955      0.1131      9.3609     76.4615     28.2759
  1131.0000      7.8433      2.4823      0.1188     10.1611     77.3315     29.8728
  1131.1000      7.8433      2.4747      0.0415     10.6240     74.8551     31.6513
  1131.2000      7.8433      2.5053      0.0160      8.7694     72.7812     33.1628
  1131.3000      7.8421      2.5883      0.1073      3.7415     72.8417     34.5992
  1131.4000      7.8421      2.7008      0.1148     -3.0780     72.9780     35.9618
  1131.5000      7.8840      2.8195      0.1872    -10.2752     70.6923     36.7845
  1131.6000      7.8840      2.9413      0.1643    -17.6531     66.1508     36.9101
  1131.7000      7.8840      3.0708      0.2829    -25.5018     62.0904     36.6276
  1131.8000      7.8970      3.1913      0.2970    -32.8068     58.2195     36.2210
  1131.9000      7.8970      3.2642      0.3230    -37.2250     50.1286     35.6170
  1132.0000      7.8730      3.2763      0.1514    -37.9551     40.2424     34.5474
  1132.1000      7.8730      3.2570      0.0892    -36.7886     34.7791     32.9545
  1132.2000      7.8730      3.2243      0.0189    -34.8071     32.4100     31.0662
  1132.3000      7.8805      3.1650     -0.0108    -31.2092     30.1565     29.0742
  1132.4000      7.8805      3.0762     -0.0453    -25.8312     28.5829     26.9483
  1132.5000      7.8606      2.9777     -0.0424    -19.8583     28.2987     24.9901
  1132.6000      7.8606      2.8708     -0.0301    -13.3821     29.0716     23.6492
  1132.7000      7.8606      2.7480     -0.1051     -5.9377     30.2444     22.9638
