~Version Information
VERS.                      2.0: CWLS Log ASCII Standard - VERSION 2.0
WRAP.                       NO: One line per depth step
~Well Information Block
STRT.FT                -4.7500: 
STOP.FT              2723.2500: 
STEP.FT                 0.2500: 
NULL.                -999.2500: 
COMP.          Pioneer Natural Resources: COMPANY
WELL.           Dolzanie 34-12: WELL
FLD.           Purgatorie River: FIELD
LOC.           1001' FSL & 1750' FEL: LOCATION
PROV.                 Colorado: PROVINCE
CNTY.               Las Animas: COUNTRY
SRVC.                Patterson: SERVICE COMPANY
DATE.          Wed Jul 27 14:23:29 2005: LOG DATE
UWI.                          : UNIQUE WELL ID
~Curve Information Block
DEPT.FT            0 000 00 00: Depth
GR.GAPI                       : Gamma Ray
CCL.                          : Casing Collar Locator
TT3.usec                      : CBL 3' Travel Time
AMP3.mV                       : CBL 3' Amplitude
~Parameter Information Block
~A  Depth        GR         CCL         TT3         AMP3    
# ...
  1067.2500    134.8507      0.0000    825.3727      4.8296
  1067.5000    133.1133      0.0000    800.6027      5.5035
  1067.7500    130.9261      0.0000    788.7986      6.3668
  1068.0000    127.8321      0.0000    781.0325      7.0945
  1068.2500    123.8808      0.0000    774.4454      7.4395
  1068.5000    119.7946      0.0000    770.1812      7.4625
  1068.7500    116.5781      0.0000    768.3659      7.3509
  1069.0000    114.7426      0.0000    767.9094      7.2425
  1069.2500    113.7586      0.0000    767.8967      7.1775
  1069.5000    112.5260      0.0000    767.9214      7.1469
  1069.7500    110.4988      0.0000    767.9133      7.1485
  1070.0000    108.2547      0.0000    767.9368      7.1823
  1070.2500    107.0427      0.0000    768.0896      7.2308
  1070.5000    107.8079      0.0000    768.5078      7.2729
  1070.7500    110.4898      0.0000    769.4779      7.3066
  1071.0000    114.0856      0.0000    771.7940      7.3416
  1071.2500    117.3865      0.0000    777.0299      7.3740
  1071.5000    119.7508      0.0000    785.9343      7.3798
  1071.7500    121.3423      0.0000    795.2961      7.3313
  1072.0000    122.7123      0.0000    799.0826      7.2338
  1072.2500    124.1918      0.0000    795.2438      7.1356
  1072.5000    125.6901      0.0000    789.4861      7.0897
  1072.7500    127.0315      0.0000    789.4457      7.1158
  1073.0000    128.3903      0.0000    795.4515      7.1931
  1073.2500    130.3944      0.0000    800.4062      7.2769
  1073.5000    133.6963      0.0000    798.1580      7.3304
  1073.7500    138.2927      0.0000    789.6553      7.3479
  1074.0000    143.2950      0.0000    780.5279      7.3484
  1074.2500    147.4106      0.0000    769.2311      7.3531
  1074.5000    149.6490      0.0000    744.3557      7.3777
  1074.7500    149.7805      0.0000    704.3644      7.4316
  1075.0000    148.2423      0.0000    669.1166      7.5140
  1075.2500    145.5075      0.0000    663.4562      7.6523
  1075.5000    141.6859      0.0000    694.2443      7.9306
  1075.7500    136.9735      0.0000    742.0867      8.4150
  1076.0000    132.1137      0.0000    777.9430      9.0515
  1076.2500    127.9509      0.0000    789.2630      9.7014
  1076.5000    124.6063      0.0000    784.3463     10.2711
  1076.7500    121.6128      0.0000    776.7415     10.7522
  1077.0000    118.9651      0.0000    773.4962     11.1714
  1077.2500    117.5229      0.0000    775.2635     11.5400
  1077.5000    117.9355      0.0000    779.6097     11.8357
  1077.7500    119.5545      0.0000    782.3525     12.0101
  1078.0000    120.9882      0.0000    781.0107     12.0094
  1078.2500    121.6642      0.0000    776.5865     11.8046
  1078.5000    122.4296      0.0000    768.4570     11.4117
  1078.7500    124.5991      0.0000    755.4508     10.8860
  1079.0000    128.5996      0.0000    745.2224     10.2941
  1079.2500    133.4879      0.0000    747.9013      9.6968
  1079.5000    137.6223      0.0000    760.7366      9.1567
  1079.7500    139.7805      0.0000    773.0565      8.7166
  1080.0000    139.8232      0.0000    778.5934      8.3566
  1080.2500    138.5261      0.0000    778.1283      8.0443
  1080.5000    136.7864      0.0000    777.6729      7.8286
  1080.7500    134.9489      0.0000    782.0033      7.7902
  1081.0000    132.9627      0.0000    788.6381      7.9008
  1081.2500    131.1167      0.0000    791.8202      8.0258
  1081.5000    130.2826      0.0000    790.0184      8.0753
  1081.7500    131.1041      0.0000    785.0325      8.0716
  1082.0000    133.0271      0.0000    778.4134      8.0751
  1082.2500    134.7042      0.0000    772.3492      8.1090
  1082.5000    135.5580      0.0000    768.8124      8.1539
  1082.7500    136.2205      0.0000    767.5201      8.1837
  1083.0000    137.1020      0.0000    767.1722      8.2084
  1083.2500    137.3994      0.0000    767.1715      8.2732
  1083.5000    136.1517      0.0000    767.6782      8.3936
  1083.7500    133.6948      0.0000    769.2357      8.5175
  1084.0000    131.5461      0.0000    772.6932      8.5860
  1084.2500    131.0457      0.0000    778.0647      8.5949
  1084.5000    132.2764      0.0000    783.1189      8.5877
  1084.7500    134.0971      0.0000    785.0543      8.6238
  1085.0000    135.0694      0.0000    782.7515      8.7274
  1085.2500    134.3490      0.0000    777.1610      8.8609
  1085.5000    131.8194      0.0000    771.4324      8.9738
  1085.7500    127.6930      0.0000    768.8743      9.0309
  1086.0000    122.3984      0.0000    770.4981      9.0037
  1086.2500    116.8980      0.0000    774.6323      8.9071
  1086.5000    112.5004      0.0000    778.0614      8.8120
  1086.7500    109.9209      0.0000    780.2111      8.7641
  1087.0000    108.9724      0.0000    784.3745      8.7320
  1087.2500    109.4697      0.0000    790.7615      8.6766
  1087.5000    111.7375      0.0000    793.7154      8.6025
  1087.7500    115.6945      0.0000    789.2649      8.5360
  1088.0000    120.0544      0.0000    780.9866      8.5138
  1088.2500    123.2049      0.0000    776.5169      8.5486
  1088.5000    124.7390      0.0000    779.3038      8.5921
  1088.7500    125.7093      0.0000    784.5759      8.5720
  1089.0000    127.5327      0.0000    784.7800      8.4612
  1089.2500    130.7335      0.0000    778.6563      8.3263
  1089.5000    134.5704      0.0000    771.4573      8.2749
  1089.7500    137.9502      0.0000    767.3337      8.3049
  1090.0000    140.6626      0.0000    766.1474      8.2927
  1090.2500    143.4038      0.0000    766.3511      8.1648
  1090.5000    146.7549      0.0000    767.8155      7.9876
  1090.7500    150.5961      0.0000    772.2205      7.8732
  1091.0000    154.2886      0.0000    780.5296      7.8640
  1091.2500    156.9788      0.0000    789.4507      7.9269
  1091.5000    157.9832      0.0000    793.0491      8.0192
  1091.7500    157.2381      0.0000    790.3887      8.1232
  1092.0000    155.1563      0.0000    788.2976      8.2318
  1092.2500    152.1037      0.0000    791.9402      8.3364
  1092.5000    148.4348      0.0000    795.9886      8.4267
  1092.7500    145.0649      0.0000    788.6368      8.4969
  1093.0000    143.3907      0.0000    761.1102      8.5429
  1093.2500    144.1149      0.0000    718.9365      8.5480
  1093.5000    146.4239      0.0000    688.1095      8.5099
  1093.7500    148.7780      0.0000    694.4764      8.4664
  1094.0000    150.1786      0.0000    731.6681      8.4563
  1094.2500    150.3484      0.0000    768.0620      8.4809
  1094.5000    149.3312      0.0000    784.4403      8.4998
  1094.7500    147.4606      0.0000    785.4656      8.4416
  1095.0000    145.1554      0.0000    781.7803      8.2635
  1095.2500    142.3531      0.0000    779.3286      8.0222
  1095.5000    138.5534      0.0000    780.7397      7.8425
  1095.7500    133.4309      0.0000    783.8439      7.7878
  1096.0000    126.9580      0.0000    782.7332      7.7861
  1096.2500    119.2718      0.0000    776.0711      7.7230
  1096.5000    111.1890      0.0000    768.6442      7.5696
  1096.7500    104.7585      0.0000    764.2042      7.3595
  1097.0000    102.4096      0.0000    762.6807      7.1188
  1097.2500    105.1691      0.0000    763.5519      6.8871
  1097.5000    111.9754      0.0000    768.0219      6.7254
  1097.7500    120.6366      0.0000    776.4308      6.6735
  1098.0000    128.9464      0.0000    784.3429      6.7432
  1098.2500    135.0881      0.0000    785.9595      6.9258
  1098.5000    138.0789      0.0000    782.5538      7.1693
  1098.7500    138.4685      0.0000    780.7004      7.3839
  1099.0000    138.0988      0.0000    782.7800      7.5121
  1099.2500    138.6934      0.0000    786.2681      7.5781
  1099.5000    140.8882      0.0000    787.8297      7.6393
  1099.7500    144.5031      0.0000    784.3100      7.7124
  1100.0000    148.9180      0.0000    776.1131      7.7972
  1100.2500    152.7566      0.0000    768.0018      7.9100
  1100.5000    154.0175      0.0000    763.2490      8.0354
