~Version Information
VERS.                      2.0: CWLS Log ASCII Standard - VERSION 2.0
WRAP.                       NO: One line per depth step
~Well Information Block
STRT.FT               295.7500: 
STOP.FT              1461.0000: 
STEP.FT                 0.2500: 
NULL.                -999.2500: 
COMP.          Pioneer Natural Resources: COMPANY
WELL.              Lucky 21-36: WELL
FLD.           Purgatoire River: FIELD
LOC.           799' FNL & 1578' FWL--: LOCATION
CDN. :
PROV. :
UWI. :
STAT. :
CNTY. :
CTRY. :
API. :
COMP. :
WELL. :
FLD. :
LOC. :
DATE. :
SRVC. :
CNTY.               Las Animas: COUNTY
SRVC.          Superior Well Services: SERVICE COMPANY
DATE.          Mon Jul 07 19-13-01 2008: LOG DATE
UWI.           05 071 08456 00: UNIQUE WELL ID
STAT.                 Colorado: STATE
~Curve Information Block
DEPT.FT            0 000 00 00: Depth
SN.Ohm-m                      : IEL Short Normal
SP.mV                         : IEL Spontaneous Potential
DIR.Ohm-m                     : IEL Induction Resistivity
GR.GAPI                       : Gamma Ray
~Parameter Information Block
~A  Depth        SN          SP         DIR          GR     
# ...
   764.7500   2000.0000   1980.0000     12.9886    117.9651
   765.0000   2000.0000   1980.0000     12.8520    118.8329
   765.2500   2000.0000   1980.0000     12.6700    120.8741
   765.5000   2000.0000   1980.0000     12.4536    122.6917
   765.7500   2000.0000   1980.0000     12.2261    125.6049
   766.0000   2000.0000   1980.0000     12.0181    127.3666
   766.2500   2000.0000   1980.0000     11.8585    129.2624
   766.5000   2000.0000   1980.0000     11.7667    129.7104
   766.7500   2000.0000   1980.0000     11.7498    128.9265
   767.0000   2000.0000   1980.0000     11.8035    127.8193
   767.2500   2000.0000   1980.0000     11.9168    126.7085
   767.5000   2000.0000   1980.0000     12.0781    127.0272
   767.7500   2000.0000   1980.0000     12.2813    128.9994
   768.0000   2000.0000   1980.0000     12.5288    130.5261
   768.2500   2000.0000   1980.0000     12.8305    131.6681
   768.5000   2000.0000   1980.0000     13.1977    131.4555
   768.7500   2000.0000   1980.0000     13.6379    130.6196
   769.0000   2000.0000   1980.0000     14.1510    130.3164
   769.2500   2000.0000   1980.0000     14.7278    129.9047
   769.5000   2000.0000   1980.0000     15.3493    128.7322
   769.7500   2000.0000   1980.0000     15.9874    124.3535
   770.0000   2000.0000   1980.0000     16.6099    119.8494
   770.2500   2000.0000   1980.0000     17.1894    112.3713
   770.5000   2000.0000   1980.0000     17.7137    107.9582
   770.7500   2000.0000   1980.0000     18.1904    103.0180
   771.0000   2000.0000   1980.0000     18.6403    100.7250
   771.2500   2000.0000   1980.0000     19.0833     98.2938
   771.5000   2000.0000   1980.0000     19.5271     97.1751
   771.7500   2000.0000   1980.0000     19.9642     96.0877
   772.0000   2000.0000   1980.0000     20.3774     95.5892
   772.2500   2000.0000   1980.0000     20.7487     94.8232
   772.5000   2000.0000   1980.0000     21.0670     94.2729
   772.7500   2000.0000   1980.0000     21.3337     93.8868
   773.0000   2000.0000   1980.0000     21.5654     94.2578
   773.2500   2000.0000   1980.0000     21.7916     95.6031
   773.5000   2000.0000   1980.0000     22.0481     96.5029
   773.7500   2000.0000   1980.0000     22.3682     97.0658
   774.0000   2000.0000   1980.0000     22.7727     96.8207
   774.2500   2000.0000   1980.0000     23.2607     95.6524
   774.5000   2000.0000   1980.0000     23.8028     94.3215
   774.7500   2000.0000   1980.0000     24.3398     91.4238
   775.0000   2000.0000   1980.0000     24.7922     89.0909
   775.2500   2000.0000   1980.0000     25.0793     85.9398
   775.5000   2000.0000   1980.0000     25.1427     84.8445
   775.7500   2000.0000   1980.0000     24.9599     85.9267
   776.0000   2000.0000   1980.0000     24.5413     88.8301
   776.2500   2000.0000   1980.0000     23.9153     96.2153
   776.5000   2000.0000   1980.0000     23.1170    102.5448
   776.7500   2000.0000   1980.0000     22.1863    112.4965
   777.0000   2000.0000   1980.0000     21.1708    118.3570
   777.2500   2000.0000   1980.0000     20.1224    124.7513
   777.5000   2000.0000   1980.0000     19.0875    127.3913
   777.7500   2000.0000   1980.0000     18.0967    129.6957
   778.0000   2000.0000   1980.0000     17.1589    130.5662
   778.2500   2000.0000   1980.0000     16.2631    131.1603
   778.5000   2000.0000   1980.0000     15.3874    131.0798
   778.7500   2000.0000   1980.0000     14.5125    130.2378
   779.0000   2000.0000   1980.0000     13.6355    129.2622
   779.2500   2000.0000   1980.0000     12.7788    127.5370
   779.5000   2000.0000   1980.0000     11.9898    126.6607
   779.7500   2000.0000   1980.0000     11.3383    126.8413
   780.0000   2000.0000   1980.0000     10.9134    128.4484
   780.2500   2000.0000   1980.0000     10.8306    133.0178
   780.5000   2000.0000   1980.0000     11.2608    136.9633
   780.7500   2000.0000   1980.0000     12.5145    143.0798
   781.0000   2000.0000   1980.0000     15.2961    146.6878
   781.2500   2000.0000   1980.0000     21.6907    150.3961
   781.5000   2000.0000   1980.0000     41.6952    151.2893
   781.7500   2000.0000   1980.0000    721.0520    150.3431
   782.0000   2000.0000   1980.0000 100000.0000    148.7499
   782.2500   2000.0000   1980.0000 100000.0000    145.9904
   782.5000   2000.0000   1980.0000 100000.0000    144.2728
   782.7500   2000.0000   1980.0000 100000.0000    142.1217
   783.0000   2000.0000   1980.0000 100000.0000    141.0000
   783.2500   2000.0000   1980.0000 100000.0000    139.7569
   783.5000   2000.0000   1980.0000 100000.0000    139.2365
   783.7500   2000.0000   1980.0000 100000.0000    138.9729
   784.0000   2000.0000   1980.0000 100000.0000    139.0095
   784.2500   2000.0000   1980.0000 100000.0000    138.7329
   784.5000   2000.0000   1980.0000 100000.0000    137.9086
   784.7500   2000.0000   1980.0000 100000.0000    135.3333
   785.0000   2000.0000   1980.0000 100000.0000    132.7388
   785.2500   2000.0000   1980.0000 100000.0000    128.0577
   785.5000   2000.0000   1980.0000 100000.0000    125.0687
   785.7500   2000.0000   1980.0000 100000.0000    122.1506
   786.0000   2000.0000   1980.0000     78.9652    121.7568
   786.2500   2000.0000   1980.0000     15.8323    123.3110
   786.5000   2000.0000   1980.0000      6.1717    124.9948
   786.7500   2000.0000   1980.0000      2.8992    126.3343
   787.0000   2000.0000   1980.0000      1.5121    125.2493
   787.2500   2000.0000   1980.0000      0.8470    120.0242
   787.5000   2000.0000   1980.0000      0.4946    114.8002
   787.7500   2000.0000   1980.0000      0.2914    106.3160
   788.0000   2000.0000   1980.0000      0.1701    101.1420
   788.2500   2000.0000   1980.0000      0.0999     94.5708
   788.5000   2000.0000   1980.0000      0.0609     90.7381
   788.7500   2000.0000   1980.0000      0.0393     85.3739
   789.0000   2000.0000   1980.0000      0.0267     82.1530
   789.2500   2000.0000   1980.0000      0.0187     78.4307
   789.5000   2000.0000   1980.0000      0.0133     76.9687
   789.7500   2000.0000   1980.0000      0.0095     76.6513
   790.0000   2000.0000   1980.0000      0.0070     77.9048
   790.2500   2000.0000   1980.0000      0.0055     81.9204
   790.5000   2000.0000   1980.0000      0.0046     85.3760
   790.7500   2000.0000   1980.0000      0.0041     89.8218
   791.0000   2000.0000   1980.0000      0.0039     91.3133
   791.2500   2000.0000   1980.0000      0.0038     90.7708
   791.5000   2000.0000   1980.0000      0.0039     88.9884
   791.7500   2000.0000   1980.0000      0.0041     86.0700
   792.0000   2000.0000   1980.0000      0.0047     85.4128
   792.2500   2000.0000   1980.0000      0.0060     88.1453
   792.5000   2000.0000   1980.0000      0.0090     92.3549
   792.7500   2000.0000   1980.0000      0.0161    100.0936
   793.0000   2000.0000   1980.0000      0.0350    104.5323
   793.2500   2000.0000   1980.0000      0.0868    108.1439
   793.5000   2000.0000   1980.0000      0.2163    108.3252
   793.7500   2000.0000   1980.0000      0.4958    106.5695
   794.0000   2000.0000   1980.0000      1.1379    105.4422
   794.2500   2000.0000   1980.0000      3.1200    105.8838
   794.5000   2000.0000   1980.0000     15.0314    107.7856
   794.7500   2000.0000   1980.0000 100000.0000    111.3391
   795.0000   2000.0000   1980.0000 100000.0000    112.7838
   795.2500   2000.0000   1980.0000 100000.0000    112.2616
   795.5000   2000.0000   1980.0000     42.5394    110.2623
   795.7500   2000.0000   1980.0000     31.7028    105.9028
   796.0000   2000.0000   1980.0000     84.7329    102.9023
   796.2500   2000.0000   1980.0000 100000.0000     99.5419
   796.5000   2000.0000   1980.0000 100000.0000     98.4318
   796.7500   2000.0000   1980.0000 100000.0000     98.1057
   797.0000   2000.0000   1980.0000 100000.0000     98.3022
   797.2500   2000.0000   1980.0000 100000.0000     98.7925
   797.5000   2000.0000   1980.0000 100000.0000     99.2777
   797.7500   2000.0000   1980.0000 100000.0000    100.2580
   798.0000   2000.0000   1980.0000 100000.0000    100.9374
