~Version Information
VERS.                      2.0: CWLS Log ASCII Standard - VERSION 2.0
WRAP.                       NO: One line per depth step
~Well Information Block
STRT.FT               370.0000: 
STOP.FT              2831.7500: 
STEP.FT                 0.2500: 
NULL.                -999.2500: 
COMP.          Pioneer Natural Resources: COMPANY
WELL.          Black Cat 13-32: WELL
FLD.           Purgatoire River: FIELD
LOC.           1865' FSL & 1120' FWL--: LOCATION
PROV.                 Colorado: PROVINCE
CNTY.               Las Animas: COUNTRY
SRVC.                Patterson: SERVICE COMPANY
DATE.          Sun Jul 31 08:49:16 2005: LOG DATE
UWI.           05 071 08450 00: UNIQUE WELL ID
~Curve Information Block
DEPT.FT            0 000 00 00: Depth
DIR.Ohm-m                     : IEL Induction Resistivity
SN.Ohm-m                      : IEL Short Normal
SP.mV                         : IEL Spontaneous Potential
GR.GAPI                       : Gamma Ray
~Parameter Information Block
~A  Depth       DIR          SN          SP          GR     
# ...
   839.0000     24.3415   2000.0000   1966.0000    122.5524
   839.2500     25.1641   2000.0000   1966.0000    121.5153
   839.5000     26.0137   2000.0000   1966.0000    118.4883
   839.7500     26.8736   2000.0000   1966.0000    115.7154
   840.0000     27.7227   2000.0000   1966.0000    111.5865
   840.2500     28.5316   2000.0000   1966.0000    109.5423
   840.5000     29.2704   2000.0000   1966.0000    107.7203
   840.7500     29.9306   2000.0000   1966.0000    106.7602
   841.0000     30.5401   2000.0000   1966.0000    104.4533
   841.2500     31.1527   2000.0000   1966.0000    102.0602
   841.5000     31.8161   2000.0000   1966.0000     97.7564
   841.7500     32.5495   2000.0000   1966.0000     95.0114
   842.0000     33.3433   2000.0000   1966.0000     91.7751
   842.2500     34.1750   2000.0000   1966.0000     90.2340
   842.5000     35.0206   2000.0000   1966.0000     88.3743
   842.7500     35.8574   2000.0000   1966.0000     87.0406
   843.0000     36.6669   2000.0000   1966.0000     84.5125
   843.2500     37.4442   2000.0000   1966.0000     82.6443
   843.5000     38.2043   2000.0000   1966.0000     80.3610
   843.7500     38.9680   2000.0000   1966.0000     79.5477
   844.0000     39.7319   2000.0000   1966.0000     79.3343
   844.2500     40.4493   2000.0000   1966.0000     79.5387
   844.5000     41.0424   2000.0000   1966.0000     79.7525
   844.7500     41.4343   2000.0000   1966.0000     79.5536
   845.0000     41.5735   2000.0000   1966.0000     78.5807
   845.2500     41.4395   2000.0000   1966.0000     77.7422
   845.5000     41.5371   2000.0000   1966.0000     77.1458
   845.7500     40.9172   2000.0000   1966.0000     77.6170
   846.0000     40.1621   2000.0000   1966.0000     79.5418
   846.2500     39.3560   2000.0000   1966.0000     81.2366
   846.5000     38.5512   2000.0000   1966.0000     83.7657
   846.7500     37.7521   2000.0000   1966.0000     85.2758
   847.0000     36.9225   2000.0000   1966.0000     87.2391
   847.2500     36.0052   2000.0000   1966.0000     88.3947
   847.5000     34.9421   2000.0000   1966.0000     90.0780
   847.7500     33.6938   2000.0000   1966.0000     91.2547
   848.0000     32.2581   2000.0000   1966.0000     93.0236
   848.2500     30.6797   2000.0000   1966.0000     94.1493
   848.5000     29.0364   2000.0000   1966.0000     96.2644
   848.7500     27.4063   2000.0000   1966.0000     98.6128
   849.0000     25.6086   2000.0000   1966.0000    104.1393
   849.2500     24.1638   2000.0000   1966.0000    108.7384
   849.5000     22.8279   2000.0000   1966.0000    115.7671
   849.7500     21.6254   2000.0000   1966.0000    120.2224
   850.0000     20.5907   2000.0000   1966.0000    126.6904
   850.2500     19.7596   2000.0000   1966.0000    130.7456
   850.5000     19.1584   2000.0000   1966.0000    135.4367
   850.7500     18.7941   2000.0000   1966.0000    136.9772
   851.0000     18.6499   2000.0000   1966.0000    136.8615
   851.2500     18.6877   2000.0000   1966.0000    136.0769
   851.5000     18.8589   2000.0000   1966.0000    135.9981
   851.7500     19.1196   2000.0000   1966.0000    137.2332
   852.0000     17.4415   2000.0000   1966.0000    139.7964
   852.2500     17.7284   2000.0000   1966.0000    140.5743
   852.5000     18.0245   2000.0000   1966.0000    138.7868
   852.7500     18.2921   2000.0000   1966.0000    135.8115
   853.0000     18.4783   2000.0000   1966.0000    130.2375
   853.2500     18.5353   2000.0000   1966.0000    126.6195
   853.5000     18.4471   2000.0000   1966.0000    121.8839
   853.7500     18.2426   2000.0000   1966.0000    119.2571
   854.0000     17.9810   2000.0000   1966.0000    116.6794
   854.2500     17.7235   2000.0000   1966.0000    116.5135
   854.5000     17.5141   2000.0000   1966.0000    119.3808
   854.7500     17.3770   2000.0000   1966.0000    123.0837
   855.0000     17.2149   2000.0000   1966.0000    129.4140
   855.2500     17.2454   2000.0000   1966.0000    132.7663
   855.5000     17.3527   2000.0000   1966.0000    135.0257
   855.7500     17.5180   2000.0000   1966.0000    134.6073
   856.0000     17.7141   2000.0000   1966.0000    131.6985
   856.2500     17.9170   2000.0000   1966.0000    128.7087
   856.5000     18.1172   2000.0000   1966.0000    123.6645
   856.7500     18.3232   2000.0000   1966.0000    120.5770
   857.0000     18.5527   2000.0000   1966.0000    116.9107
   857.2500     18.8176   2000.0000   1966.0000    115.0018
   857.5000     19.1128   2000.0000   1966.0000    112.8940
   857.7500     19.4156   2000.0000   1966.0000    112.3459
   858.0000     19.6974   2000.0000   1966.0000    113.2750
   858.2500     19.9388     25.2758   1966.0000    114.7874
   858.5000     20.2599     26.3580   1966.0000    117.3811
   858.7500     20.4305     27.2583   1966.0000    118.8535
   859.0000     20.5862     27.9758   1966.0000    120.1436
   859.2500     20.7478     28.5512   1966.0000    120.0712
   859.5000     20.9494     29.0159   1966.0000    118.1048
   859.7500     21.2432     29.4193    -99.7115    115.6849
   860.0000     21.6915     29.8444    -97.0337    111.8685
   860.2500     22.3482     30.3739    -95.2899    110.6040
   860.5000     23.2391     31.0426    -94.1991    112.5247
   860.7500     24.3472     31.8235    -93.5560    116.3831
   861.0000     25.6059     32.6537    -93.2071    124.1224
   861.2500     26.9033     33.4739    -93.0368    128.9833
   861.5000     28.1079     34.2530    -92.9597    133.7374
   861.7500     29.1130     34.9919    -92.9186    134.6689
   862.0000     29.8848     35.7183    -92.8812    132.5635
   862.2500     30.4792     36.4830    -92.8371    129.0953
   862.5000     31.0134     37.3523    -92.7912    122.1103
   862.7500     31.6124     38.3871    -92.7564    117.3733
   863.0000     32.3656     39.6203    -92.7494    111.5600
   863.2500     33.3127     41.0468    -92.7902    108.7222
   863.5000     34.4542     42.6336    -92.9058    105.7190
   863.7500     35.7690     44.3367    -93.1343    104.5019
   864.0000     37.2250     46.1099    -93.5265    104.1928
   864.2500     38.7843     47.9055    -94.1428    105.1989
   864.5000     40.4133     49.6824    -95.0450    108.1898
   864.7500     42.0936     51.4311    -96.2855    110.2614
   865.0000     43.8244     53.1968    -97.8968    110.8979
   865.2500     45.6168     55.0729    -99.8842    108.3971
   865.5000     47.4970     57.1638   -102.2224    100.3219
   865.7500     49.5191     59.5343   -104.8572     93.6027
   866.0000     51.7564     62.1685   -107.7108     85.0890
   866.2500     54.2494     64.9509   -110.6892     81.8449
   866.5000     56.9420     67.6719   -113.6907     80.6569
   866.7500     59.6626     70.0660   -116.6141     81.2820
   867.0000     62.1743     71.8870   -119.3659     82.3982
   867.2500     64.2611     72.9959   -121.8666     82.7215
   867.5000     65.7993     73.4050   -124.0539     82.6632
   867.7500     66.7836     73.2308   -125.8849     82.4510
   868.0000     67.2933     72.5844   -127.3367     81.9773
   868.2500     67.4156     71.4862   -128.4068     81.6324
   868.5000     67.1756     69.8782   -129.1107     81.4290
   868.7500     66.5241     67.7176   -129.4802     81.6704
   869.0000     65.3724     65.0591   -129.5588     82.5511
   869.2500     63.6204     62.0578   -129.3968     83.4762
   869.5000     61.1775     58.9033   -129.0450     85.9256
   869.7500     58.0153     55.7536   -128.5500     88.7626
   870.0000     54.2444     52.7177   -127.9495     95.1445
   870.2500     50.1256     49.8720   -127.2715    100.5273
   870.5000     45.9783     47.2678   -126.5346    109.2584
   870.7500     42.0609     44.9138   -125.7511    114.7852
   871.0000     38.5122     42.7653   -124.9303    121.4245
   871.2500     35.3661     40.7455   -124.0830    124.2132
   871.5000     32.5957     38.7902   -123.2236    125.5899
   871.7500     30.1514     36.8780   -122.3715    124.9354
   872.0000     27.9848     35.0298   -121.5495    123.0008
   872.2500     26.0601     33.2885   -120.7813    122.1125
