~Version Information
VERS.                      2.0: CWLS Log ASCII Standard - VERSION 2.0
WRAP.                       NO: One line per depth step
~Well Information Block
STRT.FT               615.0000: 
STOP.FT              1607.0000: 
STEP.FT                 0.1000: 
NULL.                -999.2500: 
COMP.          Pioneer Natural Resources: COMPANY
WELL.          Galloway 32-13 Tr: WELL
FLD.           Purgatoire River: FIELD
LOC.           1910' FNL & 2002' FEL: LOCATION
PROV.                 Colorado: PROVINCE
CNTY.               Las Animas: COUNTRY
SRVC.                Patterson: SERVICE COMPANY
DATE.          Mon Nov 14 07:13:22 2005: LOG DATE
UWI.           05 071 08608 00: UNIQUE WELL ID
~Curve Information Block
DEPT.FT            0 000 00 00: Depth
DCAL.in                       : CDL Caliper
RHOB.g/cc                     : CDL Bulk Density
RHOC.g/cc                     : CDL Density Correction
DPOR.pu                       : CDL Density Porosity
GR.GAPI                       : Gamma Ray
NPOR.pu                       : Neutron Porosity
~Parameter Information Block
~A  Depth       DCAL        RHOB        RHOC        DPOR         GR         NPOR    
# ...
   874.2000      7.9210      2.5613      0.0283      5.3736    145.0627     28.5576
   874.3000      7.9470      2.5853      0.0505      3.9194    137.9823     28.5725
   874.4000      7.9470      2.5908      0.0715      3.5867    134.6494     29.1207
   874.5000      7.9518      2.5713      0.0322      4.7727    136.0087     29.9025
   874.6000      7.9518      2.5548      0.0066      5.7712    137.0700     30.3510
   874.7000      7.9518      2.5578      0.0710      5.5898    134.5504     30.6909
   874.8000      7.9573      2.5590      0.0637      5.5180    131.7555     30.6337
   874.9000      7.9573      2.5506     -0.0197      6.0217    132.4339     29.8668
   875.0000      7.9584      2.5502      0.0006      6.0498    136.9275     29.1679
   875.1000      7.9584      2.5637     -0.0346      5.2303    142.1156     28.8756
   875.2000      7.9584      2.5906     -0.0273      3.6025    142.9657     28.3604
   875.3000      7.9543      2.6247      0.0260      1.5356    141.4107     27.6946
   875.4000      7.9543      2.6442      0.1556      0.3540    141.8117     27.4467
   875.5000      7.9504      2.6342      0.0957      0.9587    141.9090     27.6417
   875.6000      7.9504      2.6110      0.0681      2.3664    141.0845     27.8299
   875.7000      7.9504      2.5997      0.0034      3.0456    143.4840     27.6289
   875.8000      7.9205      2.6018      0.0485      2.9203    147.9402     27.1917
   875.9000      7.9205      2.5946      0.0488      3.3562    148.7217     26.9187
   876.0000      7.9064      2.5665     -0.0014      5.0630    148.5369     27.1272
   876.1000      7.9064      2.5401      0.0015      6.6590    152.9429     27.8184
   876.2000      7.9064      2.5413      0.0257      6.5875    156.8175     28.3419
   876.3000      7.9568      2.5575      0.0731      5.6035    151.8361     28.1875
   876.4000      7.9568      2.5548      0.1516      5.7711    140.3971     28.3301
   876.5000      7.9836      2.5199      0.0655      7.8865    132.3601     29.2097
   876.6000      7.9836      2.4592      0.0830     11.5652    134.6915     29.9540
   876.7000      7.9836      2.3750      0.0368     16.6681    143.9040     30.2533
   876.8000      7.9876      2.2728     -0.0334     22.8635    148.4825     29.9114
   876.9000      7.9876      2.1576     -0.0173     29.8434    142.9772     28.8067
   877.0000      7.9972      2.0302     -0.0442     37.5634    132.4785     27.8187
   877.1000      7.9972      1.8959     -0.0259     45.7035    120.2712     28.1492
   877.2000      7.9972      1.7556     -0.0554     54.2043    106.5447     29.7581
   877.3000      7.9984      1.6131     -0.0585     62.8395     92.9121     31.2229
   877.4000      7.9984      1.4887     -0.1042     70.3809     82.8041     31.6605
   877.5000      7.9944      1.4069     -0.1161     75.3381     78.4610     31.3720
   877.6000      7.9944      1.3743     -0.0528     77.3168     76.5194     31.1174
   877.7000      7.9944      1.3754      0.0239     77.2504     72.3800     31.4498
   877.8000      8.0196      1.3885      0.0484     76.4541     66.9054     31.8667
   877.9000      8.0196      1.3986      0.0449     75.8424     65.0236     31.9441
   878.0000      8.2310      1.3997      0.0745     75.7788     66.9040     32.3549
   878.1000      8.2310      1.3943      0.0306     76.1045     67.2591     33.6009
   878.2000      8.2310      1.3900      0.0353     76.3633     64.6366     35.0555
   878.3000      8.5083      1.3860     -0.0024     76.6031     62.3842     35.4205
   878.4000      8.5083      1.3720     -0.0105     77.4535     59.1054     34.5945
   878.5000      8.6368      1.3443     -0.0232     79.1334     51.7464     33.6787
   878.6000      8.6368      1.3156     -0.0226     80.8727     45.5787     33.3376
   878.7000      8.6368      1.3021     -0.0041     81.6915     44.8802     33.4826
   878.8000      8.4189      1.3119     -0.0245     81.0987     47.0829     33.6592
   878.9000      8.4189      1.3498      0.0079     78.7991     49.5641     33.5711
   879.0000      8.3878      1.4196      0.0269     74.5696     50.7971     33.0932
   879.1000      8.3878      1.5232      0.0553     68.2910     52.0449     32.5941
   879.2000      8.3878      1.6577      0.0662     60.1369     58.3676     32.7359
   879.3000      8.4391      1.8110      0.1097     50.8474     68.9015     33.3100
   879.4000      8.4391      1.9689      0.1827     41.2817     76.9266     33.8263
   879.5000      8.2286      2.1172      0.2271     32.2938     81.6088     34.3510
   879.6000      8.2286      2.2248      0.2866     25.7676     87.1595     34.6072
   879.7000      8.2286      2.2630      0.1934     23.4530     96.0987     34.2268
   879.8000      8.1392      2.2364      0.1838     25.0651    106.3063     33.4801
   879.9000      8.1392      2.1683     -0.0171     29.1942    113.0955     32.6040
   880.0000      8.2115      2.0870     -0.0815     34.1240    115.5556     31.2905
   880.1000      8.2115      2.0109     -0.0801     38.7354    114.2880     30.1448
   880.2000      8.2115      1.9445     -0.0788     42.7549    108.0244     30.3168
   880.3000      8.1366      1.9049     -0.1559     45.1591    101.6085     31.5189
   880.4000      8.1366      1.9126     -0.0666     44.6915    100.7011     32.8261
   880.5000      8.0784      1.9569      0.0387     42.0053    103.2846     33.5457
   880.6000      8.0784      2.0159      0.1132     38.4323    104.7716     33.0205
   880.7000      8.0784      2.0908      0.1283     33.8894    105.7834     31.9057
   880.8000      8.2316      2.1935      0.1637     27.6648    109.1403     31.7203
   880.9000      8.2316      2.3101      0.2104     20.5971    114.0200     32.3673
   881.0000      8.2682      2.4038      0.1380     14.9189    117.9115     32.4167
   881.1000      8.2682      2.4559      0.1119     11.7656    120.6461     31.6525
   881.2000      8.2682      2.4725      0.1492     10.7561    123.1943     31.2718
   881.3000      8.1280      2.4678      0.1086     11.0436    122.5305     31.5658
   881.4000      8.1280      2.4482      0.1695     12.2331    117.5899     31.5527
   881.5000      8.0144      2.4100      0.1125     14.5441    113.7216     30.9351
   881.6000      8.0144      2.3717      0.0415     16.8650    113.6585     30.1503
   881.7000      8.0144      2.3681      0.0767     17.0829    115.1614     29.4586
   881.8000      8.0631      2.3994      0.1247     15.1895    115.3695     28.9077
   881.9000      8.0631      2.4341      0.1428     13.0834    115.5506     28.5983
   882.0000      8.0689      2.4605      0.1504     11.4830    118.6717     28.9650
   882.1000      8.0689      2.4895      0.2414      9.7289    125.4722     30.0151
   882.2000      8.0689      2.5220      0.2242      7.7563    132.3085     30.7681
   882.3000      7.9843      2.5448      0.3139      6.3774    133.9975     30.8773
   882.4000      7.9843      2.5456      0.2772      6.3253    129.7647     30.6400
   882.5000      7.8700      2.5280      0.2352      7.3943    124.6336     30.1585
   882.6000      7.8700      2.4969      0.1390      9.2815    123.6759     29.5766
   882.7000      7.8700      2.4540      0.0962     11.8790    125.9572     28.9493
   882.8000      7.8401      2.4133     -0.0103     14.3460    125.2099     28.5216
   882.9000      7.8401      2.3899      0.0273     15.7619    121.7536     28.4234
   883.0000      7.9460      2.3827     -0.0024     16.2013    124.6898     28.6390
   883.1000      7.9460      2.3855      0.0156     16.0303    131.4805     29.2055
   883.2000      7.9460      2.3915      0.0584     15.6660    132.4649     29.5272
   883.3000      8.0467      2.3905      0.0495     15.7254    132.5626     29.0941
   883.4000      8.0467      2.3675      0.0583     17.1226    136.3812     28.4177
   883.5000      8.0400      2.3017     -0.0081     21.1064    135.1342     28.2479
   883.6000      8.0400      2.1911     -0.0180     27.8149    127.0917     28.6433
   883.7000      8.0400      2.0628     -0.0718     35.5864    121.1259     29.1250
