~Version Information
VERS.                      2.0: CWLS Log ASCII Standard - VERSION 2.0
WRAP.                       NO: One line per depth step
~Well Information Block
STRT.FT                -7.7500: 
STOP.FT              1793.5000: 
STEP.FT                 0.2500: 
NULL.                -999.2500: 
COMP.          Pioneer Natural Resources: COMPANY
WELL.           Loews 41-32 Tr: WELL
FLD.           Purgatorie River: FIELD
LOC.           706' FNL & 224' FEL--: LOCATION
CNTY.               Las Animas: COUNTY
SRVC.          Patterson Wireline: SERVICE COMPANY
DATE.          Fri Feb 24 11:31:48 2006: LOG DATE
UWI.           05 071 08690 00: UNIQUE WELL ID
STAT.                       CO: STATE
~Curve Information Block
DEPT.FT            0 000 00 00: Depth
CCL.                          : Casing Collar Locator
TT3.usec                      : CBL 3' Travel Time
AMP3.mV                       : CBL 3' Amplitude
GR.GAPI                       : Gamma Ray
~Parameter Information Block
~A  Depth       CCL         TT3         AMP3         GR     
# ...
  1298.7500      0.0000    375.7707     14.2313    119.1367
  1299.0000      0.0000    398.0760     13.8338    113.3307
  1299.2500      0.0000    424.4627     13.5297    106.3290
  1299.5000      0.0000    448.1911     13.3581     99.4826
  1299.7500      0.0000    461.8605     13.3588     94.9972
  1300.0000      0.0000    460.9399     13.5754     94.3003
  1300.2500      0.0000    445.3471     14.0445     96.8018
  1300.5000      0.0000    418.9548     14.7823    100.6161
  1300.7500      0.0000    388.0729     15.7807    104.3337
  1301.0000      0.0000    359.1816     17.0168    107.8128
  1301.2500      0.0000    336.6035     18.4639    111.4269
  1301.5000      0.0000    321.5424     20.0914    115.0215
  1301.7500      0.0000    312.8296     21.8482    117.7879
  1302.0000      0.0000    308.3745     23.6492    119.0194
  1302.2500      0.0000    306.2844     25.3829    118.8676
  1302.5000      0.0000    305.3332     26.9356    118.3396
  1302.7500      0.0000    304.9008     28.2118    118.4919
  1303.0000      0.0000    304.7192     29.1447    119.4959
  1303.2500      0.0000    304.6683     29.7071    120.5025
  1303.5000      0.0000    304.6867     29.9186    120.6381
  1303.7500      0.0000    304.7500     29.8335    120.1620
  1304.0000      0.0000    304.9095     29.5139    120.3556
  1304.2500      0.0000    305.3851     29.0095    122.1302
  1304.5000      0.0000    306.8044     28.3453    124.8240
  1304.7500      0.0000    310.5130     27.5176    126.4022
  1305.0000      0.0000    318.6627     26.5062    124.8734
  1305.2500      0.0000    333.5878     25.3084    119.7886
  1305.5000      0.0000    356.3312     23.9609    112.7744
  1305.7500      0.0000    385.3364     22.5222    106.5801
  1306.0000      0.0000    417.1058     21.0385    103.0867
  1306.2500      0.0000    449.3507     19.5392    101.9287
  1306.5000      0.0000    483.8302     18.0564    101.1822
  1306.7500      0.0000    524.9059     16.6338     99.4240
  1307.0000      0.0000    573.9501     15.3154     96.7931
  1307.2500      0.0000    625.3699     14.1372     94.0458
  1307.5000      0.0000    669.4598     13.1227     91.2416
  1307.7500      0.0000    699.5062     12.2756     87.8036
  1308.0000      0.0000    715.6068     11.5766     83.4576
  1308.2500      0.0000    722.4576     10.9908     78.7053
  1308.5000      0.0000    725.2054     10.4857     74.5730
  1308.7500      0.0000    727.2647     10.0436     72.0607
  1309.0000      0.0000    729.8740      9.6649     71.4781
  1309.2500      0.0000    731.5886      9.3589     72.0580
  1309.5000      0.0000    727.8613      9.1289     72.4512
  1309.7500      0.0000    712.3602      8.9629     71.8249
  1310.0000      0.0000    680.7359      8.8409     70.2714
  1310.2500      0.0000    635.1646      8.7485     68.1648
  1310.5000      0.0000    586.1038      8.6832     65.5947
  1310.7500      0.0000    548.3490      8.6483     62.6337
  1311.0000      0.0000    532.8295      8.6453     59.7802
  1311.2500      0.0000    539.8165      8.6723     57.7503
  1311.5000      0.0000    558.1210      8.7287     56.7966
  1311.7500      0.0000    571.2003      8.8177     56.4869
  1312.0000      0.0000    568.1454      8.9430     56.3181
  1312.2500      0.0000    552.7352      9.1033     56.4017
  1312.5000      0.0000    541.4839      9.2925     57.2273
  1312.7500      0.0000    550.5938      9.5057     58.7209
  1313.0000      0.0000    583.4160      9.7450     59.8266
  1313.2500      0.0000    629.1078     10.0157     59.2609
  1313.5000      0.0000    671.8839     10.3216     56.7427
  1313.7500      0.0000    701.5308     10.6673     53.5230
  1314.0000      0.0000    716.9597     11.0656     51.5740
  1314.2500      0.0000    722.5755     11.5388     51.9763
  1314.5000      0.0000    722.9203     12.1064     53.9349
  1314.7500      0.0000    719.4819     12.7700     55.4065
  1315.0000      0.0000    709.6010     13.5079     54.7767
  1315.2500      0.0000    687.0644     14.2762     52.0294
  1315.5000      0.0000    645.7643     15.0118     48.5385
  1315.7500      0.0000    586.1465     15.6394     45.9964
  1316.0000      0.0000    519.0070     16.0897     45.4782
  1316.2500      0.0000    461.2598     16.3192     47.1303
  1316.5000      0.0000    427.3802     16.3172     50.2553
  1316.7500      0.0000    425.1082     16.0970     53.4742
  1317.0000      0.0000    455.7547     15.6824     55.2412
  1317.2500      0.0000    513.0841     15.0993     54.9730
  1317.5000      0.0000    581.9728     14.3804     53.7218
  1317.7500      0.0000    643.7346     13.5733     53.2920
  1318.0000      0.0000    686.2590     12.7390     54.6858
  1318.2500      0.0000    708.8022     11.9368     57.5346
  1318.5000      0.0000    717.7933     11.2087     60.7253
  1318.7500      0.0000    719.9681     10.5775     63.2455
  1319.0000      0.0000    718.6967     10.0562     64.5785
  1319.2500      0.0000    713.7370      9.6537     64.6769
  1319.5000      0.0000    702.7759      9.3708     63.8300
  1319.7500      0.0000    684.6601      9.1947     62.6073
  1320.0000      0.0000    663.3575      9.0990     61.7479
  1320.2500      0.0000    648.2533      9.0519     61.7809
  1320.5000      0.0000    647.4943      9.0290     62.5476
  1320.7500      0.0000    659.4675      9.0206     63.1120
  1321.0000      0.0000    671.6273      9.0306     62.3610
  1321.2500      0.0000    667.9679      9.0699     59.9788
  1321.5000      0.0000    638.3696      9.1477     56.9035
  1321.7500      0.0000    584.4685      9.2649     54.5747
  1322.0000      0.0000    519.5739      9.4161     53.5739
  1322.2500      0.0000    461.2275      9.5967     53.2713
  1322.5000      0.0000    420.7862      9.8087     52.9778
  1322.7500      0.0000    398.9488     10.0657     53.0156
  1323.0000      0.0000    389.7457     10.3998     54.2280
  1323.2500      0.0000    386.6485     10.8638     56.6373
  1323.5000      0.0000    385.1579     11.5167     59.0592
  1323.7500      0.0000    382.2412     12.3985     60.0982
  1324.0000      0.0000    375.5697     13.5137     59.2118
  1324.2500      0.0000    364.0786     14.8396     56.7503
  1324.5000      0.0000    348.9979     16.3484     53.4253
  1324.7500      0.0000    333.5918     18.0228     50.0590
  1325.0000      0.0000    321.1669     19.8494     47.3855
  1325.2500      0.0000    313.1443     21.7957     45.5413
  1325.5000      0.0000    308.8871     23.7839     44.0271
  1325.7500      0.0000    306.9225     25.6774     42.6746
  1326.0000      0.0000    306.0636     27.2967     42.5246
  1326.2500      0.0000    305.7000     28.4682     45.3236
  1326.5000      0.0000    305.5736     29.0826     52.1934
  1326.7500      0.0000    305.5504     29.1170     62.9493
  1327.0000      0.0000    305.5664     28.6053     76.4587
  1327.2500      0.0000    305.6828     27.6024     91.1859
  1327.5000      0.0000    306.1744     26.1846    105.3617
  1327.7500      0.0000    307.6387     24.4679    117.1791
  1328.0000      0.0000    311.2838     22.5958    125.4057
  1328.2500      0.0000    319.4919     20.6955    129.8269
  1328.5000      0.0000    336.6912     18.8462    130.8459
  1328.7500      0.0000    369.5904     17.0877    128.7305
  1329.0000      0.0000    424.3852     15.4460    123.3937
  1329.2500      0.0000    500.3197     13.9497    114.6694
  1329.5000      0.0000    585.2848     12.6324    102.7141
  1329.7500      0.0000    660.8022     11.5196     88.4311
  1330.0000      0.0000    713.6392     10.6126     73.5215
  1330.2500      0.0000    742.3860      9.8870     59.8707
  1330.5000      0.0000    753.8057      9.3144     48.8777
  1330.7500      0.0000    755.4628      8.8858     41.2463
  1331.0000      0.0000    752.1642      8.6108     36.9714
  1331.2500      0.0000    746.7858      8.4926     35.2294
  1331.5000      0.0000    741.8636      8.5044     34.6429
  1331.7500      0.0000    739.5779      8.5859     34.1110
  1332.0000      0.0000    740.8555      8.6619     33.3203
