~Version Information
 VERS.                                  2.0 : CWLS LAS VERSION
 WRAP.                                   NO : WRAPING MODE
 SWARE .                  MController 2.5.1 : SOFTWARE VERSION
~Well Information
 WELL.                     Lucky Lady 42-29 : WELL
 COMP.  Pioneer Natural Resources USA, Inc. : COMPANY
 FLD.                      Purgatoire River : FIELD
 LOC.             SE/NE Sec. 29, T34S, R65W : LOCATION
 DATE.                03/09/2006-03/09/2006 : DATE(S) LOGGED
 SRVC.                  Entrada GeoSciences : SERVICE COMPANY
 STAT.                             Colorado : STATE
 CNTY.                           Las Animas : COUNTY
 CTRY.                        United States : COUNTRY
 API.                                   N/A : API NUMBER
 STRT.FT                             250.00 : START DEPTH
 STOP.FT                            1215.00 : STOP DEPTH
 STEP.FT                               1.00 : DEPTH INCREMENT
 NULL.                                -9999 : NULL VALUE
~Curve information
 DEPTH.FT                                   :
 ROP.MIN/FT                                 :
 GAS.UNITS                                  :
~ASCII Log data
# ...
      650.00         0.23        436.7 
      651.00         0.20        418.2 
      652.00         0.20         94.2 
      653.00         0.20         80.6 
      654.00         0.27         79.0 
      655.00         0.20         66.7 
      656.00         0.27         61.9 
      657.00         0.33         57.9 
      658.00         0.27         55.6 
      659.00         0.23         55.7 
      660.00         0.23         56.3 
      661.00         0.17         56.3 
      662.00         0.17         55.3 
      663.00         0.20         53.4 
      664.00         0.23         53.2 
      665.00         0.18         53.6 
      666.00         0.20         54.3 
      667.00         0.20         54.5 
      668.00         0.20         54.8 
      669.00         0.20         54.8 
      670.00         0.20         55.6 
      671.00         0.17         55.8 
      672.00         0.17         55.8 
      673.00         0.13         55.8 
      674.00         0.17         55.4 
      675.00         0.17        291.6 
      676.00         0.17        291.6 
      677.00         0.20        307.8 
      678.00         0.17        322.6 
      679.00         0.17       1223.6 
      680.00         0.23       1222.1 
      681.00         0.23        875.8 
      682.00         0.20        563.8 
      683.00         0.25        469.5 
      684.00         0.23        400.0 
      685.00         0.43        400.0 
      686.00         0.37         79.8 
      687.00         0.30         68.1 
      688.00         0.33         62.0 
      689.00         0.28         56.6 
      690.00         0.23         55.6 
      691.00         0.23         56.1 
      692.00         0.20         56.2 
      693.00         0.23         56.5 
      694.00         0.20         56.5 
      695.00         0.23         56.5 
      696.00         0.17         56.8 
      697.00         0.20         57.0 
      698.00         0.20         57.0 
      699.00         0.20         56.3 
      700.00         0.20         56.7 
      701.00         0.17         56.7 
      702.00         0.20         56.5 
      703.00         0.20         56.6 
      704.00         0.23         56.4 
      705.00         0.28         56.4 
      706.00         0.23         56.4 
      707.00         0.23        453.9 
      708.00         0.27        453.9 
      709.00         0.37        336.1 
      710.00         0.30        212.5 
      711.00         0.27        147.7 
      712.00         0.27        113.3 
      713.00         0.23         76.2 
      714.00         0.23         76.2 
      715.00         0.23         75.1 
      716.00         0.27         68.0 
      717.00         0.23         61.3 
      718.00         0.23         61.1 
      719.00         0.20         59.2 
      720.00         0.23         57.6 
      721.00         0.20         53.5 
      722.00         0.20         51.9 
      723.00         0.20         52.8 
      724.00         0.25         52.7 
      725.00         0.30         52.3 
      726.00         0.30         51.5 
      727.00         0.23         52.3 
      728.00         0.20         52.9 
      729.00         0.20         54.6 
      730.00         0.20         56.2 
      731.00         0.20         56.6 
      732.00         0.17         54.9 
      733.00         0.20         54.9 
      734.00         0.20         55.0 
      735.00         0.17        372.9 
      736.00         0.13        372.9 
      737.00         0.17        436.7 
      738.00         0.23        381.5 
      739.00         0.20        241.9 
      740.00         0.25        180.6 
      741.00         0.20        166.9 
      742.00         0.23        107.5 
      743.00         0.20        104.6 
      744.00         0.27         85.8 
      745.00         0.27         73.1 
      746.00         0.27         65.4 
      747.00         0.33         59.9 
      748.00         0.27         57.8 
      749.00         0.27         55.9 
      750.00         0.27         55.5 
      751.00         0.20         55.4 
      752.00         0.23         55.2 
      753.00         0.23         54.9 
      754.00         0.23         54.7 
      755.00         0.23         54.7 
      756.00         0.23         54.4 
      757.00         0.23         54.5 
      758.00         0.23         52.3 
      759.00         0.20         52.5 
      760.00         0.28         54.5 
      761.00         0.23         54.9 
      762.00         0.20         55.3 
      763.00         0.23         55.6 
      764.00         0.23         55.8 
      765.00         0.20       1075.0 
      766.00         0.17        910.1 
      767.00         0.17        774.8 
      768.00         0.20        543.9 
      769.00         0.20        448.7 
      770.00         0.23        424.9 
      771.00         0.27        400.0 
      772.00         0.27         90.6 
      773.00         0.20         80.4 
      774.00         0.23         71.5 
      775.00         0.32         66.3 
      776.00         0.17         63.0 
      777.00         0.27         55.4 
      778.00         0.17         53.6 
      779.00         0.13         55.2 
      780.00         0.17         56.7 
      781.00         0.18         56.7 
      782.00         0.17         56.9 
      783.00         0.17         57.3 
      784.00         0.30         57.7 
      785.00         0.17         57.4 
      786.00         0.13         57.4 
      787.00         0.13         57.4 
      788.00         0.17         56.8 
      789.00         0.13         56.6 
      790.00         0.17         56.5 
      791.00         0.17         56.4 
      792.00         0.17         57.2 
      793.00         0.20       1016.2 
      794.00         0.20       1016.2 
      795.00         0.23        813.7 
      796.00         0.23        533.6 
      797.00         0.17        431.1 
      798.00         0.20        469.5 
      799.00         0.18        415.6 
      800.00         0.17        403.9 
      801.00         0.17        400.0 
      802.00         0.13         89.5 
      803.00         0.17         77.7 
      804.00         0.13         74.8 
      805.00         0.23         67.4 
      806.00         0.30         61.5 
      807.00         0.23         61.1 
      808.00         0.17         59.2 
      809.00         0.23         58.5 
      810.00         0.20         57.9 
      811.00         0.17         57.8 
      812.00         0.20         58.5 
      813.00         0.17         58.3 
      814.00         0.17         58.3 
      815.00         0.20         58.1 
      816.00         0.17         58.2 
      817.00         0.23         58.0 
      818.00         0.20         57.8 
      819.00         0.20         58.1 
      820.00         0.40         57.8 
      821.00         0.23         57.7 
      822.00         0.22         57.6 
      823.00         0.23         57.8 
      824.00         0.23         58.4 
      825.00         0.23         58.1 
      826.00         0.20       1043.4 
      827.00         0.23        766.3 
      828.00         0.23        529.8 
      829.00         0.23        506.4 
      830.00         0.23        417.3 
      831.00         0.33        400.0 
      832.00         0.20         84.3 
      833.00         0.23         77.2 
      834.00         0.20         75.5 
      835.00         0.27         67.3 
      836.00         0.32         63.9 
      837.00         0.27         62.3 
      838.00         0.27         60.4 
      839.00         0.27         58.7 
      840.00         0.28         58.5 
      841.00         0.27         58.4 
      842.00         0.23         57.8 
      843.00         0.23         62.7 
      844.00         0.20         65.2 
      845.00         0.23         65.4 
      846.00         0.27         65.3 
      847.00         0.20         64.4 
      848.00         0.30         62.9 
      849.00         0.20         61.4 
