~Version Information
VERS.                      2.0: CWLS Log ASCII Standard - VERSION 2.0
WRAP.                       NO: One line per depth step
~Well Information Block
STRT.FT               530.0000: 
STOP.FT              1298.0000: 
STEP.FT                 0.1000: 
NULL.                -999.2500: 
COMP.          Pioneer Natural Resources: COMPANY
WELL.            Keiko 14-6 Tr: WELL
FLD.           Purgatoire River: FIELD
LOC.           462' FSL & 1202' FWL: LOCATION
PROV.                 Colorado: PROVINCE
CNTY.               Las Animas: COUNTRY
SRVC.                Patterson: SERVICE COMPANY
DATE.          Fri Dec 30 07:26:03 2005: LOG DATE
UWI.           05 071 08629 00: UNIQUE WELL ID
~Curve Information Block
DEPT.FT            0 000 00 00: Depth
DCAL.in                       : CDL Caliper
RHOB.g/cc                     : CDL Bulk Density
RHOC.g/cc                     : CDL Density Correction
DPOR.pu                       : CDL Density Porosity
GR.GAPI                       : Gamma Ray
~Parameter Information Block
~A  Depth       DCAL        RHOB        RHOC        DPOR         GR     
# ...
   586.0000      8.1459      2.5172     -0.0231      8.0475    123.1792
   586.1000      8.1459      2.5183     -0.0140      7.9827    126.1201
   586.2000      8.1459      2.5204     -0.0049      7.8527    128.0482
   586.3000      8.1326      2.5241      0.0182      7.6311    129.6235
   586.4000      8.1326      2.5248      0.0077      7.5864    130.1220
   586.5000      8.1426      2.5223      0.0280      7.7414    126.6985
   586.6000      8.1426      2.5173      0.0021      8.0430    123.2343
   586.7000      8.1426      2.5048      0.0537      8.7996    124.1435
   586.8000      8.1532      2.4866      0.0144      9.9021    125.8932
   586.9000      8.1532      2.4863     -0.0186      9.9200    123.8458
   587.0000      8.1440      2.5156      0.0299      8.1467    118.3593
   587.1000      8.1440      2.5519      0.0414      5.9437    114.9076
   587.2000      8.1440      2.5753      0.0360      4.5259    117.8040
   587.3000      8.1424      2.5857      0.0233      3.8943    125.3807
   587.4000      8.1424      2.5864      0.0386      3.8527    131.2367
   587.5000      8.1408      2.5772      0.0541      4.4101    128.9130
   587.6000      8.1408      2.5633     -0.0026      5.2541    119.1198
   587.7000      8.1408      2.5519      0.0623      5.9468    111.4285
   587.8000      8.1383      2.5412     -0.0087      6.5937    112.7740
   587.9000      8.1383      2.5317      0.0200      7.1714    118.9818
   588.0000      8.1404      2.5271      0.0025      7.4513    123.7552
   588.1000      8.1404      2.5258     -0.0102      7.5275    124.5403
   588.2000      8.1404      2.5178      0.0173      8.0106    121.4357
   588.3000      8.1422      2.4991      0.0178      9.1435    119.6997
   588.4000      8.1422      2.4926     -0.0474      9.5374    122.9565
   588.5000      8.1466      2.5173      0.0270      8.0416    127.3657
   588.6000      8.1466      2.5480      0.0405      6.1790    128.7298
   588.7000      8.1466      2.5530      0.0335      5.8801    128.2078
   588.8000      8.1465      2.5361      0.0329      6.9027    127.5896
   588.9000      8.1465      2.5114      0.0439      8.4004    128.9535
   589.0000      8.1523      2.4789      0.0066     10.3685    133.3898
   589.1000      8.1523      2.4465     -0.0360     12.3362    136.2019
   589.2000      8.1523      2.4316     -0.0226     13.2359    133.6989
   589.3000      8.1583      2.4326      0.0149     13.1751    127.2689
   589.4000      8.1583      2.4345     -0.0299     13.0625    123.1013
   589.5000      8.1606      2.4344      0.0088     13.0657    125.8693
   589.6000      8.1606      2.4335     -0.0369     13.1191    133.5343
   589.7000      8.1606      2.4349     -0.0493     13.0373    141.8218
   589.8000      8.1619      2.4427     -0.0321     12.5629    143.3225
   589.9000      8.1619      2.4558     -0.0232     11.7727    134.2867
   590.0000      8.1660      2.4729      0.0212     10.7352    126.8547
   590.1000      8.1660      2.4949      0.0213      9.4030    134.2911
   590.2000      8.1660      2.5182      0.0420      7.9859    148.0999
   590.3000      8.1681      2.5349      0.0539      6.9781    149.5332
   590.4000      8.1681      2.5439      0.0047      6.4314    139.7935
   590.5000      8.1694      2.5497      0.0340      6.0776    134.8069
   590.6000      8.1694      2.5469      0.0579      6.2485    136.9069
   590.7000      8.1694      2.5345      0.0114      6.9974    136.0750
   590.8000      8.1727      2.5221      0.0433      7.7516    128.2926
   590.9000      8.1727      2.5116      0.0309      8.3887    119.4463
   591.0000      8.1725      2.5043     -0.0018      8.8333    118.8180
   591.1000      8.1725      2.5002      0.0218      9.0804    124.3271
   591.2000      8.1725      2.4936     -0.0032      9.4769    125.4138
   591.3000      8.1724      2.4925     -0.0211      9.5479    124.2899
   591.4000      8.1724      2.5088      0.0002      8.5583    129.5306
   591.5000      8.1725      2.5282      0.0593      7.3805    137.1458
   591.6000      8.1725      2.5342     -0.0185      7.0212    141.3478
   591.7000      8.1725      2.5322      0.0289      7.1416    143.9039
   591.8000      8.1783      2.5168      0.0304      8.0715    142.8666
   591.9000      8.1783      2.4795      0.0033     10.3342    137.2137
   592.0000      8.1812      2.4390     -0.0408     12.7896    132.2292
   592.1000      8.1812      2.4145     -0.0106     14.2706    130.9857
   592.2000      8.1812      2.4069     -0.0335     14.7329    132.2187
   592.3000      8.1869      2.4170     -0.0133     14.1229    135.2191
   592.4000      8.1869      2.4391     -0.0173     12.7800    139.0654
   592.5000      8.1907      2.4610     -0.0166     11.4542    142.5680
   592.6000      8.1907      2.4773      0.0256     10.4679    145.4550
   592.7000      8.1907      2.4802      0.0427     10.2906    145.9621
   592.8000      8.1922      2.4694      0.0501     10.9446    143.0324
   592.9000      8.1922      2.4670      0.0065     11.0900    137.7918
   593.0000      8.1973      2.4863      0.0453      9.9241    131.9340
   593.1000      8.1973      2.5030      0.1191      8.9065    128.3772
   593.2000      8.1973      2.4922      0.0744      9.5650    129.4680
   593.3000      8.2044      2.4655      0.0271     11.1826    133.2732
   593.4000      8.2044      2.4477      0.0356     12.2626    136.9713
   593.5000      8.2123      2.4434      0.0454     12.5203    142.4345
   593.6000      8.2123      2.4423      0.0335     12.5874    149.9580
   593.7000      8.2123      2.4348      0.0740     13.0435    157.3010
   593.8000      8.2175      2.4205      0.0575     13.9065    163.6069
   593.9000      8.2175      2.4106      0.0312     14.5082    167.2033
   594.0000      8.2138      2.4141      0.0403     14.2955    165.3220
   594.1000      8.2138      2.4292      0.0905     13.3799    158.4704
   594.2000      8.2138      2.4499      0.1163     12.1279    153.7624
   594.3000      8.2102      2.4721      0.1138     10.7816    153.8201
   594.4000      8.2102      2.4935      0.1276      9.4864    151.7480
   594.5000      8.2094      2.5096      0.1370      8.5119    140.5879
   594.6000      8.2094      2.5035      0.1901      8.8758    124.2488
   594.7000      8.2094      2.4462      0.1696     12.3540    114.9175
   594.8000      8.2160      2.3260      0.1155     19.6356    115.4394
   594.9000      8.2160      2.1660      0.0164     29.3343    119.3758
   595.0000      8.2221      1.9945     -0.0501     39.7268    121.5660
   595.1000      8.2221      1.8292     -0.1432     49.7444    120.4378
   595.2000      8.2221      1.6879     -0.2031     58.3114    120.9249
   595.3000      8.2211      1.5755     -0.1694     65.1228    122.9221
   595.4000      8.2211      1.4791     -0.1659     70.9628    117.1253
   595.5000      8.2615      1.3967     -0.1092     75.9571    102.9269
   595.6000      8.2615      1.3468     -0.0847     78.9820     89.7566
   595.7000      8.2615      1.3454      0.0033     79.0657     82.9006
   595.8000      8.2707      1.3831      0.0443     76.7843     82.6387
   595.9000      8.2707      1.4419      0.0519     73.2187     84.9180
   596.0000      8.2774      1.5234      0.0285     68.2770     85.5523
   596.1000      8.2774      1.6319      0.0902     61.7028     87.7275
   596.2000      8.2774      1.7570      0.1194     54.1191     94.8453
   596.3000      8.2757      1.8914      0.1405     45.9788    101.7730
   596.4000      8.2757      2.0276      0.2145     37.7229    104.4358
   596.5000      8.2610      2.1531      0.2080     30.1123    108.3195
   596.6000      8.2610      2.2576      0.2455     23.7798    115.3127
   596.7000      8.2610      2.3319      0.1832     19.2813    120.2895
   596.8000      8.2016      2.3837      0.1099     16.1369    122.6338
   596.9000      8.2016      2.4294      0.1032     13.3672    123.6174
   597.0000      8.1115      2.4668      0.0804     11.1045    124.5154
   597.1000      8.1115      2.4913      0.0748      9.6179    127.3022
