~Version Information
VERS.                      2.0: CWLS Log ASCII Standard - VERSION 2.0
WRAP.                       NO: One line per depth step
~Well Information Block
STRT.FT               875.0000: 
STOP.FT              2947.2500: 
STEP.FT                 0.2500: 
NULL.                -999.2500: 
COMP.          Pioneer Natural Resources: COMPANY
WELL.          Hanginstone 21-27: WELL
FLD.           Purgatoire River: FIELD
LOC.           1186' FNL & 1606' FWL--: LOCATION
PROV.                 Colorado: PROVINCE
CNTY.               Las Animas: COUNTRY
SRVC.                Patterson: SERVICE COMPANY
DATE.          Sat Jan 07 09:06:14 2006: LOG DATE
UWI.           05 071 08632 00: UNIQUE WELL ID
~Curve Information Block
DEPT.FT            0 000 00 00: Depth
SN.Ohm-m                      : IEL Short Normal
SP.mV                         : IEL Spontaneous Potential
DIR.Ohm-m                     : IEL Induction Resistivity
GR.GAPI                       : Gamma Ray
~Parameter Information Block
~A  Depth        SN          SP         DIR          GR     
# ...
  2516.5000     33.8907     67.5716     27.6587     84.1308
  2516.7500     33.6930     67.5347     27.5954     82.9570
  2517.0000     33.5416     67.4681     27.4750     83.5606
  2517.2500     33.4069     67.3742     27.3308     85.3133
  2517.5000     33.2598     67.2531     27.1821     88.1467
  2517.7500     33.0837     67.1021     27.0323     89.0912
  2518.0000     32.8781     66.9162     26.8792     88.6881
  2518.2500     32.6550     66.6909     26.7259     87.7231
  2518.5000     32.4342     66.4268     26.5839     85.9291
  2518.7500     32.2349     66.1360     26.4672     84.2854
  2519.0000     32.0653     65.8463     26.3821     80.3175
  2519.2500     31.9192     65.6029     26.3229     76.6584
  2519.5000     31.7835     65.4638     26.2788     70.9464
  2519.7500     31.6482     65.4885     26.2476     68.0225
  2520.0000     31.5055     65.7223     26.2405     65.9335
  2520.2500     31.3464     66.1792     26.2737     65.9792
  2520.5000     31.1693     66.8312     26.3553     67.6350
  2520.7500     30.9913     67.6075     26.4814     69.6352
  2521.0000     30.8447     68.4061     26.6415     74.0259
  2521.2500     30.7548     69.1146     26.8242     77.8182
  2521.5000     30.7258     69.6345     27.0183     84.1413
  2521.7500     30.7464     69.9009     27.2138     87.9666
  2522.0000     30.8042     69.8932     27.4049     91.2038
  2522.2500     30.8923     69.6336     27.5868     90.7947
  2522.5000     31.0031     69.1778     27.7453     86.2952
  2522.7500     31.1186     68.6007     27.8501     81.5671
  2523.0000     31.2071     67.9838     27.8615     73.7182
  2523.2500     31.2309     67.4062     27.7491     68.7464
  2523.5000     31.1574     66.9398     27.5034     62.4415
  2523.7500     30.9638     66.6476     27.1340     59.2527
  2524.0000     30.6289     66.5820     26.6562     56.1179
  2524.2500     30.1165     66.7823     26.0764     55.1472
  2524.5000     29.3656     67.2718     25.3826     55.6182
  2524.7500     28.3055     68.0535     24.5449     57.4295
  2525.0000     26.9010     69.1087     23.5262     62.3548
  2525.2500     25.1983     70.3975     22.3070     66.7433
  2525.5000     23.3307     71.8634     20.9107     74.1854
  2525.7500     21.4708     73.4395     19.4095     79.4569
  2526.0000     19.7633     75.0567     17.9006     87.8055
  2526.2500     18.2871     76.6505     16.4697     93.5939
  2526.5000     17.0582     78.1668     15.1680    101.7978
  2526.7500     16.0505     79.5651     14.0123    106.1963
  2527.0000     15.2160     80.8190     12.9995    110.4828
  2527.2500     14.5029     81.9153     12.1206    112.1200
  2527.5000     13.8727     82.8518     11.3670    113.9283
  2527.7500     13.3085     83.6344     10.7309    115.0578
  2528.0000     12.8086     84.2739     10.2026    116.1211
  2528.2500     12.3729     84.7834      9.7705    115.8273
  2528.5000     11.9978     85.1761      9.4230    113.4660
  2528.7500     11.6784     85.4630      9.1509    111.0162
  2529.0000     11.4155     85.6526      8.9488    107.6526
  2529.2500     11.2152     85.7499      8.8139    106.6699
  2529.5000     11.0851     85.7566      8.7447    108.0378
  2529.7500     11.0307     85.6717      8.7396    110.5289
  2530.0000     11.0546     85.4926      8.7968    114.7180
  2530.2500     11.1567     85.2163      8.9145    116.4765
  2530.5000     11.3322     84.8412      9.0914    116.4723
  2530.7500     11.5718     84.3690      9.3257    115.1434
  2531.0000     11.8649     83.8066      9.6154    112.6959
  2531.2500     12.2046     83.1680      9.9575    111.2288
  2531.5000     12.5886     82.4745     10.3482    108.8840
  2531.7500     13.0142     81.7549     10.7828    106.7635
  2532.0000     13.4729     81.0436     11.2550    102.5285
  2532.2500     13.9517     80.3780     11.7554     99.3149
  2532.5000     14.4411     79.7947     12.2699     94.7388
  2532.7500     14.9384     79.3257     12.7792     92.2955
  2533.0000     15.4367     78.9945     13.2582     90.3204
  2533.2500     15.9072     78.8141     13.6767     90.5336
  2533.5000     16.2969     78.7847     14.0012     93.1542
  2533.7500     16.5429     78.8947     14.1984     95.8663
  2534.0000     16.5966     79.1217     14.2418    100.0485
  2534.2500     16.4421     79.4358     14.1214    102.4317
  2534.5000     16.1013     79.8028     13.8513    105.3101
  2534.7500     15.6274     80.1886     13.4675    106.8345
  2535.0000     15.0897     80.5623     13.0180    108.5349
  2535.2500     14.5556     80.8985     12.5500    109.4713
  2535.5000     14.0737     81.1790     12.1020    111.5403
  2535.7500     13.6647     81.3922     11.6994    113.9506
  2536.0000     13.3249     81.5325     11.3548    119.3254
  2536.2500     13.0398     81.5985     11.0703    123.6093
  2536.5000     12.7971     81.5918     10.8422    129.4462
  2536.7500     12.5934     81.5154     10.6663    131.8081
  2537.0000     12.4354     81.3731     10.5407    131.9019
  2537.2500     12.3363     81.1689     10.4672    130.0266
  2537.5000     12.3114     80.9068     10.4500    126.4709
  2537.7500     12.3733     80.5912     10.4947    124.7711
  2538.0000     12.5296     80.2268     10.6072    123.1772
  2538.2500     12.7828     79.8185     10.7946    121.6118
  2538.5000     13.1320     79.3708     11.0645    116.9057
  2538.7500     13.5762     78.8874     11.4232    112.5663
  2539.0000     14.1166     78.3704     11.8733    106.7002
  2539.2500     14.7570     77.8194     12.4129    104.4304
  2539.5000     15.5052     77.2309     13.0387    103.5420
  2539.7500     16.3752     76.5990     13.7498    103.7565
  2540.0000     17.3839     75.9157     14.5506    103.7162
  2540.2500     18.5431     75.1731     15.4489    102.8462
  2540.5000     19.8518     74.3653     16.4498     99.8046
  2540.7500     21.2928     73.4898     17.5496     96.8058
  2541.0000     22.8343     72.5493     18.7318     92.0385
  2541.2500     24.4320     71.5511     19.9647     89.4288
  2541.5000     26.0336     70.5068     21.1957     86.6209
  2541.7500     27.5830     69.4311     22.3500     84.9453
  2542.0000     29.0252     68.3410     23.3466     81.5694
  2542.2500     30.3200     67.2561     24.1307     78.5159
  2542.5000     31.4552     66.2003     24.7012     73.3786
  2542.7500     32.4437     65.2054     25.1062     70.2407
  2543.0000     33.2984     64.3146     25.4089     66.8101
  2543.2500     33.9968     63.5843     25.6474     65.4960
  2543.5000     34.4555     63.0838     25.8058     64.4776
  2543.7500     34.5277     62.8892     25.8030     63.7752
  2544.0000     34.0258     63.0747     25.5039     61.5703
  2544.2500     32.7795     63.6987     24.7590     59.2715
  2544.5000     30.7246     64.7918     23.4749     55.9022
  2544.7500     27.9848     66.3454     21.6832     54.8594
  2545.0000     24.8801     68.3077     19.5569     56.5143
  2545.2500     21.8219     70.5865     17.3449     60.0510
  2545.5000     19.1469     73.0591     15.2713     69.1162
  2545.7500     17.0048     75.5872     13.4707     77.7796
  2546.0000     15.3648     78.0349     11.9849     94.5346
  2546.2500     14.1078     80.2845     10.7942    107.4119
  2546.5000     13.1181     82.2479      9.8517    126.6841
  2546.7500     12.3231     83.8726      9.1070    137.7834
  2547.0000     11.6861     85.1409      8.5185    149.4832
  2547.2500     11.1882     86.0640      8.0586    153.3231
  2547.5000     10.8197     86.6742      7.7131    153.6575
  2547.7500     10.5769     87.0160      7.4785    151.4834
  2548.0000     10.4595     87.1377      7.3561    147.2344
  2548.2500     10.4667     87.0868      7.3480    144.7868
  2548.5000     10.5919     86.9065      7.4531    141.9665
  2548.7500     10.8161     86.6344      7.6659    140.2246
  2549.0000     11.1070     86.3032      7.9752    137.1446
  2549.2500     11.4274     85.9411      8.3637    134.6895
  2549.5000     11.7487     85.5725      8.8073    130.5211
  2549.7500     12.0605     85.2188      9.2779    127.4899
