~Version Information
VERS.                      2.0: CWLS Log ASCII Standard - VERSION 2.0
WRAP.                       NO: One line per depth step
~Well Information Block
STRT.FT                10.0000: 
STOP.FT              1350.5000: 
STEP.FT                 0.1000: 
NULL.                -999.2500: 
COMP.          Pioneer Natural Resources: COMPANY
WELL.              Dicks 32-5R: WELL
FLD.           Purgatorie River: FIELD
LOC.           1485' FNL & 1684' FEL: LOCATION
PROV.                 Colorado: PROVINCE
CNTY.               Las Animas: COUNTRY
SRVC.                Patterson: SERVICE COMPANY
DATE.          Fri Dec 09 10:06:15 2005: LOG DATE
UWI.                          : UNIQUE WELL ID
~Curve Information Block
DEPT.FT            0 000 00 00: Depth
DCAL.in                       : CDL Caliper
RHOB.g/cc                     : CDL Bulk Density
RHOC.g/cc                     : CDL Density Correction
DPOR.pu                       : CDL Density Porosity
GR.GAPI                       : Gamma Ray
NPOR.pu                       : Neutron Porosity
~Parameter Information Block
~A  Depth       DCAL        RHOB        RHOC        DPOR         GR         NPOR    
# ...
   538.0000      7.9930      3.1494      0.1263    -30.2659     97.8544     34.2644
   538.1000      7.9930      3.1369      0.0237    -29.5110     91.2661     34.5811
   538.2000      7.9930      3.1185     -0.0123    -28.3912     86.2945     34.5389
   538.3000      7.9735      3.0830      0.0867    -26.2395     82.5207     34.2922
   538.4000      7.9735      3.0162     -0.0499    -22.1923     78.5748     33.9953
   538.5000      7.9339      2.9457     -0.0696    -17.9187     74.5542     33.7025
   538.6000      7.9339      2.8910     -0.0378    -14.6071     72.0209     33.1649
   538.7000      7.9339      2.8374     -0.0103    -11.3583     72.2858     32.2172
   538.8000      7.8888      2.7690     -0.0336     -7.2096     74.7899     31.0491
   538.9000      7.8888      2.6896     -0.0073     -2.4028     78.1990     29.9868
   539.0000      7.9622      2.6174     -0.0221      1.9744     82.4185     29.2422
   539.1000      7.9622      2.5670     -0.0079      5.0280     86.2724     28.5961
   539.2000      7.9622      2.5431      0.0312      6.4761     87.5339     27.6472
   539.3000      8.0397      2.5473      0.1116      6.2256     86.4271     26.4598
   539.4000      8.0397      2.5761      0.2005      4.4814     85.7218     25.4971
   539.5000      7.9883      2.6117      0.2907      2.3199     87.9737     24.9664
   539.6000      7.9883      2.6282      0.3263      1.3235     92.2263     24.8004
   539.7000      7.9883      2.6169      0.2956      2.0081     95.8747     24.9497
   539.8000      7.8027      2.5974      0.2589      3.1887     98.1123     25.0665
   539.9000      7.8027      2.5951      0.2367      3.3260     98.1615     24.6135
   540.0000      7.7632      2.6181      0.2667      1.9345     97.2219     23.6804
   540.1000      7.7632      2.6543      0.2550     -0.2635     98.1198     22.8634
   540.2000      7.7632      2.6853      0.2763     -2.1376    102.2543     22.3529
   540.3000      7.8111      2.6989      0.2649     -2.9645    108.8344     22.0298
   540.4000      7.8111      2.6967      0.2388     -2.8315    115.9345     21.9469
   540.5000      7.9465      2.6826      0.2483     -1.9746    122.0358     22.2084
   540.6000      7.9465      2.6555      0.2250     -0.3315    124.4768     22.5676
   540.7000      7.9465      2.6209      0.1701      1.7639    121.7882     22.7444
   540.8000      7.9835      2.5851      0.1554      3.9322    117.3543     22.9238
   540.9000      7.9835      2.5467      0.1584      6.2624    115.4750     23.1944
   541.0000      8.0079      2.5146      0.0830      8.2034    116.4266     23.3966
   541.1000      8.0079      2.5040      0.0705      8.8485    118.8818     23.4355
   541.2000      8.0079      2.5083      0.0784      8.5856    123.1063     23.4002
   541.3000      7.9851      2.5122      0.0485      8.3515    127.0441     23.4589
   541.4000      7.9851      2.5156      0.0711      8.1444    126.4776     23.7490
   541.5000      8.0227      2.5257      0.0837      7.5362    124.2295     24.0957
   541.6000      8.0227      2.5466      0.1093      6.2664    126.0303     24.0271
   541.7000      8.0227      2.5768      0.1568      4.4363    129.7121     23.6331
   541.8000      8.0342      2.6034      0.1762      2.8228    131.3580     23.4468
   541.9000      8.0342      2.6125      0.2019      2.2702    131.8251     23.5435
   542.0000      7.9626      2.6066      0.1353      2.6273    131.9434     23.7008
   542.1000      7.9626      2.6029      0.1547      2.8532    131.2921     23.9875
   542.2000      7.9626      2.6085      0.1407      2.5177    131.1006     24.3748
   542.3000      7.9564      2.6139      0.1384      2.1866    132.0156     24.4583
   542.4000      7.9564      2.6078      0.1263      2.5602    132.7483     24.3158
   542.5000      8.0195      2.5897      0.0767      3.6535    134.8250     24.3959
   542.6000      8.0195      2.5702      0.0469      4.8334    138.8786     24.6573
   542.7000      8.0195      2.5579      0.0331      5.5848    139.1573     24.7317
   542.8000      8.0168      2.5524      0.0453      5.9143    134.0787     24.5430
   542.9000      8.0168      2.5474      0.0523      6.2180    129.9946     24.3778
   543.0000      8.0687      2.5410      0.0175      6.6035    130.2423     24.2839
   543.1000      8.0687      2.5374      0.0474      6.8215    132.0091     23.8719
   543.2000      8.0687      2.5322      0.0677      7.1419    133.5193     23.0572
   543.3000      8.1051      2.5201      0.0560      7.8713    135.7336     22.2540
   543.4000      8.1051      2.5113      0.0453      8.4052    139.3101     21.7732
   543.5000      8.1097      2.5085      0.1147      8.5766    144.0619     21.6615
   543.6000      8.1097      2.4958      0.0937      9.3471    146.9739     21.8203
   543.7000      8.1097      2.4779      0.0279     10.4324    146.7026     22.1335
   543.8000      8.1000      2.4745      0.0667     10.6341    146.8326     22.5968
   543.9000      8.1000      2.4754      0.1244     10.5813    149.7974     23.0133
   544.0000      8.1298      2.4645      0.0562     11.2439    153.9346     23.0381
   544.1000      8.1298      2.4552      0.0527     11.8060    155.5891     22.9974
   544.2000      8.1298      2.4599      0.0926     11.5215    153.8404     23.4003
   544.3000      8.1247      2.4679      0.0834     11.0382    151.8160     24.2111
   544.4000      8.1247      2.4612      0.1070     11.4436    152.4173     25.0099
   544.5000      8.1336      2.4382      0.0399     12.8392    152.8187     25.2311
   544.6000      8.1336      2.4266     -0.0746     13.5422    150.1614     24.7303
   544.7000      8.1336      2.4445      0.0105     12.4546    149.8847     24.1127
   544.8000      8.1490      2.4695      0.0446     10.9367    154.9609     23.9843
   544.9000      8.1490      2.4887      0.0324      9.7775    160.1204     24.1565
   545.0000      8.1309      2.5086      0.1367      8.5721    161.2962     24.2808
   545.1000      8.1309      2.5223      0.1079      7.7387    159.2769     24.4173
   545.2000      8.1309      2.5257      0.0774      7.5335    157.1142     24.7233
   545.3000      8.1319      2.5289      0.0922      7.3384    155.2545     25.1306
   545.4000      8.1319      2.5337      0.1014      7.0482    151.9764     25.4899
   545.5000      8.1192      2.5229      0.1212      7.7054    148.2970     25.6406
   545.6000      8.1192      2.4903      0.0655      9.6769    146.8535     25.5524
   545.7000      8.1192      2.4599      0.0777     11.5196    148.1944     25.5178
   545.8000      8.0938      2.4500      0.0745     12.1189    149.1469     25.6600
   545.9000      8.0938      2.4634      0.0651     11.3116    148.2220     25.8618
   546.0000      8.0619      2.5125      0.0217      8.3357    146.5698     26.0223
   546.1000      8.0619      2.6003      0.1177      3.0101    145.8122     25.9973
   546.2000      8.0619      2.6968      0.2149     -2.8346    147.4647     25.8615
   546.3000      8.0616      2.7724      0.2580     -7.4175    147.0797     25.9949
   546.4000      8.0616      2.8203      0.2873    -10.3230    139.7416     26.5809
   546.5000      8.0149      2.8335      0.3193    -11.1209    130.2332     27.4842
   546.6000      8.0149      2.8118      0.1835     -9.8060    122.6758     28.3501
   546.7000      8.0149      2.7787      0.1622     -7.7993    115.5266     28.9852
   546.8000      8.0160      2.7502      0.1122     -6.0730    109.2415     29.4986
   546.9000      8.0160      2.7286      0.0553     -4.7644    104.0088     29.8060
   547.0000      7.9595      2.7175      0.0555     -4.0886     98.5527     29.6887
   547.1000      7.9595      2.7145      0.0833     -3.9096     94.3209     29.2819
   547.2000      7.9595      2.7069      0.1194     -3.4455     91.2669     28.8250
   547.3000      8.0255      2.6879      0.0628     -2.2943     87.5970     28.2842
   547.4000      8.0255      2.6691      0.0723     -1.1567     85.3934     27.6193
   547.5000      8.0291      2.6577      0.0359     -0.4681     87.0629     26.9289
