~Version Information
VERS.                      2.0: CWLS Log ASCII Standard - VERSION 2.0
WRAP.                       NO: One line per depth step
~Well Information Block
STRT.FT                -6.0000: 
STOP.FT               783.7500: 
STEP.FT                 0.2500: 
NULL.                -999.2500: 
COMP.          Pioneer Natural Resources: COMPANY
WELL.           Weissach 32-32: WELL
FLD.           Purgatorie River: FIELD
LOC.           --2193' FNL & 2256' FEL--: LOCATION
STAT.                       CO: State
CNTY.               Las Animas: COUNTY
CTRY. USA : Country
SECT. 32 : Section
TOWN. 33S : Township
RANG. 65W : Range
SRVC.          Patterson Wireline: SERVICE COMPANY
DATE.          Thu Sep 29 12:52:09 2005: LOG DATE
API.           05 071 08523 00: UNIQUE WELL ID
~Curve Information Block
DEPT.FT            0 000 00 00: Depth
CCL.                          : Casing Collar Locator
TT3.usec                      : CBL 3' Travel Time
AMP3.mV                       : CBL 3' Amplitude
GR.GAPI                       : Gamma Ray
~Parameter Information Block
~A  Depth       CCL         TT3         AMP3         GR     
# ...
   496.5000      0.0000    672.8209     11.8101     65.8997
   496.7500      0.0000    694.3502     11.6802     65.9877
   497.0000      0.0000    683.0870     11.5407     66.6362
   497.2500      0.0000    651.5363     11.4458     67.4975
   497.5000      0.0000    625.9211     11.4192     67.3911
   497.7500      0.0000    629.1305     11.4387     65.7489
   498.0000      0.0000    662.3636     11.4596     63.1584
   498.2500      0.0000    704.7854     11.4536     60.6584
   498.5000      0.0000    731.4558     11.4280     58.8969
   498.7500      0.0000    730.1378     11.4112     57.7963
   499.0000      0.0000    705.0658     11.4237     56.8009
   499.2500      0.0000    671.6841     11.4644     55.7359
   499.5000      0.0000    648.2407     11.5224     55.4517
   499.7500      0.0000    646.7259     11.5903     56.9105
   500.0000      0.0000    667.0025     11.6603     59.4234
   500.2500      0.0000    698.3093     11.7151     60.7192
   500.5000      0.0000    727.2294     11.7345     59.4433
   500.7500      0.0000    745.1110     11.7066     56.9659
   501.0000      0.0000    749.4916     11.6210     55.9893
   501.2500      0.0000    742.2885     11.4566     57.6708
   501.5000      0.0000    729.1996     11.1890     60.6245
   501.7500      0.0000    717.8394     10.8048     62.6036
   502.0000      0.0000    712.5276     10.2908     62.7241
   502.2500      0.0000    711.8672      9.6172     61.8852
   502.5000      0.0000    712.9955      8.7823     61.3253
   502.7500      0.0000    715.7397      7.9043     61.1974
   503.0000      0.0000    720.4944      7.2235     60.5629
   503.2500      0.0000    724.0740      6.9503     58.4939
   503.5000      0.0000    721.3761      7.0971     55.2177
   503.7500      0.0000    712.9178      7.4738     52.3317
   504.0000     -2.0000    708.1768      7.8311     51.6383
   504.2500      0.0000    716.4875      8.0011     53.5002
   504.5000      0.0000    734.9191      7.9645     56.4743
   504.7500      0.0000    750.1171      7.8580     58.7376
   505.0000      0.0000    752.6666      7.9000     59.8487
   505.2500      0.0000    744.5847      8.2309     61.1078
   505.5000      0.0000    730.7328      8.8027     64.2475
   505.7500      0.0000    707.6074      9.4438     69.7341
   506.0000      0.0000    665.6436     10.0125     76.2342
   506.2500      0.0000    602.8892     10.4580     81.6720
   506.5000      0.0000    533.5701     10.7695     84.8431
   506.7500      0.0000    481.1929     10.9284     86.1896
   507.0000      0.0000    463.0150     10.9167     87.2277
   507.2500      0.0000    480.4103     10.7466     89.1400
   507.5000      0.0000    520.5403     10.4727     91.6381
   507.7500      0.0000    564.6895     10.1782     93.1888
   508.0000      0.0000    598.1375      9.9376     92.5229
   508.2500      0.0000    616.9932      9.7802     89.8145
   508.5000      0.0000    626.9906      9.6892     86.4183
   508.7500      0.0000    635.0298      9.6326     83.9411
   509.0000      0.0000    643.0985      9.5942     83.5352
   509.2500      0.0000    651.0664      9.5747     85.3559
   509.5000      0.0000    662.1959      9.5718     88.4957
   509.7500      0.0000    681.8074      9.5697     91.8328
   510.0000      0.0000    710.3132      9.5508     94.9396
   510.2500      0.0000    740.7687      9.5129     97.9078
   510.5000      0.0000    764.6635      9.4667    100.5996
   510.7500      0.0000    778.2441      9.4171    102.5739
   511.0000      0.0000    782.2431      9.3540    103.5805
   511.2500      0.0000    777.2880      9.2669    103.6585
   511.5000      0.0000    761.4107      9.1671    102.8863
   511.7500      0.0000    733.2531      9.0894    101.5368
   512.0000      0.0000    698.5095      9.0697    100.3936
   512.2500      0.0000    671.4819      9.1175    100.4782
   512.5000      0.0000    666.1596      9.2087    102.3862
   512.7500      0.0000    684.0818      9.2999    105.7912
   513.0000      0.0000    712.8121      9.3458    109.1095
   513.2500      0.0000    736.4703      9.3051    109.7577
   513.5000      0.0000    746.2927      9.1461    105.6593
   513.7500      0.0000    742.6693      8.8650     96.9197
   514.0000      0.0000    731.0847      8.5026     85.7215
   514.2500      0.0000    717.6218      8.1347     74.6110
   514.5000      0.0000    706.4216      7.8368     65.2050
   514.7500      0.0000    698.9896      7.6491     58.1251
   515.0000      0.0000    694.8499      7.5672     53.3766
   515.2500      0.0000    692.7963      7.5621     50.6665
   515.5000      0.0000    691.8479      7.6049     49.7374
   515.7500      0.0000    691.5182      7.6730     50.5162
   516.0000      0.0000    691.6184      7.7382     52.7680
   516.2500      0.0000    692.0352      7.7702     55.7513
   516.5000      0.0000    692.6591      7.7601     58.6918
   516.7500      0.0000    693.4296      7.7332     61.7835
   517.0000      0.0000    694.4525      7.7317     66.3271
   517.2500      0.0000    696.1702      7.7905     73.6075
   517.5000      0.0000    699.3780      7.9259     83.7663
   517.7500      0.0000    704.7430      8.1275     95.7543
   518.0000      0.0000    711.6796      8.3487    107.9557
   518.2500      0.0000    717.5222      8.5234    118.6844
   518.5000      0.0000    718.1803      8.6020    126.4698
   518.7500      0.0000    710.5833      8.5716    130.4092
   519.0000      0.0000    695.7273      8.4427    130.5388
   519.2500      0.0000    679.7969      8.2323    127.9176
   519.5000      0.0000    670.7794      7.9648    124.3325
   519.7500      0.0000    671.9022      7.6792    121.7455
   520.0000      0.0000    678.3219      7.4300    121.5135
   520.2500      0.0000    680.4473      7.2754    123.5255
   520.5000      0.0000    669.3381      7.2543    125.9222
   520.7500      0.0000    639.9167      7.3636    126.1524
   521.0000      0.0000    593.3083      7.5575    122.9541
   521.2500      0.0000    538.5078      7.7754    117.5227
   521.5000      0.0000    489.8375      7.9730    112.4719
   521.7500      0.0000    460.8431      8.1287    109.4331
   522.0000      0.0000    460.0418      8.2313    107.6713
   522.2500      0.0000    489.8039      8.2778    105.0978
   522.5000      0.0000    544.7532      8.2881    100.5932
   522.7500      0.0000    610.9815      8.3073     95.3305
   523.0000      0.0000    671.2665      8.3818     91.7722
   523.2500      0.0000    714.2039      8.5306     91.3888
   523.5000      0.0000    738.3127      8.7396     93.4467
   523.7500      0.0000    748.3718      8.9738     95.7883
   524.0000      0.0000    749.9532      9.1925     96.4296
   524.2500      0.0000    746.7803      9.3582     94.6737
   524.5000      0.0000    740.5328      9.4393     91.3566
   524.7500      0.0000    732.0210      9.4126     88.2230
   525.0000      0.0000    722.9752      9.2755     86.7733
   525.2500      0.0000    716.3010      9.0609     87.4343
   525.5000      0.0000    713.1453      8.8346     89.6765
   525.7500      0.0000    710.2465      8.6621     92.7293
   526.0000      0.0000    702.9616      8.5721     96.0196
   526.2500      0.0000    691.9854      8.5575     99.1050
   526.5000      0.0000    684.2078      8.6029    101.6802
   526.7500      0.0000    684.9227      8.6933    103.9676
   527.0000      0.0000    691.7126      8.7956    106.9905
   527.2500      0.0000    698.0430      8.8517    112.0732
   527.5000      0.0000    700.1592      8.7990    119.5817
   527.7500      0.0000    698.2815      8.6027    127.9353
   528.0000      0.0000    693.1862      8.2801    134.2504
   528.2500      0.0000    684.6116      7.9027    136.3909
   528.5000      0.0000    673.6594      7.5614    134.3222
   528.7500      0.0000    665.4005      7.3146    129.4385
   529.0000      0.0000    666.4519      7.1707    123.0699
   529.2500      0.0000    678.3757      7.1142    115.9622
   529.5000      0.0000    695.0449      7.1313    108.6901
   529.7500      0.0000    708.3203      7.2038    101.7836
