~Version Information
VERS.                      2.0: CWLS Log ASCII Standard - VERSION 2.0
WRAP.                       NO: One line per depth step
~Well Information Block
STRT.FT               330.0000: 
STOP.FT              1876.2000: 
STEP.FT                 0.1000: 
NULL.                -999.2500: 
COMP.          Pioneer Natural Resources: COMPANY
WELL.          Cooper 11-13 Tr: WELL
FLD.           Purgatoire River: FIELD
LOC.           476' FNL & 738' FWL: LOCATION
STAT.                 Colorado: State
CNTY.               Las Animas: COUNTY
CTRY. USA : Country
SECT. 13 : Section
TOWN. 32S : Township
RANG. 67W : Range 
SRVC.                Patterson: SERVICE COMPANY
DATE.          Mon Sep 26 10:28:17 2005: LOG DATE
API.           05 071 08525 00: UNIQUE WELL ID
~Curve Information Block
DEPT.FT            0 000 00 00: Depth
DCAL.in                       : CDL Caliper
RHOB.g/cc                     : CDL Bulk Density
RHOC.g/cc                     : CDL Density Correction
DPOR.pu                       : CDL Density Porosity
NPOR.pu                       : Neutron Porosity
GR.GAPI                       : Gamma Ray
~Parameter Information Block
~A  Depth       DCAL        RHOB        RHOC        DPOR        NPOR         GR     
# ...
   435.6000      8.0151      2.3832      0.0238     16.1676     14.9794     54.4391
   435.7000      8.0151      2.3998      0.0108     15.1659     15.0053     55.0980
   435.8000      8.0175      2.4132      0.0707     14.3495     14.6559     54.9199
   435.9000      8.0175      2.4230      0.0457     13.7589     14.0409     53.9235
   436.0000      8.0201      2.4371      0.0468     12.9010     13.5944     55.1178
   436.1000      8.0201      2.4533      0.0850     11.9221     13.4445     58.0704
   436.2000      8.0201      2.4598      0.0488     11.5286     13.4231     61.5846
   436.3000      8.0208      2.4601      0.0514     11.5104     13.6799     64.9070
   436.4000      8.0208      2.4589      0.0660     11.5798     14.2517     67.2461
   436.5000      8.0198      2.4527      0.0544     11.9561     14.5073     68.7194
   436.6000      8.0198      2.4453      0.0632     12.4071     14.1388     68.4584
   436.7000      8.0198      2.4489      0.0320     12.1879     13.7450     66.1647
   436.8000      8.0177      2.4675      0.0480     11.0609     13.9118     65.2082
   436.9000      8.0177      2.4844      0.0779     10.0381     14.5106     65.6768
   437.0000      8.0145      2.4858      0.0441      9.9506     14.9779     64.0542
   437.1000      8.0145      2.4829      0.0421     10.1275     15.0711     62.5572
   437.2000      8.0145      2.4832      0.0906     10.1104     14.9213     63.5613
   437.3000      8.0122      2.4760      0.0505     10.5444     14.6805     65.1791
   437.4000      8.0122      2.4618      0.0021     11.4067     14.5144     65.8279
   437.5000      8.0120      2.4555      0.0586     11.7899     14.5784     64.5966
   437.6000      8.0120      2.4572      0.0452     11.6837     14.6722     63.0424
   437.7000      8.0120      2.4583      0.0383     11.6171     14.6087     62.6362
   437.8000      8.0138      2.4587      0.0020     11.5923     14.7073     62.3872
   437.9000      8.0138      2.4596      0.0396     11.5384     15.0078     62.2001
   438.0000      8.0165      2.4545      0.0413     11.8487     15.0525     61.6684
   438.1000      8.0165      2.4349      0.0453     13.0337     14.8193     58.6844
   438.2000      8.0165      2.4094     -0.0171     14.5834     14.4229     54.5418
   438.3000      8.0184      2.3995     -0.0258     15.1821     13.8730     53.3989
   438.4000      8.0184      2.4009      0.0528     15.0943     13.5955     55.0436
   438.5000      8.0204      2.3966     -0.0096     15.3576     13.8276     55.5581
   438.6000      8.0204      2.3942      0.0291     15.5013     14.0208     55.5310
   438.7000      8.0204      2.4058      0.0091     14.8015     13.6761     56.7486
   438.8000      8.0221      2.4244      0.0437     13.6738     13.2215     56.8763
   438.9000      8.0221      2.4311      0.0648     13.2688     12.9782     54.9077
   439.0000      8.0209      2.4265     -0.0016     13.5455     12.7280     54.9541
   439.1000      8.0209      2.4323      0.0283     13.1959     12.6871     60.5975
   439.2000      8.0209      2.4521      0.0539     11.9928     12.9665     68.3194
   439.3000      8.0171      2.4704      0.0612     10.8854     13.0597     71.4799
   439.4000      8.0171      2.4752      0.0659     10.5937     12.8624     69.3127
   439.5000      8.0153      2.4686      0.0420     10.9969     12.6909     67.9629
   439.6000      8.0153      2.4623      0.0404     11.3739     12.6276     69.2030
   439.7000      8.0153      2.4679      0.0238     11.0385     12.7236     67.3895
   439.8000      8.0159      2.4780      0.0908     10.4244     13.0156     60.6688
   439.9000      8.0159      2.4737      0.0320     10.6868     13.2769     54.2634
   440.0000      8.0136      2.4564      0.0322     11.7329     13.2904     54.2144
   440.1000      8.0136      2.4412      0.0267     12.6569     13.0635     61.2642
   440.2000      8.0136      2.4385      0.0274     12.8208     12.8959     68.6147
   440.3000      8.0094      2.4427      0.0872     12.5656     13.2673     69.3751
   440.4000      8.0094      2.4363      0.0386     12.9528     13.9354     64.9587
   440.5000      8.0072      2.4171      0.0317     14.1160     13.8488     59.8024
   440.6000      8.0072      2.3978      0.0177     15.2875     12.8699     55.8647
   440.7000      8.0072      2.3916     -0.0104     15.6597     12.2677     53.9811
   440.8000      8.0086      2.3955      0.0303     15.4223     12.6149     53.6694
   440.9000      8.0086      2.3966      0.0051     15.3598     13.1781     55.2534
   441.0000      8.0104      2.3957      0.0065     15.4138     13.3178     59.4792
   441.1000      8.0104      2.3953      0.0082     15.4376     13.1768     63.6435
   441.2000      8.0104      2.3919      0.0546     15.6429     13.0472     63.0681
   441.3000      8.0090      2.3887      0.0241     15.8353     12.9345     58.7856
   441.4000      8.0090      2.3905      0.0285     15.7269     12.9101     56.5129
   441.5000      8.0048      2.3932      0.0314     15.5629     13.0148     57.2833
   441.6000      8.0048      2.3935      0.0358     15.5444     13.0825     56.6651
   441.7000      8.0048      2.3933      0.0399     15.5546     12.8915     53.7345
   441.8000      7.9994      2.3951      0.0274     15.4508     12.5165     52.0300
   441.9000      7.9994      2.4041      0.0042     14.9019     12.4007     52.8144
   442.0000      7.9950      2.4249      0.0491     13.6443     12.5407     54.4436
   442.1000      7.9950      2.4429      0.0817     12.5536     12.5300     53.9011
   442.2000      7.9950      2.4379      0.0867     12.8553     12.2178     50.8185
   442.3000      7.9913      2.4186      0.0173     14.0228     11.7695     48.1720
   442.4000      7.9913      2.4099      0.0420     14.5490     11.5205     46.3974
   442.5000      7.9890      2.4184      0.0302     14.0364     11.4915     44.9955
   442.6000      7.9890      2.4373      0.0741     12.8919     11.3827     45.0187
   442.7000      7.9890      2.4520      0.0764     12.0025     11.2663     45.9851
   442.8000      7.9893      2.4471      0.0833     12.2972     11.4844     45.3779
   442.9000      7.9893      2.4300      0.0289     13.3319     11.9928     43.7891
   443.0000      7.9935      2.4206      0.0573     13.9027     12.5680     43.6225
   443.1000      7.9935      2.4241      0.0353     13.6900     13.0631     43.6866
   443.2000      7.9935      2.4320      0.0642     13.2094     13.2952     43.5011
   443.3000      8.0012      2.4368      0.0362     12.9212     13.4428     44.8065
   443.4000      8.0012      2.4440      0.0411     12.4874     13.8414     47.0959
   443.5000      8.0085      2.4617      0.0323     11.4130     14.4941     50.3881
   443.6000      8.0085      2.4793      0.0924     10.3479     15.3696     56.3228
   443.7000      8.0085      2.4784      0.0956     10.3973     16.4654     63.6477
   443.8000      8.0147      2.4682      0.0460     11.0169     17.6152     68.2179
   443.9000      8.0147      2.4758      0.0298     10.5583     18.9614     71.5492
   444.0000      8.0201      2.5079      0.0283      8.6122     20.8220     77.6344
   444.1000      8.0201      2.5465      0.0601      6.2733     22.8426     84.3349
   444.2000      8.0201      2.5713      0.0795      4.7685     24.4630     88.8070
   444.3000      8.0224      2.5777      0.0531      4.3804     25.5777     93.5499
   444.4000      8.0224      2.5744      0.0243      4.5826     26.1984     99.9519
   444.5000      8.0219      2.5662      0.0283      5.0776     26.3847    105.1415
   444.6000      8.0219      2.5522      0.0409      5.9257     26.2299    106.5687
   444.7000      8.0219      2.5417      0.0057      6.5612     25.8100    106.7604
   444.8000      8.0202      2.5445      0.0073      6.3914     25.4809    110.8370
   444.9000      8.0202      2.5478      0.0523      6.1923     25.5905    118.2980
   445.0000      8.0216      2.5372      0.0442      6.8394     26.1063    123.4752
   445.1000      8.0216      2.5210      0.0096      7.8208     26.6600    122.0337
