~Version Information
VERS.                      2.0: CWLS Log ASCII Standard - VERSION 2.0
WRAP.                       NO: One line per depth step
~Well Information Block
STRT.FT               196.3000: 
STOP.FT              1631.0000: 
STEP.FT                 0.1000: 
NULL.                -999.2500: 
COMP.          Petrogulf Corporation: COMPANY
WELL.             State 16-44R: WELL
FLD.           Purgatoire River: FIELD
LOC.           632' FSL & 223' FEL--: LOCATION
PROV.                 Colorado: PROVINCE
CNTY.               Las Animas: COUNTRY
SRVC.                Patterson: SERVICE COMPANY
DATE.          Fri Oct 21 14:20:18 2005: LOG DATE
UWI.           05 071 08457 00: UNIQUE WELL ID
~Curve Information Block
DEPT.FT            0 000 00 00: Depth
DCAL.in                       : CDL Caliper
RHOB.g/cc                     : CDL Bulk Density
RHOC.g/cc                     : CDL Density Correction
DPOR.pu                       : CDL Density Porosity
NPOR.pu                       : Neutron Porosity
GR.GAPI                       : Gamma Ray
~Parameter Information Block
~A  Depth       DCAL        RHOB        RHOC        DPOR        NPOR         GR     
# ...
  1405.9000      7.9530      2.4619      0.0527     11.4015     27.9051    137.3814
  1406.0000      7.9533      2.4769      0.0756     10.4880     28.1682    144.6826
  1406.1000      7.9533      2.4983      0.1150      9.1926     28.1714    143.8688
  1406.2000      7.9533      2.5022      0.1312      8.9576     27.9330    140.8855
  1406.3000      7.9540      2.4847      0.0899     10.0158     27.5174    140.5558
  1406.4000      7.9540      2.4670      0.0988     11.0908     27.0385    139.8591
  1406.5000      7.9544      2.4625      0.0852     11.3633     26.6416    135.5351
  1406.6000      7.9544      2.4736      0.0611     10.6925     26.4920    128.1708
  1406.7000      7.9544      2.5002      0.0940      9.0810     26.5187    122.6339
  1406.8000      7.9534      2.5290      0.1186      7.3348     26.6410    122.5500
  1406.9000      7.9534      2.5393      0.1175      6.7098     26.8903    126.9799
  1407.0000      7.9514      2.5323      0.0947      7.1305     27.0258    131.1299
  1407.1000      7.9514      2.5319      0.0616      7.1565     27.0796    130.5343
  1407.2000      7.9514      2.5482      0.1039      6.1669     27.3445    127.0856
  1407.3000      7.9497      2.5664      0.0933      5.0695     27.5968    122.6662
  1407.4000      7.9497      2.5727      0.0851      4.6843     27.5303    117.3786
  1407.5000      7.9493      2.5704      0.0589      4.8266     27.2122    113.6036
  1407.6000      7.9493      2.5700      0.0328      4.8464     26.9972    111.4504
  1407.7000      7.9493      2.5774      0.0607      4.4026     27.2373    110.6151
  1407.8000      7.9493      2.5899      0.0399      3.6440     27.6577    112.4542
  1407.9000      7.9493      2.5986      0.0914      3.1148     27.7246    117.3832
  1408.0000      7.9478      2.5935      0.0867      3.4214     27.4869    121.9181
  1408.1000      7.9478      2.5859      0.0458      3.8836     27.4265    120.5008
  1408.2000      7.9478      2.5912      0.0892      3.5636     27.5195    116.5832
  1408.3000      7.9470      2.5999      0.0946      3.0340     27.4621    116.1969
  1408.4000      7.9470      2.6023      0.0624      2.8905     27.5529    117.1274
  1408.5000      7.9494      2.6044      0.0713      2.7616     28.0479    120.9146
  1408.6000      7.9494      2.6152      0.0525      2.1106     28.4562    128.8443
  1408.7000      7.9494      2.6303      0.0709      1.1925     28.4094    132.5171
  1408.8000      7.9555      2.6325      0.0553      1.0621     27.9994    130.0960
  1408.9000      7.9555      2.6113      0.0331      2.3452     27.3565    128.8521
  1409.0000      7.9662      2.5740      0.0296      4.6047     26.7904    128.8961
  1409.1000      7.9662      2.5377      0.0060      6.8038     26.6706    125.6851
  1409.2000      7.9662      2.5166     -0.0341      8.0829     26.8637    119.2352
  1409.3000      7.9777      2.5140      0.0131      8.2432     26.9055    112.8163
  1409.4000      7.9777      2.5172      0.0408      8.0472     26.7863    112.5448
  1409.5000      7.9822      2.5136      0.0004      8.2649     27.0775    119.5911
  1409.6000      7.9822      2.5109      0.0133      8.4302     27.8133    127.1504
  1409.7000      7.9822      2.5184      0.0442      7.9788     28.2537    132.4051
  1409.8000      7.9831      2.5306      0.0328      7.2357     28.1630    137.2809
  1409.9000      7.9831      2.5405      0.0597      6.6388     27.9501    139.7036
  1410.0000      7.9838      2.5460      0.0868      6.3012     27.9389    138.7226
  1410.1000      7.9838      2.5506      0.0798      6.0231     27.9153    137.3234
  1410.2000      7.9838      2.5577      0.0878      5.5939     27.5714    135.5400
  1410.3000      7.9830      2.5649      0.0910      5.1601     27.3159    134.9212
  1410.4000      7.9830      2.5697      0.0649      4.8652     27.4508    137.2159
  1410.5000      7.9826      2.5788      0.0290      4.3160     27.3534    139.7460
  1410.6000      7.9826      2.5946      0.0642      3.3585     26.8385    142.4173
  1410.7000      7.9826      2.5997      0.1232      3.0458     26.7962    143.9563
  1410.8000      7.9825      2.5801      0.0754      4.2348     27.3054    140.5386
  1410.9000      7.9825      2.5504      0.0527      6.0343     27.6085    136.3275
  1411.0000      7.9829      2.5336      0.0426      7.0520     27.5647    135.8697
  1411.1000      7.9829      2.5386      0.0315      6.7515     27.5518    136.6328
  1411.2000      7.9829      2.5528      0.0588      5.8884     27.8151    137.9803
  1411.3000      7.9862      2.5537      0.0704      5.8391     28.0867    144.7755
  1411.4000      7.9862      2.5415      0.0150      6.5743     28.2917    155.7305
  1411.5000      7.9932      2.5294      0.0734      7.3090     28.8085    163.0427
  1411.6000      7.9932      2.5123      0.0498      8.3476     29.4216    166.6860
  1411.7000      7.9932      2.4932      0.0225      9.5058     29.6447    170.1719
  1411.8000      8.0018      2.4870      0.0228      9.8767     29.5156    167.3714
  1411.9000      8.0018      2.4897      0.0326      9.7180     29.2596    158.1195
  1412.0000      8.0077      2.4883      0.0308      9.7989     29.0049    154.7856
  1412.1000      8.0077      2.4791      0.0597     10.3549     28.9758    157.9526
  1412.2000      8.0077      2.4683      0.0673     11.0093     29.2496    158.2765
  1412.3000      8.0158      2.4679      0.0606     11.0343     29.6175    156.2357
  1412.4000      8.0158      2.4768      0.0862     10.4969     30.0885    157.2489
  1412.5000      8.0276      2.4835      0.0889     10.0885     30.5650    161.6941
  1412.6000      8.0276      2.4809      0.0908     10.2508     30.8434    165.9097
  1412.7000      8.0276      2.4595      0.0861     11.5448     31.0125    168.8821
  1412.8000      8.0357      2.4174      0.0518     14.0960     31.0553    170.0767
  1412.9000      8.0357      2.3745      0.0154     16.6972     30.7569    166.9676
  1413.0000      8.0419      2.3519      0.0271     18.0670     30.2793    162.3379
  1413.1000      8.0419      2.3478      0.0446     18.3148     30.2485    157.4796
  1413.2000      8.0419      2.3482      0.0442     18.2889     30.9320    151.8759
  1413.3000      8.0513      2.3450      0.0717     18.4848     31.5492    151.5210
  1413.4000      8.0513      2.3355      0.0428     19.0634     31.5245    155.9982
  1413.5000      8.0620      2.3130      0.0649     20.4215     31.3315    152.2366
  1413.6000      8.0620      2.2649      0.0583     23.3385     31.4600    136.3341
  1413.7000      8.0620      2.1899      0.0435     27.8860     31.8831    122.2106
  1413.8000      8.0677      2.1039     -0.0224     33.0946     32.4850    118.7838
  1413.9000      8.0677      2.0200     -0.0623     38.1798     33.1714    119.9430
  1414.0000      8.0690      1.9309     -0.0548     43.5816     33.6019    117.9750
  1414.1000      8.0690      1.8281     -0.0789     49.8106     33.5783    114.9239
  1414.2000      8.0690      1.7243     -0.0671     56.1041     33.3941    114.2200
  1414.3000      8.0716      1.6408     -0.0818     61.1660     33.3440    112.0584
  1414.4000      8.0716      1.5965     -0.0406     63.8460     33.2016    104.4983
  1414.5000      8.0907      1.6070     -0.0217     63.2152     32.6859     94.6516
  1414.6000      8.0907      1.6710      0.0985     59.3326     32.2230     89.0154
  1414.7000      8.0907      1.7659      0.1542     53.5836     32.1674     90.1991
  1414.8000      8.1326      1.8675      0.2165     47.4259     31.9620     97.0523
  1414.9000      8.1326      1.9602      0.2276     41.8040     31.1663    106.6858
  1415.0000      8.1394      2.0400      0.2291     36.9709     30.1402    117.2277
  1415.1000      8.1394      2.1204      0.1989     32.0992     29.4927    130.7661
  1415.2000      8.1394      2.2156      0.2227     26.3243     29.3222    145.4587
  1415.3000      8.0595      2.3152      0.2097     20.2899     29.1085    153.4778
  1415.4000      8.0595      2.3955      0.1398     15.4229     28.7017    152.7787
