~Version Information
VERS.                      2.0: CWLS Log ASCII Standard - VERSION 2.0
WRAP.                       NO: One line per depth step
~Well Information Block
STRT.FT                -6.5000: 
STOP.FT              1467.0000: 
STEP.FT                 0.2500: 
NULL.                -999.2500: 
COMP.          Pioneer Natural Resources: COMPANY
WELL.          Surtees 23-34 Tr: WELL
FLD.           Purgatorie River: FIELD
LOC.           1559' FSL & 1997' FWL--: LOCATION
PROV.                       CO: PROVINCE
CNTY.               Las Animas: COUNTRY
SRVC.          Patterson Wireline: SERVICE COMPANY
DATE.          Tue Aug 02 13:04:45 2005: LOG DATE
UWI.           05 071 08449 00: UNIQUE WELL ID
~Curve Information Block
DEPT.FT            0 000 00 00: Depth
CCL.                          : Casing Collar Locator
TT3.usec                      : CBL 3' Travel Time
AMP3.mV                       : CBL 3' Amplitude
GR.GAPI                       : Gamma Ray
~Parameter Information Block
~A  Depth       CCL         TT3         AMP3         GR     
# ...
  1333.5000      0.0000    780.7579      5.6992    107.7510
  1333.7500      0.0000    772.7081      5.6436    116.1656
  1334.0000      0.0000    765.2872      5.5958    123.4729
  1334.2500      0.0000    760.0424      5.5662    129.4400
  1334.5000      0.0000    757.1929      5.5498    134.4082
  1334.7500      0.0000    756.2249      5.5330    138.3019
  1335.0000      0.0000    756.8000      5.5090    140.6629
  1335.2500      0.0000    759.0903      5.4834    141.4791
  1335.5000      0.0000    763.2063      5.4657    141.3901
  1335.7500      0.0000    768.2050      5.4586    140.9225
  1336.0000      0.0000    771.9653      5.4585    140.0073
  1336.2500      0.0000    772.7029      5.4644    138.6149
  1336.5000      0.0000    770.8176      5.4803    137.4111
  1336.7500      0.0000    768.8047      5.5074    137.1101
  1337.0000      0.0000    769.0272      5.5336    137.4345
  1337.2500      0.0000    771.6041      5.5377    137.3938
  1337.5000      0.0000    774.5221      5.5066    136.3689
  1337.7500      0.0000    775.7541      5.4480    134.2937
  1338.0000      0.0000    775.0538      5.3833    131.0495
  1338.2500      0.0000    773.5956      5.3272    126.5795
  1338.5000      0.0000    772.3958      5.2786    121.7158
  1338.7500      0.0000    771.5786      5.2299    118.2953
  1339.0000      0.0000    770.7201      5.1825    117.9867
  1339.2500      0.0000    769.3654      5.1484    120.9059
  1339.5000      0.0000    767.5941      5.1389    125.4294
  1339.7500      0.0000    766.3392      5.1525    129.4227
  1340.0000      0.0000    766.7065      5.1750    131.7789
  1340.2500      0.0000    768.7434      5.1884    132.9164
  1340.5000      0.0000    771.1543      5.1796    133.8141
  1340.7500      0.0000    772.3766      5.1432    134.5954
  1341.0000      0.0000    771.9749      5.0835    134.1490
  1341.2500      0.0000    771.1982      5.0144    131.0331
  1341.5000      0.0000    772.1931      4.9554    124.7483
  1341.7500      0.0000    776.2484      4.9226    116.3934
  1342.0000      0.0000    782.5438      4.9246    108.2784
  1342.2500      0.0000    788.6913      4.9613    102.8398
  1342.5000      0.0000    792.3698      5.0198    101.6699
  1342.7500      0.0000    792.3657      5.0743    105.0222
  1343.0000      0.0000    788.6997      5.0988    111.4465
  1343.2500      0.0000    782.7186      5.0855    117.7374
  1343.5000      0.0000    777.1321      5.0486    120.2260
  1343.7500      0.0000    774.9548      5.0116    117.3028
  1344.0000      0.0000    777.5394      4.9915    110.7960
  1344.2500      0.0000    783.5814      4.9948    104.3639
  1344.5000      0.0000    790.2964      5.0209    100.4733
  1344.7500      0.0000    795.5229      5.0698     99.0368
  1345.0000      0.0000    798.7111      5.1443     98.6131
  1345.2500      0.0000    800.3806      5.2432     98.2340
  1345.5000      0.0000    801.1976      5.3509     97.8453
  1345.7500      0.0000    801.4994      5.4393     97.5454
  1346.0000      0.0000    801.1730      5.4831     97.0908
  1346.2500      0.0000    799.5531      5.4751     96.1846
  1346.5000      0.0000    795.6033      5.4292     94.9683
  1346.7500      0.0000    788.7856      5.3709     93.9618
  1347.0000      0.0000    780.2549      5.3257     93.5203
  1347.2500      0.0000    772.9222      5.3095     93.7369
  1347.5000      0.0000    769.7307      5.3261     94.9397
  1347.7500      0.0000    771.3316      5.3707     97.5572
  1348.0000      0.0000    775.6360      5.4341    101.0479
  1348.2500      0.0000    780.5336      5.5046    103.5987
  1348.5000      0.0000    787.2042      5.5667    103.3777
  1348.7500      0.0000    798.6342      5.6047     99.8460
  1349.0000      0.0000    813.0261      5.6112     93.9309
  1349.2500      0.0000    821.1187      5.5955     87.4888
  1349.5000      0.0000    813.8961      5.5760     82.3982
  1349.7500      0.0000    793.1487      5.5581     79.3484
  1350.0000      0.0000    771.1711      5.5254     77.4379
  1350.2500      0.0000    758.3146      5.4651     75.4202
  1350.5000      0.0000    753.3834      5.3937     73.2316
  1350.7500      0.0000    749.1631      5.3438     72.1035
  1351.0000      0.0000    744.7941      5.3274     73.5495
  1351.2500      0.0000    747.4586      5.3250     78.3815
  1351.5000     -2.0000    762.2352      5.3027     86.0176
  1351.7500      0.0000    784.7724      5.2400     94.3197
  1352.0000      0.0000    804.9318      5.1497    100.5314
  1352.2500      0.0000    814.6621      5.0719    102.8753
  1352.5000      0.0000    811.7050      5.0393    101.4423
  1352.7500      0.0000    798.7549      5.0480     97.8484
  1353.0000      0.0000    781.5106      5.0737     94.0760
  1353.2500      0.0000    766.6964      5.1046     91.3088
  1353.5000      0.0000    759.3607      5.1422     89.5671
  1353.7500      0.0000    760.6932      5.1807     88.3005
  1354.0000      0.0000    768.0828      5.2056     87.1367
  1354.2500      0.0000    776.8432      5.2112     86.0264
  1354.5000      0.0000    782.0887      5.2054     84.9653
  1354.7500      0.0000    780.9767      5.1991     83.9273
  1355.0000      0.0000    774.8806      5.1961     83.0775
  1355.2500      0.0000    768.9324      5.1954     82.8512
  1355.5000      0.0000    767.7939      5.1969     83.7198
  1355.7500      0.0000    771.3976      5.2028     85.9539
  1356.0000      0.0000    775.6677      5.2142     89.4165
  1356.2500      0.0000    777.1725      5.2293     93.2656
  1356.5000      0.0000    775.5968      5.2447     96.0520
  1356.7500      0.0000    771.6470      5.2589     96.5483
  1357.0000      0.0000    764.3740      5.2729     94.5624
  1357.2500      0.0000    751.4901      5.2886     90.8829
  1357.5000      0.0000    731.7375      5.3073     86.5519
  1357.7500      0.0000    707.0757      5.3301     82.1656
  1358.0000      0.0000    683.1194      5.3578     77.7566
  1358.2500      0.0000    666.7152      5.3887     73.3406
  1358.5000      0.0000    661.7944      5.4180     69.5871
  1358.7500      0.0000    666.7944      5.4421     67.7765
  1359.0000      0.0000    675.7891      5.4617     68.9745
  1359.2500      0.0000    682.8997      5.4814     73.2393
  1359.5000      0.0000    686.8698      5.5049     79.4446
  1359.7500      0.0000    691.4734      5.5320     85.6206
  1360.0000      0.0000    700.9606      5.5588     89.6217
  1360.2500      0.0000    715.7601      5.5796     90.2008
  1360.5000      0.0000    733.0953      5.5897     88.0531
  1360.7500      0.0000    749.7435      5.5893     85.5710
  1361.0000      0.0000    762.1367      5.5836     84.9132
  1361.2500      0.0000    765.2688      5.5800     86.2398
  1361.5000      0.0000    754.6768      5.5838     88.2345
  1361.7500      0.0000    730.7415      5.5954     90.1011
  1362.0000      0.0000    700.3458      5.6116     92.3893
  1362.2500      0.0000    673.0884      5.6287     95.8685
  1362.5000      0.0000    655.0908      5.6440    100.2256
  1362.7500      0.0000    646.1229      5.6560    104.0524
  1363.0000      0.0000    642.0274      5.6636    105.8363
  1363.2500      0.0000    639.0839      5.6658    104.9407
  1363.5000      0.0000    636.1089      5.6633    101.8024
  1363.7500      0.0000    633.5771      5.6603     97.4136
  1364.0000      0.0000    631.9677      5.6615     92.8798
  1364.2500      0.0000    631.1713      5.6692     89.3405
  1364.5000      0.0000    630.8345      5.6824     87.6247
  1364.7500      0.0000    630.7540      5.6992     87.6589
  1365.0000      0.0000    630.9584      5.7184     88.5365
  1365.2500      0.0000    631.6688      5.7393     89.2746
  1365.5000      0.0000    633.2260      5.7599     89.2171
  1365.7500      0.0000    635.8834      5.7750     87.8353
  1366.0000      0.0000    639.6285      5.7796     84.7971
  1366.2500      0.0000    644.2962      5.7727     80.4790
  1366.5000      0.0000    649.6562      5.7579     76.0997
  1366.7500      0.0000    654.9796      5.7415     73.0874
