~Version Information
VERS.                      2.0: CWLS Log ASCII Standard - VERSION 2.0
WRAP.                       NO: One line per depth step
~Well Information Block
STRT.FT                10.0000: 
STOP.FT              1458.0000: 
STEP.FT                 0.1000: 
NULL.                -999.2500: 
COMP.          Pioneer Natural Resources: COMPANY
WELL.            Bordeaux 42-2: WELL
FLD.           Purgatorie River: FIELD
LOC.           1963' FNL & 1148' FEL: LOCATION
PROV.                 Colorado: PROVINCE
CNTY.               Las Animas: COUNTRY
SRVC.                Patterson: SERVICE COMPANY
DATE.          Tue Nov 29 07:11:03 2005: LOG DATE
UWI.                          : UNIQUE WELL ID
~Curve Information Block
DEPT.FT            0 000 00 00: Depth
DCAL.in                       : CDL Caliper
RHOB.g/cc                     : CDL Bulk Density
RHOC.g/cc                     : CDL Density Correction
DPOR.pu                       : CDL Density Porosity
GR.GAPI                       : Gamma Ray
NPOR.pu                       : Neutron Porosity
~Parameter Information Block
~A  Depth       DCAL        RHOB        RHOC        DPOR         GR         NPOR    
# ...
   298.0000      8.1461      2.4465      0.1164     12.3337     61.9572     13.5227
   298.1000      8.1461      2.4586      0.0989     11.6030     59.9702     13.9012
   298.2000      8.1461      2.4723      0.0986     10.7722     57.4831     14.1125
   298.3000      8.1432      2.4748      0.1393     10.6204     55.7753     13.9338
   298.4000      8.1432      2.4523      0.0694     11.9825     55.6137     13.7058
   298.5000      8.1500      2.4139      0.0214     14.3097     55.9120     13.8626
   298.6000      8.1500      2.3801      0.0107     16.3589     55.3775     14.1609
   298.7000      8.1500      2.3634     -0.0240     17.3709     54.3287     14.0487
   298.8000      8.1519      2.3607      0.0350     17.5330     53.3316     13.6262
   298.9000      8.1519      2.3581      0.0423     17.6937     52.2356     13.2970
   299.0000      8.1514      2.3552      0.0366     17.8675     51.7425     13.0320
   299.1000      8.1514      2.3631      0.0715     17.3896     52.3509     12.8591
   299.2000      8.1514      2.3785      0.0827     16.4531     53.8766     13.0006
   299.3000      8.1534      2.3876      0.1061     15.9002     56.0913     13.2234
   299.4000      8.1534      2.3841      0.0791     16.1146     58.5947     13.1592
   299.5000      8.1465      2.3697      0.0929     16.9890     61.0185     12.9818
   299.6000      8.1465      2.3502      0.0274     18.1684     62.5303     13.0389
   299.7000      8.1465      2.3390      0.0160     18.8458     62.5240     13.2949
   299.8000      8.1456      2.3446      0.0174     18.5084     62.1427     13.4222
   299.9000      8.1456      2.3644      0.0194     17.3117     62.3130     13.3522
   300.0000      8.1526      2.3892      0.0622     15.8074     61.8979     13.3274
   300.1000      8.1526      2.4023      0.1084     15.0105     59.4571     13.4623
   300.2000      8.1526      2.3975      0.0555     15.3039     56.3651     13.5108
   300.3000      8.1461      2.3921      0.0374     15.6304     55.6875     13.2653
   300.4000      8.1461      2.3989      0.1122     15.2202     58.1787     13.0004
   300.5000      8.1500      2.4073      0.0992     14.7077     61.4179     12.9839
   300.6000      8.1500      2.4075      0.0443     14.6966     62.8854     13.1036
   300.7000      8.1500      2.4008      0.0552     15.1012     62.2770     13.1425
   300.8000      8.1504      2.3914      0.0338     15.6702     60.8730     13.1037
   300.9000      8.1504      2.3843      0.0330     16.1051     59.4638     13.1964
   301.0000      8.1552      2.3781      0.0628     16.4785     57.9995     13.4835
   301.1000      8.1552      2.3758      0.0471     16.6165     56.8115     13.8115
   301.2000      8.1552      2.3861      0.0836     15.9924     56.3733     13.9445
   301.3000      8.1544      2.3947      0.1408     15.4727     55.9141     13.7649
   301.4000      8.1544      2.3817      0.0403     16.2630     54.8095     13.4044
   301.5000      8.1592      2.3539      0.0379     17.9459     53.3661     13.0944
   301.6000      8.1592      2.3325     -0.0044     19.2433     52.4109     12.9688
   301.7000      8.1592      2.3288      0.0424     19.4663     53.0409     13.0436
   301.8000      8.1656      2.3366      0.0177     18.9923     54.9368     13.2425
   301.9000      8.1656      2.3476      0.0219     18.3271     56.5929     13.4218
   302.0000      8.1572      2.3581      0.0665     17.6925     57.2367     13.4873
   302.1000      8.1572      2.3677      0.0287     17.1087     57.5477     13.4206
   302.2000      8.1572      2.3762      0.0530     16.5939     57.6928     13.2784
   302.3000      8.1626      2.3785      0.0629     16.4534     56.4510     13.1921
   302.4000      8.1626      2.3806      0.0443     16.3249     55.3172     13.2926
   302.5000      8.1605      2.3936      0.0563     15.5383     56.6471     13.4947
   302.6000      8.1605      2.4120      0.0738     14.4223     59.3080     13.6583
   302.7000      8.1605      2.4254      0.0681     13.6142     62.1103     13.8707
   302.8000      8.1592      2.4287      0.0736     13.4102     64.5179     14.0706
   302.9000      8.1592      2.4213      0.0772     13.8601     64.8367     14.0338
   303.0000      8.1529      2.4068      0.0664     14.7393     63.2890     13.9209
   303.1000      8.1529      2.3870      0.0490     15.9402     62.6048     14.1121
   303.2000      8.1529      2.3640      0.0366     17.3341     63.4890     14.6562
   303.3000      8.1498      2.3493      0.0488     18.2233     64.9102     15.2659
   303.4000      8.1498      2.3537      0.0416     17.9559     65.3307     15.8277
   303.5000      8.1383      2.3757      0.0687     16.6267     64.8864     16.4841
   303.6000      8.1383      2.4083      0.0434     14.6462     64.9908     17.3942
   303.7000      8.1383      2.4414      0.0948     12.6453     65.8715     18.4915
   303.8000      8.1184      2.4582      0.1189     11.6229     67.4433     19.4662
   303.9000      8.1184      2.4614      0.1051     11.4289     68.9234     20.2088
   304.0000      8.0801      2.4789      0.0921     10.3693     69.3580     20.7940
   304.1000      8.0801      2.5221      0.1662      7.7530     69.4813     21.1202
   304.2000      8.0801      2.5689      0.1914      4.9126     69.3400     21.2048
   304.3000      8.0346      2.5997      0.1226      3.0495     67.9748     21.0380
   304.4000      8.0346      2.6123      0.0696      2.2847     67.6109     20.5296
   304.5000      8.0129      2.6058      0.1353      2.6814     68.9369     19.9702
   304.6000      8.0129      2.5899      0.0747      3.6396     68.8984     19.6150
   304.7000      8.0129      2.5880      0.0927      3.7562     67.4520     19.3570
   304.8000      7.9947      2.6034      0.1063      2.8237     66.5725     19.0647
   304.9000      7.9947      2.6144      0.1141      2.1589     66.5838     18.6325
   305.0000      7.9746      2.6042      0.0965      2.7779     66.9536     18.1045
   305.1000      7.9746      2.5841      0.0628      3.9929     67.7114     17.7866
   305.2000      7.9746      2.5705      0.0552      4.8178     69.4916     17.5661
   305.3000      7.9911      2.5581      0.0252      5.5667     72.1709     16.9921
   305.4000      7.9911      2.5390     -0.0072      6.7246     73.5753     16.4506
   305.5000      8.0056      2.5136      0.0262      8.2686     73.2620     16.4270
   305.6000      8.0056      2.4822      0.0231     10.1669     75.2623     16.6056
   305.7000      8.0056      2.4551     -0.0652     11.8116     82.3216     16.7836
   305.8000      8.0050      2.4423     -0.0108     12.5900     91.8478     17.2325
   305.9000      8.0050      2.4411      0.0076     12.6632     99.9091     18.0379
   306.0000      8.0039      2.4460      0.0690     12.3637    104.4123     18.8622
   306.1000      8.0039      2.4486      0.0351     12.2065    104.8954     19.2691
   306.2000      8.0039      2.4484      0.0392     12.2198    104.0758     19.1260
   306.3000      8.0049      2.4536      0.0549     11.9004    107.0111     18.6254
   306.4000      8.0049      2.4546      0.0916     11.8433    113.0235     17.9982
   306.5000      8.0079      2.4236      0.1672     13.7209    116.4231     17.2713
   306.6000      8.0079      2.3546      0.0865     17.9036    115.7226     16.5040
   306.7000      8.0079      2.2740      0.0512     22.7883    112.8982     15.8358
   306.8000      8.0219      2.1934      0.0733     27.6744    110.0998     15.2375
   306.9000      8.0219      2.1019     -0.0135     33.2159    109.2077     14.7391
   307.0000      8.0322      2.0016     -0.0498     39.2997    110.0381     14.4797
   307.1000      8.0322      1.9050     -0.0400     45.1527    111.2409     14.6557
   307.2000      8.0322      1.8293     -0.0766     49.7368    113.1993     15.4105
   307.3000      8.0942      1.7959     -0.0332     51.7666    116.6622     16.4877
   307.4000      8.0942      1.8013      0.0615     51.4343    120.8005     17.4977
   307.5000      8.2560      1.8184      0.0698     50.3997    123.4772     18.3218
