~Version Information
 VERS.                                  2.0 : CWLS LAS VERSION
 WRAP.                                   NO : WRAPING MODE
 SWARE .                 MController 2.5.0J : SOFTWARE VERSION
~Well Information
 WELL.                Lorencito 15-36-33-67 : WELL
 COMP.    Pioneer Natural Resources USA Inc : COMPANY
 FLD.                      Purgatoire River : FIELD
 LOC.                 SW/SE Sec36 T33S R67W : LOCATION
 DATE.                             10/12/05 : DATE(S) LOGGED
 SRVC.       Blanco Geological Services LLC : SERVICE COMPANY
 STAT.                             Colorado : STATE
 CNTY.                            Las Animas : COUNTY
 CTRY.                                  USA : COUNTRY
 API.                       05-071-08515-00 : API NUMBER
 STRT.FT                             723.00 : START DEPTH
 STOP.FT                            1975.00 : STOP DEPTH
 STEP.FT                               1.00 : DEPTH INCREMENT
 NULL.                                -9999 : NULL VALUE
~Curve information
 DEPTH.FT                                   :
 ROP.MIN/FT                                 :
 GAS.UNITS                                  :
~ASCII Log data
# ...
      1723.0         0.30          8.0 
      1724.0         0.23          8.4 
      1725.0         0.20          8.7 
      1726.0         0.27          8.4 
      1727.0         0.27          8.3 
      1728.0         0.23          8.7 
      1729.0         0.35          8.7 
      1730.0         0.23          8.8 
      1731.0         0.17          9.0 
      1732.0         0.20          8.9 
      1733.0         0.27          9.0 
      1734.0         0.47          9.1 
      1735.0         0.57         10.1 
      1736.0         2.08         10.2 
      1737.0         0.47          9.1 
      1738.0         0.50          9.3 
      1739.0         0.37          8.9 
      1740.0         0.43          9.5 
      1741.0         0.37          9.0 
      1742.0         0.43          9.0 
      1743.0         0.42          9.1 
      1744.0         0.40          8.4 
      1745.0         0.47          8.6 
      1746.0         0.47          8.5 
      1747.0         0.53          8.6 
      1748.0         0.57          8.2 
      1749.0         0.55          8.9 
      1750.0         0.60          9.3 
      1751.0         0.57          9.8 
      1752.0         0.40          9.6 
      1753.0         0.53          9.9 
      1754.0         0.37         10.1 
      1755.0         0.47         10.0 
      1756.0         0.52          9.8 
      1757.0         0.30          9.7 
      1758.0         0.27         10.5 
      1759.0         0.27          9.5 
      1760.0         0.27         10.1 
      1761.0         0.33         10.1 
      1762.0         0.23         10.0 
      1763.0         0.20          9.8 
      1764.0         0.20          9.4 
      1765.0         0.13          9.5 
      1766.0         1.72          9.8 
      1767.0         0.17          9.6 
      1768.0         0.27          9.1 
      1769.0         0.17          9.0 
      1770.0         0.37          9.1 
      1771.0         0.30          9.0 
      1772.0         0.27          9.3 
      1773.0         0.23          9.0 
      1774.0         0.30          9.3 
      1775.0         0.30          9.1 
      1776.0         0.25          8.8 
      1777.0         0.27          8.6 
      1778.0         0.37          8.7 
      1779.0         0.37          8.6 
      1780.0         0.33          8.6 
      1781.0         0.33          8.9 
      1782.0         0.30          8.9 
      1783.0         0.30          9.3 
      1784.0         0.33         10.0 
      1785.0         0.30         11.0 
      1786.0         0.27         10.9 
      1787.0         0.25         12.2 
      1788.0         0.33         12.1 
      1789.0         0.33         12.8 
      1790.0         0.20         13.1 
      1791.0         0.13         13.8 
      1792.0         0.17         13.2 
      1793.0         0.17         14.0 
      1794.0         0.20         14.5 
      1795.0         0.20         14.1 
      1796.0         3.38         21.9 
      1797.0         0.40         23.8 
      1798.0         0.33         26.2 
      1799.0         0.27         27.4 
      1800.0         0.27         28.6 
      1801.0         0.25         30.6 
      1802.0         0.23         31.5 
      1803.0         0.27         32.1 
      1804.0         0.33         33.8 
      1805.0         0.37         35.2 
      1806.0         0.40         36.4 
      1807.0         0.33         38.5 
      1808.0         0.37         39.6 
      1809.0         0.37         41.3 
      1810.0         0.33         43.1 
      1811.0         0.32         44.4 
      1812.0         0.33         45.5 
      1813.0         0.50         47.1 
      1814.0         0.30         47.5 
      1815.0         0.27         48.1 
      1816.0         0.27         48.4 
      1817.0         0.40         48.3 
      1818.0         0.70         47.9 
      1819.0         0.47         48.3 
      1820.0         0.35         47.7 
      1821.0         0.37         47.7 
      1822.0         0.30         46.6 
      1823.0         0.33         46.0 
      1824.0         0.30         46.3 
      1825.0         0.30         45.6 
      1826.0         5.27         32.7 
      1827.0         0.17         32.5 
      1828.0         0.23         31.4 
      1829.0         0.40         30.2 
      1830.0         0.37         30.7 
      1831.0         0.33         30.0 
      1832.0         0.33         31.4 
      1833.0         0.33         31.7 
      1834.0         0.33         32.3 
      1835.0         0.42         32.7 
      1836.0         0.27         33.2 
      1837.0         0.27         33.3 
      1838.0         0.33         33.5 
      1839.0         0.47         34.0 
      1840.0         0.30         34.9 
      1841.0         0.33         35.0 
      1842.0         0.30         35.4 
      1843.0         0.37         35.0 
      1844.0         0.27         36.2 
      1845.0         0.33         40.8 
      1846.0         0.35         45.1 
      1847.0         0.30         49.5 
      1848.0         0.33         54.5 
      1849.0         0.23         57.9 
      1850.0         0.37         63.0 
      1851.0         0.30         66.9 
      1852.0         0.33         70.6 
      1853.0         0.27         73.1 
      1854.0         0.30         75.5 
      1855.0         0.30         77.4 
      1856.0         3.68         63.0 
      1857.0         0.48         58.7 
      1858.0         0.50         54.7 
      1859.0         0.40         52.2 
      1860.0         0.33         50.2 
      1861.0         0.40         48.9 
      1862.0         0.43         46.4 
      1863.0         0.40         45.1 
      1864.0         0.40         43.9 
      1865.0         0.38         43.3 
      1866.0         0.37         44.1 
      1867.0         0.33         43.6 
      1868.0         0.37         44.8 
      1869.0         0.30         44.8 
      1870.0         0.30         45.9 
      1871.0         0.30         45.6 
      1872.0         0.33         47.0 
      1873.0         0.33         46.9 
      1874.0         0.30         46.6 
      1875.0         0.32         47.6 
      1876.0         0.33         47.1 
      1877.0         0.33         47.5 
      1878.0         0.30         47.8 
      1879.0         0.27         48.0 
      1880.0         0.27         48.0 
      1881.0         0.33         48.0 
      1882.0         0.30         47.2 
      1883.0         0.30         47.1 
      1884.0         0.27         47.1 
      1885.0         0.30         48.0 
      1886.0         3.18         43.6 
      1887.0         0.28         43.6 
      1888.0         0.43         42.7 
      1889.0         0.40         42.3 
      1890.0         0.37         41.4 
      1891.0         0.30         41.2 
      1892.0         0.27         41.0 
      1893.0         0.27         39.9 
      1894.0         0.33         39.8 
      1895.0         0.37         39.8 
      1896.0         0.43         39.9 
      1897.0         0.45         39.3 
      1898.0         0.37         40.2 
      1899.0         0.33         41.3 
      1900.0         0.37         41.5 
      1901.0         0.33         42.6 
      1902.0         0.33         44.3 
      1903.0         0.33         44.8 
      1904.0         0.33         45.2 
      1905.0         0.37         46.6 
      1906.0         0.35         46.9 
      1907.0         0.37         47.0 
      1908.0         0.50         47.6 
      1909.0         0.50         47.6 
      1910.0         0.37         48.1 
      1911.0         0.33         48.2 
      1912.0         0.33         47.2 
      1913.0         0.30         47.3 
      1914.0         0.30         48.0 
      1915.0         0.27         48.0 
      1916.0         1.98         48.6 
      1917.0         0.50         46.6 
      1918.0         0.40         45.7 
      1919.0         0.33         45.4 
      1920.0         0.28         45.7 
      1921.0         0.30         45.4 
      1922.0         0.30         45.2 
