~Version Information
VERS.                      2.0: CWLS Log ASCII Standard - VERSION 2.0
WRAP.                       NO: One line per depth step
~Well Information Block
STRT.FT                15.0000: 
STOP.FT              1532.0000: 
STEP.FT                 0.2500: 
NULL.                -999.2500: 
COMP.          Pioneer Natural Resources: COMPANY
WELL.           Bobsy 34-11 Tr: WELL
FLD.           Purgatoire River: FIELD
LOC.           514' FSL & 1784' FEL: LOCATION
PROV.                 Colorado: PROVINCE
CNTY.               Las Animas: COUNTRY
SRVC.                Patterson: SERVICE COMPANY
DATE.          Fri Jul 22 12:22:14 2005: LOG DATE
UWI.           05 071 08438 00: UNIQUE WELL ID
~Curve Information Block
DEPT.FT            0 000 00 00: Depth
GR.GAPI                       : Gamma Ray
CCL.                          : Casing Collar Locator
TT3.usec                      : CBL 3' Travel Time
AMP3.mV                       : CBL 3' Amplitude
~Parameter Information Block
~A  Depth        GR         CCL         TT3         AMP3    
# ...
   785.5000    101.7380      0.0000    691.2506     12.3040
   785.7500    108.6699      0.0000    690.9590     12.4290
   786.0000    114.6646      0.0000    690.4377     12.6022
   786.2500    118.6535      0.0000    689.9149     12.7992
   786.5000    120.2604      0.0000    689.6088     12.9891
   786.7500    120.4339      0.0000    689.5647     13.1560
   787.0000    120.8019      0.0000    689.6133     13.3014
   787.2500    122.0758      0.0000    689.2640     13.4285
   787.5000    123.1877      0.0000    687.4012     13.5307
   787.7500    122.2451      0.0000    681.9157     13.5969
   788.0000    118.4603      0.0000    670.4549     13.6245
   788.2500    113.1083      0.0000    653.3665     13.6247
   788.5000    108.5479      0.0000    636.6265     13.6150
   788.7500    106.4242      0.0000    629.5001     13.6049
   789.0000    106.8061      0.0000    636.6627     13.5917
   789.2500    108.6477      0.0000    653.4858     13.5762
   789.5000    110.8121      0.0000    670.6696     13.5780
   789.7500    112.9151      0.0000    682.1684     13.6189
   790.0000    115.4422      0.0000    687.6377     13.6856
   790.2500    118.9336      0.0000    689.5155     13.7215
   790.5000    122.9559      0.0000    689.9698     13.6727
   790.7500    126.0172      0.0000    690.0482     13.5353
   791.0000    126.5839      0.0000    690.0712     13.3492
   791.2500    124.1646      0.0000    690.0818     13.1502
   791.5000    119.5584      0.0000    690.0946     12.9394
   791.7500    114.3300      0.0000    690.1366     12.6971
   792.0000    110.2309      0.0000    690.2379     12.4167
   792.2500    108.7909      0.0000    690.3969     12.1261
   792.5000    110.6574      0.0000    690.5851     11.8760
   792.7500    114.9082      0.0000    690.7889     11.7058
   793.0000    119.4429      0.0000    691.0313     11.6232
   793.2500    122.5581      0.0000    691.3330     11.6128
   793.5000    124.1514      0.0000    691.6476     11.6537
   793.7500    125.3503      0.0000    691.8652     11.7201
   794.0000    127.3072      0.0000    691.8939     11.7680
   794.2500    130.6396      0.0000    691.7106     11.7384
   794.5000    135.5373      0.0000    691.3348     11.5861
   794.7500    141.4589      0.0000    690.7981     11.3216
   795.0000    146.5678      0.0000    690.1663     11.0243
   795.2500    148.3374      0.0000    689.5631     10.8012
   795.5000    145.4274      0.0000    689.1363     10.7162
   795.7500    138.8630      0.0000    688.9855     10.7553
   796.0000    131.1255      0.0000    689.1229     10.8558
   796.2500    124.2982      0.0000    689.4883     10.9591
   796.5000    119.2570      0.0000    689.9818     11.0371
   796.7500    116.0278      0.0000    690.4828     11.0909
   797.0000    114.1982      0.0000    690.8808     11.1463
   797.2500    113.1757      0.0000    691.1194     11.2484
   797.5000    112.6401      0.0000    691.2151     11.4411
   797.7500    112.8554      0.0000    691.2239     11.7337
   798.0000    114.3424      0.0000    691.1978     12.0867
   798.2500    117.3270      0.0000    691.1702     12.4348
   798.5000    121.6989      0.0000    691.1617     12.7258
   798.7500    127.2772      0.0000    691.1708     12.9356
   799.0000    133.6637      0.0000    691.1669     13.0559
   799.2500    139.7640      0.0000    691.1124     13.0876
   799.5000    144.0151      0.0000    691.0034     13.0509
   799.7500    145.6295      0.0000    690.8842     12.9879
   800.0000    145.4920      0.0000    690.8151     12.9391
   800.2500    145.4542      0.0000    690.8269     12.9157
   800.5000    146.7216      0.0000    690.9069     12.9016
   800.7500    148.9166      0.0000    691.0192     12.8799
   801.0000    150.4726      0.0000    691.1293     12.8513
   801.2500    149.8844      0.0000    691.2158     12.8274
   801.5000    146.7544      0.0000    691.2827     12.8153
   801.7500    141.8415      0.0000    691.3676     12.8148
   802.0000    136.1914      0.0000    691.5174     12.8274
   802.2500    130.3201      0.0000    691.7336     12.8637
   802.5000    124.2935      0.0000    691.9473     12.9389
   802.7500    118.4615      0.0000    692.0731     13.0558
   803.0000    113.9592      0.0000    692.0795     13.1900
   803.2500    112.4278      0.0000    691.9928     13.2962
   803.5000    115.2275      0.0000    691.8516     13.3341
   803.7500    122.7111      0.0000    691.6815     13.2914
   804.0000    133.8296      0.0000    691.5032     13.1829
   804.2500    146.1514      0.0000    691.3391     13.0322
   804.5000    156.6312      0.0000    691.2079     12.8546
   804.7500    162.9117      0.0000    691.1011     12.6548
   805.0000    164.0712      0.0000    690.9501     12.4315
   805.2500    160.4742      0.0000    690.4193     12.1805
   805.5000    153.5542      0.0000    688.5380     11.8967
   805.7500    145.7199      0.0000    683.4993     11.5795
   806.0000    139.5735      0.0000    673.8298     11.2290
   806.2500    136.5926      0.0000    661.6631     10.8140
   806.5000    136.4661      0.0000    655.1998     10.2445
   806.7500    137.6608      0.0000    664.6305      9.4417
   807.0000    138.4767      0.0000    692.2792      8.4933
   807.2500    137.6331      0.0000    727.9258      7.6848
   807.5000    134.3038      0.0000    756.3654      7.2927
   807.7500    128.1882      0.0000    768.9520      7.3484
   808.0000    119.7846      0.0000    767.4783      7.6293
   808.2500    110.3585      0.0000    759.4515      7.8479
   808.5000    101.4830     -1.9098    751.0636      7.8389
   808.7500     94.6210      0.0000    743.4765      7.6342
   809.0000     90.7603      0.0000    734.9370      7.4275
   809.2500     89.8381      0.0000    725.5039      7.4498
   809.5000     90.5651      0.0000    717.8644      7.8274
   809.7500     91.3355      0.0000    713.5136      8.5391
   810.0000     91.4125      0.0000    710.6811      9.4743
   810.2500     91.0585      0.0000    706.9056     10.4865
   810.5000     90.7456      0.0000    701.9667     11.4101
   810.7500     90.6212      0.0000    697.4203     12.1016
   811.0000     90.5370      0.0000    694.4545     12.5019
   811.2500     90.1946      0.0000    693.0287     12.6484
   811.5000     89.3522      0.0000    692.4873     12.6252
   811.7500     88.1867      0.0000    692.2749     12.5101
   812.0000     87.3771      0.0000    692.1379     12.3544
   812.2500     87.5475      0.0000    692.0057     12.1893
   812.5000     88.5973      0.0000    691.8777     12.0351
   812.7500     89.8079      0.0000    691.7698     11.9037
   813.0000     90.6753      0.0000    691.6959     11.7972
   813.2500     91.4137      0.0000    691.6469     11.7103
   813.5000     92.4970      0.0000    691.5680     11.6370
   813.7500     93.8202      0.0000    691.3282     11.5793
   814.0000     94.5432      0.0000    690.6784     11.5465
   814.2500     93.8858      0.0000    689.3280     11.5441
   814.5000     92.0473      0.0000    687.2805     11.5626
   814.7500     90.1659      0.0000    685.1818     11.5847
   815.0000     89.2484      0.0000    684.0683     11.6058
   815.2500     89.2856      0.0000    684.4791     11.6413
   815.5000     89.5947      0.0000    685.9289     11.7113
   815.7500     89.7268      0.0000    687.4359     11.8176
   816.0000     89.5884      0.0000    688.3987     11.9398
   816.2500     88.8545      0.0000    688.8309     12.0468
   816.5000     86.8797      0.0000    689.0038     12.1075
   816.7500     83.3688      0.0000    689.1094     12.0933
   817.0000     78.9002      0.0000    689.1965     11.9872
   817.2500     74.6772      0.0000    689.2495     11.8008
   817.5000     71.7661      0.0000    689.2615     11.5761
   817.7500     70.4273      0.0000    689.2629     11.3614
   818.0000     70.0362      0.0000    689.2933     11.1818
   818.2500     69.6540      0.0000    689.3592     11.0322
   818.5000     68.7695      0.0000    689.4182     10.8944
   818.7500     67.5785      0.0000    689.4088     10.7559
