~Version Information
VERS.                      2.0: CWLS Log ASCII Standard - VERSION 2.0
WRAP.                       NO: One line per depth step
~Well Information Block
STRT.FT               230.0000: 
STOP.FT               706.5000: 
STEP.FT                 0.1000: 
NULL.                -999.2500: 
COMP.          Pioneer Natural Resources: COMPANY
WELL.          Razor Clam 23-27: WELL
FLD.           Purgatoire River: FIELD
LOC.           2499' FSL & 2636' FWL: LOCATION
CNTY.               Las Animas: COUNTY
SRVC.                Patterson: SERVICE COMPANY
DATE.          Mon Feb 13 07:31:47 2006: LOG DATE
UWI.           05 071 08667 00: UNIQUE WELL ID
STAT.                 Colorado: STATE
~Curve Information Block
DEPT.FT            0 000 00 00: Depth
DCAL.in                       : CDL Caliper
RHOB.g/cc                     : CDL Bulk Density
RHOC.g/cc                     : CDL Density Correction
DPOR.pu                       : CDL Density Porosity
GR.GAPI                       : Gamma Ray
NPOR.pu                       : Neutron Porosity
~Parameter Information Block
~A  Depth       DCAL        RHOB        RHOC        DPOR         GR         NPOR    
# ...
   537.2000      8.0189      2.5107      0.0022      8.4445     93.0510     23.8895
   537.3000      8.0205      2.5223      0.0508      7.7377     89.3924     24.8578
   537.4000      8.0205      2.5355      0.0311      6.9400     73.0917     25.4435
   537.5000      8.0167      2.5437      0.0195      6.4420     62.3777     25.4783
   537.6000      8.0167      2.5376      0.0736      6.8133     63.5951     25.6183
   537.7000      8.0167      2.5081      0.0232      8.5989     68.3767     26.5482
   537.8000      8.0170      2.4682      0.0088     11.0182     72.6873     28.0959
   537.9000      8.0170      2.4335     -0.0024     13.1218     77.5758     29.0668
   538.0000      8.0221      2.3953     -0.0085     15.4362     80.9941     29.1330
   538.1000      8.0221      2.3299      0.0015     19.4012     79.8645     29.1687
   538.2000      8.0221      2.2299     -0.0597     25.4596     73.8596     29.5004
   538.3000      8.0320      2.1178     -0.1041     32.2555     66.1245     29.7796
   538.4000      8.0320      2.0135     -0.0955     38.5768     60.4775     30.0555
   538.5000      8.0365      1.9141     -0.1077     44.5975     58.3803     30.5597
   538.6000      8.0365      1.8155     -0.1499     50.5760     58.5193     31.2004
   538.7000      8.0365      1.7228     -0.1411     56.1938     58.5048     31.7111
   538.8000      8.0347      1.6449     -0.1964     60.9150     58.1383     31.7949
   538.9000      8.0347      1.5837     -0.0665     64.6226     57.8193     31.6911
   539.0000      8.0371      1.5293     -0.0664     67.9208     56.2729     32.0188
   539.1000      8.0371      1.4810     -0.0313     70.8508     52.5283     32.7377
   539.2000      8.0371      1.4466     -0.0059     72.9310     47.2359     33.4954
   539.3000      8.0360      1.4265     -0.0256     74.1496     43.8910     34.2906
   539.4000      8.0360      1.4091      0.0142     75.2052     43.1601     34.7227
   539.5000      8.0600      1.3840     -0.0059     76.7286     41.0559     34.2582
   539.6000      8.0600      1.3595     -0.0390     78.2092     36.7236     33.3903
   539.7000      8.0600      1.3473      0.0061     78.9497     31.6242     32.8835
   539.8000      8.1215      1.3434      0.0182     79.1890     26.2850     32.7522
   539.9000      8.1215      1.3420     -0.0117     79.2732     21.7278     32.8503
   540.0000      8.1743      1.3412      0.0236     79.3185     18.9421     33.2061
   540.1000      8.1743      1.3359      0.0296     79.6436     17.5490     33.5321
   540.2000      8.1743      1.3250      0.0129     80.3046     17.0661     33.3657
   540.3000      8.1915      1.3128      0.0015     81.0426     17.9836     32.8867
   540.4000      8.1915      1.2992     -0.0052     81.8656     19.7152     32.7212
   540.5000      8.1908      1.2840     -0.0256     82.7899     19.8126     33.0805
   540.6000      8.1908      1.2716     -0.0105     83.5393     18.0624     33.6083
   540.7000      8.1908      1.2640     -0.0014     83.9976     18.5585     34.0508
   540.8000      8.1946      1.2614     -0.0392     84.1560     22.9292     34.6184
   540.9000      8.1946      1.2655     -0.0225     83.9076     28.0515     35.1455
   541.0000      8.2129      1.2733     -0.0116     83.4365     33.0659     35.1336
   541.1000      8.2129      1.2809      0.0123     82.9784     39.1608     34.5399
   541.2000      8.2129      1.2956      0.0077     82.0834     45.4693     33.8487
   541.3000      8.1816      1.3357     -0.0036     79.6563     50.7716     33.4820
   541.4000      8.1816      1.4118      0.0333     75.0408     55.1951     33.4191
   541.5000      8.1188      1.5203      0.0515     68.4683     60.9001     33.4635
   541.6000      8.1188      1.6560      0.0895     60.2396     69.3940     33.3093
   541.7000      8.1188      1.8126      0.1337     50.7539     79.1804     32.8381
   541.8000      8.1234      1.9729      0.2075     41.0388     90.4432     32.1457
   541.9000      8.1234      2.1215      0.2590     32.0320    105.1316     31.7163
   542.0000      7.9829      2.2589      0.2630     23.7049    118.4675     32.0184
   542.1000      7.9829      2.3834      0.3020     16.1574    124.2812     32.4336
   542.2000      7.9829      2.4737      0.2809     10.6863    124.2807     32.1303
   542.3000      7.9588      2.5173      0.1709      8.0416    119.6583     31.3228
   542.4000      7.9588      2.5333      0.1161      7.0701    111.6294     30.8542
   542.5000      7.9554      2.5465      0.1005      6.2697    108.3117     30.7294
   542.6000      7.9554      2.5591      0.1160      5.5107    113.6725     30.2010
   542.7000      7.9554      2.5627      0.0560      5.2934    121.0444     28.8270
   542.8000      7.9545      2.5623      0.0780      5.3166    121.4831     26.9702
   542.9000      7.9545      2.5618      0.0941      5.3441    115.3490     25.3089
   543.0000      7.9530      2.5561      0.0901      5.6910    108.8882     23.8515
   543.1000      7.9530      2.5471      0.0448      6.2365    103.8029     22.7510
   543.2000      7.9530      2.5456      0.0591      6.3299     98.7989     22.4971
   543.3000      7.9534      2.5542      0.0761      5.8079     93.3316     23.3498
   543.4000      7.9534      2.5647      0.0662      5.1713     87.9513     24.7706
   543.5000      7.9532      2.5710      0.0453      4.7881     87.0673     25.7892
   543.6000      7.9532      2.5737      0.0539      4.6232     94.4788     26.1389
   543.7000      7.9532      2.5711      0.0637      4.7830    104.7728     26.3094
   543.8000      7.9534      2.5584      0.0927      5.5538    109.7845     26.5502
   543.9000      7.9534      2.5416      0.0442      6.5718    111.4883     26.5633
   544.0000      7.9532      2.5328      0.0501      7.1008    115.9776     26.5300
   544.1000      7.9532      2.5236      0.0550      7.6626    124.8795     26.4960
   544.2000      7.9532      2.5026      0.0270      8.9359    134.1353     26.2370
   544.3000      7.9563      2.4881     -0.0148      9.8094    134.6009     26.4120
   544.4000      7.9563      2.4997      0.0187      9.1121    128.3305     27.3203
   544.5000      7.9577      2.5236      0.0733      7.6591    128.1742     28.0058
   544.6000      7.9577      2.5362      0.0812      6.8968    137.0466     27.6365
   544.7000      7.9577      2.5371      0.0382      6.8452    147.6198     26.6071
   544.8000      7.9580      2.5423      0.0534      6.5259    152.5221     26.0962
   544.9000      7.9580      2.5543      0.0685      5.7989    148.1582     26.3771
   545.0000      7.9578      2.5558      0.0943      5.7107    140.0319     26.7796
   545.1000      7.9578      2.5367      0.0485      6.8659    138.7920     27.0338
   545.2000      7.9578      2.5120      0.0516      8.3650    143.1120     27.2600
   545.3000      7.9577      2.4938      0.0798      9.4649    143.6452     27.6078
   545.4000      7.9577      2.4803      0.0761     10.2836    137.2830     28.0477
   545.5000      7.9578      2.4691      0.0765     10.9637    127.5196     28.5200
   545.6000      7.9578      2.4515      0.1062     12.0286    118.7236     29.0671
   545.7000      7.9578      2.4203      0.0405     13.9227    111.4234     29.1875
   545.8000      7.9608      2.3741      0.0395     16.7218    103.9511     28.6367
   545.9000      7.9608      2.2999      0.0269     21.2160     97.1992     28.3477
   546.0000      7.9621      2.1883     -0.0160     27.9816     88.8468     29.1631
   546.1000      7.9621      2.0518     -0.0135     36.2563     76.2951     30.2149
   546.2000      7.9621      1.9086     -0.0647     44.9313     68.3950     30.5765
   546.3000      7.9690      1.7703     -0.1032     53.3156     70.4608     31.0463
   546.4000      7.9690      1.6400     -0.1063     61.2103     73.8812     32.1710
   546.5000      7.9739      1.5226     -0.1728     68.3282     71.2707     33.0297
   546.6000      7.9739      1.4305     -0.1458     73.9118     63.3471     33.2400
   546.7000      7.9739      1.3728     -0.0941     77.4066     54.0630     33.3979
