~Version Information
VERS.                      2.0: CWLS Log ASCII Standard - VERSION 2.0
WRAP.                       NO: One line per depth step
~Well Information Block
STRT.FT               491.0000: 
STOP.FT              1909.5000: 
STEP.FT                 0.1000: 
NULL.                -999.2500: 
COMP.          Pioneer Natural Resources: COMPANY
WELL.            Corazon 13-10: WELL
FLD.           Purgatoire River: FIELD
LOC.           2510' FSL & 439' FWL: LOCATION
PROV.                 Colorado: PROVINCE
CNTY.               Las Animas: COUNTRY
SRVC.                Patterson: SERVICE COMPANY
DATE.          Thu Dec 01 07:28:46 2005: LOG DATE
UWI.           05 071 08613 00: UNIQUE WELL ID
~Curve Information Block
DEPT.FT            0 000 00 00: Depth
DCAL.in                       : CDL Caliper
RHOB.g/cc                     : CDL Bulk Density
RHOC.g/cc                     : CDL Density Correction
DPOR.pu                       : CDL Density Porosity
GR.GAPI                       : Gamma Ray
NPOR.pu                       : Neutron Porosity
~Parameter Information Block
~A  Depth       DCAL        RHOB        RHOC        DPOR         GR         NPOR    
# ...
  1710.2000      7.9131      2.5793     -0.0124      4.2862     57.7337     20.2492
  1710.3000      7.9054      2.5850      0.0578      3.9377     60.1426     19.7588
  1710.4000      7.9054      2.5679      0.0102      4.9767     62.6870     19.9107
  1710.5000      7.8910      2.5478     -0.0311      6.1915     65.1267     20.0641
  1710.6000      7.8910      2.5517      0.0178      5.9549     68.5153     19.7702
  1710.7000      7.8910      2.5697      0.0722      4.8687     72.0646     19.0908
  1710.8000      7.8799      2.5829      0.0390      4.0680     73.2017     18.6207
  1710.9000      7.8799      2.5845      0.0852      3.9712     69.4918     19.1171
  1711.0000      7.8742      2.5733      0.0233      4.6494     62.5878     20.3595
  1711.1000      7.8742      2.5638      0.0145      5.2268     60.3126     21.1822
  1711.2000      7.8742      2.5670      0.0330      5.0308     66.9751     20.9070
  1711.3000      7.8782      2.5702      0.0175      4.8357     74.5268     19.8402
  1711.4000      7.8782      2.5621      0.0153      5.3258     75.1409     18.9973
  1711.5000      7.8832      2.5474     -0.0257      6.2187     73.0275     18.8798
  1711.6000      7.8832      2.5339     -0.0558      7.0334     73.3297     18.9644
  1711.7000      7.8832      2.5350     -0.0614      6.9724     72.3883     19.2436
  1711.8000      7.8888      2.5630     -0.0269      5.2739     68.5761     20.3631
  1711.9000      7.8888      2.6004      0.0469      3.0085     67.4452     21.8445
  1712.0000      7.9084      2.6160      0.0433      2.0610     70.6038     22.0711
  1712.1000      7.9084      2.6135     -0.0360      2.2112     73.4323     20.8817
  1712.2000      7.9084      2.6121      0.0151      2.2956     72.9505     19.7893
  1712.3000      7.9070      2.6090      0.0043      2.4838     70.0397     19.4442
  1712.4000      7.9070      2.5958      0.0702      3.2861     67.1381     19.7990
  1712.5000      7.9072      2.5818      0.0022      4.1318     64.8838     20.5146
  1712.6000      7.9072      2.5835      0.0127      4.0325     64.4736     21.0432
  1712.7000      7.9072      2.5968      0.0427      3.2217     65.4820     21.3826
  1712.8000      7.9092      2.6076      0.0425      2.5691     64.9117     21.6284
  1712.9000      7.9092      2.6072      0.0358      2.5963     63.0851     21.2584
  1713.0000      7.9061      2.5891      0.0591      3.6883     62.2150     20.0867
  1713.1000      7.9061      2.5651     -0.0104      5.1476     62.7350     19.4473
  1713.2000      7.9061      2.5648     -0.0276      5.1624     62.2686     19.8245
  1713.3000      7.9042      2.5856      0.0803      3.9032     57.7257     19.9471
  1713.4000      7.9042      2.5875      0.0234      3.7884     54.0921     19.5384
  1713.5000      7.9004      2.5559      0.0240      5.7031     57.7141     19.3704
  1713.6000      7.9004      2.5159     -0.0540      8.1280     63.4081     19.7098
  1713.7000      7.9004      2.4936     -0.0173      9.4797     64.1210     20.3950
  1713.8000      7.9040      2.4930     -0.0163      9.5155     61.7221     20.8132
  1713.9000      7.9040      2.5018      0.0313      8.9793     60.8002     20.8391
  1714.0000      7.9068      2.5040      0.0423      8.8499     61.9222     21.0676
  1714.1000      7.9068      2.5000     -0.0108      9.0892     63.8334     21.5689
  1714.2000      7.9068      2.5069      0.0045      8.6749     66.3569     21.5292
  1714.3000      7.9010      2.5323      0.0678      7.1308     69.3697     20.4596
  1714.4000      7.9010      2.5682      0.1442      4.9571     73.5660     19.5501
  1714.5000      7.8993      2.6021      0.1682      2.9028     79.0218     19.9104
  1714.6000      7.8993      2.6240      0.1554      1.5746     80.9846     20.6180
  1714.7000      7.8993      2.6284      0.1675      1.3114     76.4636     20.6776
  1714.8000      7.8502      2.6246      0.1131      1.5371     71.4341     20.5299
  1714.9000      7.8502      2.6228      0.1699      1.6459     69.8096     20.4108
  1715.0000      7.8232      2.6162      0.1300      2.0492     68.3783     20.2263
  1715.1000      7.8232      2.6022      0.1150      2.8957     66.6698     19.7062
  1715.2000      7.8232      2.5834      0.1023      4.0354     69.2843     18.3932
  1715.3000      7.8434      2.5577      0.0849      5.5968     74.1576     16.8569
  1715.4000      7.8434      2.5262      0.0573      7.5017     74.1789     15.8320
  1715.5000      7.8588      2.5043     -0.0292      8.8281     70.1495     15.4359
  1715.6000      7.8588      2.5087     -0.0036      8.5631     67.7619     15.9737
  1715.7000      7.8588      2.5289      0.0428      7.3378     68.3625     17.5007
  1715.8000      7.8641      2.5442      0.0195      6.4103     69.1728     19.2488
  1715.9000      7.8641      2.5534      0.0134      5.8569     64.8792     20.2347
  1716.0000      7.8694      2.5592      0.0349      5.5039     55.9482     20.2191
  1716.1000      7.8694      2.5566      0.0319      5.6577     51.3820     19.4294
  1716.2000      7.8694      2.5480      0.0107      6.1835     53.9120     18.1632
  1716.3000      7.8822      2.5483     -0.0203      6.1620     58.4274     17.3896
  1716.4000      7.8822      2.5668      0.0354      5.0402     60.9007     17.8346
  1716.5000      7.8856      2.5899      0.0082      3.6397     60.3254     19.1181
  1716.6000      7.8856      2.5941      0.0818      3.3891     56.1155     19.8978
  1716.7000      7.8856      2.5759     -0.0048      4.4922     48.9873     19.3624
  1716.8000      7.8828      2.5559      0.0062      5.7039     43.0626     18.5729
  1716.9000      7.8828      2.5420      0.0240      6.5450     42.1085     18.2637
  1717.0000      7.8880      2.5332     -0.0264      7.0759     45.6453     17.7415
  1717.1000      7.8880      2.5373     -0.0049      6.8281     50.9025     16.9264
  1717.2000      7.8880      2.5531      0.0201      5.8729     56.0855     16.7545
  1717.3000      7.8962      2.5679      0.0355      4.9779     58.6233     17.5296
  1717.4000      7.8962      2.5779      0.0419      4.3671     56.6577     18.6686
  1717.5000      7.8977      2.5870      0.0412      3.8188     52.5435     19.7329
  1717.6000      7.8977      2.5890      0.0509      3.6954     50.5450     20.5214
  1717.7000      7.8977      2.5820      0.0267      4.1200     52.5784     20.6086
  1717.8000      7.8866      2.5780      0.0134      4.3616     54.9188     19.6249
  1717.9000      7.8866      2.5823      0.0723      4.1016     53.2304     18.2195
  1718.0000      7.8790      2.5845      0.0364      3.9714     50.5175     17.6898
  1718.1000      7.8790      2.5738      0.0645      4.6184     51.7890     18.0835
  1718.2000      7.8790      2.5534      0.0342      5.8570     54.6838     18.5980
  1718.3000      7.8707      2.5375      0.0195      6.8204     56.1910     19.3008
  1718.4000      7.8707      2.5346      0.0265      6.9960     57.7395     20.3182
  1718.5000      7.8720      2.5443      0.0029      6.4033     59.5900     20.9786
  1718.6000      7.8720      2.5658      0.0064      5.1057     63.2205     21.0495
  1718.7000      7.8720      2.5956      0.1142      3.2950     72.6424     20.8614
  1718.8000      7.8778      2.6260      0.0934      1.4557     85.0201     20.7421
  1718.9000      7.8778      2.6454      0.1078      0.2803     90.0589     20.8673
  1719.0000      7.8847      2.6414      0.0991      0.5185     85.2375     21.1111
  1719.1000      7.8847      2.6094      0.1377      2.4629     80.5051     21.3373
  1719.2000      7.8847      2.5551      0.1003      5.7522     81.6670     21.5381
  1719.3000      7.8541      2.4956      0.0443      9.3595     84.8578     21.9139
  1719.4000      7.8541      2.4491      0.0537     12.1758     86.7265     22.6513
  1719.5000      7.7982      2.4245     -0.0110     13.6693     87.6794     23.4534
  1719.6000      7.7982      2.4177      0.0162     14.0769     89.5004     24.0815
  1719.7000      7.7982      2.4134     -0.0041     14.3373     92.0497     24.7056
