~Version Information
VERS.                      2.0: CWLS Log ASCII Standard - VERSION 2.0
WRAP.                       NO: One line per depth step
~Well Information Block
STRT.FT               245.0000: 
STOP.FT              1208.2500: 
STEP.FT                 0.2500: 
NULL.                -999.2500: 
COMP.          Pioneer Natural Resources: COMPANY
WELL.              Davida 34-8: WELL
FLD.           Purgatoire River: FIELD
LOC.           418' FSL & 1923' FEL--: LOCATION
CNTY.               Las Animas: COUNTY
SRVC.                Patterson: SERVICE COMPANY
DATE.          Sat Mar 18 07:00:13 2006: LOG DATE
UWI.           05 071 08722 00: UNIQUE WELL ID
STAT.                 Colorado: STATE
~Curve Information Block
DEPT.FT            0 000 00 00: Depth
GR.GAPI                       : Gamma Ray
DIR.Ohm-m                     : IEL Induction Resistivity
~Parameter Information Block
~A  Depth        GR         DIR     
# ...
   802.5000     77.7463     12.6548
   802.7500     73.1067     13.1614
   803.0000     67.9182     13.7329
   803.2500     65.3378     14.3573
   803.5000     62.3371     15.0145
   803.7500     60.9440     15.6796
   804.0000     59.9569     16.3269
   804.2500     59.9603     16.9315
   804.5000     60.6373     17.4691
   804.7500     61.4163     17.9191
   805.0000     62.7236     18.2726
   805.2500     63.1694     18.5377
   805.5000     62.2377     18.7338
   805.7500     60.4726     18.8754
   806.0000     56.9621     18.9600
   806.2500     54.6870     18.9711
   806.5000     52.0823     18.8911
   806.7500     51.0737     18.7123
   807.0000     50.8407     18.4372
   807.2500     51.6695     18.0732
   807.5000     54.7258     17.6312
   807.7500     58.1883     17.1285
   808.0000     65.6634     16.5906
   808.2500     71.9056     16.0478
   808.5000     81.9026     15.5272
   808.7500     88.0312     15.0481
   809.0000     95.2527     14.6220
   809.2500     98.4778     14.2557
   809.5000    100.5735     13.9537
   809.7500     99.9317     13.7191
   810.0000     96.4490     13.5546
   810.2500     93.6014     13.4620
   810.5000     90.9348     13.4415
   810.7500     90.9287     13.4907
   811.0000     92.8794     13.6016
   811.2500     94.3919     13.7597
   811.5000     95.3252     13.9434
   811.7500     94.7636     14.1271
   812.0000     92.7488     14.2877
   812.2500     91.1055     14.4129
   812.5000     88.3972     14.5061
   812.7500     86.2638     14.5852
   813.0000     82.6357     14.6737
   813.2500     80.3837     14.7890
   813.5000     78.1285     14.9342
   813.7500     77.4921     15.0967
   814.0000     77.4814     15.2539
   814.2500     77.9815     15.3837
   814.5000     79.6118     15.4733
   814.7500     81.2278     15.5218
   815.0000     83.8462     15.5368
   815.2500     85.3298     15.5296
   815.5000     86.9794     15.5120
   815.7500     87.8439     15.4963
   816.0000     88.9348     15.4958
   816.2500     89.4401     15.5242
   816.5000     89.8206     15.5927
   816.7500     90.0124     15.7057
   817.0000     90.5162     15.8566
   817.2500     90.9007     16.0282
   817.5000     90.9916     16.1984
   817.7500     90.4661     16.3488
   818.0000     88.8720     16.4703
   818.2500     87.5829     16.5645
   818.5000     85.9525     16.6420
   818.7500     85.3960     16.7197
   819.0000     85.6811     16.8176
   819.2500     86.5499     16.9541
   819.5000     88.2281     17.1403
   819.7500     89.0216     17.3769
   820.0000     88.7126     17.6569
   820.2500     87.0697     17.9725
   820.5000     82.1879     18.3212
   820.7500     77.4371     18.7043
   821.0000     68.6149     19.1191
   821.2500     62.2031     19.5520
   821.5000     53.3922     19.9780
   821.7500     48.9644     20.3691
   822.0000     44.9597     20.7060
   822.2500     43.6204     20.9856
   822.5000     42.7256     21.2164
   822.7500     42.7098     21.4042
   823.0000     43.5601     21.5362
   823.2500     44.5015     21.5736
   823.5000     45.7601     21.4576
   823.7500     46.2138     21.1269
   824.0000     46.6849     20.5408
   824.2500     47.6319     19.7007
   824.5000     51.7616     18.6584
   824.7500     57.1016     17.5028
   825.0000     68.9838     16.3306
   825.2500     78.4418     15.2194
   825.5000     91.8638     14.2146
   825.7500     98.5743     13.3327
   826.0000    103.9606     12.5726
   826.2500    104.8874     11.9256
   826.5000    104.5049     11.3817
   826.7500    104.4917     10.9310
   827.0000    106.2611     10.5625
   827.2500    108.5937     10.2645
   827.5000    112.6284     10.0249
   827.7500    114.8322      9.8333
   828.0000    116.7068      9.6821
   828.2500    117.2953      9.5666
   828.5000    118.4520      9.4832
   828.7500    119.9701      9.4267
   829.0000    123.2125      9.3892
   829.2500    125.4141      9.3606
   829.5000    127.7800      9.3328
   829.7500    128.4341      9.3029
   830.0000    127.8467      9.2752
   830.2500    126.4760      9.2604
   830.5000    123.5812      9.2718
   830.7500    121.6868      9.3210
   831.0000    119.5809      9.4143
   831.2500    118.5020      9.5499
   831.5000    116.3371      9.7184
   831.7500    114.0258      9.9064
   832.0000    109.2435     10.1009
   832.2500    105.5434     10.2939
   832.5000    100.0922     10.4830
   832.7500     97.0840     10.6688
   833.0000     94.2133     10.8507
   833.2500     93.3920     11.0253
   833.5000     93.2395     11.1874
   833.7500     93.5949     11.3335
   834.0000     94.8363     11.4640
   834.2500     96.2430     11.5838
   834.5000     99.1886     11.7012
   834.7500    101.5438     11.8275
   835.0000    105.2525     11.9772
   835.2500    107.5891     12.1669
   835.5000    110.5357     12.4151
   835.7500    111.9845     12.7407
   836.0000    113.1889     13.1626
   836.2500    113.2549     13.7013
   836.5000    112.0630     14.3796
   836.7500    110.2244     15.2226
   837.0000    105.6145     16.2546
   837.2500    101.3989     17.4947
   837.5000     94.0776     18.9518
   837.7500     88.9705     20.6227
   838.0000     81.1422     22.4938
   838.2500     94.5083     24.5464
   838.5000     83.2875     26.7614
   838.7500     75.5983     29.1272
   839.0000     64.9991     31.6505
   839.2500     70.9858     34.3609
   839.5000     62.8399     37.2911
   839.7500     58.6985     40.4201
   840.0000     54.1283     43.6036
   840.2500     52.2227     46.5405
   840.5000     51.0056     48.8211
   840.7500     51.0087     50.0431
   841.0000     51.6201     49.9303
   841.2500     52.2306     48.4052
   841.5000     53.7614     45.6189
   841.7500     55.8494     41.9390
   842.0000     62.0946     37.8675
   842.2500     68.8790     33.8906
   842.5000     82.4316     30.3410
   842.7500     92.5487     27.3552
   843.0000    106.9624     24.9201
   843.2500    115.1153     22.9514
   843.5000    124.7274     21.3591
   843.7500    129.5977     20.0799
   844.0000    134.9882     19.0800
   844.2500    137.2211     18.3392
   844.5000    137.8628     17.8328
   844.7500    136.2944     17.5224
   845.0000    131.9341     17.3560
   845.2500    128.8709     17.2750
   845.5000    125.7583     17.2215
   845.7500    125.0389     17.1464
   846.0000    125.7811     17.0167
   846.2500    127.1662     16.8230
   846.5000    129.9360     16.5812
   846.7500    131.9672     16.3227
   847.0000    135.2652     16.0803
   847.2500    137.7350     15.8748
   847.5000    141.4333     15.7120
   847.7500    143.1502     15.5854
   848.0000    143.4049     15.4825
   848.2500    142.0823     15.3907
   848.5000    139.4691     15.3000
   848.7500    138.5085     15.2013
   849.0000    139.2417     15.0851
   849.2500    140.8361     14.9444
   849.5000    143.4644     14.7818
   849.7500    144.7292     14.6116
   850.0000    145.7090     14.4528
   850.2500    146.0189     14.3168
   850.5000    146.4410     14.2016
   850.7500    146.7376     14.0956
   851.0000    146.8842     13.9895
   851.2500    146.5636     13.8846
   851.5000    145.4870     13.7934
   851.7500    144.7552     13.7330
   852.0000    144.5444     13.7162
   852.2500    145.1666     13.7452
   852.5000    146.2347     13.8119
   852.7500    146.0201     13.9037
   853.0000    143.5891     14.0125
   853.2500    141.2731     14.1387
   853.5000    138.7560     14.2887
   853.7500    138.1926     14.4686
   854.0000    138.1633     14.6801
   854.2500    138.0053     14.9231
   854.5000    137.2276     15.2003
   854.7500    136.3682     15.5177
   855.0000    134.1088     15.8804
   855.2500    131.5903     16.2905
   855.5000    126.5170     16.7507
   855.7500    122.9060     17.2702
   856.0000    117.9486     17.8639
   856.2500    114.8681     18.5433
   856.5000    110.2283     19.3070
   856.7500    107.2937     20.1361
   857.0000    103.6321     20.9958
   857.2500    101.5228     21.8419
   857.5000     98.0016     22.6255
   857.7500     95.4936     23.2952
   858.0000     93.5350     23.7979
