~Version Information
 VERS.                                  2.0 : CWLS LAS VERSION
 WRAP.                                   NO : WRAPING MODE
 SWARE .                 MController 2.5.0J : SOFTWARE VERSION
~Well Information
 WELL.                     McDonald 33-31 R : WELL
 COMP.  Pioneer Natural Resources USA, Inc. : COMPANY
 FLD.                      Purgatoire River : FIELD
 LOC.                NW/SE Sec 31 T32S R66W : LOCATION
 DATE.                             09/22/05 : DATE(S) LOGGED
 SRVC.       BLANCO Geological Services LLC : SERVICE COMPANY
 STAT.                                   CO : STATE
 CNTY.                           Las Animas : COUNTY
 CTRY.                                  USA : COUNTRY
 API.                       05-071-08533-00 : API NUMBER
 STRT.FT                             377.00 : START DEPTH
 STOP.FT                            2310.00 : STOP DEPTH
 STEP.FT                               1.00 : DEPTH INCREMENT
 NULL.                                -9999 : NULL VALUE
~Curve information
 DEPTH.FT                                   :
 ROP.MIN/FT                                 :
 GAS.UNITS                                  :
~ASCII Log data
# ...
      1177.0         0.17        120.5 
      1178.0         0.17        125.1 
      1179.0         0.20        126.2 
      1180.0         0.17        119.8 
      1181.0         0.17        127.3 
      1182.0         0.17        136.4 
      1183.0         0.17        138.5 
      1184.0         0.13        138.6 
      1185.0         0.13        138.3 
      1186.0         0.17        137.4 
      1187.0         0.13        138.0 
      1188.0         0.22        141.3 
      1189.0         0.20        143.3 
      1190.0         0.17        143.6 
      1191.0         0.23        143.2 
      1192.0         0.40        140.9 
      1193.0         0.30        131.7 
      1194.0         0.20        136.8 
      1195.0         0.17        137.2 
      1196.0         0.17        129.5 
      1197.0         0.13        114.7 
      1198.0         0.17        104.7 
      1199.0         0.17         97.0 
      1200.0         3.33       1188.1 
      1201.0         0.30        817.1 
      1202.0         0.30        726.3 
      1203.0         0.30        662.5 
      1204.0         0.30        624.4 
      1205.0         0.23        599.4 
      1206.0         0.27        590.5 
      1207.0         0.17        577.5 
      1208.0         0.17        575.2 
      1209.0         0.20        575.6 
      1210.0         0.23        572.7 
      1211.0         0.20        564.5 
      1212.0         0.23        578.4 
      1213.0         0.22        593.0 
      1214.0         0.17        601.6 
      1215.0         0.17        601.9 
      1216.0         0.17        601.0 
      1217.0         0.20        597.5 
      1218.0         0.20        591.4 
      1219.0         0.17        585.1 
      1220.0         0.20        582.9 
      1221.0         0.20        577.8 
      1222.0         0.20        572.4 
      1223.0         0.20        568.6 
      1224.0         0.20        567.0 
      1225.0         0.17        566.4 
      1226.0         0.20        563.8 
      1227.0         0.17        548.9 
      1228.0         0.20        533.4 
      1229.0         0.20        514.6 
      1230.0         1.68        777.4 
      1231.0         0.37        861.5 
      1232.0         0.43        877.7 
      1233.0         0.37        870.4 
      1234.0         0.37        803.8 
      1235.0         0.35        701.9 
      1236.0         0.27        614.6 
      1237.0         0.20        640.9 
      1238.0         0.20        695.5 
      1239.0         0.27        725.4 
      1240.0         0.27        725.4 
      1241.0         0.20        728.2 
      1242.0         0.23        727.9 
      1243.0         0.20        713.9 
      1244.0         0.20        698.4 
      1245.0         0.17        695.2 
      1246.0         0.23        701.3 
      1247.0         0.17        701.9 
      1248.0         0.17        697.1 
      1249.0         0.20        689.2 
      1250.0         0.23        675.2 
      1251.0         0.22        663.5 
      1252.0         0.27        652.4 
      1253.0         0.47        641.3 
      1254.0         0.23        617.8 
      1255.0         0.20        607.3 
      1256.0         0.23        601.6 
      1257.0         0.27        609.2 
      1258.0         0.43        623.8 
      1259.0         0.40        665.4 
      1260.0         3.68        933.9 
      1261.0         0.35        905.0 
      1262.0         0.30        829.5 
      1263.0         0.20        739.3 
      1264.0         0.13        698.4 
      1265.0         0.17        677.4 
      1266.0         0.23        657.8 
      1267.0         0.20        636.8 
      1268.0         0.33        626.0 
      1269.0         0.20        612.1 
      1270.0         0.23        607.3 
      1271.0         0.20        607.0 
      1272.0         0.20        598.1 
      1273.0         0.23        585.7 
      1274.0         0.27        567.3 
      1275.0         0.17        554.3 
      1276.0         0.15        548.3 
      1277.0         0.20        539.1 
      1278.0         0.20        535.9 
      1279.0         0.23        533.4 
      1280.0         0.20        526.1 
      1281.0         0.23        521.3 
      1282.0         0.30        517.5 
      1283.0         0.33        511.8 
      1284.0         0.30        508.3 
      1285.0         0.27        508.0 
      1286.0         0.23        506.1 
      1287.0         0.20        509.9 
      1288.0         0.23        514.9 
      1289.0         0.27        514.3 
      1290.0         2.55        509.9 
      1291.0         0.37         64.8 
      1292.0         0.42        101.6 
      1293.0         0.40        127.9 
      1294.0         0.43        131.6 
      1295.0         0.27        127.3 
      1296.0         0.47        119.1 
      1297.0         0.27        105.4 
      1298.0         0.27         99.4 
      1299.0         0.50         93.0 
      1300.0         0.40         84.9 
      1301.0         0.38         82.5 
      1302.0         0.27         81.7 
      1303.0         0.30         79.6 
      1304.0         0.40         76.1 
      1305.0         0.40         70.0 
      1306.0         0.30         66.3 
      1307.0         0.27         64.2 
      1308.0         0.30         63.0 
      1309.0         0.20         71.9 
      1310.0         0.20         79.2 
      1311.0         0.17         80.9 
      1312.0         0.17         81.0 
      1313.0         0.22         80.1 
      1314.0         0.17         78.8 
      1315.0         0.17         78.9 
      1316.0         0.17         80.0 
      1317.0         0.17         80.8 
      1318.0         0.27         83.5 
      1319.0         0.37         85.5 
      1320.0         2.75         85.3 
      1321.0         0.50         35.7 
      1322.0         0.37         44.9 
      1323.0         0.33         67.1 
      1324.0         0.33         90.1 
      1325.0         0.30         99.0 
      1326.0         0.30         99.4 
      1327.0         0.45         97.1 
      1328.0         0.37         87.7 
      1329.0         0.27         81.2 
      1330.0         0.30         77.6 
      1331.0         0.27         73.6 
      1332.0         0.30         71.5 
      1333.0         0.30         69.0 
      1334.0         0.30         50.2 
      1335.0         0.27         28.2 
      1336.0         0.42         79.6 
      1337.0         0.37        122.7 
      1338.0         0.30        124.1 
      1339.0         0.30        127.5 
      1340.0         0.33        126.8 
      1341.0         0.30        131.8 
      1342.0         0.33        133.4 
      1343.0         0.33        134.9 
      1344.0         0.27        136.0 
      1345.0         0.27        135.9 
      1346.0         0.28        134.9 
      1347.0         0.27        124.5 
      1348.0         0.27         89.3 
      1349.0         0.23         97.6 
      1350.0         2.35       1186.2 
      1351.0         0.37        770.8 
      1352.0         0.30        681.9 
      1353.0         0.30        642.9 
      1354.0         0.30        621.9 
      1355.0         0.27        607.3 
      1356.0         0.27        599.1 
      1357.0         0.27        603.5 
      1358.0         0.40        601.6 
      1359.0         0.32        598.7 
      1360.0         0.30        598.1 
      1361.0         0.27        598.1 
      1362.0         0.30        604.1 
      1363.0         0.30        604.8 
      1364.0         0.30        600.3 
      1365.0         0.30        597.1 
      1366.0         0.33        596.5 
      1367.0         0.37        584.8 
      1368.0         0.30        590.5 
      1369.0         0.28        588.3 
      1370.0         0.27        587.0 
      1371.0         0.23        583.2 
      1372.0         0.23        582.2 
      1373.0         0.20        582.9 
      1374.0         0.23        581.9 
      1375.0         0.20        585.4 
      1376.0         0.27        574.6 
