~Version Information
VERS.                      2.0: CWLS Log ASCII Standard - VERSION 2.0
WRAP.                       NO: One line per depth step
~Well Information Block
STRT.FT                -6.5000: 
STOP.FT              1636.7500: 
STEP.FT                 0.2500: 
NULL.                -999.2500: 
COMP.          Pioneer Natural Resources: COMPANY
WELL.          Stock Canyon 34-33: WELL
FLD.           Purgatorie River: FIELD
LOC.           980' FSL & 2191' FEL--: LOCATION
PROV.                       CO: PROVINCE
CNTY.               Las Animas: COUNTRY
SRVC.          Patterson Wireline: SERVICE COMPANY
DATE.          Mon Dec 12 09:29:49 2005: LOG DATE
UWI.           05 071 08601 00: UNIQUE WELL ID
~Curve Information Block
DEPT.FT            0 000 00 00: Depth
CCL.                          : Casing Collar Locator
TT3.usec                      : CBL 3' Travel Time
AMP3.mV                       : CBL 3' Amplitude
GR.GAPI                       : Gamma Ray
~Parameter Information Block
~A  Depth       CCL         TT3         AMP3         GR     
# ...
   529.5000      0.0000    280.4964     82.5805     61.6565
   529.7500      0.0000    280.5102     82.5837     60.9797
   530.0000      0.0000    280.5226     82.5831     61.4532
   530.2500      0.0000    280.5306     82.5772     63.5804
   530.5000      0.0000    280.5329     82.5637     66.9156
   530.7500      0.0000    280.5298     82.5500     69.7034
   531.0000      0.0000    280.5226     82.5486     70.0667
   531.2500      0.0000    280.5131     82.5642     67.8870
   531.5000      0.0000    280.5038     82.5902     65.2205
   531.7500      0.0000    280.4970     82.6160     64.6977
   532.0000      0.0000    280.4936     82.6325     67.6930
   532.2500      0.0000    280.4938     82.6329     73.7928
   532.5000      0.0000    280.4980     82.6149     81.1957
   532.7500      0.0000    280.5066     82.5854     87.3368
   533.0000      0.0000    280.5182     82.5615     90.0360
   533.2500      0.0000    280.5309     82.5597     89.1231
   533.5000      0.0000    280.5428     82.5836     86.7443
   533.7500      0.0000    280.5513     82.6239     85.2905
   534.0000      0.0000    280.5536     82.6693     85.0111
   534.2500      0.0000    280.5484     82.7133     84.0174
   534.5000      0.0000    280.5373     82.7506     80.3718
   534.7500      0.0000    280.5251     82.7739     74.0294
   535.0000      0.0000    280.5163     82.7752     67.1450
   535.2500      0.0000    280.5127     82.7504     62.6298
   535.5000      0.0000    280.5131     82.7042     62.0103
   535.7500      0.0000    280.5157     82.6499     64.4352
   536.0000      0.0000    280.5219     82.6036     67.8103
   536.2500      0.0000    280.5369     82.5622     70.8029
   536.5000      0.0000    280.5742     82.4566     73.5674
   536.7500      0.0000    280.6658     82.0913     76.6815
   537.0000      0.0000    280.8830     81.1361     79.9241
   537.2500      0.0000    281.3383     79.3152     82.3077
   537.5000      0.0000    282.1375     76.7656     82.9533
   537.7500      0.0000    283.2893     74.1288     81.7495
   538.0000      0.0000    284.6465     72.0551     79.3335
   538.2500      0.0000    285.9468     70.6599     76.4204
   538.5000      0.0000    286.9442     69.6652     73.0883
   538.7500      0.0000    287.5347     68.9164     69.2109
   539.0000      0.0000    287.7783     68.4798     65.9090
   539.2500      0.0000    287.8136     68.3741     65.7912
   539.5000      2.0000    287.7338     68.4933     70.7584
   539.7500      0.0000    287.4977     68.7553     79.6055
   540.0000      0.0000    286.8865     69.1747     88.3950
   540.2500      0.0000    285.5711     69.7984     93.3810
   540.5000      0.0000    283.4048     70.6412     93.4701
   540.7500      0.0000    280.8039     71.6923     90.1775
   541.0000      0.0000    278.6954     72.9948     86.0632
   541.2500      0.0000    277.8252     74.6891     83.4264
   541.5000      0.0000    278.1325     76.8284     83.5605
   541.7500      0.0000    278.9399     79.1169     86.3066
   542.0000      0.0000    279.6313     81.0188     90.3732
   542.2500      0.0000    280.0068     82.1945     94.4819
   542.5000      0.0000    280.1496     82.7103     98.2033
   542.7500      0.0000    280.1868     82.8429    101.7498
   543.0000      0.0000    280.1916     82.8270    105.4100
   543.2500      0.0000    280.1916     82.7809    109.2929
   543.5000      0.0000    280.1930     82.7472    113.2672
   543.7500      0.0000    280.1967     82.7333    117.0657
   544.0000      0.0000    280.2003     82.7370    120.6144
   544.2500      0.0000    280.2013     82.7545    123.8814
   544.5000      0.0000    280.1995     82.7772    126.0484
   544.7500      0.0000    280.1966     82.7909    125.5369
   545.0000      0.0000    280.1946     82.7858    121.6436
   545.2500      0.0000    280.1946     82.7661    115.6619
   545.5000      0.0000    280.1969     82.7448    109.7291
   545.7500      0.0000    280.2015     82.7276    105.1333
   546.0000      0.0000    280.2079     82.7085    102.3419
   546.2500      0.0000    280.2144     82.6805    101.8939
   546.5000      0.0000    280.2189     82.6487    104.1571
   546.7500      0.0000    280.2201     82.6258    108.4649
   547.0000      0.0000    280.2187     82.6180    113.3031
   547.2500      0.0000    280.2168     82.6199    117.2583
   547.5000      0.0000    280.2160     82.6227    119.4472
   547.7500      0.0000    280.2164     82.6259    119.4879
   548.0000      0.0000    280.2169     82.6400    117.6939
   548.2500      0.0000    280.2162     82.6766    115.1034
   548.5000      0.0000    280.2146     82.7326    112.8175
   548.7500      0.0000    280.2139     82.7848    111.1635
   549.0000      0.0000    280.2160     82.8029    109.6591
   549.2500      0.0000    280.2211     82.7751    107.9202
   549.5000      0.0000    280.2270     82.7200    106.3883
   549.7500      0.0000    280.2315     82.6738    105.8138
   550.0000      0.0000    280.2342     82.6668    106.2178
   550.2500      0.0000    280.2354     82.7071    106.7714
   550.5000      0.0000    280.2351     82.7771    106.6039
   550.7500      0.0000    280.2334     82.8428    105.4786
   551.0000      0.0000    280.2309     82.8751    103.6337
   551.2500      0.0000    280.2282     82.8702    101.1397
   551.5000      0.0000    280.2245     82.8477     97.8356
   551.7500      0.0000    280.2188     82.8282     94.1390
   552.0000      0.0000    280.2117     82.8165     91.4702
   552.2500      0.0000    280.2058     82.8066     91.3922
   552.5000      0.0000    280.2020     82.7966     94.3756
   552.7500      0.0000    280.1989     82.7927     99.3228
   553.0000      0.0000    280.1943     82.8009    103.8892
   553.2500      0.0000    280.1879     82.8184    105.2999
   553.5000      0.0000    280.1812     82.8358    101.6419
   553.7500      0.0000    280.1764     82.8461     93.2082
   554.0000      0.0000    280.1743     82.8490     82.7679
   554.2500      0.0000    280.1747     82.8491     74.0826
   554.5000      0.0000    280.1759     82.8492     69.6728
   554.7500      0.0000    280.1756     82.8489     69.6676
   555.0000      0.0000    280.1718     82.8468     72.4927
   555.2500      0.0000    280.1640     82.8395     76.2739
   555.5000      0.0000    280.1536     82.8187     79.6240
   555.7500      0.0000    280.1425     82.7766     81.9249
   556.0000      0.0000    280.1325     82.7181     83.5705
   556.2500      0.0000    280.1257     82.6648     85.7831
   556.5000      0.0000    280.1234     82.6362     89.4719
   556.7500      0.0000    280.1257     82.6295     93.8044
   557.0000      0.0000    280.1310     82.6210     96.1562
   557.2500      0.0000    280.1367     82.5930     94.1259
   557.5000      0.0000    280.1396     82.5507     87.9094
   557.7500      0.0000    280.1388     82.5129     80.4223
   558.0000      0.0000    280.1363     82.4924     74.9425
   558.2500      0.0000    280.1363     82.4877     72.8790
   558.5000      0.0000    280.1410     82.4906     73.5765
   558.7500      0.0000    280.1479     82.4959     75.5760
   559.0000      0.0000    280.1518     82.5044     77.9154
   559.2500      0.0000    280.1484     82.5185     80.4741
   559.5000      0.0000    280.1378     82.5383     83.2338
   559.7500      0.0000    280.1238     82.5602     85.4141
   560.0000      0.0000    280.1124     82.5758     85.7592
   560.2500      0.0000    280.1079     82.5738     83.9718
   560.5000      0.0000    280.1111     82.5469     81.5772
   560.7500      0.0000    280.1198     82.4947     80.9228
   561.0000      0.0000    280.1309     82.4206     83.1723
   561.2500      0.0000    280.1422     82.3345     87.3490
   561.5000      0.0000    280.1525     82.2578     91.3190
   561.7500      0.0000    280.1612     82.2182     93.5958
   562.0000      0.0000    280.1670     82.2332     94.3573
   562.2500      0.0000    280.1688     82.3009     95.1409
   562.5000      0.0000    280.1672     82.4031     97.6892
   562.7500      0.0000    280.1647     82.5132    102.7875
