~Version Information
VERS.                      2.0: CWLS Log ASCII Standard - VERSION 2.0
WRAP.                       NO: One line per depth step
~Well Information Block
STRT.FT                -8.5000: 
STOP.FT              1263.2500: 
STEP.FT                 0.2500: 
NULL.                -999.2500: 
COMP.          Pioneer Natural Resources: COMPANY
WELL.          Rockfish 11-30 Tr: WELL
FLD.           Purgatoire River: FIELD
LOC.           1063' FNL & 1068' FWL--: LOCATION
STAT.                       CO: State
CNTY.               Las Animas: COUNTY
CTRY. USA : country
SECT. 30 : Section
TOWN. 32S : Township
RANG. 65W : Range
SRVC.          Patterson Wireline: SERVICE COMPANY
DATE.          Tue Nov 22 16:08:49 2005: LOG DATE
API.           05 071 08585 00: UNIQUE WELL ID
~Curve Information Block
DEPT.FT            0 000 00 00: Depth
HVOLTA.V                      : Head Voltage Apparent
CCL.                          : Casing Collar Locator
TT3.usec                      : CBL 3' Travel Time
AMP3.mV                       : CBL 3' Amplitude
GR.GAPI                       : Gamma Ray
~Parameter Information Block
PPT.usec                0.0000: Predicted Pipe Time
~A  Depth      HVOLTA       CCL         TT3         AMP3         GR     
# ...
  1223.5000     96.2253      0.0000    627.6707     18.4504    143.7954
  1223.7500     96.2225      0.0000    628.6851     17.9884    143.1326
  1224.0000     96.2801      0.0000    625.8226     17.5883    141.2779
  1224.2500     96.2759      0.0000    625.2699     17.2493    137.3012
  1224.5000     96.3909      0.0000    625.7881     16.9560    130.8637
  1224.7500     96.2856      0.0000    629.2637     16.6905    122.4557
  1225.0000     96.2731      0.0000    642.1132     16.4555    112.8640
  1225.2500     96.2856      0.0000    666.0752     16.2748    102.8677
  1225.5000     96.1931      0.0000    693.9826     16.1632     93.3453
  1225.7500     96.2211      0.0000    716.5533     16.1031     85.0436
  1226.0000     96.3937      0.0000    729.9732     16.0577     78.1039
  1226.2500     96.2773      0.0000    736.0791     16.0097     72.2047
  1226.5000     96.2801      0.0000    738.3104     15.9811     67.2607
  1226.7500     96.3109      0.0000    739.0291     16.0121     63.7428
  1227.0000     96.1622      0.0000    739.2755     16.1194     62.2377
  1227.2500     96.3151      0.0000    739.3837     16.2742     62.6825
  1227.5000     96.1636      0.0000    739.4265     16.4209     64.0260
  1227.7500     96.3726      0.0000    739.4004     16.5177     64.8788
  1228.0000     96.2745      0.0000    739.3003     16.5631     64.6864
  1228.2500     96.3474      0.0000    739.1615     16.5855     64.0428
  1228.5000     96.1580      0.0000    739.0469     16.6121     63.6409
  1228.7500     96.4077      0.0000    739.0124     16.6511     63.3372
  1229.0000     96.2380      0.0000    739.0819     16.6987     62.7124
  1229.2500     96.4049      0.0000    739.2494     16.7486     62.2013
  1229.5000     96.1847      0.0000    739.5001     16.7922     62.9855
  1229.7500     96.3432      0.0000    739.8590     16.8207     65.6259
  1230.0000     96.1397      0.0000    740.4818     16.8340     69.1466
  1230.2500     96.2618      0.0000    741.7968     16.8447     71.7260
  1230.5000     96.2759      0.0000    744.5280     16.8678     72.2854
  1230.7500     96.3179      0.0000    749.2508     16.9094     71.3363
  1231.0000     96.3081      0.0000    755.4487     16.9635     70.4130
  1231.2500     96.3137      0.0000    761.0007     17.0155     70.8252
  1231.5000     96.1945      0.0000    763.0673     17.0450     72.8557
  1231.7500     96.2787      0.0000    759.8905     17.0327     75.9998
  1232.0000     96.1411      0.0000    751.4856     16.9793     79.9050
  1232.2500     96.3418      0.0000    738.7552     16.9196     84.9864
  1232.5000     96.1664      0.0000    723.2744     16.9137     91.8662
  1232.7500     96.0906      0.0000    708.7622     17.0159    100.3234
  1233.0000     96.0766      0.0000    700.5098     17.2475    109.3494
  1233.2500     96.2576      0.0000    700.0973     17.5912    118.3246
  1233.5000     96.2633      0.0000    700.3941     18.0041    127.5737
  1233.7500     96.3881      0.0000    687.8027     18.4385    137.5495
  1234.0000     96.2717      0.0000    651.4630     18.8606    147.8839
  1234.2500     96.4246      0.0000    593.0641     19.2477    157.2640
  1234.5000     96.2183      0.0000    530.2318     19.5675    163.9533
  1234.7500     96.3376      0.0000    488.8335     19.7749    166.7901
  1235.0000     96.2422      0.0000    487.3159     19.8364    166.2302
  1235.2500     96.1959      0.0000    524.0056     19.7573    164.1021
  1235.5000     96.3306      0.0000    577.7227     19.5803    161.7418
  1235.7500     96.2520      0.0000    622.4452     19.3640    158.5802
  1236.0000     96.2253      0.0000    644.8294     19.1562    153.2547
  1236.2500     96.1047      0.0000    650.0061     18.9784    145.8697
  1236.5000     96.3334      0.0000    652.4617     18.8298    138.2382
  1236.7500     96.2239      0.0000    662.8940     18.7056    132.0084
  1237.0000     96.2169      0.0000    682.1518     18.6091    127.4430
  1237.2500     96.2492      0.0000    704.0724     18.5463    123.9850
  1237.5000     96.3656      0.0000    722.1985     18.5169    121.1165
  1237.7500     96.2492      0.0000    734.2013     18.5147    118.2798
  1238.0000     96.2169      0.0000    741.0660     18.5297    114.5687
  1238.2500     96.2884      0.0000    743.3583     18.5450    109.2017
  1238.5000     96.2436      0.0000    738.6716     18.5423    102.3083
  1238.7500     96.2801      0.0000    722.0596     18.5197     94.9201
  1239.0000     96.2422      0.0000    689.1580     18.5017     88.2667
  1239.2500     96.3320      0.0000    640.8503     18.5210     83.2796
  1239.5000     96.2183      0.0000    586.7535     18.5863     80.5038
  1239.7500     96.2534      0.0000    543.4912     18.6717     79.9964
  1240.0000     96.2745      0.0000    526.8800     18.7400     81.3911
  1240.2500     96.2842      0.0000    542.5482     18.7719     84.3775
  1240.5000     96.2169      0.0000    581.2679     18.7690     88.9044
  1240.7500     96.3740      0.0000    623.4898     18.7365     94.5942
  1241.0000     96.2689      0.0000    652.5123     18.6708    100.4209
  1241.2500     96.2337      0.0000    666.8471     18.5635    105.6145
  1241.5000     96.3362      0.0000    678.6308     18.4126    110.5908
  1241.7500     96.4260      0.0000    698.5055     18.2297    116.0558
  1242.0000     96.2156      0.0000    724.7523     18.0345    121.1318
  1242.2500     96.2829      0.0000    748.2630     17.8433    123.3934
  1242.5000     96.1875      0.0000    763.2145     17.6657    121.4854
  1242.7500     96.2632      0.0000    769.7606     17.5147    117.2886
  1243.0000     96.1075      0.0000    769.9957     17.4166    114.6523
  1243.2500     96.3446      0.0000    765.2590     17.4000    115.8508
  1243.5000     96.2506      0.0000    756.0543     17.4728    119.8163
  1243.7500     96.2576      0.0000    741.0859     17.6083    123.8859
  1244.0000     96.3095      0.0000    715.8331     17.7549    126.5310
  1244.2500     96.2295      0.0000    675.7358     17.8689    128.0559
  1244.5000     96.2829      0.0000    624.7957     17.9499    129.3605
  1244.7500     96.3712      0.0000    580.1812     18.0520    130.7469
  1245.0000     96.1089      0.0000    561.8634     18.2517    131.8459
  1245.2500     96.3376      0.0000    573.8085     18.5922    132.1277
  1245.5000     96.2562      0.0000    597.6084     19.0499    131.0870
  1245.7500     96.1425      0.0000    606.5996     19.5527    128.1728
  1246.0000     96.2492      0.0000    584.7728     20.0308    123.1031
  1246.2500     96.2492      0.0000    533.8903     20.4550    116.4703
  1246.5000     96.2001      0.0000    468.8546     20.8354    109.8988
  1246.7500     96.2239      0.0000    408.2811     21.1939    105.4682
  1247.0000     96.1931      0.0000    364.8566     21.5405    104.6633
  1247.2500     96.2534      0.0000    340.6056     21.8736    107.4919
  1247.5000     96.0780      0.0000    329.9619     22.2003    112.6258
  1247.7500     96.3151      0.0000    326.1366     22.5482    118.5101
  1248.0000     96.2225      0.0000    324.8165     22.9452    123.9486
  1248.2500     96.3362      0.0000    324.2213     23.3830    127.4776
  1248.5000     96.2128      0.0000    323.8660     23.8048    126.8311
  1248.7500     96.3979      0.0000    323.6756     24.1424    119.5968
  1249.0000     96.1510      0.0000    323.6005     24.3705    104.4068
  1249.2500     96.3151      0.0000    323.5836     24.5242     82.0354
  1249.5000     96.2394      0.0000    323.5700     24.6653     56.1771
  1249.7500     96.4021      0.0000    323.5338     24.8311     32.4981
  1250.0000     96.2352      0.0000    323.4810     25.0089     15.4793
  1250.2500     96.3404      0.0000    323.4301     25.1548      5.9585
  1250.5000     96.2647      0.0000    323.3904     25.2336      1.8299
  1250.7500     96.3165      0.0000    323.3608     25.2400      0.4438
  1251.0000     96.1903      0.0000    323.3461     25.1795      0.0841
  1251.2500     96.3348      0.0000    323.3701     25.0395      0.0120
