~Version Information
VERS.                      2.0: CWLS Log ASCII Standard - VERSION 2.0
WRAP.                       NO: One line per depth step
~Well Information Block
STRT.FT               325.0000: 
STOP.FT              1013.5000: 
STEP.FT                 0.1000: 
NULL.                -999.2500: 
COMP.          Pioneer Natural Resources: COMPANY
WELL.                Doc 34-30: WELL
FLD.           Purgatoire River: FIELD
LOC.           454' FSL & 1386' FEL: LOCATION
CNTY.               Las Animas: COUNTY
SRVC.                Patterson: SERVICE COMPANY
DATE.          Thu Feb 16 07:19:58 2006: LOG DATE
UWI.           05 071 08694 00: UNIQUE WELL ID
STAT.                 Colorado: STATE
~Curve Information Block
DEPT.FT            0 000 00 00: Depth
DCAL.in                       : CDL Caliper
RHOB.g/cc                     : CDL Bulk Density
RHOC.g/cc                     : CDL Density Correction
DPOR.pu                       : CDL Density Porosity
GR.GAPI                       : Gamma Ray
NPOR.pu                       : Neutron Porosity
~Parameter Information Block
~A  Depth       DCAL        RHOB        RHOC        DPOR         GR         NPOR    
# ...
   459.4000      7.9805      2.5840      0.0175      4.0014     88.5759     22.9630
   459.5000      7.9820      2.5737      0.0484      4.6255     84.8173     23.0447
   459.6000      7.9820      2.5575      0.0361      5.6058     86.3801     23.2741
   459.7000      7.9820      2.5379      0.0356      6.7966     91.7459     23.4231
   459.8000      7.9848      2.5270      0.0073      7.4571     98.9884     23.2354
   459.9000      7.9848      2.5271      0.0283      7.4477    109.2866     23.1925
   460.0000      7.9883      2.5237      0.0088      7.6536    120.1631     23.5347
   460.1000      7.9883      2.5157      0.0135      8.1407    126.9570     23.6400
   460.2000      7.9883      2.5167      0.0582      8.0775    132.2785     23.5658
   460.3000      7.9935      2.5265      0.0885      7.4865    138.6333     24.0577
   460.4000      7.9935      2.5379      0.0792      6.7932    142.8633     25.0270
   460.5000      7.9997      2.5555      0.0534      5.7292    145.5582     25.8103
   460.6000      7.9997      2.5767      0.1771      4.4425    148.7138     25.9670
   460.7000      7.9997      2.5855      0.1226      3.9102    150.8399     25.5230
   460.8000      8.0057      2.5818      0.0841      4.1338    152.8009     24.8705
   460.9000      8.0057      2.5786      0.0579      4.3260    156.7715     24.5797
   461.0000      8.0111      2.5790      0.1049      4.3035    160.7354     25.1018
   461.1000      8.0111      2.5702      0.1026      4.8362    160.1620     26.1137
   461.2000      8.0111      2.5431      0.0747      6.4817    157.2778     26.8706
   461.3000      8.0163      2.5128      0.0301      8.3178    156.9283     27.3891
   461.4000      8.0163      2.5030      0.0361      8.9067    157.0884     28.1878
   461.5000      8.0189      2.5123      0.0467      8.3445    155.8723     29.0820
   461.6000      8.0189      2.5217      0.0076      7.7775    156.2547     29.3772
   461.7000      8.0189      2.5243      0.0371      7.6174    158.5629     29.0904
   461.8000      8.0186      2.5276     -0.0093      7.4173    160.2659     28.8459
   461.9000      8.0186      2.5348      0.0362      6.9813    159.6837     28.9134
   462.0000      8.0178      2.5396      0.0562      6.6903    153.7269     29.0745
   462.1000      8.0178      2.5428      0.0725      6.4941    144.4141     29.1256
   462.2000      8.0178      2.5473      0.0652      6.2244    137.7307     28.9742
   462.3000      8.0170      2.5472      0.0843      6.2306    132.9741     28.5277
   462.4000      8.0170      2.5397      0.0617      6.6819    128.0620     28.1177
   462.5000      8.0156      2.5296      0.0574      7.2984    126.0326     28.2629
   462.6000      8.0156      2.5251      0.0212      7.5692    127.3852     28.6920
   462.7000      8.0156      2.5343      0.0310      7.0102    130.6469     28.6011
   462.8000      8.0133      2.5494      0.0362      6.0991    136.7556     28.0624
   462.9000      8.0133      2.5551      0.0608      5.7526    143.7753     27.6913
   463.0000      8.0104      2.5462      0.0676      6.2899    148.1665     27.5012
   463.1000      8.0104      2.5252      0.0680      7.5651    153.3003     27.1891
   463.2000      8.0104      2.5038      0.0456      8.8604    161.9470     26.5548
   463.3000      8.0099      2.4990      0.0295      9.1514    166.7603     25.7929
   463.4000      8.0099      2.5124      0.0394      8.3387    163.7340     25.4770
   463.5000      8.0157      2.5271      0.0796      7.4475    159.7015     25.9551
   463.6000      8.0157      2.5330      0.0374      7.0908    158.0697     26.8701
   463.7000      8.0157      2.5371      0.0542      6.8446    155.5393     27.6969
   463.8000      8.0259      2.5448      0.0463      6.3730    156.5183     28.2370
   463.9000      8.0259      2.5563      0.0342      5.6781    166.3736     28.6650
   464.0000      8.0322      2.5651      0.0795      5.1441    177.6019     28.9373
   464.1000      8.0322      2.5557      0.0586      5.7169    179.5991     28.8055
   464.2000      8.0322      2.5258     -0.0016      7.5261    175.3873     28.4798
   464.3000      8.0333      2.4948      0.0024      9.4089    173.0140     28.1699
   464.4000      8.0333      2.4792      0.0043     10.3534    169.3051     27.8741
   464.5000      8.0321      2.4764      0.0170     10.5184    160.9495     27.8262
   464.6000      8.0321      2.4783      0.0507     10.4080    155.6635     28.0818
   464.7000      8.0321      2.4873     -0.0072      9.8618    156.5819     28.1178
   464.8000      8.0298      2.5037      0.0256      8.8637    155.7120     27.4377
   464.9000      8.0298      2.5161      0.0265      8.1174    153.4470     26.2672
   465.0000      8.0276      2.5204      0.0573      7.8541    157.5380     25.6469
   465.1000      8.0276      2.5196      0.0742      7.9040    166.8033     26.1826
   465.2000      8.0276      2.5107      0.0921      8.4405    170.7315     27.3797
   465.3000      8.0256      2.4961      0.0598      9.3282    165.4123     28.4824
   465.4000      8.0256      2.4855      0.0790      9.9724    156.2026     28.9593
   465.5000      8.0234      2.4890      0.0191      9.7568    149.7482     28.7796
   465.6000      8.0234      2.5215      0.0625      7.7852    150.0598     28.5271
   465.7000      8.0234      2.5853      0.1120      3.9227    155.3695     28.5147
   465.8000      8.0223      2.6556      0.1770     -0.3421    158.2086     28.5271
   465.9000      8.0223      2.7029      0.1826     -3.2033    151.4681     28.4952
   466.0000      8.0192      2.7185      0.2032     -4.1528    136.8431     28.3793
   466.1000      8.0192      2.7178      0.1375     -4.1117    122.8872     28.0491
   466.2000      8.0192      2.7178      0.1565     -4.1098    115.2298     27.6442
   466.3000      8.0124      2.7190      0.1334     -4.1788    112.6989     27.3378
   466.4000      8.0124      2.7144      0.0885     -3.9010    114.0827     26.7221
   466.5000      8.0066      2.6968      0.0619     -2.8358    119.1896     25.4924
   466.6000      8.0066      2.6620      0.0282     -0.7258    123.5057     24.1958
   466.7000      8.0066      2.6134      0.0094      2.2159    121.4222     23.2171
   466.8000      8.0067      2.5634     -0.0382      5.2508    115.0819     22.6654
   466.9000      8.0067      2.5285     -0.0247      7.3654    112.5010     22.9275
   467.0000      8.0150      2.5146     -0.0506      8.2049    115.9847     23.9164
   467.1000      8.0150      2.5156     -0.0601      8.1447    119.7039     24.9567
   467.2000      8.0150      2.5233     -0.0129      7.6814    122.6183     25.5635
   467.3000      8.0264      2.5287     -0.0143      7.3493    130.2771     25.7589
   467.4000      8.0264      2.5197      0.0602      7.8944    140.1442     25.6837
   467.5000      8.0324      2.4934      0.0319      9.4917    144.4647     25.3763
   467.6000      8.0324      2.4679      0.0344     11.0353    145.3675     25.2222
   467.7000      8.0324      2.4591      0.0456     11.5722    148.6345     25.5065
   467.8000      8.0389      2.4618      0.0609     11.4088    153.7330     25.8100
   467.9000      8.0389      2.4675      0.0610     11.0597    158.8959     25.9328
   468.0000      8.0469      2.4769      0.0333     10.4883    163.5165     26.0840
   468.1000      8.0469      2.4862      0.0809      9.9271    165.0093     25.9437
   468.2000      8.0469      2.4881      0.0606      9.8130    162.7299     25.6778
   468.3000      8.0516      2.4898      0.0476      9.7080    161.7341     26.1305
   468.4000      8.0516      2.4968      0.0630      9.2866    165.7290     26.8172
   468.5000      8.0522      2.5021      0.0687      8.9661    171.7461     26.8862
   468.6000      8.0522      2.4994      0.0459      9.1290    172.9124     26.7839
   468.7000      8.0522      2.4868      0.0281      9.8912    167.4048     26.9286
   468.8000      8.0523      2.4631      0.0294     11.3270    160.6993     26.9977
   468.9000      8.0523      2.4348      0.0107     13.0452    156.3075     26.5720
