~Version Information
 VERS.                                  2.0 : CWLS LAS VERSION
 WRAP.                                   NO : WRAPING MODE
 SWARE .                 MController 2.5.0N : SOFTWARE VERSION
~Well Information
 WELL.                         John K 12-28 : WELL
 COMP.       Pioneer Natural Resources, USA : COMPANY
 FLD.                       Purgatory River : FIELD
 LOC.               SW/NW Sec 28 T32S R 65W : LOCATION
 DATE.                              4/07/06 : DATE(S) LOGGED
 SRVC.       Blanco Geological Services LLC : SERVICE COMPANY
 STAT.                             Colorado : STATE
 CNTY.                           Las Animas : COUNTY
 CTRY.                                  USA : COUNTRY
 API.                       05-071-08723-00 : API NUMBER
 STRT.FT                             321.00 : START DEPTH
 STOP.FT                            1440.00 : STOP DEPTH
 STEP.FT                               1.00 : DEPTH INCREMENT
 NULL.                                -9999 : NULL VALUE
~Curve information
 DEPTH.FT                                   :
 ROP.MIN/FT                                 :
 GAS.UNITS                                  :
~ASCII Log data
       321.0     -9999.00         12.7 
       322.0         0.13         12.5 
       323.0         0.17         12.6 
       324.0         0.17         12.5 
       325.0         0.13         12.6 
       326.0         0.13         12.9 
       327.0         0.17         12.6 
       328.0         0.13         13.4 
       329.0         0.13         12.6 
       330.0         0.17         12.8 
       331.0         0.13         12.7 
       332.0         0.13         12.8 
       333.0         0.17         12.6 
       334.0         0.13         12.8 
       335.0         0.13         12.9 
       336.0         0.13         12.8 
       337.0         0.17         12.9 
       338.0         0.13         12.7 
       339.0         0.15         12.7 
       340.0         0.17         12.7 
       341.0         0.13         13.0 
       342.0         0.17         12.7 
       343.0         0.17         12.7 
       344.0         0.17         12.8 
       345.0         0.13         12.8 
       346.0         0.17         12.7 
       347.0         0.17         12.5 
       348.0         0.17         12.8 
       349.0         0.17         12.6 
       350.0         0.17          6.4 
       351.0         0.17          4.4 
       352.0         2.68          2.2 
       353.0         0.13          1.9 
       354.0         0.13          1.9 
       355.0         0.17          2.1 
       356.0         0.17          1.9 
       357.0         0.13          2.0 
       358.0         0.18          2.1 
       359.0         0.17          2.0 
       360.0         0.17          1.9 
       361.0         0.13          1.8 
       362.0         0.17          2.0 
       363.0         0.17          1.7 
       364.0         0.17          1.9 
       365.0         0.17          1.8 
       366.0         0.17          1.6 
       367.0         0.20          2.0 
       368.0         0.17          1.7 
       369.0         0.17          1.6 
       370.0         0.17          1.7 
       371.0         0.17          1.8 
       372.0         0.20          2.1 
       373.0         0.17          1.7 
       374.0         0.17          2.1 
       375.0         0.18          1.8 
       376.0         0.17          1.7 
       377.0         0.20          1.7 
       378.0         0.17          1.5 
       379.0         0.17          1.9 
       380.0         0.20          2.0 
       381.0         0.17          1.7 
       382.0         2.58          2.2 
       383.0         0.17          1.6 
       384.0         0.17          2.0 
       385.0         0.17          1.8 
       386.0         0.20          1.9 
       387.0         0.20          2.0 
       388.0         0.20          1.6 
       389.0         0.20          1.6 
       390.0         0.20          2.1 
       391.0         0.20          1.8 
       392.0         0.23          1.7 
       393.0         0.20          1.8 
       394.0         0.23          1.9 
       395.0         0.20          1.9 
       396.0         0.20          1.7 
       397.0         0.25          1.9 
       398.0         0.20          1.5 
       399.0         0.20          1.6 
       400.0         0.23          1.4 
       401.0         0.20          1.6 
       402.0         0.20          1.4 
       403.0         0.23          1.7 
       404.0         0.20          1.6 
       405.0         0.23          1.8 
       406.0         0.20          1.6 
       407.0         0.23          1.4 
       408.0         0.23          1.6 
       409.0         0.20          1.4 
       410.0         0.23          1.6 
       411.0         0.23          1.4 
       412.0         3.53          1.9 
       413.0         0.47          1.3 
       414.0         0.37          1.5 
       415.0         0.30          1.3 
       416.0         0.30          1.2 
       417.0         0.27          1.3 
       418.0         0.27          1.2 
       419.0         0.30          1.3 
       420.0         0.30          1.2 
       421.0         0.40          1.5 
       422.0         0.48          1.2 
       423.0         0.47          1.0 
       424.0         0.30          1.5 
       425.0         0.23          1.3 
       426.0         0.27          1.6 
       427.0         0.23          1.3 
       428.0         0.27          1.1 
       429.0         0.23          1.2 
       430.0         0.27          1.2 
       431.0         0.27         62.9 
       432.0         0.27        167.7 
       433.0         0.27        168.6 
       434.0         0.38        119.7 
       435.0         0.30         37.0 
       436.0         0.30         17.4 
       437.0         0.33          7.4 
       438.0         0.30          3.4 
       439.0         0.27          2.0 
       440.0         0.30          1.5 
       441.0         0.30          1.1 
       442.0         2.58          1.1 
       443.0         0.17          0.7 
       444.0         0.17          0.8 
       445.0         0.17          0.6 
       446.0         0.20          0.4 
       447.0         0.37          0.6 
       448.0         0.30          0.9 
       449.0         0.27          3.4 
       450.0         0.28          2.7 
       451.0         0.30          2.7 
       452.0         0.30          3.5 
       453.0         0.20          3.4 
       454.0         0.20          3.5 
       455.0         0.20          3.5 
       456.0         0.23          3.6 
       457.0         0.23          3.8 
       458.0         0.20          4.3 
       459.0         0.23          4.2 
       460.0         0.23          4.9 
       461.0         0.27          4.8 
       462.0         0.23          4.4 
       463.0         0.27          4.3 
       464.0         0.35          3.4 
       465.0         0.23          3.4 
       466.0         0.23          3.0 
       467.0         0.27          3.2 
       468.0         0.27          3.0 
       469.0         0.23          2.9 
       470.0         0.23          2.9 
       471.0         0.27          3.3 
       472.0         4.35          3.3 
       473.0         0.38          2.7 
       474.0         0.30          2.6 
       475.0         0.27          2.6 
       476.0         0.27          2.8 
       477.0         0.30          2.4 
       478.0         0.33          2.5 
       479.0         0.33          2.4 
       480.0         0.33          2.7 
       481.0         0.27          2.3 
       482.0         0.33          2.5 
       483.0         0.23          2.3 
       484.0         0.23          2.4 
       485.0         0.25          2.3 
       486.0         0.40          2.5 
       487.0         0.37          2.6 
       488.0         0.33          2.8 
       489.0         0.37          2.7 
       490.0         0.33          2.6 
       491.0         0.27          2.3 
       492.0         0.27          2.7 
       493.0         0.27          2.4 
       494.0         0.33          2.5 
       495.0         0.35          2.2 
       496.0         0.37          2.4 
       497.0         0.30          2.5 
       498.0         0.33          2.4 
       499.0         0.33          2.4 
       500.0         0.37          2.3 
       501.0         0.33          2.2 
       502.0         3.52          2.5 
       503.0         0.47          2.9 
       504.0         0.40          3.2 
       505.0         0.28          2.8 
       506.0         0.27          2.5 
       507.0         0.23          2.9 
       508.0         0.27          2.4 
       509.0         0.27          2.4 
       510.0         0.23          2.3 
       511.0         0.23          1.9 
       512.0         0.20          1.6 
       513.0         0.23          2.0 
       514.0         0.23          1.5 
       515.0         0.23          1.5 
       516.0         0.27          1.5 
       517.0         0.27          1.9 
       518.0         0.27          2.0 
       519.0         0.25          2.5 
       520.0         0.30          2.7 
