~Version Information
VERS.                      2.0: CWLS Log ASCII Standard - VERSION 2.0
WRAP.                       NO: One line per depth step
~Well Information Block
STRT.FT                -7.0000: 
STOP.FT              2517.5000: 
STEP.FT                 0.2500: 
NULL.                -999.2500: 
COMP.          Pioneer Natural Resources: COMPANY
WELL.          Horsefeathers 24-34: WELL
FLD.           Purgatoire River: FIELD
LOC.           183' FSL & 1570' FWL: LOCATION
CNTY.               Las Animas: COUNTY
SRVC.                         : SERVICE COMPANY
DATE.          Fri Mar 17 10:06:37 2006: LOG DATE
UWI.           05 071 08675 00: UNIQUE WELL ID
STAT.                       CO: STATE
~Curve Information Block
DEPT.FT            0 000 00 00: Depth
GR.GAPI                       : Gamma Ray
CCL.                          : Casing Collar Locator
TT3.usec                      : CBL 3' Travel Time
AMP3.mV                       : CBL 3' Amplitude
~Parameter Information Block
~A  Depth        GR         CCL         TT3         AMP3    
# ...
  1969.5000     95.5777      0.0000    556.3290      5.3872
  1969.7500    101.4651      0.0000    572.5623      5.5548
  1970.0000    109.8762      0.0000    573.7415      5.7363
  1970.2500    119.4447      0.0000    557.6688      5.9139
  1970.5000    128.4532      0.0000    536.9078      6.0718
  1970.7500    135.4592      0.0000    529.9991      6.2026
  1971.0000    139.7257      0.0000    546.2861      6.3066
  1971.2500    141.1342      0.0000    578.9994      6.3804
  1971.5000    140.0511      0.0000    612.5170      6.4114
  1971.7500    137.5844      0.0000    635.2510      6.3860
  1972.0000    135.7478      0.0000    645.9955      6.3014
  1972.2500    136.6749      0.0000    650.5093      6.1694
  1972.5000    141.1394      0.0000    654.3427      6.0101
  1972.7500    147.8191      0.0000    659.1311      5.8459
  1973.0000    154.2034      0.0000    663.8602      5.6992
  1973.2500    158.2715      0.0000    667.6997      5.5925
  1973.5000    159.4926      0.0000    671.1088      5.5424
  1973.7500    158.6359      0.0000    675.0048      5.5538
  1974.0000    156.8081      0.0000    679.4916      5.6159
  1974.2500    154.5663      0.0000    683.4871      5.7037
  1974.5000    151.8923      0.0000    685.5409      5.7833
  1974.7500    148.8569      0.0000    684.9708      5.8210
  1975.0000    145.9279      0.0000    682.2501      5.7956
  1975.2500    143.6189      0.0000    678.6101      5.7045
  1975.5000    142.2617      0.0000    675.4714      5.5604
  1975.7500    142.0109      0.0000    673.8625      5.3856
  1976.0000    142.4355      0.0000    673.8537      5.2107
  1976.2500    142.2702      0.0000    674.3279      5.0711
  1976.5000    140.4041      0.0000    673.4708      4.9995
  1976.7500    137.1682      0.0000    669.9457      5.0147
  1977.0000    134.1617      0.0000    664.1462      5.1098
  1977.2500    132.8577      0.0000    658.6549      5.2465
  1977.5000    133.5292      0.0000    657.1618      5.3663
  1977.7500    135.2162      0.0000    661.8347      5.4200
  1978.0000    136.5426      0.0000    670.8701      5.3928
  1978.2500    136.7464      0.0000    678.6506      5.3058
  1978.5000    135.9333      0.0000    678.4978      5.1945
  1978.7500    134.2699      0.0000    665.9712      5.0856
  1979.0000    131.3247      0.0000    641.6539      4.9856
  1979.2500    126.5749      0.0000    612.1367      4.8910
  1979.5000    120.4740      0.0000    586.9940      4.8084
  1979.7500    114.7413      0.0000    573.3376      4.7600
  1980.0000    111.4034      0.0000    573.6814      4.7624
  1980.2500    111.3116      0.0000    587.6112      4.8079
  1980.5000    113.4972      0.0000    611.7566      4.8789
  1980.7500    116.1095      0.0000    638.1625      4.9677
  1981.0000    118.0776      0.0000    656.9596      5.0709
  1981.2500    119.8416     -1.1197    663.1194      5.1839
  1981.5000    122.6770     -2.0000    659.9361      5.3132
  1981.7500    127.5359      0.0000    655.1355      5.4746
  1982.0000    134.1751      0.0000    653.6249      5.6777
  1982.2500    140.8557      0.0000    654.2857      5.9264
  1982.5000    145.1472      0.0000    653.3236      6.2155
  1982.7500    145.8241      0.0000    649.2779      6.4943
  1983.0000    144.0419      0.0000    643.9522      6.6595
  1983.2500    141.9475      0.0000    639.7538      6.6374
  1983.5000    140.2863      0.0000    637.6860      6.4707
  1983.7500    138.3404      0.0000    637.3623      6.2835
  1984.0000    136.1547      0.0000    637.5865      6.1722
  1984.2500    135.4781      0.0000    636.7884      6.1582
  1984.5000    137.6956      0.0000    633.9984      6.2179
  1984.7500    141.3334      0.0000    629.9714      6.3223
  1985.0000    142.7811      0.0000    626.7908      6.4465
  1985.2500    139.9678      0.0000    626.0820      6.5662
  1985.5000    134.4629      0.0000    628.1528      6.6559
  1985.7500    129.2876      0.0000    632.7916      6.6898
  1986.0000    125.6265      0.0000    639.5250      6.6488
  1986.2500    122.5481      0.0000    646.6154      6.5347
  1986.5000    118.9409      0.0000    651.2707      6.3848
  1986.7500    114.5879      0.0000    651.9687      6.2692
  1987.0000    109.9720      0.0000    649.8591      6.2559
  1987.2500    106.0450      0.0000    647.3658      6.3669
  1987.5000    103.8572      0.0000    646.2457      6.5658
  1987.7500    103.7537      0.0000    647.1895      6.7917
  1988.0000    105.1423      0.0000    650.1077      7.0011
  1988.2500    107.2484      0.0000    654.2495      7.1777
  1988.5000    109.6299      0.0000    658.7728      7.3097
  1988.7500    112.0005      0.0000    663.5830      7.3712
  1989.0000    114.2535      0.0000    669.2585      7.3318
  1989.2500    116.5994      0.0000    675.9333      7.1856
  1989.5000    119.1614      0.0000    682.3729      6.9666
  1989.7500    121.6112      0.0000    686.3441      6.7308
  1990.0000    123.5911      0.0000    685.8980      6.5213
  1990.2500    125.1738      0.0000    680.1558      6.3497
  1990.5000    126.6740      0.0000    668.7639      6.2113
  1990.7500    128.2673      0.0000    651.0767      6.1121
  1991.0000    129.9004      0.0000    627.5904      6.0737
  1991.2500    131.4430      0.0000    603.6363      6.1105
  1991.5000    132.9513      0.0000    589.9493      6.2081
  1991.7500    134.7558      0.0000    595.5481      6.3284
  1992.0000    137.1495      0.0000    618.8825      6.4329
  1992.2500    140.1118      0.0000    648.1150      6.4963
  1992.5000    143.3946      0.0000    670.2535      6.5086
  1992.7500    146.5540      0.0000    677.8403      6.4732
  1993.0000    148.8862      0.0000    667.9053      6.4027
  1993.2500    149.8670      0.0000    639.4531      6.3152
  1993.5000    149.7097      0.0000    595.2391      6.2303
  1993.7500    148.9886      0.0000    544.2977      6.1645
  1994.0000    147.7900      0.0000    498.8524      6.1271
  1994.2500    145.7023      0.0000    467.3486      6.1157
  1994.5000    142.5464      0.0000    451.2454      6.1156
  1994.7500    138.7892      0.0000    448.2853      6.1044
  1995.0000    135.4164      0.0000    456.9453      6.0651
  1995.2500    133.6375      0.0000    476.8504      5.9976
  1995.5000    134.4080      0.0000    506.2195      5.9159
  1995.7500    137.7846      0.0000    540.9382      5.8320
  1996.0000    142.6983      0.0000    576.3798      5.7486
  1996.2500    147.4869      0.0000    608.6278      5.6716
  1996.5000    150.7085      0.0000    634.2578      5.6242
  1996.7500    151.5858      0.0000    651.2600      5.6367
  1997.0000    150.0143      0.0000    660.5176      5.7177
  1997.2500    146.4674      0.0000    664.7880      5.8376
  1997.5000    141.9735      0.0000    666.2359      5.9463
  1997.7500    137.9453      0.0000    665.8123      6.0102
  1998.0000    135.6202      0.0000    664.3132      6.0326
  1998.2500    135.2586      0.0000    662.7739      6.0372
  1998.5000    135.6905      0.0000    661.8141      6.0316
  1998.7500    134.9045      0.0000    661.3576      5.9934
  1999.0000    131.6064      0.0000    661.0568      5.8953
  1999.2500    126.4924      0.0000    660.7702      5.7434
  1999.5000    121.9047      0.0000    660.5947      5.5898
  1999.7500    119.9976      0.0000    660.6486      5.5041
  2000.0000    120.8846      0.0000    660.9298      5.5239
  2000.2500    122.2658      0.0000    661.3129      5.6265
  2000.5000    121.0567      0.0000    661.6265      5.7501
  2000.7500    115.9171      0.0000    661.7443      5.8455
  2001.0000    108.5390      0.0000    661.6436      5.9067
  2001.2500    102.5348      0.0000    661.3895      5.9531
  2001.5000    101.1046      0.0000    661.0699      5.9915
  2001.7500    105.4369      0.0000    660.7195      6.0023
  2002.0000    114.4114      0.0000    660.2027      5.9574
  2002.2500    125.1570      0.0000    659.0053      5.8493
  2002.5000    134.3731      0.0000    656.1336      5.7095
  2002.7500    140.1394      0.0000    650.5863      5.5973
