~Version Information
VERS.                      2.0: CWLS Log ASCII Standard - VERSION 2.0
WRAP.                       NO: One line per depth step
~Well Information Block
STRT.FT               345.0000: 
STOP.FT              2167.7000: 
STEP.FT                 0.1000: 
NULL.                -999.2500: 
COMP.          Pioneer Natural Resources: COMPANY
WELL.          Hemisphere 32-24: WELL
FLD.           Purgatoire River: FIELD
LOC.           1850' FNL & 2284' FEL--: LOCATION
PROV.                 Colorado: PROVINCE
CNTY.               Las Animas: COUNTRY
SRVC.                Patterson: SERVICE COMPANY
DATE.          Mon Aug 15 07:19:13 2005: LOG DATE
UWI.           05 071 08440 00: UNIQUE WELL ID
~Curve Information Block
DEPT.FT            0 000 00 00: Depth
DCAL.in                       : CDL Caliper
RHOB.g/cc                     : CDL Bulk Density
RHOC.g/cc                     : CDL Density Correction
DPOR.pu                       : CDL Density Porosity
NPOR.pu                       : Neutron Porosity
GR.GAPI                       : Gamma Ray
~Parameter Information Block
~A  Depth       DCAL        RHOB        RHOC        DPOR        NPOR         GR     
# ...
  2140.2000      7.7552      2.4802      0.0137     10.2892     18.6205   -999.2500
  2140.3000      7.7585      2.4601      0.0451     11.5114     18.5591   -999.2500
  2140.4000      7.7585      2.4346     -0.0328     13.0567     18.1220   -999.2500
  2140.5000      7.7616      2.4224     -0.0081     13.7910     17.3856   -999.2500
  2140.6000      7.7616      2.4362      0.0149     12.9592     16.6006   -999.2500
  2140.7000      7.7616      2.4597      0.0323     11.5309     15.7776   -999.2500
  2140.8000      7.7657      2.4711      0.0787     10.8427     15.0089   -999.2500
  2140.9000      7.7657      2.4665      0.0328     11.1211     16.4077   -999.2500
  2141.0000      7.7691      2.4584      0.0343     11.6120     23.9728   -999.2500
  2141.1000      7.7691      2.4579      0.0553     11.6418     36.9187   -999.2500
  2141.2000      7.7691      2.4642      0.0508     11.2587     46.4027   -999.2500
  2141.3000      7.7690      2.4707      0.0541     10.8691     49.7936   -999.2500
  2141.4000      7.7690      2.4723      0.0677     10.7692     50.4518   -999.2500
  2141.5000      7.7659      2.4692      0.0607     10.9570     50.5212   -999.2500
  2141.6000      7.7659      2.4628      0.0642     11.3455     50.5250   -999.2500
  2141.7000      7.7659      2.4504      0.0476     12.0950   -999.2500   -999.2500
  2141.8000      7.7634      2.4347      0.0158     13.0461   -999.2500   -999.2500
  2141.9000      7.7634      2.4239      0.0513     13.7060   -999.2500   -999.2500
  2142.0000      7.7634      2.4253      0.0032     13.6210   -999.2500   -999.2500
  2142.1000      7.7634      2.4485      0.0025     12.2129   -999.2500   -999.2500
  2142.2000      7.7634      2.4884      0.0725      9.7941   -999.2500   -999.2500
  2142.3000      7.7627      2.5148      0.1017      8.1917   -999.2500   -999.2500
  2142.4000      7.7627      2.5116      0.0637      8.3892   -999.2500   -999.2500
  2142.5000      7.7626      2.4998      0.0223      9.1039   -999.2500   -999.2500
  2142.6000      7.7626      2.4969      0.0728      9.2762   -999.2500   -999.2500
  2142.7000      7.7626      2.4952      0.0598      9.3814   -999.2500   -999.2500
  2142.8000      7.7645      2.4907      0.0543      9.6538   -999.2500   -999.2500
  2142.9000      7.7645      2.4886      0.0429      9.7807   -999.2500   -999.2500
  2143.0000      7.7650      2.4868      0.0457      9.8892   -999.2500   -999.2500
  2143.1000      7.7650      2.4799      0.0413     10.3069   -999.2500   -999.2500
  2143.2000      7.7650      2.4699      0.0142     10.9166   -999.2500   -999.2500
  2143.3000      7.7628      2.4593      0.0599     11.5550   -999.2500   -999.2500
  2143.4000      7.7628      2.4486     -0.0067     12.2081   -999.2500   -999.2500
  2143.5000      7.7615      2.4448      0.0239     12.4340   -999.2500   -999.2500
  2143.6000      7.7615      2.4496      0.0458     12.1431   -999.2500   -999.2500
  2143.7000      7.7615      2.4587      0.0269     11.5946   -999.2500   -999.2500
  2143.8000      7.7634      2.4750      0.0505     10.6051   -999.2500   -999.2500
  2143.9000      7.7634      2.4960      0.0747      9.3328   -999.2500   -999.2500
  2144.0000      7.7673      2.5098      0.0682      8.4946   -999.2500   -999.2500
  2144.1000      7.7673      2.5100      0.0583      8.4867   -999.2500   -999.2500
  2144.2000      7.7673      2.5013      0.0387      9.0122   -999.2500   -999.2500
  2144.3000      7.7700      2.4939      0.0677      9.4589   -999.2500   -999.2500
  2144.4000      7.7700      2.4938      0.0350      9.4653   -999.2500   -999.2500
  2144.5000      7.7708      2.4982      0.0897      9.2025   -999.2500   -999.2500
  2144.6000      7.7708      2.4922      0.0686      9.5616   -999.2500   -999.2500
  2144.7000      7.7708      2.4734      0.0310     10.7055   -999.2500   -999.2500
  2144.8000      7.7696      2.4625      0.0288     11.3620   -999.2500   -999.2500
  2144.9000      7.7696      2.4686      0.0279     10.9931   -999.2500   -999.2500
  2145.0000      7.7670      2.4736      0.0672     10.6884   -999.2500   -999.2500
  2145.1000      7.7670      2.4624      0.0312     11.3715   -999.2500   -999.2500
  2145.2000      7.7670      2.4466      0.0040     12.3284   -999.2500   -999.2500
  2145.3000      7.7646      2.4450      0.0329     12.4262   -999.2500   -999.2500
  2145.4000      7.7646      2.4572      0.0431     11.6853   -999.2500   -999.2500
  2145.5000      7.7647      2.4738      0.0325     10.6783   -999.2500   -999.2500
  2145.6000      7.7647      2.4886      0.0389      9.7789   -999.2500   -999.2500
  2145.7000      7.7647      2.5013      0.0376      9.0151   -999.2500   -999.2500
  2145.8000      7.7659      2.5174      0.0525      8.0369   -999.2500   -999.2500
  2145.9000      7.7659      2.5420      0.0692      6.5439   -999.2500   -999.2500
  2146.0000      7.7645      2.5664      0.1214      5.0662   -999.2500   -999.2500
  2146.1000      7.7645      2.5750      0.0980      4.5463   -999.2500   -999.2500
  2146.2000      7.7645      2.5732      0.0758      4.6572   -999.2500   -999.2500
  2146.3000      7.7633      2.5753      0.0799      4.5292   -999.2500   -999.2500
  2146.4000      7.7633      2.5735      0.0870      4.6363   -999.2500   -999.2500
  2146.5000      7.7656      2.5623      0.0833      5.3160   -999.2500   -999.2500
  2146.6000      7.7656      2.5528      0.0502      5.8930   -999.2500   -999.2500
  2146.7000      7.7656      2.5441      0.0519      6.4211   -999.2500   -999.2500
  2146.8000      7.7706      2.5289      0.0555      7.3372   -999.2500   -999.2500
  2146.9000      7.7706      2.5128      0.0121      8.3170   -999.2500   -999.2500
  2147.0000      7.7743      2.5024      0.0152      8.9440   -999.2500   -999.2500
  2147.1000      7.7743      2.4967      0.0508      9.2929   -999.2500   -999.2500
  2147.2000      7.7743      2.4928      0.0331      9.5293   -999.2500   -999.2500
  2147.3000      7.7759      2.4949      0.0047      9.3995   -999.2500   -999.2500
  2147.4000      7.7759      2.5072      0.0520      8.6534   -999.2500   -999.2500
  2147.5000      7.7734      2.5242      0.0396      7.6249   -999.2500   -999.2500
  2147.6000      7.7734      2.5395      0.0792      6.6968   -999.2500   -999.2500
  2147.7000      7.7734      2.5511      0.0893      5.9943   -999.2500   -999.2500
  2147.8000      7.7684      2.5573      0.0585      5.6212   -999.2500   -999.2500
  2147.9000      7.7684      2.5517      0.1256      5.9587   -999.2500   -999.2500
  2148.0000      7.7572      2.5279      0.0749      7.4023   -999.2500   -999.2500
  2148.1000      7.7572      2.4973      0.0572      9.2532   -999.2500   -999.2500
  2148.2000      7.7572      2.4729      0.0130     10.7345   -999.2500   -999.2500
  2148.3000      7.6921      2.4394      0.0447     12.7662   -999.2500   -999.2500
  2148.4000      7.6921      2.3869      0.0272     15.9439   -999.2500   -999.2500
  2148.5000      7.4440      2.3645     -0.0604     17.3037   -999.2500   -999.2500
  2148.6000      7.4440      2.3287     -0.0884     19.4733   -999.2500   -999.2500
  2148.7000      7.4440      1.9388      0.4523     43.1009   -999.2500   -999.2500
  2148.8000      6.7086      1.1052      0.0500     93.6237   -999.2500   -999.2500
  2148.9000      6.7086      0.3764      0.0500    137.7948   -999.2500   -999.2500
  2149.0000      4.9523      0.0717   -999.2500    156.2618   -999.2500   -999.2500
  2149.1000      4.9523      0.0074   -999.2500    160.1575   -999.2500   -999.2500
  2149.2000      4.9523      0.0004   -999.2500    160.5816   -999.2500   -999.2500
  2149.3000      2.6151      0.0000   -999.2500    160.6061   -999.2500   -999.2500
  2149.4000      2.6151      0.0000   -999.2500    160.6061   -999.2500   -999.2500
  2149.5000      1.2948   -999.2500   -999.2500   -999.2500   -999.2500   -999.2500
  2149.6000      1.2948   -999.2500   -999.2500   -999.2500   -999.2500   -999.2500
  2149.7000      1.2948   -999.2500   -999.2500   -999.2500   -999.2500   -999.2500
