~Version Information
VERS.                      2.0: CWLS Log ASCII Standard - VERSION 2.0
WRAP.                       NO: One line per depth step
~Well Information Block
STRT.FT                 0.0000: 
STOP.FT              1674.7500: 
STEP.FT                 0.2500: 
NULL.                -999.2500: 
COMP.          Pioneer Natural Resources: COMPANY
WELL.          Culver 14-12 Tr: WELL
FLD.           Purgatorie River: FIELD
LOC.           915' FSL & 1048' FWL: LOCATION
STAT.                 Colorado: Colorado
CNTY.               Las Animas: COUNTY
CTRY. USA : Country
SECT. 12 : Section
TOWN. 32S : Township
RANG. 66W : Range
SRVC.                Patterson: SERVICE COMPANY
DATE.          Mon Oct 03 12:52:29 2005: LOG DATE
API. 05-071-08520                         : UNIQUE WELL ID
~Curve Information Block
DEPT.FT            0 000 00 00: Depth
CCL.                          : Casing Collar Locator
TT3.usec                      : CBL 3' Travel Time
AMP3.mV                       : CBL 3' Amplitude
GR.GAPI                       : Gamma Ray
~Parameter Information Block
~A  Depth       CCL         TT3         AMP3         GR     
# ...
   100.5000      0.0000   1187.5084     13.0805     63.2195
   100.7500      0.0000   1197.3634     12.9916     60.4229
   101.0000      0.0000   1199.6432     12.9803     58.9428
   101.2500      0.0000   1199.9690     12.9947     58.1645
   101.5000      0.0000   1200.0000     12.9569     57.3608
   101.7500      0.0000   1200.0000     12.8221     56.2605
   102.0000      0.0000   1200.0000     12.6164     55.0941
   102.2500      0.0000   1200.0000     12.4297     54.2777
   102.5000      0.0000   1200.0000     12.3382     54.1541
   102.7500      0.0000   1200.0000     12.3425     55.0064
   103.0000      0.0000   1200.0000     12.3901     57.2648
   103.2500      0.0000   1199.9911     12.4397     61.6276
   103.5000      0.0000   1199.8976     12.4926     68.5983
   103.7500      0.0000   1199.2429     12.5715     77.6089
   104.0000      0.0000   1196.4131     12.6763     86.9524
   104.2500      0.0000   1189.1039     12.7705     94.9044
   104.5000      0.0000   1178.7773     12.8166    100.5607
   104.7500      0.0000   1173.4961     12.8151    103.3839
   105.0000      0.0000   1178.7773     12.7935    102.7683
   105.2500      0.0000   1189.1039     12.7683     98.7824
   105.5000      0.0000   1196.4131     12.7337     92.9004
   105.7500      0.0000   1199.2294     12.6731     87.4809
   106.0000      0.0000   1199.7421     12.5737     84.6653
   106.2500      0.0000   1198.8422     12.4581     85.6166
   106.5000      0.0000   1194.5566     12.3849     90.2373
   106.7500      0.0000   1183.4646     12.3794     97.3162
   107.0000      0.0000   1167.7935     12.4065    104.8766
   107.2500      0.0000   1159.7610     12.4276    110.5326
   107.5000      0.0000   1167.5867     12.4308    112.3002
   107.7500      0.0000   1181.9365     12.4239    109.8460
   108.0000      0.0000   1187.3169     12.4120    104.6942
   108.2500      0.0000   1176.8585     12.3884     98.7840
   108.5000      0.0000   1157.0090     12.3642     93.1993
   108.7500      0.0000   1146.4915     12.3590     88.2683
   109.0000      0.0000   1157.1644     12.3627     84.0585
   109.2500      0.0000   1178.0076     12.3669     80.6391
   109.5000      0.0000   1192.7251     12.3916     78.3588
   109.7500      0.0000   1198.0497     12.4329     77.6946
   110.0000      0.0000   1196.5682     12.4425     78.4878
   110.2500      0.0000   1183.9449     12.3943     79.7137
   110.5000      0.0000   1147.1356     12.3263     80.2792
   110.7500      0.0000   1081.8015     12.2919     79.8252
   111.0000      0.0000   1014.7214     12.3025     78.8129
   111.2500      0.0000    989.0240     12.3439     78.0519
   111.5000      0.0000   1022.0582     12.4238     77.8999
   111.7500      0.0000   1089.7400     12.5466     77.8311
   112.0000      0.0000   1148.9084     12.6705     77.0565
   112.2500      0.0000   1170.1805     12.7415     75.5062
   112.5000      0.0000   1144.2517     12.7383     73.9660
   112.7500      0.0000   1075.7289     12.6810     73.3770
   113.0000      0.0000    996.4916     12.6189     74.1976
   113.2500      0.0000    960.5560     12.5974     76.3036
   113.5000      0.0000    996.2772     12.6377     79.2667
   113.7500      0.0000   1075.8256     12.7526     82.4837
   114.0000      0.0000   1146.9335     12.9406     84.9972
   114.2500      0.0000   1184.1654     13.1469     85.8222
   114.5000      0.0000   1194.3691     13.2742     85.0051
   114.7500      0.0000   1187.2660     13.2657     84.0439
   115.0000      0.0000   1162.4650     13.1570     84.8075
   115.2500      0.0000   1126.9521     13.0288     88.0656
   115.5000      0.0000   1108.7743     12.9405     92.9014
   115.7500      0.0000   1126.9521     12.9161     97.2758
   116.0000      0.0000   1162.4960     12.9526     99.3511
   116.2500      0.0000   1187.6539     13.0246     98.6151
   116.5000      0.0000   1197.3940     13.1003     95.8029
   116.7500      0.0000   1199.6473     13.1552     91.9673
   117.0000      0.0000   1199.9694     13.1581     87.9585
   117.2500      0.0000   1200.0000     13.0808     84.5977
   117.5000      0.0000   1199.9905     12.9497     82.6413
   117.7500      0.0000   1199.8899     12.8532     82.2256
   118.0000      0.0000   1199.1362     12.8812     82.6995
   118.2500      0.0000   1195.5659     13.0569     83.3942
   118.5000      0.0000   1184.0062     13.3172     84.4156
   118.7500      0.0000   1156.8898     13.5441     86.3396
   119.0000      0.0000   1109.8253     13.5664     89.0514
   119.2500      0.0000   1056.9374     13.1471     91.3476
   119.5000      0.0000   1037.4326     12.1398     92.0159
   119.7500      0.0000   1072.0977     10.7911     90.9606
   120.0000      0.0000   1125.1923      9.6752     88.9338
   120.2500      0.0000   1153.3934      9.1435     86.4656
   120.5000      0.0000   1156.2556      9.0936     83.6181
   120.7500      0.0000   1154.6698      9.2614     80.7920
   121.0000     -2.0000   1160.2130      9.4501     79.1089
   121.2500      2.0000   1170.9875      9.5550     79.5707
   121.5000      0.0000   1172.8717      9.6050     82.0540
   121.7500      0.0000   1145.4435      9.8372     85.2671
   122.0000      0.0000   1080.3153     10.4630     87.4443
   122.2500      0.0000    998.9980     11.2589     87.2149
   122.5000      0.0000    939.6428     11.9271     84.2471
   122.7500      0.0000    923.7748     12.5770     79.2773
   123.0000      0.0000    948.4192     13.2015     73.6339
   123.2500      0.0000    993.8175     13.5097     68.8140
   123.5000      0.0000   1032.3483     13.4699     66.0174
   123.7500      0.0000   1049.4253     13.3080     65.5387
   124.0000      0.0000   1052.2733     13.1671     66.6933
   124.2500      0.0000   1055.6281     13.0628     68.3966
   124.5000      0.0000   1070.9961     12.9956     69.7361
   124.7500      0.0000   1103.0902     12.9830     70.2075
   125.0000      0.0000   1143.5431     13.0018     69.7249
   125.2500      0.0000   1175.0298     12.9964     68.4295
   125.5000      0.0000   1186.3817     12.9795     66.3779
   125.7500      0.0000   1175.5155     13.0272     63.3389
   126.0000      0.0000   1145.5592     13.1744     58.9545
   126.2500      0.0000   1110.7953     13.3890     53.3061
   126.5000      0.0000   1094.9786     13.6060     47.3642
   126.7500      0.0000   1110.5848     13.7633     42.6131
   127.0000      0.0000   1145.2045     13.8207     40.0157
   127.2500      0.0000   1174.4607     13.7496     39.3617
   127.5000      0.0000   1182.2673     13.5543     39.6395
   127.7500      0.0000   1163.8888     13.2992     39.9571
   128.0000      0.0000   1124.0579     13.0608     40.0729
   128.2500      0.0000   1077.5341     12.8746     40.2112
   128.5000      0.0000   1035.8049     12.7365     40.7049
   128.7500      0.0000   1003.9465     12.6152     41.9461
   129.0000      0.0000    991.5674     12.4708     44.3583
   129.2500      0.0000    994.8989     12.2804     47.9449
   129.5000      0.0000    989.0875     12.0574     51.7309
   129.7500      0.0000    965.5633     11.8452     53.9984
   130.0000      0.0000    948.5049     11.6643     53.5369
   130.2500      0.0000    964.7999     11.5068     50.7303
   130.5000      0.0000   1015.1793     11.3980     47.3271
   130.7500      0.0000   1072.5667     11.3961     45.1787
   131.0000      0.0000   1109.5168     11.5218     44.9918
   131.2500      0.0000   1122.7383     11.7270     45.9025
   131.5000      0.0000   1114.0419     11.9455     46.3398
   131.7500      0.0000   1075.1890     12.1552     45.6970
   132.0000      0.0000   1018.4226     12.3475     45.0573
   132.2500      0.0000    982.2133     12.4610     45.8745
   132.5000      0.0000    981.5972     12.4437     48.1089
   132.7500      0.0000    986.4164     12.3436     50.2059
   133.0000      0.0000    968.0055     12.2351     50.8385
   133.2500      0.0000    936.5939     12.1333     50.0866
   133.5000      0.0000    914.4574     12.0351     48.8473
   133.7500      0.0000    905.6981     11.9404     47.6693
