~Version Information
VERS.                      2.0: CWLS Log ASCII Standard - VERSION 2.0
WRAP.                       NO: One line per depth step
~Well Information Block
STRT.FT                 0.0000: 
STOP.FT               816.5000: 
STEP.FT                 0.1000: 
NULL.                -999.2500: 
COMP.          Pioneer Natural Resources: COMPANY
WELL.           Weissach 32-32: WELL
FLD.           Purgatorie River: FIELD
LOC.           2193' FNL & 2256' FEL: LOCATION
STAT.                 Colorado: State
CNTY.               Las Animas: COUNTY
CTRY. USA : Country
SECT. 32 : Section
TOWN. 33S : Township
RANG. 66W : Range
SRVC.                Patterson: SERVICE COMPANY
DATE.          Mon Sep 26 09:15:29 2005: LOG DATE
API. 05-071-08523                         : UNIQUE WELL ID
~Curve Information Block
DEPT.FT            0 000 00 00: Depth
DCAL.in                       : CDL Caliper
RHOB.g/cc                     : CDL Bulk Density
RHOC.g/cc                     : CDL Density Correction
DPOR.pu                       : CDL Density Porosity
GR.GAPI                       : Gamma Ray
NPOR.pu                       : Neutron Porosity
~Parameter Information Block
~A  Depth       DCAL        RHOB        RHOC        DPOR         GR         NPOR    
     0.0000     17.4444   -999.2500      2.0000   -999.2500    125.2318     57.9052
     0.1000     17.4444   -999.2500      2.0000   -999.2500    122.0730     57.9910
     0.2000     17.4444   -999.2500      2.0000   -999.2500    120.2943     57.9510
     0.3000     17.4615   -999.2500      2.0000   -999.2500    119.2539     57.8686
     0.4000     17.4615     -1.4609      2.0000     -0.0823    119.9076     57.7680
     0.5000     17.4684     -1.5969      2.0000     -0.0850    124.8650     57.6949
     0.6000     17.4684     -1.7909      2.0000     -0.0889    133.3954     57.6933
     0.7000     17.4684     -1.9004      2.0000     -0.0911    139.7113     57.7373
     0.8000     17.4737     -1.9270      2.0000     -0.0916    139.5809     57.7827
     0.9000     17.4737     -2.0298      2.0000     -0.0936    135.8193     57.7998
     1.0000     17.4787     -2.2687      2.0000     -0.0984    133.3940     57.7912
     1.1000     17.4787     -2.5288      2.0000     -0.1036    131.4203     57.7986
     1.2000     17.4787     -2.6963      2.0000     -0.1070    130.6205     57.8576
     1.3000     17.4882     -2.6662      2.0000     -0.1064    134.6043     57.9515
     1.4000     17.4882     -2.3412      2.0000     -0.0999    137.5656     58.0162
     1.5000     17.4812     -1.7284      2.0000     -0.0876    134.8951     58.0042
     1.6000     17.4812     -1.0750      2.0000     -0.0745    132.7468     57.9143
     1.7000     17.4812     -0.5917      2.0000     -0.0649    134.8865     57.8114
     1.8000     17.4853     -0.2437      2.0000     -0.0579    137.8972     57.7670
     1.9000     17.4853      0.0244      2.0000     -0.0525    138.5166     57.7494
     2.0000     17.4795      0.1986      2.0000     -0.0491    136.8050     57.7366
     2.1000     17.4795      0.2779      2.0000     -0.0475    132.5711     57.7666
     2.2000     17.4795      0.2933      2.0000     -0.0472    128.5323     57.7802
     2.3000     17.4757      0.2803      2.0000     -0.0474    131.6247     57.6901
     2.4000     17.4757      0.2688      2.0000     -0.0476    141.9517     57.5526
     2.5000     17.4767      0.2976      2.0000     -0.0471    149.9935     57.4555
     2.6000     17.4767      0.4094      2.0000     -0.0448    147.9822     57.3830
     2.7000     17.4767      0.6218      2.0000     -0.0406    140.3155     57.2546
     2.8000     17.4798      0.9164      2.0000     -0.0347    135.5185     57.0117
     2.9000     17.4798      1.2509      2.0000     -0.0280    137.0015     56.7143
     3.0000     17.4792      1.5693      2.0000     -0.0216    145.0660     56.4665
     3.1000     17.4792      1.8191      2.0000     -0.0166    158.2339     56.2513
     3.2000     17.4792      1.9779      2.0000     -0.0134    172.7364     56.0001
     3.3000     17.4785      2.0593      2.0000     -0.0118    184.5130     55.6909
     3.4000     17.4785      2.0924      2.0000     -0.0112    192.4219     55.2604
     3.5000     17.4745      2.1034      2.0000     -0.0109    197.7862     54.7548
     3.6000     17.4745      2.1186      2.0000     -0.0106    201.4458     54.2790
     3.7000     17.4745      2.1566      2.0000     -0.0099    202.9720     53.6412
     3.8000     17.4758      2.2037      2.0000     -0.0089    205.2364     52.6456
     3.9000     17.4758      2.2302      2.0000     -0.0084    212.3295     51.4413
     4.0000     17.4815      2.2249      2.0000     -0.0085    218.1052     50.1451
     4.1000     17.4815      2.1940      2.0000     -0.0091    213.1063     48.7461
     4.2000     17.4815      2.1449      2.0000     -0.0101    199.7550     47.3417
     4.3000     17.4774      2.0826      2.0000     -0.0114    185.0584     45.8578
     4.4000     17.4774      2.0117      2.0000     -0.0128    174.1597     44.1136
     4.5000     17.4786      1.9428      2.0000     -0.0142    171.2424     42.3421
     4.6000     17.4786      1.8930      2.0000     -0.0151    173.8257     40.6855
     4.7000     17.4786      1.8694      2.0000     -0.0156    174.4447     39.0215
     4.8000     17.4779      1.8628      2.0000     -0.0158    169.5707     37.5078
     4.9000     17.4779      1.8634      2.0000     -0.0157    162.1220     36.2513
     5.0000     17.4778      1.8720      2.0000     -0.0156    155.6034     35.2371
     5.1000     17.4778      1.8872      2.0000     -0.0153    152.8824     34.5687
     5.2000     17.4778      1.8963      2.0000     -0.0151    155.4381     34.0815
     5.3000     17.4775      1.8939      2.0000     -0.0151    158.0921     33.5677
     5.4000     17.4775      1.8886      2.0000     -0.0152    154.7547     33.1986
     5.5000     17.4758      1.8837      2.0000     -0.0153    146.6036     32.9837
     5.6000     17.4758      1.8752      2.0000     -0.0155    139.7056     32.6532
     5.7000     17.4758      1.8689      2.0000     -0.0156    136.4095     32.0944
     5.8000     17.4788      1.8677      2.0000     -0.0157    136.3205     31.6720
     5.9000     17.4788      1.8636      2.0000     -0.0157    139.5806     31.7966
     6.0000     17.4794      1.8567      2.0000     -0.0159    143.6276     32.1371
     6.1000     17.4794      1.8513      2.0000     -0.0160    145.4363     32.2290
     6.2000     17.4794      1.8419      2.0000     -0.0162    144.7146     31.9477
     6.3000     17.4740      1.8318      2.0000     -0.0164    141.7401     31.5101
     6.4000     17.4740      1.8346      2.0000     -0.0163    138.9306     31.3160
     6.5000     17.4781      1.8480      2.0000     -0.0160    140.3165     31.3956
     6.6000     17.4781      1.8555      2.0000     -0.0159    143.7128     31.3787
     6.7000     17.4781      1.8505      2.0000     -0.0160    144.1425     30.9537
     6.8000     17.4771      1.8404      2.0000     -0.0162    142.3954     30.4196
     6.9000     17.4771      1.8353      2.0000     -0.0163    141.3573     30.1958
     7.0000     17.4794      1.8363      2.0000     -0.0163    140.8546     30.1981
     7.1000     17.4794      1.8317      2.0000     -0.0164    138.5696     30.1462
     7.2000     17.4794      1.8149      2.0000     -0.0167    134.5095     29.8938
     7.3000     17.4760      1.7979      2.0000     -0.0171    130.9569     29.4978
     7.4000     17.4760      1.7944      2.0000     -0.0171    130.1338     29.1013
     7.5000     17.4775      1.8043      2.0000     -0.0169    129.8965     28.5720
     7.6000     17.4775      1.8188      2.0000     -0.0166    128.6702     27.6527
     7.7000     17.4775      1.8299      2.0000     -0.0164    129.9262     26.7133
     7.8000     17.4776      1.8339      2.0000     -0.0163    135.5310     26.6251
     7.9000     17.4776      1.8337      2.0000     -0.0163    141.5342     27.3008
     8.0000     17.4764      1.8310      2.0000     -0.0164    144.1109     27.7289
     8.1000     17.4764      1.8278      2.0000     -0.0165    144.2731     27.5734
     8.2000     17.4764      1.8328      2.0000     -0.0164    143.4133     27.1182
     8.3000     17.4751      1.8438      2.0000     -0.0161    142.7784     26.7470
     8.4000     17.4751      1.8463      2.0000     -0.0161    143.3316     26.7422
     8.5000     17.4741      1.8372      2.0000     -0.0163    145.5193     26.7915
     8.6000     17.4741      1.8243      2.0000     -0.0165    148.1208     26.5110
     8.7000     17.4741      1.8166      2.0000     -0.0167    147.4092     26.1768
     8.8000     17.4747      1.8191      2.0000     -0.0166    141.8945     25.9173
     8.9000     17.4747      1.8252      2.0000     -0.0165    137.3936     25.5808
     9.0000     17.4728      1.8245      2.0000     -0.0165    140.5571     25.2993
     9.1000     17.4728      1.8194      2.0000     -0.0166    146.6193     25.1554
     9.2000     17.4728      1.8225      2.0000     -0.0166    147.7346     25.1864
     9.3000     17.4724      1.8351      2.0000     -0.0163    146.1654     25.5246
     9.4000     17.4724      1.8413      2.0000     -0.0162    145.7915     25.9481
     9.5000     17.4716      1.8371      2.0000     -0.0163    145.5914     26.0194
