~Version Information
VERS.                      2.0: CWLS Log ASCII Standard - VERSION 2.0
WRAP.                       NO: One line per depth step
~Well Information Block
STRT.FT               830.0000: 
STOP.FT              1792.5000: 
STEP.FT                 0.1000: 
NULL.                -999.2500: 
COMP.          Pioneer Natural Resources: COMPANY
WELL.           Rolls 14-14 Tr: WELL
FLD.           Purgatoire River: FIELD
LOC.           473' FSL & 817' FWL: LOCATION
PROV.                 Colorado: PROVINCE
CNTY.               Las Animas: COUNTRY
SRVC.                Patterson: SERVICE COMPANY
DATE.          Wed Aug 03 07:11:37 2005: LOG DATE
UWI.           05 071 08454 00: UNIQUE WELL ID
~Curve Information Block
DEPT.FT            0 000 00 00: Depth
DCAL.in                       : CDL Caliper
RHOB.g/cc                     : CDL Bulk Density
RHOC.g/cc                     : CDL Density Correction
DPOR.pu                       : CDL Density Porosity
GR.GAPI                       : Gamma Ray
NPOR.pu                       : Neutron Porosity
~Parameter Information Block
~A  Depth       DCAL        RHOB        RHOC        DPOR         GR         NPOR    
# ...
  1079.6000      8.0362      2.6340      0.1705      0.9688    125.6876     28.0873
  1079.7000      8.0362      2.6028      0.1150      2.8599    123.6058     27.3073
  1079.8000      8.0627      2.5646      0.0630      5.1770    124.9472     26.6888
  1079.9000      8.0627      2.5330      0.0986      7.0919    130.5102     26.5739
  1080.0000      8.0645      2.5046      0.0550      8.8126    138.6481     26.7410
  1080.1000      8.0645      2.4808     -0.0136     10.2542    142.7314     26.7685
  1080.2000      8.0645      2.4655      0.0427     11.1843    140.7516     26.2887
  1080.3000      8.0477      2.4615      0.0003     11.4213    139.5546     25.5706
  1080.4000      8.0477      2.4774     -0.0104     10.4610    141.5514     25.2622
  1080.5000      8.0299      2.5119      0.0372      8.3710    139.3003     25.4041
  1080.6000      8.0299      2.5436      0.0899      6.4505    128.4038     25.6298
  1080.7000      8.0299      2.5516      0.0858      5.9660    115.3173     25.6965
  1080.8000      8.0115      2.5431      0.0632      6.4799    108.8034     25.4421
  1080.9000      8.0115      2.5401      0.0460      6.6600    112.2868     24.9930
  1081.0000      8.0038      2.5479      0.0911      6.1892    119.5292     24.7927
  1081.1000      8.0038      2.5627      0.0642      5.2935    121.7431     24.8625
  1081.2000      8.0038      2.5820      0.0778      4.1210    118.0517     24.6410
  1081.3000      8.0206      2.5936      0.0523      3.4160    114.4019     24.0660
  1081.4000      8.0206      2.5898      0.0208      3.6475    114.6667     23.5652
  1081.5000      8.0247      2.5819      0.0285      4.1243    115.9190     23.2328
  1081.6000      8.0247      2.5795      0.0719      4.2729    114.8611     23.0910
  1081.7000      8.0247      2.5805      0.0409      4.2123    108.7680     23.1559
  1081.8000      8.0352      2.5882      0.0466      3.7448     97.9688     23.1473
  1081.9000      8.0352      2.6028      0.0315      2.8590     89.6816     22.7784
  1082.0000      8.0245      2.6141      0.0207      2.1736     88.6182     22.3367
  1082.1000      8.0245      2.6136      0.0413      2.2059     92.5646     22.0883
  1082.2000      8.0245      2.6022      0.0225      2.8979     97.0307     21.8179
  1082.3000      8.0558      2.5963     -0.0472      3.2573     98.6502     21.8831
  1082.4000      8.0558      2.6139     -0.0364      2.1897     95.4319     22.6294
  1082.5000      8.1199      2.6384      0.0456      0.7006     87.5510     23.3790
  1082.6000      8.1199      2.6440      0.0387      0.3640     80.4348     23.6362
  1082.7000      8.1199      2.6368      0.0333      0.8000     77.5236     23.5792
  1082.8000      8.1268      2.6271      0.0400      1.3877     76.8620     23.4510
  1082.9000      8.1268      2.6077     -0.0258      2.5659     78.8343     23.4043
  1083.0000      8.1102      2.5791     -0.0339      4.2960     83.3655     23.4727
  1083.1000      8.1102      2.5589     -0.0817      5.5192     86.2244     23.5330
  1083.2000      8.1102      2.5570     -0.0566      5.6381     85.3263     23.5984
  1083.3000      8.1066      2.5700     -0.0480      4.8511     81.9016     23.8144
  1083.4000      8.1066      2.5864      0.0472      3.8553     78.2921     23.8567
  1083.5000      8.1171      2.5939      0.0260      3.3992     79.3801     23.3920
  1083.6000      8.1171      2.6012      0.0093      2.9596     83.1168     22.8642
  1083.7000      8.1171      2.6196      0.0239      1.8406     82.5585     22.7313
  1083.8000      8.1142      2.6349      0.0147      0.9133     78.3984     22.8644
  1083.9000      8.1142      2.6279      0.0403      1.3391     75.2621     22.7335
  1084.0000      8.0963      2.5988      0.0339      3.1006     74.4786     22.0237
  1084.1000      8.0963      2.5688     -0.0335      4.9192     73.3921     21.0480
  1084.2000      8.0963      2.5552      0.0175      5.7448     72.9609     20.7005
  1084.3000      8.0496      2.5447      0.0279      6.3845     76.2114     21.6224
  1084.4000      8.0496      2.5242      0.0073      7.6243     79.3116     22.7663
  1084.5000      8.0256      2.5107     -0.0159      8.4411     78.4729     22.4257
  1084.6000      8.0256      2.5201      0.0599      7.8731     77.0729     20.7863
  1084.7000      8.0256      2.5443      0.0778      6.4062     78.6242     19.2084
  1084.8000      7.9987      2.5722      0.0809      4.7135     81.7782     18.2756
  1084.9000      7.9987      2.5940      0.1360      3.3967     86.2694     17.6452
  1085.0000      8.0038      2.5886      0.2056      3.7218     91.4220     17.2007
  1085.1000      8.0038      2.5481      0.1331      6.1757     94.7172     17.2594
  1085.2000      8.0038      2.4903      0.1305      9.6791     97.9386     17.6018
  1085.3000      7.9953      2.4339      0.1174     13.0980    102.2120     17.6655
  1085.4000      7.9953      2.3967      0.0735     15.3537    104.2439     17.8661
  1085.5000      7.9876      2.3971      0.0941     15.3254    102.8512     18.8467
  1085.6000      7.9876      2.4315      0.1631     13.2403    100.4735     20.1457
  1085.7000      7.9876      2.4738      0.1862     10.6774     98.9528     21.0137
  1085.8000      7.9919      2.5090      0.1781      8.5466     98.3519     21.5132
  1085.9000      7.9919      2.5444      0.1658      6.4001     98.9439     22.1481
  1086.0000      8.0306      2.5794      0.2099      4.2775    102.0660     23.0459
  1086.1000      8.0306      2.5990      0.1920      3.0927    105.9905     23.9865
  1086.2000      8.0306      2.6110      0.1464      2.3637    108.3169     24.6917
  1086.3000      8.0624      2.6373      0.1418      0.7708    110.5708     24.9962
  1086.4000      8.0624      2.6603      0.2304     -0.6241    111.7142     25.1763
  1086.5000      8.0820      2.6429      0.1900      0.4285    110.2794     25.2742
  1086.6000      8.0820      2.5947      0.0933      3.3500    113.3142     24.9737
  1086.7000      8.0820      2.5582      0.0381      5.5617    123.3991     24.7149
  1086.8000      8.0832      2.5485      0.0822      6.1516    132.4875     24.8618
  1086.9000      8.0832      2.5511      0.0573      5.9926    136.6715     24.9712
  1087.0000      8.0860      2.5548      0.0411      5.7705    136.8409     24.9092
  1087.1000      8.0860      2.5592      0.0734      5.5028    132.8182     24.9214
  1087.2000      8.0860      2.5685      0.0776      4.9413    128.1568     25.0747
  1087.3000      8.0929      2.5821      0.0869      4.1144    126.3521     25.1899
  1087.4000      8.0929      2.5892      0.0731      3.6839    125.5759     25.0049
  1087.5000      8.1020      2.5900      0.1087      3.6372    126.8453     24.7352
  1087.6000      8.1020      2.6026      0.0617      2.8698    131.5305     24.7565
  1087.7000      8.1020      2.6235      0.0959      1.6038    132.1262     25.0283
  1087.8000      8.0897      2.6165      0.1205      2.0327    124.5597     25.3842
  1087.9000      8.0897      2.5736      0.0224      4.6329    116.6940     25.6794
  1088.0000      8.0884      2.5309      0.0696      7.2158    115.9916     25.7733
  1088.1000      8.0884      2.5174     -0.0107      8.0369    118.4862     25.5054
  1088.2000      8.0884      2.5313      0.0202      7.1934    117.4810     25.0081
  1088.3000      8.0745      2.5493     -0.0102      6.1057    117.2807     24.7832
  1088.4000      8.0745      2.5528      0.0079      5.8935    120.6859     24.8356
  1088.5000      8.0905      2.5438      0.0253      6.4354    123.5805     24.6926
  1088.6000      8.0905      2.5287      0.0549      7.3534    127.9543     24.4776
  1088.7000      8.0905      2.5109      0.0080      8.4296    135.7815     24.6159
  1088.8000      8.1098      2.5085     -0.0390      8.5747    142.0739     24.7599
  1088.9000      8.1098      2.5317     -0.0259      7.1687    142.6516     24.6197
  1089.0000      8.0887      2.5571      0.0386      5.6276    138.2274     24.6347
  1089.1000      8.0887      2.5658      0.0271      5.1009    132.8547     24.8730
