~Version Information
VERS.                      2.0: CWLS Log ASCII Standard - VERSION 2.0
WRAP.                       NO: One line per depth step
~Well Information Block
STRT.FT                -7.5000: 
STOP.FT              2228.7500: 
STEP.FT                 0.2500: 
NULL.                -999.2500: 
COMP.          Pioneer Natural Resources: COMPANY
WELL.          McDonald 33-31 R: WELL
FLD.           Purgatorie River: FIELD
LOC.           1386' FSL & 1926' FEL: LOCATION
STAT.                       CO: State
CNTY.               Las Animas: COUNTY
CTRY.                      USA: Country
SECT.                       31: Section
TOWN.                      32S: Township
RANG.                      66W: Range
SRVC.          Patterson Wireline: SERVICE COMPANY
DATE.          Wed Sep 28 13:29:18 2005: LOG DATE
API.           05 071 08533 00: API#
~Curve Information Block
DEPT.FT            0 000 00 00: Depth
CCL.                          : Casing Collar Locator
TT3.usec                      : CBL 3' Travel Time
AMP3.mV                       : CBL 3' Amplitude
GR.GAPI                       : Gamma Ray
~Parameter Information Block
~A  Depth       CCL         TT3         AMP3         GR     
# ...
   294.0000      0.0000    893.0720     10.9257     91.8558
   294.2500      0.0000    867.1038     10.9333     91.4798
   294.5000      0.0000    847.8055     10.8478     89.4677
   294.7500      0.0000    838.8395     10.5302     86.6860
   295.0000      0.0000    842.2066      9.9093     84.4592
   295.2500      0.0000    858.7094      9.0966     83.0076
   295.5000      0.0000    882.7499      8.3464     81.2677
   295.7500      0.0000    903.0629      7.8735     78.3824
   296.0000      0.0000    912.2633      7.7116     74.7662
   296.2500      0.0000    911.6729      7.7356     71.5224
   296.5000      2.0000    906.6200      7.7869     69.3529
   296.7500     -2.0000    903.1531      7.7726     68.3257
   297.0000      0.0000    908.0886      7.6895     68.3527
   297.2500      0.0000    923.5529      7.6107     69.3749
   297.5000      0.0000    939.8631      7.6636     71.0026
   297.7500      0.0000    940.4890      7.9704     72.3253
   298.0000      0.0000    917.1720      8.5488     72.3685
   298.2500      0.0000    878.0663      9.2595     70.7295
   298.5000      0.0000    840.3698      9.8809     67.8083
   298.7500      0.0000    816.8889     10.2547     64.5580
   299.0000      0.0000    809.7529     10.3672     61.9818
   299.2500      0.0000    813.3913     10.3165     60.7002
   299.5000      0.0000    820.0823     10.2217     60.8580
   299.7500      0.0000    823.8637     10.1590     62.2693
   300.0000      0.0000    823.3105     10.1514     64.5493
   300.2500      0.0000    821.9811     10.1906     67.3281
   300.5000      0.0000    824.8488     10.2581     70.5032
   300.7500      0.0000    833.4052     10.3343     74.0439
   301.0000      0.0000    844.4059     10.3988     77.3824
   301.2500      0.0000    852.7077     10.4289     79.2658
   301.5000      0.0000    854.6687     10.4039     78.5150
   301.7500      0.0000    849.7413     10.3166     74.9012
   302.0000      0.0000    840.3432     10.1835     69.3275
   302.2500      0.0000    830.2484     10.0420     63.3831
   302.5000      0.0000    822.1005      9.9343     58.7387
   302.7500      0.0000    816.1545      9.8872     56.6027
   303.0000      0.0000    811.4146      9.9014     57.2519
   303.2500      0.0000    807.4798      9.9554     59.8145
   303.5000      0.0000    804.9547     10.0212     62.7510
   303.7500      0.0000    804.5161     10.0770     64.8786
   304.0000      0.0000    806.0196     10.1092     65.9016
   304.2500      0.0000    808.3000     10.1037     66.0523
   304.5000      0.0000    809.8865     10.0416     65.6262
   304.7500      0.0000    810.1543      9.9172     64.8352
   305.0000      0.0000    809.5530      9.7703     63.6415
   305.2500      0.0000    808.5570      9.6845     61.6759
   305.5000      0.0000    807.1042      9.7324     58.6962
   305.7500      0.0000    805.5485      9.9167     55.1625
   306.0000      0.0000    805.4858     10.1695     52.0416
   306.2500      0.0000    809.5021     10.4022     49.9576
   306.5000      0.0000    821.1454     10.5544     48.8637
   306.7500      0.0000    844.5295     10.6123     48.7044
   307.0000      0.0000    880.6627     10.5970     49.9980
   307.2500      0.0000    921.9568     10.5345     53.3271
   307.5000      0.0000    952.7913     10.4371     58.5499
   307.7500      0.0000    959.6049     10.3175     65.0286
   308.0000      0.0000    941.6980     10.2106     72.3773
   308.2500      0.0000    910.8724     10.1584     80.2911
   308.5000      0.0000    881.2738     10.1708     87.7110
   308.7500      0.0000    860.9088     10.2182     92.8833
   309.0000      0.0000    849.9781     10.2641     94.5882
   309.2500      0.0000    842.7690     10.2941     93.1799
   309.5000      0.0000    831.6552     10.3123     90.4067
   309.7500      0.0000    813.0897     10.3239     88.2474
   310.0000      0.0000    790.5006     10.3260     87.6712
   310.2500      0.0000    770.3354     10.3089     88.1623
   310.5000      0.0000    756.3401     10.2639     88.1998
   310.7500      0.0000    748.4939     10.1934     86.2775
   311.0000      0.0000    745.3828     10.1187     82.0118
   311.2500      0.0000    745.5619     10.0709     76.7885
   311.5000      0.0000    747.4368     10.0729     73.2244
   311.7500      0.0000    749.4311     10.1289     73.3720
   312.0000      0.0000    750.6812     10.2275     77.0636
   312.2500      0.0000    751.1523     10.3496     82.0036
   312.5000      0.0000    751.1866     10.4734     85.5488
   312.7500      0.0000    751.0732     10.5823     86.4427
   313.0000      0.0000    750.9613     10.6714     85.0705
   313.2500      0.0000    750.9274     10.7470     82.5699
   313.5000      0.0000    751.0121     10.8154     80.0691
   313.7500      0.0000    751.2118     10.8740     78.4480
   314.0000      0.0000    751.4619     10.9135     78.1043
   314.2500      0.0000    751.6682     10.9305     78.7727
   314.5000      0.0000    751.7714     10.9363     79.6537
   314.7500      0.0000    751.7820     10.9512     79.7793
   315.0000      0.0000    751.7441     10.9888     78.5673
   315.2500      0.0000    751.6484     11.0456     76.3324
   315.5000      0.0000    751.3613     11.1071     74.2611
   315.7500      0.0000    750.5996     11.1604     73.9007
   316.0000      0.0000    749.0560     11.2017     76.5149
   316.2500      0.0000    746.7873     11.2390     82.3383
   316.5000      0.0000    744.5931     11.2899     90.1336
   316.7500      0.0000    743.7015     11.3713     97.6852
   317.0000      0.0000    744.7183     11.4833    102.9568
   317.2500      0.0000    747.0053     11.6052    105.0003
   317.5000      0.0000    749.3189     11.7109    104.2702
   317.7500      0.0000    750.8749     11.7880    102.3115
   318.0000      0.0000    751.6419     11.8430    100.5660
   318.2500      0.0000    751.8792     11.8896     99.0749
   318.5000      0.0000    751.6373     11.9339     96.6587
   318.7500      0.0000    750.5378     11.9658     92.5420
   319.0000      0.0000    747.8497     11.9656     87.3277
   319.2500      0.0000    743.0153     11.9214     82.2762
   319.5000      0.0000    736.6008     11.8433     78.2130
   319.7500      0.0000    730.7883     11.7604     75.3116
   320.0000      0.0000    728.3481     11.7025     73.2647
   320.2500      0.0000    730.5549     11.6849     71.3148
   320.5000      0.0000    736.1099     11.7039     68.6914
   320.7500      0.0000    742.2690     11.7447     65.4737
   321.0000      0.0000    746.9094     11.7946     62.6941
   321.2500      0.0000    749.5011     11.8495     61.2037
   321.5000      0.0000    750.5952     11.9096     60.7216
   321.7500      0.0000    750.9284     11.9712     60.4436
   322.0000      0.0000    750.9904     12.0261     60.2884
   322.2500      0.0000    751.0126     12.0693     60.8914
   322.5000      0.0000    751.0656     12.1045     62.4608
   322.7500      0.0000    751.1393     12.1384     64.4065
   323.0000      0.0000    751.2115     12.1744     66.3007
   323.2500      0.0000    751.2806     12.2097     68.7638
   323.5000      0.0000    751.3511     12.2380     73.2083
   323.7500      0.0000    751.4039     12.2533     80.6406
   324.0000      0.0000    751.3997     12.2533     90.3921
   324.2500      0.0000    751.3110     12.2376     99.9340
   324.5000      0.0000    751.1416     12.2041    106.3670
   324.7500      0.0000    750.9125     12.1477    108.5489
   325.0000      0.0000    750.6470     12.0671    107.8066
   325.2500      0.0000    750.3413     11.9708    106.5080
   325.5000      0.0000    749.8976     11.8761    106.0911
   325.7500      0.0000    749.0444     11.7983    106.3936
   326.0000      0.0000    747.4402     11.7437    106.3936
   326.2500      0.0000    745.1115     11.7107    105.1720
   326.5000      0.0000    742.8756     11.6953    102.1653
   326.7500      0.0000    741.9941     11.6901     96.9980
   327.0000      0.0000    743.0641     11.6829     89.6931
   327.2500      0.0000    745.4048     11.6649     81.1522
