~Version Information
VERS.                      2.0: CWLS Log ASCII Standard - VERSION 2.0
WRAP.                       NO: One line per depth step
~Well Information Block
STRT.FT                -8.5000: 
STOP.FT              1214.7500: 
STEP.FT                 0.2500: 
NULL.                -999.2500: 
COMP.          Pioneer Natural Resources: COMPANY
WELL.          Rock Island 44-24 Tr: WELL
FLD.           Purgatorie River: FIELD
LOC.           814' FSL & 761' FEL--: LOCATION
CNTY.               Las Animas: COUNTY
SRVC.          Patterson Wireline: SERVICE COMPANY
DATE.          Fri Apr 28 10:23:18 2006: LOG DATE
UWI.           05 071 08680 00: UNIQUE WELL ID
STAT.                       CO: STATE
~Curve Information Block
DEPT.FT            0 000 00 00: Depth
CCL.                          : Casing Collar Locator
TT3.usec                      : CBL 3' Travel Time
AMP3.mV                       : CBL 3' Amplitude
GR.GAPI                       : Gamma Ray
~Parameter Information Block
~A  Depth       CCL         TT3         AMP3         GR     
# ...
  1130.5000      0.0000    684.0660      5.7743     64.1431
  1130.7500      0.0000    686.7789      6.0280     67.2565
  1131.0000      0.0000    692.1816      6.1458     75.0103
  1131.2500      0.0000    692.9678      6.1651     86.5488
  1131.5000      0.0000    686.2662      6.1407    100.5943
  1131.7500      0.0000    674.9833      6.1063    115.5212
  1132.0000      0.0000    666.0931      6.0682    129.0248
  1132.2500      0.0000    666.2279      6.0208    138.5108
  1132.5000      0.0000    674.8513      5.9645    142.3361
  1132.7500      0.0000    682.2690      5.9125    140.7172
  1133.0000      0.0000    677.7447      5.8833    135.5048
  1133.2500      0.0000    659.5630      5.8875    129.2402
  1133.5000      0.0000    636.1273      5.9220    124.1890
  1133.7500      0.0000    618.8992      5.9749    121.6273
  1134.0000      0.0000    615.0601      6.0341    121.6268
  1134.2500      0.0000    624.7256      6.0918    123.4556
  1134.5000      0.0000    642.5344      6.1442    126.1059
  1134.7500      0.0000    661.4523      6.1884    128.5999
  1135.0000      0.0000    676.8535      6.2215    130.3401
  1135.2500      0.0000    688.4891      6.2415    131.4006
  1135.5000      0.0000    699.2005      6.2466    132.3072
  1135.7500      0.0000    711.8884      6.2322    133.4382
  1136.0000      0.0000    727.3212      6.1917    134.6932
  1136.2500      0.0000    743.3228      6.1223    135.7755
  1136.5000      0.0000    754.8088      6.0300    136.7621
  1136.7500      0.0000    755.3622      5.9273    138.2535
  1137.0000      0.0000    740.9403      5.8233    140.7046
  1137.2500      0.0000    713.2720      5.7167    143.6810
  1137.5000      0.0000    679.9626      5.5977    146.0632
  1137.7500      0.0000    651.1804      5.4694    146.9575
  1138.0000      0.0000    635.0753      5.3727    146.3306
  1138.2500      0.0000    634.4597      5.3685    145.1667
  1138.5000      0.0000    646.7201      5.4720    144.9727
  1138.7500      0.0000    666.5684      5.6211    146.3685
  1139.0000      0.0000    688.7338      5.7382    147.8321
  1139.2500      0.0000    708.7060      5.8082    146.3580
  1139.5000      0.0000    722.9096      5.8650    139.8475
  1139.7500      0.0000    729.4082      5.9261    128.8699
  1140.0000      2.0000    728.2160      5.9702    116.2402
  1140.2500      0.0000    721.4268      5.9679    105.2488
  1140.5000      0.0000    714.2894      5.9123     98.2203
  1140.7500      0.0000    714.2505      5.8272     96.1096
  1141.0000      0.0000    725.6886      5.7537     98.6972
  1141.2500      0.0000    746.2562      5.7215    104.9496
  1141.5000      0.0000    769.6881      5.7316    113.6517
  1141.7500      0.0000    790.2429      5.7711    123.8330
  1142.0000      0.0000    804.1658      5.8301    134.0656
  1142.2500      0.0000    810.0287      5.8934    141.7461
  1142.5000      0.0000    808.8571      5.9306    144.2897
  1142.7500      0.0000    802.9648      5.9143    141.4148
  1143.0000      0.0000    794.8611      5.8422    135.7799
  1143.2500      0.0000    787.6147      5.7369    131.1368
  1143.5000      0.0000    784.6111      5.6282    129.6795
  1143.7500      0.0000    787.0416      5.5368    130.9680
  1144.0000      0.0000    791.8287      5.4699    133.1853
  1144.2500      0.0000    792.5699      5.4259    135.2308
  1144.5000      0.0000    782.3196      5.4012    137.6211
  1144.7500      0.0000    756.6166      5.3926    141.5485
  1145.0000      0.0000    716.7228      5.3947    147.1416
  1145.2500      0.0000    670.9537      5.3997    152.8569
  1145.5000      0.0000    630.7137      5.4009    156.8891
  1145.7500      0.0000    603.4230      5.3968    158.9850
  1146.0000      0.0000    589.2387      5.3904    160.4127
  1146.2500      0.0000    584.1079      5.3836    162.2790
  1146.5000      0.0000    584.9033      5.3741    164.2698
  1146.7500      0.0000    592.2506      5.3579    165.0391
  1147.0000      0.0000    609.7359      5.3368    163.6662
  1147.2500      0.0000    640.0005      5.3213    160.5633
  1147.5000      0.0000    680.0295      5.3244    156.8267
  1147.7500      0.0000    720.3979      5.3508    152.9658
  1148.0000      0.0000    751.0162      5.3941    148.6823
  1148.2500      0.0000    768.3889      5.4424    144.0063
  1148.5000      0.0000    776.4305      5.4837    140.3256
  1148.7500      0.0000    780.4248      5.5073    139.7985
  1149.0000      0.0000    782.0021      5.5037    143.3746
  1149.2500      0.0000    779.8900      5.4660    149.5268
  1149.5000      0.0000    772.8099      5.3941    155.3110
  1149.7500      0.0000    760.6315      5.2970    158.7562
  1150.0000      0.0000    745.2870      5.1883    159.9587
  1150.2500      0.0000    731.9742      5.0767    159.9319
  1150.5000      0.0000    727.0659      4.9662    159.0206
  1150.7500      0.0000    732.8506      4.8654    156.8049
  1151.0000      0.0000    745.2107      4.7921    153.1054
  1151.2500      0.0000    757.1824      4.7656    148.5083
  1151.5000      0.0000    763.9562      4.7932    143.9898
  1151.7500      0.0000    764.8117      4.8649    140.3177
  1152.0000      0.0000    762.2553      4.9595    137.6983
  1152.2500      0.0000    759.9327      5.0566    135.7811
  1152.5000      0.0000    759.8906      5.1483    134.2018
  1152.7500      0.0000    761.0545      5.2368    133.3534
  1153.0000      0.0000    761.1593      5.3239    134.4607
  1153.2500      0.0000    760.5904      5.4046    138.6151
  1153.5000      0.0000    763.4255      5.4693    145.6701
  1153.7500      0.0000    773.5311      5.5126    154.0368
  1154.0000      0.0000    789.7473      5.5373    161.2365
  1154.2500      0.0000    805.8171      5.5524    164.4585
  1154.5000      0.0000    815.2828      5.5647    161.4976
  1154.7500      0.0000    815.8539      5.5740    152.6259
  1155.0000      0.0000    809.4232      5.5747    141.4758
  1155.2500      0.0000    799.7402      5.5596    132.7713
  1155.5000      0.0000    791.0435      5.5230    128.8305
  1155.7500      0.0000    787.1566      5.4641    128.6273
  1156.0000      0.0000    789.4796      5.3909    129.6753
  1156.2500      0.0000    795.6274      5.3162    130.0206
  1156.5000      0.0000    800.8668      5.2508    128.8642
  1156.7500      0.0000    800.7051      5.1988    126.3767
  1157.0000      0.0000    792.5735      5.1604    123.3439
  1157.2500      0.0000    776.8284      5.1355    120.7604
  1157.5000      0.0000    756.9122      5.1244    119.4956
  1157.7500      0.0000    737.5871      5.1254    120.1373
  1158.0000      0.0000    722.8860      5.1329    122.8538
  1158.2500      0.0000    715.7610      5.1412    127.3112
  1158.5000      0.0000    717.5163      5.1471    132.9646
  1158.7500      0.0000    726.1010      5.1496    139.3412
  1159.0000      0.0000    736.8030      5.1487    145.5530
  1159.2500      0.0000    745.8365      5.1473    149.7089
  1159.5000      0.0000    751.8319      5.1518    149.7030
  1159.7500      0.0000    753.5975      5.1666    145.0488
  1160.0000      0.0000    748.5980      5.1861    137.7010
  1160.2500      0.0000    734.6467      5.1939    130.9976
  1160.5000      0.0000    712.0563      5.1737    127.6238
  1160.7500      0.0000    683.6822      5.1243    127.9966
  1161.0000      0.0000    653.8842      5.0616    130.3502
  1161.2500      0.0000    628.0684      5.0043    132.6897
  1161.5000      0.0000    612.6567      4.9593    134.5486
  1161.7500      0.0000    613.5894      4.9203    136.6685
  1162.0000      0.0000    632.3664      4.8792    139.4930
  1162.2500      0.0000    662.4492      4.8377    142.4776
  1162.5000      0.0000    691.2118      4.8105    144.5336
  1162.7500      0.0000    708.1207      4.8131    144.5904
  1163.0000      0.0000    711.5231      4.8453    141.9874
  1163.2500      0.0000    707.1141      4.8872    137.1656
  1163.5000      0.0000    701.6352      4.9139    132.1653
  1163.7500      0.0000    699.8327      4.9135    129.5945
