~Version Information
VERS.                      2.0: CWLS Log ASCII Standard - VERSION 2.0
WRAP.                       NO: One line per depth step
~Well Information Block
STRT.FT                 0.0000: 
STOP.FT              2473.5000: 
STEP.FT                 0.2500: 
NULL.                -999.2500: 
COMP.          Petrogulf Corporation: COMPANY
WELL.          Montoya 18-11V-B: WELL
FLD.           Purgatorie River: FIELD
LOC.           848' FNL & 619' FWL: LOCATION
PROV.                 Colorado: PROVINCE
CNTY.               Las Animas: COUNTRY
SRVC.                Patterson: SERVICE COMPANY
DATE.          Wed Nov 09 10:15:13 2005: LOG DATE
UWI.                          : UNIQUE WELL ID
~Curve Information Block
DEPT.FT            0 000 00 00: Depth
CCL.                          : Casing Collar Locator
TT3.usec                      : CBL 3' Travel Time
AMP3.mV                       : CBL 3' Amplitude
GR.GAPI                       : Gamma Ray
~Parameter Information Block
~A  Depth       CCL         TT3         AMP3         GR     
# ...
   335.0000      0.0000    263.4803     61.5363     96.6031
   335.2500      0.0000    264.5630     58.5483     99.7155
   335.5000      0.0000    265.0696     57.5120    102.6025
   335.7500      0.0000    265.2517     57.5417    103.6231
   336.0000      0.0000    265.3094     57.8367    102.2910
   336.2500     -2.0000    265.3423     57.9598     99.3796
   336.5000      0.0000    265.3591     57.8764     96.2292
   336.7500      0.0000    265.2744     58.1211     94.0506
   337.0000      0.0000    264.9654     59.5863     93.3508
   337.2500      0.0000    264.3248     62.5713     93.6243
   337.5000      0.0000    263.2655     66.0427     93.8442
   337.7500      0.0000    261.8499     68.8670     93.6162
   338.0000      0.0000    260.4160     71.3675     93.6280
   338.2500      0.0000    259.3476     74.1068     94.6146
   338.5000      0.0000    258.7692     76.4725     96.2379
   338.7500      0.0000    258.5483     77.8677     97.4360
   339.0000      0.0000    258.4871     78.5911     97.4532
   339.2500      0.0000    258.4630     79.0548     96.1160
   339.5000      0.0000    258.4482     79.2903     93.6794
   339.7500      0.0000    258.4549     79.2497     91.0569
   340.0000      0.0000    258.4790     79.1131     89.7326
   340.2500      0.0000    258.5026     79.1071     90.5934
   340.5000      0.0000    258.5179     79.2253     92.8225
   340.7500      0.0000    258.5166     79.3640     94.4720
   341.0000      0.0000    258.4901     79.4733     94.2849
   341.2500      0.0000    258.4462     79.5021     92.7400
   341.5000      0.0000    258.3975     79.4293     91.4488
   341.7500      0.0000    258.3544     79.3087     91.8651
   342.0000      0.0000    258.3330     79.2260     94.3818
   342.2500      0.0000    258.3412     79.2510     98.1195
   342.5000      0.0000    258.3628     79.3834    101.5242
   342.7500      0.0000    258.3732     79.5417    103.5618
   343.0000      0.0000    258.3635     79.6240    104.3781
   343.2500      0.0000    258.3455     79.5925    104.7252
   343.5000      0.0000    258.3383     79.5224    105.1126
   343.7500      0.0000    258.3524     79.5384    105.7093
   344.0000      0.0000    258.3832     79.6980    106.5576
   344.2500      0.0000    258.4159     79.9178    107.4229
   344.5000      0.0000    258.4367     80.0380    107.6755
   344.7500      0.0000    258.4372     79.9879    106.7940
   345.0000      0.0000    258.4164     79.8145    105.0698
   345.2500      0.0000    258.3872     79.6023    103.4755
   345.5000      0.0000    258.3660     79.4864    102.7163
   345.7500      0.0000    258.3568     79.6132    102.6650
   346.0000      0.0000    258.3574     79.9245    102.7501
   346.2500      0.0000    258.3688     80.1075    102.5519
   346.5000      0.0000    258.3938     79.9476    101.9621
   346.7500      0.0000    258.4327     79.5899    101.1513
   347.0000      0.0000    258.4882     79.2910    100.5919
   347.2500      0.0000    258.5616     79.1249    100.8512
   347.5000      0.0000    258.6283     79.0790    102.0127
   347.7500      0.0000    258.6410     79.2043    103.3341
   348.0000      0.0000    258.5864     79.4991    103.7316
   348.2500      0.0000    258.5117     79.7951    102.6868
   348.5000      0.0000    258.4716     79.9238    100.5263
   348.7500      0.0000    258.4770     79.8705     97.8146
   349.0000      0.0000    258.4990     79.7297     94.8248
   349.2500      0.0000    258.4991     79.6749     91.9394
   349.5000      0.0000    258.4621     79.8425     90.3780
   349.7500      0.0000    258.4111     80.1271     91.7386
   350.0000      0.0000    258.3807     80.2834     96.2487
   350.2500      0.0000    258.3805     80.2344    101.8443
   350.5000      0.0000    258.3866     80.1138    105.7018
   350.7500      0.0000    258.3753     80.0580    106.6010
   351.0000      0.0000    258.3622     80.0460    105.3086
   351.2500      0.0000    258.3803     79.9404    102.8960
   351.5000      0.0000    258.4267     79.6555     99.4047
   351.7500      0.0000    258.4654     79.2511     94.3709
   352.0000      0.0000    258.4717     78.9099     88.1503
   352.2500      0.0000    258.4478     78.8007     82.2210
   352.5000      0.0000    258.4067     78.9334     78.2338
   352.7500      0.0000    258.3640     79.2271     76.9905
   353.0000      0.0000    258.3382     79.5874     78.1777
   353.2500      0.0000    258.3405     79.8529     80.7623
   353.5000      0.0000    258.3662     79.8864     83.6723
   353.7500      0.0000    258.3917     79.7681     86.2890
   354.0000      0.0000    258.3914     79.7265     88.3073
   354.2500      0.0000    258.3732     79.8742     89.2913
   354.5000      0.0000    258.3662     80.1113     88.7435
   354.7500      0.0000    258.3745     80.2950     86.7509
   355.0000      0.0000    258.3765     80.3851     84.3200
   355.2500      0.0000    258.3604     80.3841     82.8626
   355.5000      0.0000    258.3327     80.3011     83.3416
   355.7500      0.0000    258.3102     80.1811     85.7224
   356.0000      0.0000    258.3077     80.0622     88.9211
   356.2500      0.0000    258.3256     79.9695     91.3525
   356.5000      0.0000    258.3540     79.9537     91.7682
   356.7500      0.0000    258.3893     80.0181     89.7384
   357.0000      0.0000    258.4306     80.0712     85.6883
   357.2500      0.0000    258.4629     80.0677     80.7439
   357.5000      0.0000    258.4691     80.0535     76.3233
   357.7500      0.0000    258.4543     80.0120     73.4798
   358.0000      0.0000    258.4312     79.8843     72.3998
   358.2500      0.0000    258.3980     79.7116     72.4212
   358.5000      0.0000    258.3569     79.5917     72.5280
   358.7500      0.0000    258.3401     79.5627     71.9747
   359.0000      0.0000    258.3691     79.5969     70.5679
   359.2500      0.0000    258.4114     79.6207     68.5552
   359.5000      0.0000    258.4276     79.5876     66.4022
   359.7500      0.0000    258.4180     79.5912     64.4935
   360.0000      0.0000    258.4018     79.7480     62.7844
   360.2500      0.0000    258.3962     79.9556     60.7735
   360.5000      0.0000    258.4098     79.9902     58.0318
   360.7500      0.0000    258.4283     79.8316     54.8543
   361.0000      0.0000    258.4213     79.6657     52.1895
   361.2500      0.0000    258.3774     79.6148     50.7353
   361.5000      0.0000    258.3159     79.6497     50.2950
   361.7500      0.0000    258.2628     79.6955     50.2252
   362.0000      0.0000    258.2336     79.6844     50.2967
   362.2500      0.0000    258.2342     79.5455     50.8250
   362.5000      0.0000    258.2578     79.2946     52.0059
   362.7500      0.0000    258.2917     79.0772     53.4071
   363.0000      0.0000    258.3275     79.0220     54.3299
   363.2500      0.0000    258.3562     79.1390     54.6638
   363.5000      0.0000    258.3726     79.3239     55.1826
   363.7500      0.0000    258.3831     79.4224     56.8968
   364.0000      0.0000    258.3893     79.3788     60.1999
   364.2500      0.0000    258.3830     79.2985     64.6028
   364.5000      0.0000    258.3693     79.3059     69.1351
   364.7500      0.0000    258.3682     79.4019     73.0755
   365.0000      0.0000    258.3822     79.5077     76.4025
   365.2500      0.0000    258.3961     79.5972     79.4217
   365.5000      0.0000    258.4074     79.7229     81.9637
   365.7500      0.0000    258.4303     79.9096     83.4511
   366.0000      0.0000    258.4644     80.1133     84.0661
   366.2500      0.0000    258.4887     80.2874     85.3456
   366.5000      0.0000    258.4909     80.4069     88.9831
   366.7500      0.0000    258.4812     80.4385     95.1301
   367.0000      0.0000    258.4743     80.3753    102.2046
   367.2500      0.0000    258.4691     80.3050    108.2670
   367.5000      0.0000    258.4594     80.3027    112.4779
   367.7500      0.0000    258.4560     80.2962    115.5196
   368.0000      0.0000    258.4704     80.2284    118.6943
   368.2500      0.0000    258.4903     80.1836    122.2197
