~Version Information
VERS.                      2.0: CWLS Log ASCII Standard - VERSION 2.0
WRAP.                       NO: One line per depth step
~Well Information Block
STRT.FT                -3.0000: 
STOP.FT              1123.0000: 
STEP.FT                 0.2500: 
NULL.                -999.2500: 
COMP.          Pioneer Natural Resources: COMPANY
WELL.               Ryan 41-17: WELL
FLD.           Purgatoire River: FIELD
LOC.           822' FNL & 532' FEL--: LOCATION
CNTY.               Las Animas: COUNTY
SRVC.                Patterson: SERVICE COMPANY
DATE.          Mon Mar 27 14:50:31 2006: LOG DATE
UWI.           05 071 08719 00: UNIQUE WELL ID
STAT.                 Colorado: STATE
~Curve Information Block
DEPT.FT            0 000 00 00: Depth
CCL.                          : Casing Collar Locator
TT3.usec                      : CBL 3' Travel Time
AMP3.mV                       : CBL 3' Amplitude
GR.GAPI                       : Gamma Ray
~Parameter Information Block
~A  Depth       CCL         TT3         AMP3         GR     
# ...
   767.5000      0.0000    260.3445     72.1085    112.3695
   767.7500      0.0000    260.3579     72.0613    112.8574
   768.0000      0.0000    260.3981     71.8122    114.8548
   768.2500      0.0000    260.4359     71.5204    116.9634
   768.5000      0.0000    260.4980     70.9543    119.8307
   768.7500      0.0000    260.5362     70.5438    120.5803
   769.0000      0.0000    260.5837     69.9395    119.5877
   769.2500      0.0000    260.6101     69.5562    118.0676
   769.5000      0.0000    260.6446     69.0291    115.4164
   769.7500      0.0000    260.6635     68.7299    113.3490
   770.0000      0.0000    260.6866     68.3625    109.1241
   770.2500      0.0000    260.7039     68.1314    105.6051
   770.5000      0.0000    260.7473     67.7081    100.7159
   770.7500      0.0000    260.7932     67.3424     98.7953
   771.0000      0.0000    260.8876     66.6690     98.7129
   771.2500      0.0000    260.9658     66.1533    100.3732
   771.5000      0.0000    261.1104     65.3016    105.2477
   771.7500      0.0000    261.2391     64.6747    109.9919
   772.0000      0.0000    261.5440     63.5970    117.6259
   772.2500      0.0000    261.9188     62.7583    121.0202
   772.5000      0.0000    263.1497     61.3054    120.7738
   772.7500      0.0000    264.8667     60.2203    117.1892
   773.0000      0.0000    269.7029     58.4720    109.6068
   773.2500      0.0000    274.6409     57.2804    104.9724
   773.5000      0.0000    283.6432     55.5827    100.3545
   773.7500      0.0000    289.4843     54.5801     99.0592
   774.0000      0.0000    296.1136     53.3150    100.1648
   774.2500      0.0000    298.7585     52.6080    103.2839
   774.5000      0.0000    300.6690     51.6846    111.2282
   774.7500      0.0000    301.1432     51.1444    117.5921
   775.0000      0.0000    301.2998     50.5091    126.2585
   775.2500      0.0000    301.0909     50.2958    130.4582
   775.5000      0.0000    299.8379     50.5064    133.7015
   775.7500      0.0000    297.8310     51.1056    133.5425
   776.0000      0.0000    292.1918     52.7351    129.2653
   776.2500      0.0000    286.7115     54.2195    123.7733
   776.5000      0.0000    277.4126     56.7191    113.1651
   776.7500      0.0000    271.8195     58.3397    106.2289
   777.0000      0.0000    265.9025     60.4002     98.8980
   777.2500      0.0000    263.6827     61.4679     96.7019
   777.5000      0.0000    262.1058     62.7228     96.1789
   777.7500      0.0000    261.6643     63.4661     96.5124
   778.0000      0.0000    261.3168     64.6686     97.6496
   778.2500      0.0000    261.1475     65.6087     99.6421
   778.5000      0.0000    260.9134     67.2482    105.4552
   778.7500      0.0000    260.7668     68.4457    110.7054
   779.0000      0.0000    260.5733     70.2515    118.5077
   779.2500      0.0000    260.4699     71.3686    122.4132
   779.5000      0.0000    260.3591     72.7876    124.7674
   779.7500      0.0000    260.3123     73.5177    123.6189
   780.0000      0.0000    260.2726     74.2746    118.8665
   780.2500      0.0000    260.2585     74.5907    115.2483
   780.5000      0.0000    260.2418     74.9147    111.3979
   780.7500      0.0000    260.2274     75.1131    109.8364
   781.0000      0.0000    260.1982     75.4530    107.5403
   781.2500      0.0000    260.1765     75.6918    105.8607
   781.5000      0.0000    260.1494     75.9918    104.8253
   781.7500      0.0000    260.1395     76.1190    106.3073
   782.0000      0.0000    260.1400     76.1960    111.9594
   782.2500      0.0000    260.1498     76.1827    116.7443
   782.5000      0.0000    260.1772     76.0640    122.5839
   782.7500      0.0000    260.2025     75.9200    124.7095
   783.0000      0.0000    260.2431     75.6872    125.7923
   783.2500      0.0000    260.2633     75.6134    126.0969
   783.5000      0.0000    260.2704     75.7420    127.5463
   783.7500      0.0000    260.2591     75.9705    129.3758
   784.0000      0.0000    260.2307     76.3667    131.6525
   784.2500      0.0000    260.2141     76.5582    131.3844
   784.5000      0.0000    260.2012     76.6320    128.0612
   784.7500      0.0000    260.1991     76.5355    125.4242
   785.0000      0.0000    260.2009     76.1886    123.1847
   785.2500      0.0000    260.2090     75.7952    122.7376
   785.5000      0.0000    260.2475     74.8648    122.3558
   785.7500      0.0000    260.2965     73.9994    122.2170
   786.0000      0.0000    260.3957     72.4625    123.0683
   786.2500      0.0000    260.4671     71.4153    124.5548
   786.5000      0.0000    260.5700     69.9867    127.4335
   786.7500      0.0000    260.6385     69.1431    129.0674
   787.0000      0.0000    260.7548     67.9661    129.9071
   787.2500      0.0000    260.8464     67.2087    129.0051
   787.5000      0.0000    261.0016     66.1338    125.9267
   787.7500      0.0000    261.1105     65.4847    123.7552
   788.0000      0.0000    261.2693     64.6226    122.4164
   788.2500      0.0000    261.3688     64.1042    123.1845
   788.5000      0.0000    261.5269     63.3663    124.7888
   788.7500      0.0000    261.7037     62.8546    124.1212
   789.0000      0.0000    262.4749     61.8658    119.1355
   789.2500      0.0000    263.8795     60.8440    114.8090
   789.5000      0.0000    268.9674     58.2697    111.7529
   789.7500      0.0000    275.3796     55.6491    113.6411
   790.0000      0.0000    289.7820     50.5345    120.7998
   790.2500      0.0000    300.9928     46.7960    125.8720
   790.5000      0.0000    315.1884     41.6926    129.5268
   790.7500      0.0000    320.3431     39.0589    127.7912
   791.0000      0.0000    320.9083     36.5695    119.0565
   791.2500      0.0000    318.2434     35.8259    110.9072
   791.5000      0.0000    313.6837     35.6414     99.6411
   791.7500      0.0000    311.9071     35.7878     94.7155
   792.0000      2.0000    312.4538     35.9696     91.8246
   792.2500      0.0000    315.2037     36.0186     92.1369
   792.5000      0.0000    321.8940     36.3586     94.2558
   792.7500      0.0000    325.9257     37.2266     95.8556
   793.0000      0.0000    326.0699     40.2647     97.5127
   793.2500      0.0000    320.5154     43.4735     98.2337
   793.5000      0.0000    305.8532     49.1270     99.9495
   793.7500      0.0000    294.8483     52.7369    102.1029
   794.0000      0.0000    280.4873     57.2420    106.7292
   794.2500      0.0000    273.2687     59.5995    110.1477
   794.5000      0.0000    266.0966     62.2682    114.6768
   794.7500      0.0000    263.4042     63.5307    117.1507
   795.0000      0.0000    261.4834     64.8345    120.9419
   795.2500      0.0000    260.9962     65.4646    124.0770
   795.5000      0.0000    260.7322     66.2827    128.9939
   795.7500      0.0000    260.6574     66.8122    131.1050
   796.0000      0.0000    260.5786     67.5634    130.9961
   796.2500      0.0000    260.5387     67.9736    129.2508
   796.5000      0.0000    260.5025     68.3630    126.5518
   796.7500      0.0000    260.4959     68.4725    125.7645
   797.0000      0.0000    260.5036     68.4971    126.4249
   797.2500      0.0000    260.5134     68.4703    127.9099
   797.5000      0.0000    260.5298     68.3690    131.1552
   797.7500      0.0000    260.5444     68.2260    133.0603
   798.0000      0.0000    260.5798     67.8641    133.0928
   798.2500      0.0000    260.6150     67.5417    130.6889
   798.5000      0.0000    260.6820     66.9826    125.5902
   798.7500      0.0000    260.7317     66.5686    123.0863
   799.0000      0.0000    260.8073     65.8872    121.7562
   799.2500      0.0000    260.8552     65.4170    121.8132
   799.5000      0.0000    260.9138     64.7943    122.6898
   799.7500      0.0000    260.9381     64.5071    124.4783
   800.0000      0.0000    260.9532     64.3072    129.6829
   800.2500      0.0000    260.9598     64.2648    133.5222
   800.5000      0.0000    260.9942     64.1347    135.5507
   800.7500      0.0000    261.0493     63.9030    133.1167
