~Version Information
VERS.                      2.0: CWLS Log ASCII Standard - VERSION 2.0
WRAP.                       NO: One line per depth step
~Well Information Block
STRT.FT               322.3000: 
STOP.FT              1375.0000: 
STEP.FT                 0.1000: 
NULL.                -999.2500: 
COMP.          Pioneer Natural Resources: COMPANY
WELL.          Buffet 41-36 Tr: WELL
FLD.           Purgatoire River: FIELD
LOC.           119' FNL & 271' FEL: LOCATION
PROV.                 Colorado: PROVINCE
CNTY.               Las Animas: COUNTRY
SRVC.                Patterson: SERVICE COMPANY
DATE.          Thu Dec 29 07:13:13 2005: LOG DATE
UWI.           05 071 08627 00: UNIQUE WELL ID
~Curve Information Block
DEPT.FT            0 000 00 00: Depth
DCAL.in                       : CDL Caliper
RHOB.g/cc                     : CDL Bulk Density
RHOC.g/cc                     : CDL Density Correction
DPOR.pu                       : CDL Density Porosity
GR.GAPI                       : Gamma Ray
~Parameter Information Block
~A  Depth       DCAL        RHOB        RHOC        DPOR         GR     
# ...
   546.3000      8.0678      2.5962      0.1121      3.2599    128.5858
   546.4000      8.0678      2.5984      0.1191      3.1256    126.2914
   546.5000      8.0684      2.6006      0.1387      2.9928    126.3616
   546.6000      8.0684      2.5902      0.0953      3.6253    126.4058
   546.7000      8.0684      2.5719      0.0909      4.7329    125.4030
   546.8000      8.0687      2.5564      0.0856      5.6710    125.5843
   546.9000      8.0687      2.5419      0.0598      6.5505    126.6345
   547.0000      8.0678      2.5229      0.0080      7.7016    127.1649
   547.1000      8.0678      2.5021      0.0011      8.9660    129.1887
   547.2000      8.0678      2.4843     -0.0130     10.0405    131.2007
   547.3000      8.0671      2.4741     -0.0296     10.6631    131.0871
   547.4000      8.0671      2.4819     -0.0383     10.1890    129.9192
   547.5000      8.0673      2.5085     -0.0004      8.5740    127.1914
   547.6000      8.0673      2.5338      0.0257      7.0429    122.3803
   547.7000      8.0673      2.5455      0.0140      6.3351    118.7460
   547.8000      8.0673      2.5513      0.0158      5.9832    117.7074
   547.9000      8.0673      2.5568      0.0011      5.6494    116.8130
   548.0000      8.0663      2.5603      0.0161      5.4370    116.1730
   548.1000      8.0663      2.5564      0.0019      5.6749    118.7023
   548.2000      8.0663      2.5458     -0.0344      6.3126    122.4802
   548.3000      8.0647      2.5400     -0.0150      6.6687    121.9042
   548.4000      8.0647      2.5447     -0.0059      6.3789    119.6962
   548.5000      8.0640      2.5597     -0.0319      5.4741    118.3260
   548.6000      8.0640      2.5732      0.0351      4.6543    114.3072
   548.7000      8.0640      2.5667      0.0244      5.0456    110.2764
   548.8000      8.0649      2.5470     -0.0232      6.2401    111.2352
   548.9000      8.0649      2.5353     -0.0318      6.9500    117.4690
   549.0000      8.0656      2.5326      0.0132      7.1130    125.0274
   549.1000      8.0656      2.5305     -0.0090      7.2432    126.2226
   549.2000      8.0656      2.5320     -0.0108      7.1521    121.9982
   549.3000      8.0639      2.5364      0.0280      6.8837    121.3023
   549.4000      8.0639      2.5381     -0.0122      6.7823    126.3983
   549.5000      8.0621      2.5320      0.0504      7.1514    134.5429
   549.6000      8.0621      2.5108      0.0004      8.4386    142.8088
   549.7000      8.0621      2.4838     -0.0346     10.0753    146.7735
   549.8000      8.0613      2.4725      0.0011     10.7597    144.4862
   549.9000      8.0613      2.4872     -0.0397      9.8652    139.5268
   550.0000      8.0606      2.5206      0.0138      7.8449    133.9595
   550.1000      8.0606      2.5577      0.0363      5.5944    125.7091
   550.2000      8.0606      2.5944      0.0488      3.3679    119.7790
   550.3000      8.0602      2.6325      0.0871      1.0600    123.3009
   550.4000      8.0602      2.6614      0.1264     -0.6929    127.8027
   550.5000      8.0604      2.6702      0.0584     -1.2221    121.9709
   550.6000      8.0604      2.6678      0.0468     -1.0764    109.6584
   550.7000      8.0604      2.6653      0.1000     -0.9293    100.0371
   550.8000      8.0604      2.6556      0.0963     -0.3421     96.1056
   550.9000      8.0604      2.6286      0.0418      1.2969     96.7126
   551.0000      8.0610      2.5863      0.0294      3.8587    100.3317
   551.1000      8.0610      2.5473     -0.0214      6.2266    105.7747
   551.2000      8.0610      2.5317     -0.0203      7.1724    114.9108
   551.3000      8.0624      2.5400     -0.0485      6.6659    125.2843
   551.4000      8.0624      2.5624     -0.0111      5.3062    127.1278
   551.5000      8.0630      2.5825      0.0461      4.0914    119.7950
   551.6000      8.0630      2.5822      0.0529      4.1089    115.1746
   551.7000      8.0630      2.5666     -0.0018      5.0539    119.4228
   551.8000      8.0622      2.5543      0.0207      5.7984    125.8508
   551.9000      8.0622      2.5429      0.0764      6.4924    131.3412
   552.0000      8.0609      2.5304      0.0156      7.2478    137.9953
   552.1000      8.0609      2.5411     -0.0248      6.5983    142.6638
   552.2000      8.0609      2.5776      0.0436      4.3858    144.2170
   552.3000      8.0606      2.6086      0.0939      2.5076    143.9910
   552.4000      8.0606      2.6223      0.0873      1.6808    139.1898
   552.5000      8.0605      2.6325      0.0662      1.0634    129.6499
   552.6000      8.0605      2.6457      0.1095      0.2620    121.6935
   552.7000      8.0605      2.6541      0.1084     -0.2498    117.1790
   552.8000      8.0602      2.6526      0.0926     -0.1564    111.7488
   552.9000      8.0602      2.6409      0.0562      0.5526    105.7689
   553.0000      8.0595      2.6275     -0.0104      1.3631     99.8827
   553.1000      8.0595      2.6175      0.0374      1.9695     95.7951
   553.2000      8.0595      2.6005      0.0243      3.0013     95.3939
   553.3000      8.0589      2.5801     -0.0066      4.2344     95.5279
   553.4000      8.0589      2.5708     -0.0142      4.8010     96.2977
   553.5000      8.0596      2.5688      0.0335      4.9235     99.0232
   553.6000      8.0596      2.5639     -0.0017      5.2153     99.6032
   553.7000      8.0596      2.5596      0.0040      5.4775     97.7659
   553.8000      8.0608      2.5620      0.0238      5.3321     99.6706
   553.9000      8.0608      2.5712     -0.0068      4.7732    105.3321
   554.0000      8.0613      2.5822      0.0573      4.1106    108.3880
   554.1000      8.0613      2.5884      0.0542      3.7332    108.3421
   554.2000      8.0613      2.5894      0.0632      3.6749    109.7612
   554.3000      8.0608      2.5834      0.0418      4.0337    112.9164
   554.4000      8.0608      2.5722      0.0265      4.7138    114.2938
   554.5000      8.0605      2.5702      0.0138      4.8386    115.1680
   554.6000      8.0605      2.5893      0.0563      3.6802    119.8753
   554.7000      8.0605      2.6195      0.1047      1.8485    125.7733
   554.8000      8.0606      2.6385      0.0887      0.6947    126.7453
   554.9000      8.0606      2.6335      0.0464      0.9997    120.8216
   555.0000      8.0603      2.6109      0.0417      2.3720    110.3413
   555.1000      8.0603      2.5847      0.0285      3.9566    102.5102
   555.2000      8.0603      2.5605      0.0088      5.4219    101.0194
   555.3000      8.0591      2.5465     -0.0420      6.2726    100.7298
   555.4000      8.0591      2.5535      0.0006      5.8478    100.1254
   555.5000      8.0576      2.5663      0.0331      5.0721    101.1901
   555.6000      8.0576      2.5629      0.0401      5.2802    100.3496
   555.7000      8.0576      2.5507     -0.0121      6.0157     97.6541
   555.8000      8.0578      2.5449      0.0258      6.3684     97.1473
   555.9000      8.0578      2.5455     -0.0001      6.3346     98.5275
   556.0000      8.0584      2.5514      0.0179      5.9765    101.3832
   556.1000      8.0584      2.5609      0.0314      5.4021    105.8295
   556.2000      8.0584      2.5725      0.0329      4.6999    110.6482
   556.3000      8.0585      2.5858      0.0372      3.8888    116.0280
   556.4000      8.0585      2.5974      0.0672      3.1859    119.8251
   556.5000      8.0589      2.6129      0.0441      2.2465    120.5565
   556.6000      8.0589      2.6393      0.0918      0.6488    120.4288
   556.7000      8.0589      2.6572      0.1443     -0.4382    120.2464
   556.8000      8.0588      2.6409      0.1245      0.5493    119.3458
   556.9000      8.0588      2.6041      0.0358      2.7822    116.2137
   557.0000      8.0587      2.5797      0.0459      4.2619    113.2526
   557.1000      8.0587      2.5745      0.0411      4.5740    115.5472
   557.2000      8.0587      2.5826      0.0512      4.0873    121.3758
   557.3000      8.0584      2.6052      0.0213      2.7152    122.1204
   557.4000      8.0584      2.6291      0.0956      1.2668    115.5011
