~Version Information
VERS.                      2.0: CWLS Log ASCII Standard - VERSION 2.0
WRAP.                       NO: One line per depth step
~Well Information Block
STRT.FT               260.8000: 
STOP.FT              1942.0000: 
STEP.FT                 0.1000: 
NULL.                -999.2500: 
COMP.          XTO Energy Inc.: COMPANY
WELL.          Golden Eagle 19-11: WELL
FLD.           Purgatoire River: FIELD
LOC.           2351' FSL & 1926' FWL--: LOCATION
CNTY.               Las Animas: COUNTY
SRVC.                Patterson: SERVICE COMPANY
DATE.          Thu Mar 09 08:41:38 2006: LOG DATE
UWI.           05 071 08696 00: UNIQUE WELL ID
STAT.                 Colorado: STATE
~Curve Information Block
DEPT.FT            0 000 00 00: Depth
DCAL.in                       : CDL Caliper
RHOB.g/cc                     : CDL Bulk Density
RHOC.g/cc                     : CDL Density Correction
DPOR.pu                       : CDL Density Porosity
NPOR.pu                       : Neutron Porosity
GR.GAPI                       : Gamma Ray
~Parameter Information Block
~A  Depth       DCAL        RHOB        RHOC        DPOR        NPOR         GR     
# ...
  1028.8000      7.9913      2.4293     -0.0207     13.3749     13.5802     72.9927
  1028.9000      7.9913      2.4387      0.0023     12.8039     13.5434     68.9576
  1029.0000      7.9900      2.4530      0.0216     11.9421     13.1904     65.3100
  1029.1000      7.9900      2.4624      0.0144     11.3689     12.8542     66.8470
  1029.2000      7.9900      2.4683      0.0164     11.0125     12.9417     71.4709
  1029.3000      7.9898      2.4762      0.0398     10.5321     13.4355     72.2457
  1029.4000      7.9898      2.4827      0.0420     10.1380     13.8614     67.6607
  1029.5000      7.9897      2.4797      0.0425     10.3206     13.9372     62.8074
  1029.6000      7.9897      2.4682     -0.0008     11.0204     13.8735     60.6847
  1029.7000      7.9897      2.4503      0.0489     12.1037     13.8504     61.6441
  1029.8000      7.9887      2.4266     -0.0212     13.5380     13.8589     65.5893
  1029.9000      7.9887      2.4136     -0.0027     14.3284     13.9035     70.5112
  1030.0000      7.9879      2.4234     -0.0112     13.7330     13.9583     74.1215
  1030.1000      7.9879      2.4413      0.0632     12.6484     14.0227     75.3105
  1030.2000      7.9879      2.4531      0.0192     11.9323     14.2990     76.1221
  1030.3000      7.9907      2.4699      0.0075     10.9125     14.7781     78.5155
  1030.4000      7.9907      2.4955      0.0345      9.3660     15.0414     81.2361
  1030.5000      7.9997      2.5129      0.0575      8.3098     14.9475     82.6438
  1030.6000      7.9997      2.5202      0.0229      7.8668     14.8892     81.8767
  1030.7000      7.9997      2.5346      0.0462      6.9937     15.0056     80.2250
  1030.8000      8.0065      2.5571      0.0525      5.6324     15.0880     78.3410
  1030.9000      8.0065      2.5649      0.0982      5.1558     15.2961     73.8838
  1031.0000      8.0062      2.5501      0.0766      6.0554     15.9352     69.7504
  1031.1000      8.0062      2.5399      0.0529      6.6706     16.7623     69.5768
  1031.2000      8.0062      2.5555      0.0745      5.7272     17.3703     69.7853
  1031.3000      8.0026      2.5759      0.0895      4.4905     17.7117     67.6179
  1031.4000      8.0026      2.5676      0.0956      4.9940     17.6680     64.9197
  1031.5000      7.9984      2.5383     -0.0021      6.7709     17.1632     63.7825
  1031.6000      7.9984      2.5215      0.0510      7.7906     16.5689     64.8431
  1031.7000      7.9984      2.5225      0.0198      7.7300     16.3415     68.6539
  1031.8000      7.9941      2.5327      0.0280      7.1077     16.5773     74.1494
  1031.9000      7.9941      2.5474      0.0404      6.2157     17.0507     75.8770
  1032.0000      7.9910      2.5583      0.0586      5.5575     17.3575     73.0315
  1032.1000      7.9910      2.5584      0.0666      5.5521     17.3078     71.0643
  1032.2000      7.9910      2.5481      0.0047      6.1732     17.3235     71.4053
  1032.3000      7.9884      2.5341      0.0274      7.0262     17.7507     74.7886
  1032.4000      7.9884      2.5271      0.0032      7.4497     18.2952     80.5729
  1032.5000      7.9881      2.5324      0.0180      7.1248     18.5289     81.6603
  1032.6000      7.9881      2.5401      0.0116      6.6582     18.4430     75.4803
  1032.7000      7.9881      2.5439      0.0111      6.4280     18.4499     67.3737
  1032.8000      7.9913      2.5471      0.0316      6.2341     18.7303     61.7465
  1032.9000      7.9913      2.5525      0.0400      5.9105     18.9635     60.8395
  1033.0000      7.9923      2.5555      0.0545      5.7269     18.8900     64.1772
  1033.1000      7.9923      2.5465      0.0449      6.2734     18.6851     68.8088
  1033.2000      7.9923      2.5336     -0.0426      7.0561     18.5800     73.1130
  1033.3000      7.9907      2.5344     -0.0285      7.0048     18.5734     75.7688
  1033.4000      7.9907      2.5459      0.0212      6.3107     18.5934     75.6536
  1033.5000      7.9902      2.5587      0.0083      5.5333     18.8467     73.7069
  1033.6000      7.9902      2.5757      0.0436      4.5039     19.4860     71.0386
  1033.7000      7.9902      2.5928      0.0397      3.4664     20.1084     67.7856
  1033.8000      7.9885      2.5959      0.0696      3.2772     20.3728     65.2779
  1033.9000      7.9885      2.5813      0.0379      4.1611     20.3763     66.5217
  1034.0000      7.9849      2.5613      0.0581      5.3759     20.2378     70.5576
  1034.1000      7.9849      2.5468      0.0260      6.2555     19.9678     73.8967
  1034.2000      7.9849      2.5410      0.0105      6.6060     19.7292     75.7566
  1034.3000      7.9806      2.5394      0.0140      6.7017     19.6837     75.6713
  1034.4000      7.9806      2.5336      0.0042      7.0554     19.6131     73.0970
  1034.5000      7.9793      2.5212      0.0096      7.8048     19.3466     70.5324
  1034.6000      7.9793      2.5069      0.0014      8.6720     18.9911     71.2547
  1034.7000      7.9793      2.5003     -0.0217      9.0700     18.7370     73.6841
  1034.8000      7.9798      2.5069      0.0422      8.6712     18.5924     74.1091
  1034.9000      7.9798      2.5165      0.0755      8.0893     18.3538     72.4174
  1035.0000      7.9763      2.5218      0.0374      7.7725     18.0471     70.0592
  1035.1000      7.9763      2.5256      0.0920      7.5411     18.0168     68.6319
  1035.2000      7.9763      2.5307      0.0307      7.2288     18.1512     70.4709
  1035.3000      7.9694      2.5395      0.0691      6.6994     18.1280     73.9479
  1035.4000      7.9694      2.5446      0.0684      6.3905     18.0330     74.9813
  1035.5000      7.9653      2.5416      0.0685      6.5678     17.8904     74.8087
  1035.6000      7.9653      2.5407      0.0329      6.6243     17.5535     74.8563
  1035.7000      7.9653      2.5470      0.0339      6.2447     17.0133     73.9823
  1035.8000      7.9685      2.5500      0.0554      6.0585     16.4399     73.7493
  1035.9000      7.9685      2.5427      0.0416      6.5017     15.9205     73.8668
  1036.0000      7.9801      2.5255      0.0630      7.5483     15.4201     71.7005
  1036.1000      7.9801      2.4987      0.0041      9.1673     15.0430     69.5472
  1036.2000      7.9801      2.4763     -0.0471     10.5264     14.9875     71.4074
  1036.3000      7.9929      2.4742      0.0153     10.6547     15.1411     75.3094
  1036.4000      7.9929      2.4838      0.0215     10.0737     15.2463     75.4787
  1036.5000      7.9996      2.4879     -0.0015      9.8244     15.3650     71.3936
  1036.6000      7.9996      2.4891     -0.0221      9.7537     15.4255     67.7227
  1036.7000      7.9996      2.5008      0.0091      9.0447     15.2167     67.4978
  1036.8000      8.0005      2.5148      0.0709      8.1938     14.8200     69.2653
  1036.9000      8.0005      2.5113      0.0209      8.4033     14.3385     68.7005
  1037.0000      8.0007      2.4917      0.0120      9.5914     13.8105     65.4097
  1037.1000      8.0007      2.4729     -0.0239     10.7341     13.3466     64.7395
  1037.2000      8.0007      2.4686     -0.0268     10.9925     13.1700     69.4198
  1037.3000      8.0020      2.4756      0.0139     10.5673     13.3552     75.1442
  1037.4000      8.0020      2.4817      0.0067     10.2008     13.6365     76.1550
  1037.5000      8.0021      2.4846      0.0494     10.0261     13.8623     72.8624
  1037.6000      8.0021      2.4857      0.0137      9.9599     14.0455     68.8476
  1037.7000      8.0021      2.4811      0.0068     10.2386     14.1554     65.1897
  1037.8000      8.0019      2.4678      0.0118     11.0420     14.2361     62.5523
  1037.9000      8.0019      2.4565     -0.0261     11.7269     14.3574     62.5451
  1038.0000      8.0036      2.4583      0.0105     11.6173     14.3008     65.5878
  1038.1000      8.0036      2.4666      0.0230     11.1144     14.0047     71.2968
  1038.2000      8.0036      2.4735     -0.0041     10.6997     13.7215     77.5035
  1038.3000      8.0056      2.4809      0.0292     10.2465     13.6488     79.3625
