~Version Information
VERS.                      2.0: CWLS Log ASCII Standard - VERSION 2.0
WRAP.                       NO: One line per depth step
~Well Information Block
STRT.FT               520.0000: 
STOP.FT              1373.0000: 
STEP.FT                 0.1000: 
NULL.                -999.2500: 
COMP.          Pioneer Natural Resources: COMPANY
WELL.            Gamma 13-3 Tr: WELL
FLD.           Purgatoire River: FIELD
LOC.           2127' FSL & 738' FWL: LOCATION
STAT.                 Colorado: State
CNTY.               Las Animas: COUNTY
CTRY.                      USA: Country
SECT.                        3: Section
TOWN.                       33S: Township
RANG.                       67W: Range
SRVC.                Patterson: SERVICE COMPANY
DATE.          Mon Sep 19 09:58:04 2005: LOG DATE
API.           05 071 08524 00: API
~Curve Information Block
DEPT.FT            0 000 00 00: Depth
DPOR.pu                       : CDL Density Porosity
GR.GAPI                       : Gamma Ray
NPOR.pu                       : Neutron Porosity
RHOB.g/cc                     : CDL Bulk Density
RHOC.g/cc                     : CDL Density Correction
DCAL.in                       : CDL Caliper
~Parameter Information Block
~A  Depth       DPOR         GR         NPOR        RHOB        RHOC        DCAL    
# ...
   740.8000      6.6007    128.9561     19.9850      2.5411      0.1862      7.9343
   740.9000      7.1466    131.3068     19.9344      2.5321      0.1406      7.9343
   741.0000      8.4640    132.4407     19.6712      2.5103      0.1311      7.9675
   741.1000      9.7639    129.4410     19.5531      2.4889      0.1391      7.9675
   741.2000     10.4509    126.2089     19.5325      2.4776      0.0775      7.9675
   741.3000     10.1593    127.2289     19.3032      2.4824      0.0892      8.0360
   741.4000      9.9411    127.1311     18.9165      2.4860      0.0562      8.0360
   741.5000     11.4333    122.6995     18.5498      2.4613      0.0553      8.0927
   741.6000     14.6081    118.8630     18.1496      2.4090      0.0023      8.0927
   741.7000     18.2441    120.2230     17.8359      2.3490      0.0086      8.0927
   741.8000     21.6522    124.0957     18.0264      2.2927      0.0103      8.1243
   741.9000     24.7872    125.6310     18.6467      2.2410     -0.0105      8.1243
   742.0000     28.0344    124.7917     19.2172      2.1874     -0.0171      8.1229
   742.1000     31.6887    126.4655     19.7715      2.1271      0.0033      8.1229
   742.2000     35.4775    131.8702     20.7005      2.0646      0.0082      8.1229
   742.3000     38.3720    135.4826     21.9063      2.0169     -0.0346      8.0924
   742.4000     39.4244    134.9461     22.8254      1.9995      0.0192      8.0924
   742.5000     38.8838    131.5235     23.3247      2.0084     -0.0007      8.0572
   742.6000     37.3540    126.4741     23.9237      2.0337      0.0516      8.0572
   742.7000     34.8784    121.3911     24.9245      2.0745      0.0637      8.0572
   742.8000     30.8085    118.5525     26.0597      2.1417      0.0761      8.0508
   742.9000     24.9658    117.7782     27.0997      2.2381      0.2223      8.0508
   743.0000     18.1545    117.2888     27.9888      2.3505      0.2073      8.0765
   743.1000     11.5787    119.1257     28.4888      2.4590      0.2272      8.0765
   743.2000      7.0073    123.7708     28.3179      2.5344      0.1946      8.0765
   743.3000      5.1258    126.6117     27.5768      2.5654      0.1228      8.0822
   743.4000      4.4648    123.5468     26.8939      2.5763      0.1014      8.0822
   743.5000      4.0137    117.0269     26.6503      2.5838      0.1521      8.0448
   743.6000      4.4022    115.8937     26.8032      2.5774      0.1014      8.0448
   743.7000      5.9843    123.3642     26.8884      2.5513      0.0534      8.0448
   743.8000      7.9351    130.6577     26.2637      2.5191      0.0328      8.0110
   743.9000      8.9126    130.5254     25.1424      2.5029     -0.0136      8.0110
   744.0000      8.0224    127.0416     24.3383      2.5176     -0.0305      8.0094
   744.1000      6.0727    125.5805     24.2564      2.5498      0.0785      8.0094
   744.2000      4.7444    128.6141     24.7091      2.5717      0.0859      8.0094
   744.3000      4.3190    137.1631     25.3239      2.5787      0.0784      8.0254
   744.4000      4.2047    145.5137     25.7956      2.5806      0.0790      8.0254
   744.5000      4.4290    146.6978     25.8874      2.5769      0.0810      8.0327
   744.6000      5.1096    143.4024     25.7299      2.5657      0.0888      8.0327
   744.7000      6.3318    144.3986     25.8559      2.5455      0.1052      8.0327
   744.8000      8.0849    147.0594     26.3291      2.5166      0.0283      8.0171
   744.9000      9.4523    140.3127     26.5435      2.4940      0.0063      8.0171
   745.0000      9.4487    124.9362     26.1734      2.4941     -0.0424      8.0063
   745.1000      8.5656    112.6904     25.6272      2.5087      0.0346      8.0063
   745.2000      8.1204    108.9348     25.2874      2.5160      0.0041      8.0063
   745.3000      8.3740    109.5105     25.0904      2.5118      0.0208      8.0149
   745.4000      8.3285    113.8553     24.7939      2.5126      0.0171      8.0149
   745.5000      6.8155    122.3291     24.4760      2.5375      0.0340      8.0164
   745.6000      4.3606    128.5581     24.2006      2.5780      0.1275      8.0164
   745.7000      2.8193    126.9991     23.6193      2.6035      0.1548      8.0164
   745.8000      2.7371    121.0244     22.9115      2.6048      0.1400      7.9986
   745.9000      2.9366    121.7162     22.8295      2.6015      0.1385      7.9986
   746.0000      2.3118    131.5430     23.4078      2.6119      0.1081      7.9756
   746.1000      1.1060    138.6368     23.9081      2.6318      0.1541      7.9756
   746.2000      0.4747    136.4433     24.0521      2.6422      0.1346      7.9756
   746.3000      0.7763    131.7183     24.2994      2.6372      0.1330      7.9638
   746.4000      1.2965    128.8783     24.8530      2.6286      0.0839      7.9638
   746.5000      1.7170    126.4210     25.1146      2.6217      0.1231      7.9741
   746.6000      2.1104    125.8393     24.5462      2.6152      0.0650      7.9741
   746.7000      2.3411    126.7072     23.6783      2.6114      0.1216      7.9741
   746.8000      2.5159    125.6380     23.5820      2.6085      0.0551      8.0037
   746.9000      2.1104    124.5835     24.6889      2.6152      0.0308      8.0037
   747.0000      0.8474    126.9206     26.2832      2.6360      0.0398      8.0316
   747.1000     -0.1862    130.4590     27.3402      2.6531      0.0436      8.0316
   747.2000     -0.3384    130.5185     27.6092      2.6556      0.0855      8.0316
   747.3000     -0.2255    127.2555     27.5297      2.6537      0.0456      8.0516
   747.4000     -1.0109    122.7348     27.2362      2.6667      0.0191      8.0516
   747.5000     -3.0718    115.2901     26.6475      2.7007      0.0831      8.0685
   747.6000     -5.5810    106.9861     26.1645      2.7421      0.0571      8.0685
   747.7000     -7.5225    106.8111     25.9610      2.7741      0.0652      8.0685
   747.8000     -8.0953    114.1962     25.8222      2.7836      0.0696      8.0740
   747.9000     -7.0609    116.8865     25.7088      2.7665      0.0438      8.0740
   748.0000     -5.1464    114.8364     25.5152      2.7349      0.0539      8.0680
   748.1000     -3.3961    117.8307     25.0543      2.7060      0.0013      8.0680
   748.2000     -1.8867    125.4866     24.6231      2.6811      0.0033      8.0680
   748.3000      0.1547    130.7287     24.4983      2.6474     -0.0535      8.0573
   748.4000      2.7698    130.8968     24.5508      2.6043     -0.0423      8.0573
   748.5000      4.9303    128.5251     24.6793      2.5687     -0.0645      8.0456
   748.6000      5.7097    125.8384     24.6464      2.5558     -0.0121      8.0456
   748.7000      5.8043    123.2516     24.3413      2.5542      0.0013      8.0456
   748.8000      6.1367    121.5089     24.2263      2.5487      0.0084      8.0357
   748.9000      6.2297    122.8416     24.4772      2.5472      0.0023      8.0357
   749.0000      5.7764    126.8928     24.7092      2.5547      0.0388      8.0264
   749.1000      5.2848    130.6778     24.8228      2.5628      0.0049      8.0264
   749.2000      5.0774    130.7182     25.0109      2.5662      0.0604      8.0264
   749.3000      6.0101    129.1040     25.2260      2.5508      0.1369      8.0193
   749.4000      8.5191    131.7824     25.3442      2.5094      0.0408      8.0193
   749.5000     10.7128    136.6646     25.5211      2.4732     -0.0554      8.0140
   749.6000     10.9158    137.4760     25.6919      2.4699      0.0106      8.0140
   749.7000      9.8875    136.2476     25.3717      2.4869      0.0421      8.0140
   749.8000      8.5330    138.0703     24.7597      2.5092      0.0342      8.0040
   749.9000      6.5868    141.2153     24.7027      2.5413      0.0507      8.0040
   750.0000      4.3883    144.7026     25.3810      2.5776      0.0934      7.9954
   750.1000      3.5551    148.9477     26.1700      2.5913      0.0988      7.9954
   750.2000      4.5086    150.8658     26.4172      2.5756      0.0827      7.9954
   750.3000      5.4323    150.7457     26.1385      2.5604      0.0691      7.9990
