~Version Information
VERS.                      2.0: CWLS Log ASCII Standard - VERSION 2.0
WRAP.                       NO: One line per depth step
~Well Information Block
STRT.FT               245.0000: 
STOP.FT              1102.5000: 
STEP.FT                 0.1000: 
NULL.                -999.2500: 
COMP.          Pioneer Natural Resources: COMPANY
WELL.           Pavilion 44-25: WELL
FLD.           Purgatoire River: FIELD
LOC.           719' FSL & 650' FEL: LOCATION
PROV.                 Colorado: PROVINCE
CNTY.               Las Animas: COUNTRY
SRVC.                Patterson: SERVICE COMPANY
DATE.          Wed Dec 14 09:57:07 2005: LOG DATE
UWI.           05 071 08624 00: UNIQUE WELL ID
~Curve Information Block
DEPT.FT            0 000 00 00: Depth
DCAL.in                       : CDL Caliper
RHOB.g/cc                     : CDL Bulk Density
RHOC.g/cc                     : CDL Density Correction
DPOR.pu                       : CDL Density Porosity
GR.GAPI                       : Gamma Ray
NPOR.pu                       : Neutron Porosity
~Parameter Information Block
~A  Depth       DCAL        RHOB        RHOC        DPOR         GR         NPOR    
# ...
   974.6000      7.8812      2.4703      0.0301     10.8913     80.6359     18.8568
   974.7000      7.8812      2.4589      0.0308     11.5840     84.1956     18.5597
   974.8000      7.8816      2.4508     -0.0046     12.0709     89.3861     18.3149
   974.9000      7.8816      2.4574      0.0446     11.6732     92.7952     18.6418
   975.0000      7.8813      2.4709      0.0709     10.8518     92.0070     19.5379
   975.1000      7.8813      2.4784      0.0616     10.3978     89.5625     20.5126
   975.2000      7.8813      2.4809      0.0693     10.2487     89.6383     21.2153
   975.3000      7.8811      2.4849      0.0910     10.0084     93.6213     21.7319
   975.4000      7.8811      2.4968      0.0670      9.2856     99.2255     22.1776
   975.5000      7.8798      2.5204      0.0676      7.8563    102.6570     22.2574
   975.6000      7.8798      2.5425      0.1009      6.5147    101.9846     21.7822
   975.7000      7.8798      2.5436      0.1250      6.4455     98.7209     21.1565
   975.8000      7.8797      2.5313      0.0522      7.1919     95.8421     21.1396
   975.9000      7.8797      2.5367      0.0582      6.8664     95.3746     21.9210
   976.0000      7.8797      2.5654      0.0867      5.1276     97.0181     22.4905
   976.1000      7.8797      2.5912      0.1038      3.5637     98.3904     22.1421
   976.2000      7.8797      2.5973      0.1058      3.1929     99.0102     21.6722
   976.3000      7.8801      2.5877      0.0741      3.7744     98.9791     21.7606
   976.4000      7.8801      2.5674      0.0551      5.0059     95.5794     22.0556
   976.5000      7.8810      2.5352      0.0501      6.9555     91.7208     21.8848
   976.6000      7.8810      2.5033     -0.0141      8.8924     92.7933     21.3384
   976.7000      7.8810      2.4947     -0.0401      9.4113     95.5761     21.0634
   976.8000      7.8806      2.5039      0.0193      8.8533     96.8060     20.8639
   976.9000      7.8806      2.5020     -0.0188      8.9721     99.3748     20.5992
   977.0000      7.8812      2.4824      0.0156     10.1555    104.3495     20.7611
   977.1000      7.8812      2.4616     -0.0033     11.4186    106.5704     20.5024
   977.2000      7.8812      2.4488      0.0357     12.1925    100.4052     19.3107
   977.3000      7.8811      2.4392      0.0347     12.7761     90.6039     18.8052
   977.4000      7.8811      2.4307     -0.0191     13.2913     86.2331     19.4316
   977.5000      7.8804      2.4284      0.0199     13.4294     84.9707     19.9928
   977.6000      7.8804      2.4335      0.0364     13.1215     81.6450     19.9550
   977.7000      7.8804      2.4440      0.0665     12.4854     78.7771     19.6558
   977.8000      7.8812      2.4597      0.0250     11.5348     77.1622     19.3499
   977.9000      7.8812      2.4823      0.0695     10.1657     75.9116     19.0972
   978.0000      7.8796      2.5018      0.1026      8.9831     79.5097     19.2386
   978.1000      7.8796      2.5026      0.0929      8.9305     88.1277     19.8345
   978.2000      7.8796      2.4920      0.0391      9.5746     94.2293     20.0649
   978.3000      7.8803      2.4825      0.0904     10.1502     97.6177     19.3370
   978.4000      7.8803      2.4657      0.0741     11.1715    104.3146     18.4093
   978.5000      7.8827      2.4459      0.0072     12.3695    111.5763     18.2504
   978.6000      7.8827      2.4425      0.0320     12.5776    112.9230     18.9740
   978.7000      7.8827      2.4485      0.0507     12.2112    109.9852     20.1630
   978.8000      7.8811      2.4485      0.0300     12.2128    108.2071     21.0983
   978.9000      7.8811      2.4459      0.0187     12.3724    106.7911     21.0580
   979.0000      7.8809      2.4473      0.0576     12.2822    103.2347     20.3297
   979.1000      7.8809      2.4563      0.0593     11.7422    101.0625     19.8067
   979.2000      7.8809      2.4747      0.0663     10.6235    103.2172     19.5315
   979.3000      7.8809      2.4932      0.1124      9.5043    105.2761     19.0592
   979.4000      7.8809      2.4988      0.0461      9.1622    104.4875     18.7332
   979.5000      7.8819      2.4945      0.0656      9.4246    102.5763     19.0041
   979.6000      7.8819      2.4870      0.0651      9.8814     99.6014     19.3217
   979.7000      7.8819      2.4784      0.0504     10.4014     96.7624     19.2155
   979.8000      7.8841      2.4713      0.0679     10.8284     96.9628     19.2702
   979.9000      7.8841      2.4649      0.0541     11.2200     97.7858     19.8238
   980.0000      7.8810      2.4515      0.0783     12.0326     95.4037     20.4452
   980.1000      7.8810      2.4286      0.0044     13.4199     92.8314     20.8808
   980.2000      7.8810      2.4098     -0.0138     14.5560     93.4940     21.1839
   980.3000      7.8813      2.4115      0.0152     14.4526     95.8389     21.3596
   980.4000      7.8813      2.4376      0.0338     12.8728     97.1221     21.4164
   980.5000      7.8824      2.4782      0.0588     10.4146     98.9176     21.4107
   980.6000      7.8824      2.5188      0.0838      7.9523    105.6921     21.5465
   980.7000      7.8824      2.5487      0.0889      6.1404    114.2378     22.2241
   980.8000      7.8825      2.5629      0.1388      5.2784    119.8347     23.3726
   980.9000      7.8825      2.5636      0.1098      5.2364    124.4425     24.2275
   981.0000      7.8804      2.5566      0.0774      5.6625    127.7166     24.3161
   981.1000      7.8804      2.5399      0.0823      6.6756    130.0747     23.8414
   981.2000      7.8804      2.5158      0.0431      8.1337    135.6713     23.1979
   981.3000      7.8808      2.4981      0.0401      9.2071    143.8433     22.9369
   981.4000      7.8808      2.4874      0.0350      9.8526    148.3682     23.1719
   981.5000      7.8813      2.4837      0.0085     10.0762    148.5682     23.8637
   981.6000      7.8813      2.4990      0.0219      9.1541    149.8004     24.8067
   981.7000      7.8813      2.5245      0.1123      7.6030    153.8904     25.5229
   981.8000      7.8812      2.5317      0.1017      7.1689    158.7757     26.1136
   981.9000      7.8812      2.5193      0.0867      7.9215    161.5192     26.8265
   982.0000      7.8785      2.5120      0.0711      8.3654    160.9969     27.3959
   982.1000      7.8785      2.5176      0.0617      8.0270    157.8927     27.8286
   982.2000      7.8785      2.5309      0.0181      7.2174    151.4358     28.5581
   982.3000      7.8780      2.5556      0.0520      5.7226    143.0932     29.6507
   982.4000      7.8780      2.5869      0.0971      3.8271    139.4841     30.5714
   982.5000      7.8544      2.6064      0.1140      2.6395    143.0455     30.5097
   982.6000      7.8544      2.6117      0.1305      2.3215    147.5403     29.5728
   982.7000      7.8544      2.6148      0.1443      2.1354    146.8314     28.7251
   982.8000      7.8493      2.6203      0.1062      1.8009    138.2017     28.1585
   982.9000      7.8493      2.6266      0.0965      1.4197    125.9435     27.4519
   983.0000      7.8530      2.6266      0.0717      1.4172    118.5347     26.8634
   983.1000      7.8530      2.6148      0.0572      2.1343    119.2730     26.4834
   983.2000      7.8530      2.5985      0.0333      3.1238    125.1685     25.5124
   983.3000      7.8514      2.5872      0.0416      3.8077    132.0701     24.0177
   983.4000      7.8514      2.5803      0.0479      4.2266    138.6158     23.3149
   983.5000      7.8529      2.5709      0.0574      4.7913    142.3738     24.0930
   983.6000      7.8529      2.5586      0.0521      5.5370    140.5496     25.5341
   983.7000      7.8529      2.5548      0.0400      5.7685    136.5126     26.6410
   983.8000      7.8528      2.5664      0.0838      5.0680    134.5237     27.2290
   983.9000      7.8528      2.5801      0.0997      4.2387    135.4536     27.3270
   984.0000      7.8529      2.5802      0.1023      4.2297    138.5434     26.9110
   984.1000      7.8529      2.5684      0.0927      4.9453    141.6567     26.3678
