~Version Information
VERS.                      2.0: CWLS Log ASCII Standard - VERSION 2.0
WRAP.                       NO: One line per depth step
~Well Information Block
STRT.FT               260.8000: 
STOP.FT              1942.0000: 
STEP.FT                 0.1000: 
NULL.                -999.2500: 
COMP.          XTO Energy Inc.: COMPANY
WELL.          Golden Eagle 19-11: WELL
FLD.           Purgatoire River: FIELD
LOC.           2351' FSL & 1926' FWL--: LOCATION
CNTY.               Las Animas: COUNTY
SRVC.                Patterson: SERVICE COMPANY
DATE.          Thu Mar 09 08:41:38 2006: LOG DATE
UWI.           05 071 08696 00: UNIQUE WELL ID
STAT.                 Colorado: STATE
~Curve Information Block
DEPT.FT            0 000 00 00: Depth
DCAL.in                       : CDL Caliper
RHOB.g/cc                     : CDL Bulk Density
RHOC.g/cc                     : CDL Density Correction
DPOR.pu                       : CDL Density Porosity
NPOR.pu                       : Neutron Porosity
GR.GAPI                       : Gamma Ray
~Parameter Information Block
~A  Depth       DCAL        RHOB        RHOC        DPOR        NPOR         GR     
# ...
  1355.2000      8.0391      2.5156      0.0252      8.1482     67.8103    122.6113
  1355.3000      8.0355      2.5027     -0.0044      8.9280     67.8103    131.7745
  1355.4000      8.0355      2.4861      0.0224      9.9327     67.8103    128.6521
  1355.5000      8.0354      2.4661     -0.0266     11.1477     67.8103    120.5095
  1355.6000      8.0354      2.4555      0.0095     11.7862     67.8103    117.9009
  1355.7000      8.0354      2.4554      0.0250     11.7915     67.8103    119.2633
  1355.8000      8.0380      2.4640     -0.0229     11.2725     67.8103    120.4554
  1355.9000      8.0380      2.4842      0.0602     10.0467     67.8103    118.5636
  1356.0000      8.0394      2.5007      0.0667      9.0514     67.8103    108.5062
  1356.1000      8.0394      2.4951      0.0705      9.3879     67.8103     94.8330
  1356.2000      8.0394      2.4748      0.0308     10.6163     67.8103     86.8811
  1356.3000      8.0438      2.4649      0.0225     11.2171     67.8103     87.5014
  1356.4000      8.0438      2.4701      0.0614     10.9030     67.8103     94.0796
  1356.5000      8.0518      2.4666      0.0699     11.1162     67.8103    101.7928
  1356.6000      8.0518      2.4330      0.0302     13.1520     67.8103    105.1733
  1356.7000      8.0518      2.3633      0.0378     17.3731     67.8103    100.0282
  1356.8000      8.0513      2.2653     -0.0218     23.3163     67.8103     92.0361
  1356.9000      8.0513      2.1611     -0.0177     29.6293     67.8103     91.8124
  1357.0000      8.0414      2.0751     -0.0462     34.8434     67.8103     98.4928
  1357.1000      8.0414      2.0156     -0.0215     38.4507     67.8103    103.5791
  1357.2000      8.0414      1.9777     -0.0427     40.7449     67.8103    103.0318
  1357.3000      8.0337      1.9605     -0.0273     41.7901     67.8103     96.5487
  1357.4000      8.0337      1.9685     -0.0030     41.3059     67.8103     89.0280
  1357.5000      8.0318      2.0024      0.0753     39.2466     67.8103     89.4099
  1357.6000      8.0318      2.0571      0.1125     35.9362     67.8103     96.2491
  1357.7000      8.0318      2.1277      0.1360     31.6574     67.8103     98.2542
  1357.8000      8.0328      2.2069      0.1961     26.8562     67.8103     92.5502
  1357.9000      8.0328      2.2827      0.1960     22.2577     67.8103     88.8956
  1358.0000      8.0312      2.3538      0.1726     17.9505     67.8103     93.0391
  1358.1000      8.0312      2.4275      0.1177     13.4825     67.8103     98.6174
  1358.2000      8.0312      2.4972      0.1121      9.2583     67.8103     99.5644
  1358.3000      8.0242      2.5378      0.1302      6.7986     67.8103     98.0379
  1358.4000      8.0242      2.5379      0.0808      6.7954     67.8103     99.3236
  1358.5000      8.0161      2.5239      0.0167      7.6430     67.8103    101.1968
  1358.6000      8.0161      2.5265      0.0436      7.4829     67.8103     98.0893
  1358.7000      8.0161      2.5409      0.0892      6.6140     67.8103     94.1457
  1358.8000      8.0106      2.5452      0.0788      6.3528     67.8103     93.3960
  1358.9000      8.0106      2.5336      0.0667      7.0529     67.8103     92.1528
  1359.0000      8.0103      2.5188      0.0501      7.9511     67.8103     90.8239
  1359.1000      8.0103      2.5191      0.0236      7.9327     67.8103     93.0111
  1359.2000      8.0103      2.5431      0.0315      6.4801     67.8103     96.7693
  1359.3000      8.0132      2.5776      0.0536      4.3909     67.8103     96.8434
  1359.4000      8.0132      2.5961      0.0733      3.2658     67.8103     92.0948
  1359.5000      8.0149      2.5868      0.0288      3.8315     67.8103     88.6048
  1359.6000      8.0149      2.5641      0.0643      5.2082     67.8103     89.9762
  1359.7000      8.0149      2.5518     -0.0022      5.9505     67.8103     92.2392
  1359.8000      8.0209      2.5602      0.0431      5.4443     67.8103     93.2710
  1359.9000      8.0209      2.5685      0.0702      4.9401     67.8103     95.3568
  1360.0000      8.0296      2.5529      0.0516      5.8879     67.8103     99.5451
  1360.1000      8.0296      2.5241      0.0211      7.6316     67.8103    102.3724
  1360.2000      8.0296      2.5079      0.0057      8.6149     67.8103    103.6786
  1360.3000      8.0330      2.5065      0.0385      8.6971     67.8103    107.4107
  1360.4000      8.0330      2.5094      0.0327      8.5214     67.8103    112.6027
  1360.5000      8.0346      2.5192      0.0427      7.9293     67.8103    115.2723
  1360.6000      8.0346      2.5375      0.0849      6.8174     67.8103    113.4985
  1360.7000      8.0346      2.5541      0.0511      5.8132     67.8103    108.7272
  1360.8000      8.0360      2.5637      0.0975      5.2333     67.8103    105.4913
  1360.9000      8.0360      2.5629      0.0840      5.2775     67.8103    107.7133
  1361.0000      8.0359      2.5481      0.0888      6.1787     67.8103    113.9860
  1361.1000      8.0359      2.5280      0.0500      7.3925     67.8103    118.1716
  1361.2000      8.0359      2.5133      0.0794      8.2860     67.8103    117.7443
  1361.3000      8.0381      2.4996      0.0528      9.1143     67.8103    111.5548
  1361.4000      8.0381      2.4864     -0.0017      9.9122     67.8103    100.0487
  1361.5000      8.0410      2.4809      0.0405     10.2510     67.8103     91.6953
  1361.6000      8.0410      2.4810      0.0174     10.2402     67.8103     93.2476
  1361.7000      8.0410      2.4851      0.0111      9.9911     67.8103    101.2845
  1361.8000      8.0417      2.4929      0.0110      9.5200     67.8103    108.5945
  1361.9000      8.0417      2.5010      0.0288      9.0303     67.8103    111.9314
  1362.0000      8.0398      2.5078      0.0377      8.6162     67.8103    113.6315
  1362.1000      8.0398      2.5144      0.0580      8.2199     67.8103    115.8948
  1362.2000      8.0398      2.5201      0.0760      7.8700     67.8103    116.7536
  1362.3000      8.0370      2.5265      0.0252      7.4851     67.8103    116.2792
  1362.4000      8.0370      2.5337      0.0679      7.0485     67.8103    118.8832
  1362.5000      8.0365      2.5375      0.0449      6.8191     67.8103    125.6389
  1362.6000      8.0365      2.5417      0.0066      6.5626     67.8103    129.8088
  1362.7000      8.0365      2.5499      0.0373      6.0669     67.8103    124.5093
  1362.8000      8.0357      2.5565      0.0446      5.6666     67.8103    114.5430
  1362.9000      8.0357      2.5569      0.0558      5.6420     67.8103    109.2408
  1363.0000      8.0353      2.5506      0.0562      6.0260     67.8103    110.3605
  1363.1000      8.0353      2.5411      0.0205      6.5978     67.8103    115.1096
  1363.2000      8.0353      2.5303      0.0698      7.2572     67.8103    119.1532
  1363.3000      8.0359      2.5191      0.0183      7.9319     67.8103    119.6876
  1363.4000      8.0359      2.5203      0.0066      7.8619     67.8103    117.6656
  1363.5000      8.0362      2.5426      0.0171      6.5112     67.8103    117.1083
  1363.6000      8.0362      2.5718      0.0560      4.7379     67.8103    119.5228
  1363.7000      8.0362      2.5828      0.0897      4.0732     67.8103    118.7596
  1363.8000      8.0367      2.5697      0.0812      4.8649     67.8103    113.8211
  1363.9000      8.0367      2.5533      0.0230      5.8616     67.8103    111.7216
  1364.0000      8.0355      2.5503      0.0441      6.0446     67.8103    113.4983
  1364.1000      8.0355      2.5507      0.0817      6.0161     67.8103    116.5768
  1364.2000      8.0355      2.5463      0.0339      6.2831     67.8103    119.4505
  1364.3000      8.0316      2.5446      0.0351      6.3905     67.8103    119.2289
  1364.4000      8.0316      2.5433      0.0355      6.4665     67.8103    116.8109
  1364.5000      8.0292      2.5390      0.0293      6.7282     67.8103    115.3055
  1364.6000      8.0292      2.5385      0.0215      6.7579     67.8103    111.5424
  1364.7000      8.0292      2.5427      0.0582      6.5038     67.8103    103.8004
