~Version Information
 VERS.                                  2.0 : CWLS LAS VERSION
 WRAP.                                   NO : WRAPING MODE
 SWARE .                 MController 2.5.0J : SOFTWARE VERSION
~Well Information
 WELL.                     DAYTONA 31-14 TR : WELL
 COMP.    PIONEER NATURAL RESOURCES USA INC : COMPANY
 FLD.                      PURGATOIRE RIVER : FIELD
 LOC.                NW/NE SEC 14 T33S R67W : LOCATION
 DATE.                             01/27/06 : DATE(S) LOGGED
 SRVC.       BLANCO GEOLOGICAL SERVICES LLC : SERVICE COMPANY
 STAT.                             COLORADO : STATE
 CNTY.                           LAS ANIMAS : COUNTY
 CTRY.                                  USA : COUNTRY
 API.                       05-071-08681-00 : API NUMBER
 STRT.FT                             385.00 : START DEPTH
 STOP.FT                            1587.00 : STOP DEPTH
 STEP.FT                               1.00 : DEPTH INCREMENT
 NULL.                                -9999 : NULL VALUE
~Curve information
 DEPTH.FT                                   :
 ROP.MIN/FT                                 :
 GAS.UNITS                                  :
~ASCII Log data
# ...
      1385.0         0.20          8.9 
      1386.0         0.27          8.8 
      1387.0         0.27          9.6 
      1388.0         0.23          9.5 
      1389.0         0.17          8.9 
      1390.0         0.12          8.4 
      1391.0         0.13          7.3 
      1392.0         0.23          6.8 
      1393.0         0.17          6.3 
      1394.0         0.13          6.7 
      1395.0         0.20          7.0 
      1396.0         0.27          6.0 
      1397.0         0.33          6.1 
      1398.0         0.17          5.1 
      1399.0         0.27          6.1 
      1400.0         0.30          5.0 
      1401.0         0.30          4.1 
      1402.0         0.37          4.1 
      1403.0         0.30          3.9 
      1404.0         0.28          3.9 
      1405.0         0.37          3.7 
      1406.0         3.18          6.9 
      1407.0         0.53          6.2 
      1408.0         0.40          8.1 
      1409.0         0.37          7.7 
      1410.0         0.67          6.5 
      1411.0         0.43          4.4 
      1412.0         0.30          4.0 
      1413.0         0.32          5.0 
      1414.0         0.30          4.8 
      1415.0         0.30          5.1 
      1416.0         0.30          4.5 
      1417.0         0.30          4.7 
      1418.0         0.30          6.5 
      1419.0         0.30          6.1 
      1420.0         0.33          4.7 
      1421.0         0.30          5.0 
      1422.0         0.30          4.1 
      1423.0         0.30          3.9 
      1424.0         0.35          4.6 
      1425.0         0.33          4.6 
      1426.0         0.33          4.7 
      1427.0         0.33          6.2 
      1428.0         0.33          4.7 
      1429.0         0.30          2.9 
      1430.0         0.30          2.1 
      1431.0         0.23          1.7 
      1432.0         0.27          2.2 
      1433.0         0.27          1.8 
      1434.0         0.27          1.6 
      1435.0         0.28          1.8 
      1436.0         2.90          3.0 
      1437.0         0.48          1.8 
      1438.0         0.57          1.8 
      1439.0         0.63          1.7 
      1440.0         0.47          4.2 
      1441.0         0.47          3.8 
      1442.0         0.47          2.1 
      1443.0         0.47          1.2 
      1444.0         0.48          2.6 
      1445.0         0.50          1.6 
      1446.0         0.47          1.0 
      1447.0         0.47          1.9 
      1448.0         0.50          2.2 
      1449.0         0.50          2.4 
      1450.0         0.65          1.0 
      1451.0         0.43          0.8 
      1452.0         0.43          0.6 
      1453.0         0.40          1.0 
      1454.0         0.47          1.2 
      1455.0         0.57          0.6 
      1456.0         0.90          0.8 
      1457.0         0.58          0.9 
      1458.0         0.40          0.6 
      1459.0         0.40          1.0 
      1460.0         0.47          1.3 
      1461.0         0.40          0.9 
      1462.0         0.20          0.6 
      1463.0         0.20          1.0 
      1464.0         0.20          0.6 
      1465.0         0.13          0.6 
      1466.0         3.08          1.1 
      1467.0         0.30          1.3 
      1468.0         0.23          1.1 
      1469.0         0.25          1.1 
      1470.0         0.23          0.6 
      1471.0         0.27          1.4 
      1472.0         0.23          2.3 
      1473.0         0.23          2.3 
      1474.0         0.40          2.1 
      1475.0         0.27          1.0 
      1476.0         0.23          0.9 
      1477.0         0.23          0.7 
      1478.0         0.27          0.7 
      1479.0         0.37          0.6 
      1480.0         0.30          0.6 
      1481.0         0.38          0.6 
      1482.0         0.30          0.6 
      1483.0         0.37          1.0 
      1484.0         0.33          0.7 
      1485.0         0.33          1.1 
      1486.0         0.30          0.8 
      1487.0         0.37          0.9 
      1488.0         0.40          3.8 
      1489.0         0.37          4.4 
      1490.0         0.40          3.2 
      1491.0         0.42          0.6 
      1492.0         0.40          0.5 
      1493.0         0.43          0.8 
      1494.0         0.40          0.9 
      1495.0         0.17          0.7 
      1496.0         2.68          1.0 
      1497.0         0.43          0.9 
      1498.0         0.33          0.7 
      1499.0         0.40          0.8 
      1500.0         0.43          0.7 
      1501.0         0.40          0.7 
      1502.0         0.38          1.0 
      1503.0         0.37          0.9 
      1504.0         0.37          0.8 
      1505.0         0.40          0.9 
      1506.0         0.37          0.7 
      1507.0         0.40          0.8 
      1508.0         0.30          0.4 
      1509.0         0.23          0.5 
      1510.0         0.47          1.1 
      1511.0         0.27          1.1 
      1512.0         0.32          0.9 
      1513.0         0.23          0.5 
      1514.0         0.23          1.1 
      1515.0         0.27          0.9 
      1516.0         0.27          0.9 
      1517.0         0.27          0.7 
      1518.0         0.27          0.8 
      1519.0         0.23          1.0 
      1520.0         0.23          0.6 
      1521.0         0.20          0.9 
      1522.0         0.23          0.9 
      1523.0         0.20          0.8 
      1524.0         0.13          0.7 
      1525.0         0.27          1.0 
      1526.0         2.25          4.9 
      1527.0         0.20          1.6 
      1528.0         0.30          1.0 
      1529.0         0.20          1.4 
      1530.0         0.27          3.6 
      1531.0         0.45          4.3 
      1532.0         0.20          2.0 
      1533.0         0.20          1.4 
      1534.0         0.23          1.1 
      1535.0         0.20          1.6 
      1536.0         0.37          2.0 
      1537.0         0.23          1.8 
      1538.0         0.17          1.8 
      1539.0         0.30          2.6 
      1540.0         0.17          2.3 
      1541.0         0.17          2.0 
      1542.0         0.23          1.2 
      1543.0         0.33          1.3 
      1544.0         0.32          0.8 
      1545.0         0.27          2.8 
      1546.0         0.37          4.9 
      1547.0         0.43          4.4 
      1548.0         0.27          2.9 
      1549.0         0.23          2.3 
      1550.0         0.33          1.7 
      1551.0         0.30          0.7 
      1552.0         0.23          0.7 
      1553.0         0.20          1.4 
      1554.0         0.27          1.7 
      1555.0         0.23          2.6 
      1556.0         3.97          2.6 
      1557.0         0.57          0.9 
      1558.0         0.23          0.3 
      1559.0         0.40          0.5 
      1560.0         0.20          0.5 
      1561.0         0.20          0.4 
      1562.0         0.27          0.7 
      1563.0         0.17          1.2 
      1564.0         0.23          2.1 
      1565.0         0.33          0.8 
      1566.0         0.32          0.9 
      1567.0         0.27          1.5 
      1568.0         0.57          1.4 
      1569.0         0.47          3.8 
      1570.0         0.33          1.4 
      1571.0         0.33          0.9 
      1572.0         0.30          1.9 
      1573.0         0.33          2.1 
      1574.0         0.30          1.9 
      1575.0         0.33          1.1 
      1576.0         0.42          3.8 
      1577.0         0.37          3.7 
      1578.0         0.30          2.9 
      1579.0         0.27          3.2 
      1580.0         0.30      -9999.0 
      1581.0         0.33      -9999.0 
      1582.0         0.30      -9999.0 
      1583.0         0.30      -9999.0 
      1584.0         0.30      -9999.0 
