~Version Information
VERS.                      2.0: CWLS Log ASCII Standard - VERSION 2.0
WRAP.                       NO: One line per depth step
~Well Information Block
STRT.FT               410.0000: 
STOP.FT              1530.5000: 
STEP.FT                 0.1000: 
NULL.                -999.2500: 
COMP.          Pioneer Natural Resources: COMPANY
WELL.          Pioneer 34-27 Tr: WELL
FLD.           Purgatoire River: FIELD
LOC.           243' FSL & 1593' FEL: LOCATION
STAT.                 Colorado: State
CNTY.               Las Animas: COUNTY
CTRY. USA : Country
SECT. 27 : Section
TOWN. 32S : Township
RANG. 67W : Range 
SRVC.                Patterson: SERVICE COMPANY
DATE.          Fri Oct 07 07:11:38 2005: LOG DATE
API.           05 071 08548 00: UNIQUE WELL ID
~Curve Information Block
DEPT.FT            0 000 00 00: Depth
DCAL.in                       : CDL Caliper
RHOB.g/cc                     : CDL Bulk Density
RHOC.g/cc                     : CDL Density Correction
DPOR.pu                       : CDL Density Porosity
GR.GAPI                       : Gamma Ray
NPOR.pu                       : Neutron Porosity
~Parameter Information Block
~A  Depth       DCAL        RHOB        RHOC        DPOR         GR         NPOR    
# ...
   774.8000      7.8592      2.7739      0.3741     -7.5114    153.5233     26.7621
   774.9000      7.8592      2.6997      0.1669     -3.0092    158.8515     26.8082
   775.0000      7.8377      2.6385      0.0649      0.6994    164.4962     26.9220
   775.1000      7.8377      2.6152      0.0339      2.1084    164.9274     26.9312
   775.2000      7.8377      2.6236      0.0832      1.5974    160.2150     26.6773
   775.3000      7.8853      2.6428      0.1387      0.4372    153.9142     26.1398
   775.4000      7.8853      2.6613      0.1812     -0.6875    148.5524     25.7653
   775.5000      7.9848      2.6749      0.2534     -1.5070    145.4479     25.9888
   775.6000      7.9848      2.6655      0.3259     -0.9380    145.9700     26.5372
   775.7000      7.9848      2.6246      0.1934      1.5378    147.3141     26.9627
   775.8000      8.0780      2.5830      0.1299      4.0634    143.3172     27.1803
   775.9000      8.0780      2.5725      0.0769      4.6961    134.6056     27.2886
   776.0000      8.0464      2.5883      0.1194      3.7420    129.0738     27.1977
   776.1000      8.0464      2.6012      0.1250      2.9552    128.3309     26.9596
   776.2000      8.0464      2.5947      0.1283      3.3514    127.5920     26.9181
   776.3000      7.9804      2.5796      0.0716      4.2641    126.0757     27.0272
   776.4000      7.9804      2.5728      0.1287      4.6796    125.0118     26.9850
   776.5000      7.9648      2.5710      0.0866      4.7889    124.4269     26.8791
   776.6000      7.9648      2.5739      0.0532      4.6098    122.6614     26.9104
   776.7000      7.9648      2.5959      0.0084      3.2810    118.3733     26.9592
   776.8000      7.9721      2.6302      0.1098      1.1999    115.2981     26.9620
   776.9000      7.9721      2.6424      0.1275      0.4594    116.0360     27.0154
   777.0000      7.9267      2.6194      0.1213      1.8556    117.0951     27.1074
   777.1000      7.9267      2.5860      0.0631      3.8815    116.3729     27.1977
   777.2000      7.9267      2.5650      0.1019      5.1501    116.4624     27.3315
   777.3000      7.8967      2.5569      0.0843      5.6396    116.3812     27.4264
   777.4000      7.8967      2.5532      0.0817      5.8653    112.8228     27.2883
   777.5000      7.8975      2.5453      0.0587      6.3429    110.6340     27.1091
   777.6000      7.8975      2.5313      0.0288      7.1916    114.3205     27.1621
   777.7000      7.8975      2.5181     -0.0093      7.9959    116.8264     27.1820
   777.8000      7.9032      2.5124      0.0370      8.3375    112.2415     26.8559
   777.9000      7.9032      2.5149      0.0310      8.1878    103.5499     26.3486
   778.0000      7.8711      2.5230      0.0646      7.6971     95.4190     25.8608
   778.1000      7.8711      2.5383      0.0414      6.7673     93.8933     25.3601
   778.2000      7.8711      2.5617      0.0910      5.3492    101.4711     24.9065
   778.3000      7.8667      2.5788      0.0958      4.3162    109.4249     24.7970
   778.4000      7.8667      2.5767      0.0777      4.4407    107.7991     25.0782
   778.5000      7.8763      2.5592      0.0816      5.5057    100.5598     25.2714
   778.6000      7.8763      2.5396      0.0406      6.6906     96.8354     25.0401
   778.7000      7.8763      2.5268      0.0538      7.4668     97.1335     24.6620
   778.8000      7.8933      2.5064      0.1083      8.7014     97.9754     24.5618
   778.9000      7.8933      2.4704      0.0206     10.8862     99.7384     24.6977
   779.0000      7.8917      2.4449      0.0286     12.4292    103.4151     24.7884
   779.1000      7.8917      2.4520      0.0764     11.9975    107.1575     24.9520
   779.2000      7.8917      2.4877      0.0836      9.8391    109.7527     25.3206
   779.3000      7.8766      2.5454      0.1152      6.3407    110.3430     25.5716
   779.4000      7.8766      2.6190      0.1398      1.8801    106.3299     25.6187
   779.5000      7.8260      2.6955      0.1819     -2.7566     97.4574     25.6217
   779.6000      7.8260      2.7600      0.2698     -6.6660     90.1204     25.4422
   779.7000      7.8260      2.7965      0.3113     -8.8767     89.5587     25.0486
   779.8000      7.8229      2.7930      0.3146     -8.6654     90.3956     24.6159
   779.9000      7.8229      2.7529      0.2720     -6.2387     89.0481     24.1182
   780.0000      7.8384      2.6968      0.1747     -2.8350     90.9743     23.7438
   780.1000      7.8384      2.6493      0.0985      0.0433     95.7514     23.9157
   780.2000      7.8384      2.6235      0.0216      1.6067     97.9506     24.5387
   780.3000      7.8573      2.6202      0.0085      1.8089     99.0672     25.0166
   780.4000      7.8573      2.6311      0.0694      1.1483    101.3648     25.0070
   780.5000      7.8820      2.6400      0.1738      0.6085    103.6165     24.7538
   780.6000      7.8820      2.6303      0.1788      1.1944    106.7281     24.7046
   780.7000      7.8820      2.6030      0.1488      2.8503    112.6222     24.9821
   780.8000      7.9342      2.5797      0.0968      4.2608    120.1649     25.3552
   780.9000      7.9342      2.5741      0.1372      4.5985    123.1984     25.5848
   781.0000      7.9521      2.5817      0.1507      4.1371    116.1565     25.6244
   781.1000      7.9521      2.6070      0.1628      2.6055    101.3376     25.7039
   781.2000      7.9521      2.6570      0.2103     -0.4271     90.4111     25.8183
   781.3000      7.9889      2.7101      0.2421     -3.6445     88.8688     25.7814
   781.4000      7.9889      2.7370      0.2177     -5.2713     90.5128     25.6413
   781.5000      7.9759      2.7302      0.2254     -4.8634     90.7164     25.4891
   781.6000      7.9759      2.6988      0.1976     -2.9548     90.1611     25.3069
   781.7000      7.9759      2.6568      0.1390     -0.4146     93.1824     25.0001
   781.8000      7.9318      2.6150      0.1107      2.1185    101.4047     24.5746
   781.9000      7.9318      2.5736      0.0954      4.6276    106.9068     24.2126
   782.0000      7.9546      2.5384     -0.0302      6.7652    105.8215     24.1482
   782.1000      7.9546      2.5313      0.0098      7.1929    104.0018     24.2142
   782.2000      7.9546      2.5564      0.0529      5.6736    106.4043     24.1506
   782.3000      7.9682      2.5872      0.0864      3.8081    113.3872     24.1765
   782.4000      7.9682      2.6050      0.1206      2.7288    121.0477     24.4065
   782.5000      8.0110      2.6151      0.1395      2.1177    125.1020     24.7201
   782.6000      8.0110      2.6162      0.1771      2.0491    124.2771     25.0876
   782.7000      8.0110      2.6058      0.0968      2.6803    121.8221     25.1720
   782.8000      8.0050      2.5979      0.1374      3.1580    121.0151     24.7930
   782.9000      8.0050      2.5965      0.1312      3.2412    121.7845     24.5533
   783.0000      7.9871      2.5918      0.1359      3.5296    121.5559     24.9454
   783.1000      7.9871      2.5844      0.1033      3.9758    116.9614     25.6685
   783.2000      7.9871      2.5860      0.1289      3.8802    110.5486     26.3156
   783.3000      7.9733      2.5975      0.1374      3.1822    108.9642     26.8055
   783.4000      7.9733      2.6100      0.1093      2.4216    113.4520     27.1226
   783.5000      7.9729      2.6208      0.1335      1.7713    119.3413     27.1984
   783.6000      7.9729      2.6272      0.1242      1.3797    122.3122     27.0038
   783.7000      7.9729      2.6349      0.0917      0.9178    122.5306     26.5787
   783.8000      7.9837      2.6502      0.1740     -0.0149    124.8126     26.0300
   783.9000      7.9837      2.6577      0.1742     -0.4689    127.6849     25.5541
   784.0000      7.9942      2.6470      0.1670      0.1812    126.8805     25.3369
   784.1000      7.9942      2.6225      0.1843      1.6690    126.4862     25.4196
   784.2000      7.9942      2.5838      0.1725      4.0121    129.6056     25.5347
   784.3000      7.9612      2.5469      0.0462      6.2479    133.7298     25.5389
