~Version Information
VERS.                      2.0: CWLS Log ASCII Standard - VERSION 2.0
WRAP.                       NO: One line per depth step
~Well Information Block
STRT.FT               615.0000: 
STOP.FT              2815.0000: 
STEP.FT                 0.2500: 
NULL.                -999.2500: 
COMP.          Pioneer Natural Resources: COMPANY
WELL.              Loews 41-32: WELL
FLD.           Purgatoire River: FIELD
LOC.           751' FNL & 128' FEL: LOCATION
CNTY.               Las Animas: COUNTY
SRVC.                Patterson: SERVICE COMPANY
DATE.          Sun Feb 12 02:27:11 2006: LOG DATE
UWI.           05 071 08693 00: UNIQUE WELL ID
STAT.                 Colorado: STATE
~Curve Information Block
DEPT.FT            0 000 00 00: Depth
SN.Ohm-m                      : IEL Short Normal
SP.mV                         : IEL Spontaneous Potential
DIR.Ohm-m                     : IEL Induction Resistivity
GR.GAPI                       : Gamma Ray
~Parameter Information Block
~A  Depth        SN          SP         DIR          GR     
# ...
  1921.5000      9.6858     14.5592      9.4254    155.7987
  1921.7500      9.6699     14.5935      9.6680    154.5145
  1922.0000      9.6751     14.6473      9.9062    149.1677
  1922.2500      9.7992     14.7320     10.1288    143.4194
  1922.5000     10.0550     14.8445     10.3299    132.7943
  1922.7500     10.4397     14.9647     10.5116    125.9661
  1923.0000     10.9972     15.0661     10.6846    119.3486
  1923.2500     11.8104     15.1318     10.8667    118.4577
  1923.5000     12.8676     15.1642     11.0758    121.6882
  1923.7500     13.9279     15.1823     11.3225    125.3909
  1924.0000     14.6944     15.2100     11.6058    130.9601
  1924.2500     15.0726     15.2606     11.9134    134.2306
  1924.5000     15.1783     15.3256     12.2242    138.7935
  1924.7500     15.1844     15.3787     12.5154    141.7129
  1925.0000     15.1559     15.3942     12.7713    145.3569
  1925.2500     15.0404     15.3651     12.9920    146.8060
  1925.5000     14.8220     15.3053     13.1958    147.1056
  1925.7500     14.6177     15.2396     13.4106    146.1976
  1926.0000     14.6148     15.1927     13.6592    143.6678
  1926.2500     14.8985     15.1808     13.9467    141.2545
  1926.5000     15.3726     15.2078     14.2588    135.8979
  1926.7500     15.9037     15.2650     14.5751    130.6426
  1927.0000     16.4688     15.3367     14.8856    120.2993
  1927.2500     17.0941     15.4052     15.1996    112.8810
  1927.5000     17.7629     15.4522     15.5382    104.2997
  1927.7500     18.4154     15.4612     15.9208    101.9739
  1928.0000     18.9373     15.4230     16.3565    104.1396
  1928.2500     19.2366     15.3441     16.8449    108.3108
  1928.5000     19.3611     15.2470     17.3798    116.2129
  1928.7500     19.4563     15.1598     17.9498    121.4235
  1929.0000     19.6145     15.1008     18.5351    127.4117
  1929.2500     19.7808     15.0698     19.1074    129.1499
  1929.5000     19.8821     15.0495     19.6377    127.2921
  1929.7500     19.9886     15.0143     20.1095    123.3239
  1930.0000     20.2182     14.9406     20.5292    114.9462
  1930.2500     20.6431     14.8128     20.9237    108.8538
  1930.5000     21.3627     14.6258     21.3264    100.3294
  1930.7500     22.4435     14.3860     21.7611     95.5948
  1931.0000     23.7851     14.1098     22.2347     90.6508
  1931.2500     25.2097     13.8156     22.7397     89.0005
  1931.5000     26.6004     13.5187     23.2638     88.6385
  1931.7500     27.8579     13.2340     23.8020     89.2852
  1932.0000     28.8689     12.9819     24.3630     90.7438
  1932.2500     29.5502     12.7821     24.9604     91.7525
  1932.5000     29.8698     12.6403     25.5903     92.9919
  1932.7500     29.8889     12.5437     26.2061     93.3796
  1933.0000     29.7920     12.4678     26.7122     92.8260
  1933.2500     29.7436     12.3894     26.9911     91.7164
  1933.5000     29.6950     12.2974     26.9609     89.8444
  1933.7500     29.4887     12.1947     26.6271     89.1750
  1934.0000     29.0976     12.0947     26.0813     89.6931
  1934.2500     28.5855     12.0128     25.4472     90.9836
  1934.5000     27.9769     11.9591     24.8214     93.9279
  1934.7500     27.3351     11.9346     24.2553     96.3689
  1935.0000     26.7809     11.9319     23.7729    100.4489
  1935.2500     26.2950     11.9380     23.3936    103.2144
  1935.5000     25.6910     11.9400     23.1330    107.2141
  1935.7500     24.8667     11.9301     22.9822    109.9669
  1936.0000     23.9783     11.9068     22.8923    114.4687
  1936.2500     23.3697     11.8737     22.7871    117.0161
  1936.5000     23.3385     11.8368     22.6052    117.2655
  1936.7500     23.8832     11.8008     22.3379    113.5807
  1937.0000     24.6721     11.7666     22.0311    102.8873
  1937.2500     25.3147     11.7328     21.7505     94.7098
  1937.5000     25.6329     11.7010     21.5466     86.0642
  1937.7500     25.6855     11.6760     21.4441     84.7783
  1938.0000     25.6851     11.6621     21.4554     89.8204
  1938.2500     25.8549     11.6610     21.5995     96.0773
  1938.5000     26.1975     11.6714     21.9079    105.1558
  1938.7500     26.4817     11.6860     22.4135    108.7734
  1939.0000     26.5309     11.6910     23.1267    109.4333
  1939.2500     26.4271     11.6715     24.0105    107.4166
  1939.5000     26.4437     11.6209     24.9669    102.3506
  1939.7500     26.8816     11.5440     25.8505     98.0467
  1940.0000     27.8873     11.4543     26.5242     90.1954
  1940.2500     29.2997     11.3691     26.9362     84.1727
  1940.5000     30.8189     11.3062     27.1551     75.0567
  1940.7500     32.3875     11.2806     27.3243     69.7825
  1941.0000     34.2072     11.2998     27.5734     64.0403
  1941.2500     36.3973     11.3605     27.9489     61.7509
  1941.5000     38.7746     11.4473     28.3874     60.1702
  1941.7500     40.9503     11.5377     28.7313     59.8715
  1942.0000     42.6087     11.6119     28.7862     59.7032
  1942.2500     43.6142     11.6649     28.4049     59.4445
  1942.5000     43.8814     11.7145     27.5484     58.6154
  1942.7500     43.3234     11.7989     26.2862     57.8630
  1943.0000     41.9313     11.9591     24.7521     57.3850
  1943.2500     39.7773     12.2150     23.0968     58.5970
  1943.5000     36.9331     12.5512     21.4593     64.6742
  1943.7500     33.5130     12.9253     19.9484     72.1176
  1944.0000     29.7976     13.2901     18.6336     87.8744
  1944.2500     26.1969     13.6118     17.5464    100.4913
  1944.5000     23.0415     13.8774     16.6880    120.2780
  1944.7500     20.4396     14.0937     16.0378    132.6372
  1945.0000     18.3354     14.2781     15.5554    148.1998
  1945.2500     16.6122     14.4444     15.1841    156.1585
  1945.5000     15.1874     14.5951     14.8625    164.2172
  1945.7500     14.0728     14.7258     14.5449    166.8198
  1946.0000     13.3082     14.8326     14.2195    166.1343
  1946.2500     12.8773     14.9165     13.9076    162.3948
  1946.5000     12.7294     14.9842     13.6474    151.9342
  1946.7500     12.8392     15.0454     13.4765    142.6059
  1947.0000     13.1628     15.1070     13.4245    128.5941
  1947.2500     13.6402     15.1668     13.5124    121.5380
  1947.5000     14.3600     15.2132     13.7539    115.9289
  1947.7500     15.5341     15.2335     14.1553    114.6150
  1948.0000     17.2038     15.2229     14.7150    113.6027
  1948.2500     19.0687     15.1894     15.4227    112.5205
  1948.5000     20.6873     15.1510     16.2593    110.2428
  1948.7500     21.8359     15.1278     17.1967    109.1101
  1949.0000     22.6165     15.1326     18.2010    109.5381
  1949.2500     23.2888     15.1652     19.2375    111.2422
  1949.5000     24.0708     15.2143     20.2761    113.8198
  1949.7500     24.9968     15.2661     21.2940    113.9538
  1950.0000     25.9088     15.3132     22.2762    110.5389
  1950.2500     26.6877     15.3612     23.2172    106.2677
  1950.5000     27.4677     15.4268     24.1210     98.3852
  1950.7500     28.5104     15.5317     25.0009     92.8921
  1951.0000     29.9003     15.6915     25.8848     85.1320
  1951.2500     31.4573     15.9055     26.8211     80.5702
  1951.5000     32.9934     16.1538     27.8748     74.9086
  1951.7500     34.4733     16.4018     29.1052     72.0848
  1952.0000     35.8409     16.6116     30.5321     69.6976
  1952.2500     37.0066     16.7551     32.1066     69.3547
  1952.5000     37.9841     16.8262     33.6950     69.8027
  1952.7500     38.7688     16.8449     35.0913     70.0055
  1953.0000     39.2652     16.8489     36.0766     69.8894
  1953.2500     39.5140     16.8755     36.5255     70.0647
  1953.5000     39.7182     16.9454     36.4844     71.5303
  1953.7500     39.9313     17.0586     36.1412     73.1209
  1954.0000     39.9939     17.2004     35.7146     75.2463
  1954.2500     39.8347     17.3537     35.3518     75.8500
  1954.5000     39.5871     17.5065     35.0824     75.1329
  1954.7500     39.3975     17.6521     34.8280     73.8014
