~Version Information
VERS.                      2.0: CWLS Log ASCII Standard - VERSION 2.0
WRAP.                       NO: One line per depth step
~Well Information Block
STRT.FT               615.0000: 
STOP.FT              2807.0000: 
STEP.FT                 0.1000: 
NULL.                -999.2500: 
COMP.          Pioneer Natural Resources: COMPANY
WELL.              Loews 41-32: WELL
FLD.           Purgatoire River: FIELD
LOC.           751' FNL & 128' FEL: LOCATION
CNTY.               Las Animas: COUNTY
SRVC.                Patterson: SERVICE COMPANY
DATE.          Mon Feb 13 07:19:27 2006: LOG DATE
UWI.           05 071 08693 00: UNIQUE WELL ID
STAT.                 Colorado: STATE
~Curve Information Block
DEPT.FT            0 000 00 00: Depth
DCAL.in                       : CDL Caliper
RHOB.g/cc                     : CDL Bulk Density
RHOC.g/cc                     : CDL Density Correction
DPOR.pu                       : CDL Density Porosity
GR.GAPI                       : Gamma Ray
NPOR.pu                       : Neutron Porosity
~Parameter Information Block
~A  Depth       DCAL        RHOB        RHOC        DPOR         GR         NPOR    
# ...
  1200.6000      8.3075      1.5774     -0.0698     65.0064     83.1855     35.2829
  1200.7000      8.3075      1.5699     -0.0332     65.4586     77.1384     35.2156
  1200.8000      8.3227      1.5696      0.0154     65.4803     77.3385     35.1002
  1200.9000      8.3227      1.5604      0.0631     66.0354     82.1235     34.9117
  1201.0000      8.3491      1.5302      0.0691     67.8647     85.2988     34.6618
  1201.1000      8.3491      1.4714      0.0380     71.4286     84.2041     34.2213
  1201.2000      8.3491      1.3887     -0.0416     76.4417     81.1621     33.8108
  1201.3000      8.4212      1.2955     -0.0656     82.0917     76.3428     33.4977
  1201.4000      8.4212      1.2016     -0.1126     87.7814     71.4091     27.3406
  1201.5000      8.4236      1.1107     -0.1635     93.2932     71.5423     27.7831
  1201.6000      8.4236      1.0306     -0.1550     98.1476     75.5445     28.4550
  1201.7000      8.4236      0.9798     -0.1373    101.2253     79.2192     28.5547
  1201.8000      8.4634      0.9739     -0.1153    101.5801     81.6748     28.2264
  1201.9000      8.4634      1.0239     -0.1067     98.5542     84.1464     28.4279
  1202.0000      8.5817      1.1473     -0.1202     91.0707     87.0033     29.5059
  1202.1000      8.5817      1.3405      0.0043     79.3617     86.9430     30.2750
  1202.2000      8.5817      1.5641      0.1477     65.8133     85.2310     30.0862
  1202.3000      8.8133      1.7873      0.2482     52.2840     87.6768     30.0301
  1202.4000      8.8133      1.9848      0.3412     40.3164     92.8907     30.8117
  1202.5000      9.0392      2.1161      0.3852     32.3557     96.8624     31.6784
  1202.6000      9.0392      2.1913      0.2036     27.8013    102.1493     31.6246
  1202.7000      9.0392      2.2794      0.1261     22.4628    111.5456     30.9161
  1202.8000      8.3100      2.4006      0.1887     15.1171    119.4119     30.6406
  1202.9000      8.3100      2.5119      0.2089      8.3696    120.8114     30.8059
  1203.0000      8.2231      2.5933      0.2171      3.4382    121.6838     30.5572
  1203.1000      8.2231      2.6557      0.2585     -0.3454    123.8050     29.8930
  1203.2000      8.2231      2.6956      0.2919     -2.7632    121.6547     29.1811
  1203.3000      8.2920      2.6852      0.3572     -2.1351    117.0783     28.2968
  1203.4000      8.2920      2.6120      0.1985      2.3008    115.4369     27.2520
  1203.5000      8.2958      2.5044      0.0776      8.8255    117.2492     26.8342
  1203.6000      8.2958      2.3930      0.0476     15.5778    118.1815     27.4569
  1203.7000      8.2958      2.2868     -0.0647     22.0127    115.9762     28.1949
  1203.8000      8.2901      2.1937     -0.1329     27.6570    114.0193     28.1829
  1203.9000      8.2901      2.1363     -0.1685     31.1334    114.4924     27.7553
  1204.0000      8.2856      2.1462     -0.1255     30.5340    116.1684     27.3622
  1204.1000      8.2856      2.2236      0.0287     25.8450    119.6231     27.1958
  1204.2000      8.2856      2.3144      0.2730     20.3395    125.3023     27.3073
  1204.3000      8.2842      2.3700      0.3655     16.9713    131.8304     27.4692
  1204.4000      8.2842      2.4002      0.4395     15.1385    136.1956     27.7677
  1204.5000      8.3014      2.4207      0.5437     13.8966    136.4850     28.3695
  1204.6000      8.3014      2.4035      0.5426     14.9378    134.8078     28.5720
  1204.7000      8.3014      2.3197      0.4710     20.0179    135.0303     27.6255
  1204.8000      8.5055      2.1850      0.3715     28.1807    137.9046     26.4198
  1204.9000      8.5055      2.0393      0.3321     37.0120    140.1347     26.2364
  1205.0000      8.5711      1.9037      0.3362     45.2286    139.5150     26.6590
  1205.1000      8.5711      1.7947      0.2589     51.8357    138.2018     26.6040
  1205.2000      8.5711      1.7486      0.2140     54.6326    139.4808     26.3336
  1205.3000      8.5095      1.7900      0.2592     52.1226    143.3069     26.2806
  1205.4000      8.5095      1.9113      0.3248     44.7698    145.7440     26.3348
  1205.5000      8.6055      2.0791      0.4476     34.6004    141.5232     26.6105
  1205.6000      8.6055      2.2353      0.5508     25.1331    132.7870     26.9881
  1205.7000      8.6055      2.3351      0.5286     19.0841    127.0105     27.2346
  1205.8000      8.8292      2.3841      0.5104     16.1160    127.6367     27.3255
  1205.9000      8.8292      2.4085      0.4736     14.6393    132.8336     27.5970
  1206.0000      8.8708      2.4188      0.4279     14.0097    137.2372     28.4063
  1206.1000      8.8708      2.4093      0.3307     14.5906    139.0501     29.2457
  1206.2000      8.8708      2.3686      0.2664     17.0562    142.3043     29.5567
  1206.3000      8.8740      2.2975      0.2337     21.3640    146.3349     29.7376
  1206.4000      8.8740      2.2267      0.1900     25.6547    145.2036     30.2162
  1206.5000      8.8406      2.1934      0.1988     27.6730    138.9306     31.1306
  1206.6000      8.8406      2.1945      0.2537     27.6052    135.0309     32.2297
  1206.7000      8.8406      2.1980      0.2502     27.3945    138.3052     32.7574
  1206.8000      8.5680      2.1885      0.2253     27.9712    143.8745     32.8737
  1206.9000      8.5680      2.1746      0.1979     28.8133    143.8288     33.5119
  1207.0000      8.3353      2.1694      0.1939     29.1272    136.9242     34.2877
  1207.1000      8.3353      2.1821      0.1947     28.3567    129.7761     33.7957
  1207.2000      8.3353      2.2073      0.2171     26.8328    127.9378     32.3509
  1207.3000      8.3044      2.2221      0.2439     25.9307    128.3405     31.4106
  1207.4000      8.3044      2.2239      0.0416     25.8270    127.5217     31.2650
  1207.5000      8.3097      2.2275      0.0664     25.6033    127.2175     31.6718
  1207.6000      8.3097      2.2268      0.0701     25.6503    128.1300     32.3191
  1207.7000      8.3097      2.2100      0.0665     26.6661    128.0831     32.3948
  1207.8000      8.3037      2.1767      0.0660     28.6852    127.2557     31.7574
  1207.9000      8.3037      2.1327      0.0297     31.3517    128.3012     31.0025
  1208.0000      8.2983      2.0970      0.0073     33.5156    130.6292     30.5174
  1208.1000      8.2983      2.0896      0.0154     33.9651    131.7148     30.4583
  1208.2000      8.2983      2.1046      0.0600     33.0562    131.2982     30.4232
  1208.3000      8.2796      2.1265      0.0540     31.7292    129.9019     29.9584
  1208.4000      8.2796      2.1611      0.0321     29.6318    129.5058     29.6024
  1208.5000      8.2759      2.2109      0.1754     26.6122    131.3450     29.7284
  1208.6000      8.2759      2.2561      0.2960     23.8747    132.8409     29.8885
  1208.7000      8.2759      2.2865      0.3058     22.0290    133.4660     29.7047
  1208.8000      8.2966      2.3067      0.3764     20.8090    132.2213     29.0821
  1208.9000      8.2966      2.3056      0.4738     20.8702    127.1924     28.3053
  1209.0000      8.4543      2.2723      0.4584     22.8880    120.5289     27.8424
  1209.1000      8.4543      2.2241      0.4066     25.8140    115.5631     27.8742
  1209.2000      8.4543      2.1785      0.4462     28.5775    113.8998     28.3525
  1209.3000      8.5775      2.1374      0.4043     31.0694    115.4244     29.0177
  1209.4000      8.5775      2.1114      0.4303     32.6416    116.3886     29.3903
  1209.5000      8.5936      2.1167      0.4669     32.3221    113.5113     29.2452
  1209.6000      8.5936      2.1616      0.4765     29.5995    110.6214     28.9167
  1209.7000      8.5936      2.2379      0.5027     24.9729    113.9480     28.8080
  1209.8000      8.5997      2.3128      0.5472     20.4360    121.6642     28.6442
  1209.9000      8.5997      2.3646      0.4995     17.2979    125.3544     28.3463
  1210.0000      8.6631      2.4143      0.5012     14.2844    123.1796     28.4262
  1210.1000      8.6631      2.4793      0.5635     10.3482    120.9199     28.6253
