~Version Information
VERS.                      2.0: CWLS Log ASCII Standard - VERSION 2.0
WRAP.                       NO: One line per depth step
~Well Information Block
STRT.FT                10.0000: 
STOP.FT              1360.0000: 
STEP.FT                 0.1000: 
NULL.                -999.2500: 
COMP.          Pioneer Natural Resources: COMPANY
WELL.              Geyser 41-2: WELL
FLD.           Purgatorie River: FIELD
LOC.           506' FNL & 1127' FEL: LOCATION
PROV.                 Colorado: PROVINCE
CNTY.               Las Animas: COUNTRY
SRVC.                Patterson: SERVICE COMPANY
DATE.          Thu Dec 01 07:38:14 2005: LOG DATE
UWI.                          : UNIQUE WELL ID
~Curve Information Block
DEPT.FT            0 000 00 00: Depth
DCAL.in                       : CDL Caliper
RHOB.g/cc                     : CDL Bulk Density
RHOC.g/cc                     : CDL Density Correction
DPOR.pu                       : CDL Density Porosity
GR.GAPI                       : Gamma Ray
NPOR.pu                       : Neutron Porosity
~Parameter Information Block
~A  Depth       DCAL        RHOB        RHOC        DPOR         GR         NPOR    
# ...
   547.6000      8.0484      2.4415      0.0465     12.6343    128.0775     21.0738
   547.7000      8.0484      2.4438      0.0516     12.4951    134.8096     21.6411
   547.8000      8.0622      2.4674      0.1392     11.0647    141.1162     22.0653
   547.9000      8.0622      2.4962      0.2167      9.3183    148.0243     22.4186
   548.0000      8.0891      2.5003      0.2092      9.0711    154.9545     22.7784
   548.1000      8.0891      2.4868      0.1339      9.8882    159.9885     22.9948
   548.2000      8.0891      2.4900      0.1502      9.6978    163.6222     22.9701
   548.3000      8.0924      2.5185      0.1933      7.9707    165.2251     22.8929
   548.4000      8.0924      2.5591      0.2082      5.5116    163.1368     23.0340
   548.5000      8.1147      2.6058      0.2670      2.6793    157.9032     23.5502
   548.6000      8.1147      2.6491      0.3132      0.0547    152.3868     24.3004
   548.7000      8.1147      2.6710      0.2870     -1.2733    149.7238     25.0017
   548.8000      8.1243      2.6671      0.2397     -1.0337    149.7356     25.5777
   548.9000      8.1243      2.6440      0.2097      0.3645    151.5858     25.9582
   549.0000      8.1232      2.6098      0.1592      2.4384    152.2699     25.9282
   549.1000      8.1232      2.5843      0.0934      3.9846    147.9417     25.5177
   549.2000      8.1232      2.5799      0.1231      4.2486    142.5043     25.1025
   549.3000      8.1347      2.5816      0.1257      4.1479    140.8944     24.9116
   549.4000      8.1347      2.5801      0.1148      4.2376    142.3482     24.8347
   549.5000      8.1189      2.5834      0.1019      4.0378    145.0770     24.7818
   549.6000      8.1189      2.5947      0.0844      3.3498    148.0477     24.8918
   549.7000      8.1189      2.6070      0.1295      2.6035    150.4060     25.1570
   549.8000      8.1155      2.6054      0.1555      2.7043    153.2592     25.2536
   549.9000      8.1155      2.5853      0.1313      3.9202    157.3133     25.0456
   550.0000      8.1151      2.5661      0.0667      5.0857    159.4966     24.7292
   550.1000      8.1151      2.5661      0.0982      5.0863    157.2506     24.4572
   550.2000      8.1151      2.5755      0.1111      4.5135    152.6112     24.3117
   550.3000      8.1129      2.5681      0.0866      4.9649    149.3272     24.3383
   550.4000      8.1129      2.5347      0.0151      6.9904    148.2663     24.3450
   550.5000      8.1126      2.4973     -0.0113      9.2558    146.5862     24.0688
   550.6000      8.1126      2.4798     -0.0450     10.3174    143.1727     23.6152
   550.7000      8.1126      2.4818     -0.0189     10.1921    140.7502     23.3520
   550.8000      8.1204      2.4901      0.0018      9.6906    139.5864     23.5495
   550.9000      8.1204      2.4995      0.0253      9.1233    137.8666     23.9136
   551.0000      8.1271      2.5078      0.0235      8.6206    136.6066     23.8407
   551.1000      8.1271      2.5091      0.0202      8.5388    136.2889     23.3495
   551.2000      8.1271      2.4976      0.0335      9.2360    135.1326     23.0381
   551.3000      8.1315      2.4734     -0.0040     10.7026    132.5359     23.0242
   551.4000      8.1315      2.4511     -0.0184     12.0526    129.2983     22.8634
   551.5000      8.1284      2.4413      0.0093     12.6487    127.5505     22.4975
   551.6000      8.1284      2.4337     -0.0108     13.1107    130.1654     22.2997
   551.7000      8.1284      2.4191     -0.0495     13.9958    135.0933     22.4717
   551.8000      8.1247      2.4062     -0.0520     14.7777    138.4340     22.8151
   551.9000      8.1247      2.4064     -0.0822     14.7648    139.2500     23.0176
   552.0000      8.1296      2.4238     -0.0113     13.7099    137.1284     23.0475
   552.1000      8.1296      2.4578     -0.0152     11.6485    132.4101     22.8942
   552.2000      8.1296      2.4998      0.0248      9.1031    125.2868     22.6255
   552.3000      8.1260      2.5249      0.1008      7.5800    118.1457     22.4788
   552.4000      8.1260      2.5151      0.0813      8.1740    115.9351     22.5282
   552.5000      8.1313      2.4897      0.0646      9.7146    119.8928     22.6010
   552.6000      8.1313      2.4820      0.0287     10.1818    124.6096     22.5729
   552.7000      8.1313      2.4966      0.0742      9.2974    125.5262     22.4857
   552.8000      8.1379      2.5134      0.0322      8.2771    124.7644     22.4547
   552.9000      8.1379      2.5238      0.0356      7.6480    124.5350     22.4521
   553.0000      8.1367      2.5246      0.1108      7.6022    123.5327     22.2345
   553.1000      8.1367      2.5090      0.0667      8.5438    121.2683     21.7845
   553.2000      8.1367      2.4902      0.0300      9.6845    118.5345     21.4961
   553.3000      8.1370      2.4837      0.0898     10.0774    117.0496     21.5446
   553.4000      8.1370      2.4795      0.1145     10.3353    117.2674     21.6915
   553.5000      8.1394      2.4708     -0.0124     10.8635    116.6334     21.6417
   553.6000      8.1394      2.4674      0.0259     11.0639    114.1671     21.1964
   553.7000      8.1394      2.4647      0.0339     11.2281    110.5694     20.4747
   553.8000      8.1286      2.4527      0.0208     11.9564    107.9851     19.7904
   553.9000      8.1286      2.4349      0.0218     13.0367    109.2383     19.3897
   554.0000      8.1337      2.4122      0.0504     14.4093    113.1552     19.3175
   554.1000      8.1337      2.3809      0.0426     16.3101    116.2136     19.2332
   554.2000      8.1337      2.3414      0.0302     18.7024    118.2672     18.7841
   554.3000      8.1328      2.2924      0.0020     21.6734    121.0373     18.1557
   554.4000      8.1328      2.2292      0.0162     25.5005    123.0098     17.6829
   554.5000      8.1423      2.1521     -0.0125     30.1733    121.3171     17.2721
   554.6000      8.1423      2.0670     -0.0340     35.3350    118.3518     16.6540
   554.7000      8.1423      1.9809     -0.0807     40.5533    117.4231     15.9528
   554.8000      8.1466      1.9042     -0.1317     45.2021    116.9492     15.7177
   554.9000      8.1466      1.8435     -0.0782     48.8788    115.1433     16.0992
   555.0000      8.1394      1.7918     -0.0550     52.0132    113.1398     16.6676
   555.1000      8.1394      1.7444     -0.0584     54.8834    113.7444     17.1057
   555.2000      8.1394      1.7121     -0.0153     56.8448    116.6711     17.4414
   555.3000      8.1466      1.7058     -0.0301     57.2253    118.0226     17.6795
   555.4000      8.1466      1.7269     -0.0193     55.9428    118.0514     17.8170
   555.5000      8.1753      1.7667      0.0304     53.5347    120.3658     18.1082
   555.6000      8.1753      1.8195      0.0554     50.3349    125.8410     18.7123
   555.7000      8.1753      1.8997      0.0700     45.4756    133.2672     19.6769
   555.8000      8.1550      2.0162      0.1848     38.4102    140.6168     20.9731
   555.9000      8.1550      2.1517      0.1845     30.2006    143.9985     22.2560
   556.0000      8.1308      2.2834      0.1965     22.2158    141.9781     23.4276
   556.1000      8.1308      2.3883      0.2660     15.8595    137.7960     24.6537
   556.2000      8.1308      2.4521      0.1873     11.9941    134.4019     25.7611
   556.3000      8.1238      2.4920      0.1678      9.5735    132.4922     26.4590
   556.4000      8.1238      2.5301      0.1944      7.2687    132.0650     26.8112
   556.5000      8.1227      2.5644      0.1853      5.1850    133.0901     27.1213
   556.6000      8.1227      2.5803      0.1274      4.2217    134.9556     27.5191
   556.7000      8.1227      2.5765      0.0707      4.4532    137.5272     27.7471
   556.8000      8.1181      2.5723      0.0425      4.7089    140.3354     27.6185
   556.9000      8.1181      2.5754      0.0892      4.5232    140.5452     27.2318
   557.0000      8.1152      2.5737      0.0508      4.6231    137.1404     26.5710
   557.1000      8.1152      2.5619      0.0680      5.3383    133.8747     25.7816
