~Version Information
VERS.                      2.0: CWLS Log ASCII Standard - VERSION 2.0
WRAP.                       NO: One line per depth step
~Well Information Block
STRT.FT                -8.0000: 
STOP.FT              1661.0000: 
STEP.FT                 0.2500: 
NULL.                -999.2500: 
COMP.          Pioneer Natural Resources: COMPANY
WELL.          Rollerball 34-30: WELL
FLD.           Purgatorie River: FIELD
LOC.           893' FSL & 2408' FEL----: LOCATION
CNTY.               Las Animas: COUNTY
SRVC.          Patterson Wireline: SERVICE COMPANY
DATE.          Mon Feb 20 08:34:38 2006: LOG DATE
UWI.           05 071 08581 00: UNIQUE WELL ID
STAT.                       CO: STATE
~Curve Information Block
DEPT.FT            0 000 00 00: Depth
CCL.                          : Casing Collar Locator
TT3.usec                      : CBL 3' Travel Time
AMP3.mV                       : CBL 3' Amplitude
GR.GAPI                       : Gamma Ray
~Parameter Information Block
~A  Depth       CCL         TT3         AMP3         GR     
# ...
   863.0000      0.0000    693.8431      4.8541    128.8292
   863.2500      0.0000    694.0010      4.8454    131.6194
   863.5000      0.0000    700.1934      4.8447    132.8062
   863.7500      0.0000    714.3048      4.8560    132.4145
   864.0000      0.0000    736.2893      4.8755    131.4316
   864.2500      0.0000    762.9340      4.8991    130.2734
   864.5000      0.0000    789.0475      4.9334    128.1705
   864.7500      0.0000    810.2023      4.9914    123.8619
   865.0000      0.0000    824.1625      5.0775    116.8182
   865.2500      0.0000    830.5903      5.1783    107.9145
   865.5000      0.0000    830.7588      5.2736     99.0904
   865.7500      0.0000    827.4305      5.3497     92.3507
   866.0000      0.0000    823.5691      5.3999     88.7839
   866.2500      0.0000    820.3486      5.4180     88.3265
   866.5000      0.0000    816.7141      5.3995     90.3340
   866.7500      0.0000    811.1660      5.3513     93.9844
   867.0000      0.0000    803.6856      5.2960     98.1262
   867.2500      0.0000    795.7158      5.2616    101.7603
   867.5000      0.0000    788.5930      5.2643    105.3787
   867.7500      0.0000    782.4292      5.2980    110.9571
   868.0000      0.0000    776.5528      5.3395    119.4828
   868.2500      0.0000    770.3923      5.3685    128.8230
   868.5000      0.0000    763.3998      5.3827    135.0326
   868.7500      0.0000    754.8127      5.3930    135.8179
   869.0000      0.0000    744.5223      5.4079    132.1783
   869.2500      0.0000    733.9296      5.4253    126.9494
   869.5000      0.0000    725.1908      5.4368    122.4714
   869.7500      0.0000    719.6107      5.4370    119.5015
   870.0000      0.0000    717.0226      5.4279    117.4601
   870.2500      0.0000    716.4958      5.4175    115.2672
   870.5000      0.0000    717.3065      5.4134    112.2254
   870.7500      0.0000    719.2237      5.4185    108.5053
   871.0000      0.0000    722.0424      5.4318    104.8706
   871.2500      0.0000    725.0211      5.4521    102.0295
   871.5000      0.0000    727.1437      5.4800    100.4262
   871.7500      0.0000    728.0568      5.5154    100.6010
   872.0000      0.0000    728.3138      5.5538    103.2552
   872.2500      0.0000    728.3523      5.5873    108.3973
   872.5000      0.0000    727.7323      5.6105    114.4853
   872.7500      0.0000    725.8706      5.6234    119.0582
   873.0000      0.0000    723.0955      5.6296    120.6656
   873.2500      0.0000    720.4483      5.6297    120.0569
   873.5000      0.0000    718.6781      5.6189    119.2815
   873.7500      0.0000    717.7704      5.5902    119.8282
   874.0000      0.0000    717.1549      5.5423    121.6885
   874.2500      0.0000    715.9469      5.4855    123.7510
   874.5000      0.0000    712.9639      5.4359    124.8079
   874.7500      0.0000    707.0875      5.4034    124.4455
   875.0000      0.0000    698.5637      5.3838    123.2312
   875.2500      0.0000    690.3016      5.3663    122.0813
   875.5000      0.0000    686.8442      5.3493    121.4743
   875.7500      0.0000    690.8265      5.3464    121.1472
   876.0000      0.0000    700.6713      5.3754    120.2242
   876.2500      0.0000    711.8983      5.4457    117.6148
   876.5000      0.0000    719.3074      5.5525    112.6445
   876.7500      0.0000    717.2524      5.6822    105.6605
   877.0000      0.0000    700.1571      5.8178     98.1647
   877.2500      0.0000    666.5869      5.9421     92.1608
   877.5000      0.0000    624.5719      6.0363     88.9191
   877.7500      0.0000    590.0757      6.0843     88.0111
   878.0000      0.0000    575.3959      6.0810     87.6484
   878.2500      0.0000    578.8623      6.0386     86.2611
   878.5000      0.0000    589.7869      5.9805     83.6401
   878.7500      0.0000    602.7872      5.9275     80.3236
   879.0000      0.0000    621.9788      5.8875     76.3288
   879.2500      0.0000    651.2529      5.8568     71.2164
   879.5000      0.0000    686.0925      5.8255     65.4008
   879.7500      0.0000    716.7552      5.7786     60.6817
   880.0000      0.0000    736.1230      5.6950     59.0715
   880.2500      0.0000    742.7495      5.5612     61.3228
   880.5000      0.0000    738.9867      5.4009     66.7967
   880.7500      0.0000    729.1167      5.2773     74.2724
   881.0000      0.0000    718.8682      5.2329     82.3779
   881.2500      0.0000    713.8900      5.2356     89.7171
   881.5000      0.0000    716.4898      5.2225     95.4088
   881.7500      0.0000    723.6314      5.1812     99.3007
   882.0000      0.0000    729.3433      5.1495    101.2540
   882.2500      0.0000    730.5248      5.1528    100.9460
   882.5000      0.0000    730.3882      5.1853     99.0031
   882.7500      1.8365    734.4211      5.2477     97.5226
   883.0000      0.0000    742.5684      5.3860     98.5335
   883.2500      0.0000    747.4974      5.6829    102.0929
   883.5000      0.0000    741.8823      6.1775    106.2089
   883.7500      0.0000    726.1577      6.7661    108.4504
   884.0000      0.0000    708.0296      7.2198    107.7000
   884.2500      0.0000    695.4028      7.3625    104.7887
   884.5000      0.0000    690.8704      7.2196    101.7421
   884.7500      0.0000    691.9354      6.9635    100.4042
   885.0000      0.0000    694.9513      6.7444    101.4770
   885.2500      0.0000    698.6448      6.6048    104.3983
   885.5000      0.0000    703.9570      6.5167    107.8524
   885.7500      0.0000    710.5391      6.4457    110.5124
   886.0000      0.0000    714.7153      6.3797    111.5328
   886.2500      0.0000    712.4430      6.3237    110.6093
   886.5000      0.0000    703.7695      6.2844    107.9820
   886.7500      0.0000    692.9066      6.2598    104.5958
   887.0000      0.0000    684.2349      6.2409    101.8857
   887.2500      0.0000    679.3281      6.2187    101.0951
   887.5000      0.0000    677.4210      6.1875    102.7994
   887.7500      0.0000    677.4142      6.1439    106.8567
   888.0000      0.0000    679.2264      6.0858    112.3740
   888.2500      0.0000    683.9128      6.0145    117.7971
   888.5000      0.0000    692.7089      5.9359    121.5660
   888.7500      0.0000    705.4678      5.8572    123.0129
   889.0000      0.0000    719.8632      5.7831    122.8060
   889.2500      0.0000    732.5777      5.7144    122.5897
   889.5000      0.0000    741.6117      5.6512    123.8387
   889.7500      0.0000    747.4592      5.5956    126.7330
   890.0000      0.0000    752.2056      5.5517    130.2018
   890.2500      0.0000    757.5572      5.5200    132.9091
   890.5000      0.0000    763.1841      5.4947    133.8562
   890.7500      0.0000    766.5315      5.4656    132.5771
   891.0000      0.0000    764.6121      5.4273    129.6490
   891.2500      0.0000    756.4559      5.3835    126.7169
   891.5000      0.0000    744.0566      5.3397    125.0382
   891.7500      0.0000    731.3967      5.2940    124.0324
   892.0000      0.0000    722.8538      5.2395    122.0697
   892.2500      0.0000    721.6282      5.1764    118.7845
   892.5000      0.0000    728.3538      5.1160    115.8597
   892.7500      0.0000    740.6678      5.0714    115.0879
   893.0000      0.0000    754.2554      5.0439    116.1334
   893.2500      0.0000    765.0945      5.0182    116.8676
   893.5000      0.0000    771.7572      4.9698    115.8594
   893.7500      0.0000    775.7836      4.8798    113.8044
   894.0000      0.0000    779.5521      4.7511    112.2688
   894.2500      0.0000    783.9679      4.6144    111.8237
   894.5000      0.0000    788.2782      4.5162    111.8797
   894.7500      0.0000    791.4947      4.4986    111.4905
   895.0000      0.0000    793.4326      4.5844    109.6867
   895.2500      0.0000    794.4981      4.7731    105.7484
   895.5000      0.0000    794.8737      5.0462     99.8749
   895.7500      0.0000    793.7302      5.3786     93.3314
   896.0000      0.0000    788.8786      5.7530     87.7026
   896.2500      0.0000    777.6692      6.1597     84.1279
