~Version Information
VERS.                      2.0: CWLS Log ASCII Standard - VERSION 2.0
WRAP.                       NO: One line per depth step
~Well Information Block
STRT.FT               240.0000: 
STOP.FT              1252.5000: 
STEP.FT                 0.2500: 
NULL.                -999.2500: 
COMP.          Pioneer Natural Resources: COMPANY
WELL.             Margaux 11-1: WELL
FLD.           Purgatoire River: FIELD
LOC.           1154' FNL & 472' FWL: LOCATION
PROV.                 Colorado: PROVINCE
CNTY.               Las Animas: COUNTRY
SRVC.                Patterson: SERVICE COMPANY
DATE.          Mon Dec 19 04:21:59 2005: LOG DATE
UWI.           05 071 08639 00: UNIQUE WELL ID
~Curve Information Block
DEPT.FT            0 000 00 00: Depth
SN.Ohm-m                      : IEL Short Normal
SP.mV                         : IEL Spontaneous Potential
DIR.Ohm-m                     : IEL Induction Resistivity
GR.GAPI                       : Gamma Ray
~Parameter Information Block
~A  Depth        SN          SP         DIR          GR     
# ...
   374.0000   2000.0000   2000.0000     15.4637    134.5056
   374.2500   2000.0000   2000.0000     15.2440    135.3551
   374.5000   2000.0000   2000.0000     15.0395    136.6217
   374.7500   2000.0000   2000.0000     14.8578    136.6252
   375.0000   2000.0000   2000.0000     14.6979    134.7648
   375.2500   2000.0000   2000.0000     14.5487    132.6989
   375.5000   2000.0000   2000.0000     14.3926    129.9585
   375.7500   2000.0000   2000.0000     14.2124    129.2085
   376.0000   2000.0000   2000.0000     13.9977    129.9050
   376.2500   2000.0000   2000.0000     13.7492    130.7748
   376.5000   2000.0000   2000.0000     13.4775    130.5393
   376.7500   2000.0000   2000.0000     13.1991    128.7107
   377.0000   2000.0000   2000.0000     12.9313    124.7843
   377.2500   2000.0000   2000.0000     12.6868    123.0366
   377.5000   2000.0000   2000.0000     12.4688    123.5308
   377.7500   2000.0000   2000.0000     12.2699    125.6420
   378.0000   2000.0000   2000.0000     12.0763    129.5872
   378.2500   2000.0000   2000.0000     11.8748    131.7352
   378.5000   2000.0000   2000.0000     11.6571    133.5195
   378.7500   2000.0000   2000.0000     11.4204    133.8606
   379.0000   2000.0000   2000.0000     11.1680    133.7102
   379.2500   2000.0000   2000.0000     10.9119    133.5073
   379.5000   2000.0000   2000.0000     10.6731    133.4396
   379.7500   2000.0000   2000.0000     10.4758    133.7542
   380.0000   2000.0000   2000.0000     10.3409    135.1147
   380.2500   2000.0000   2000.0000     10.2819    136.6975
   380.5000   2000.0000   2000.0000     10.3048    139.8669
   380.7500   2000.0000   2000.0000     10.4090    142.2191
   381.0000   2000.0000   2000.0000     10.5870    145.3982
   381.2500   2000.0000   2000.0000     10.8208    146.7604
   381.5000   2000.0000   2000.0000     11.0809    146.6960
   381.7500   2000.0000   2000.0000     11.3286    144.7428
   382.0000   2000.0000   2000.0000     11.5245    138.2546
   382.2500   2000.0000   2000.0000     11.6390    131.3796
   382.5000   2000.0000   2000.0000     11.6614    118.0198
   382.7500   2000.0000   2000.0000     11.6036    108.4648
   383.0000   2000.0000   2000.0000     11.4960     96.5206
   383.2500   2000.0000   2000.0000     11.3771     91.8009
   383.5000   2000.0000   2000.0000     11.2815     90.5701
   383.7500   2000.0000   2000.0000     11.2316     93.1682
   384.0000   2000.0000   2000.0000     11.2353    100.7379
   384.2500   2000.0000   2000.0000     11.2866    107.5908
   384.5000   2000.0000   2000.0000     11.3673    119.7915
   384.7500   2000.0000   2000.0000     11.4489    128.5248
   385.0000   2000.0000   2000.0000     11.4966    140.6997
   385.2500   2000.0000   2000.0000     11.4779    147.0110
   385.5000   2000.0000   2000.0000     11.3729    152.2854
   385.7500   2000.0000   2000.0000     11.1829    152.8143
   386.0000   2000.0000   2000.0000     10.9316    150.2647
   386.2500   2000.0000   2000.0000     10.6570    147.6414
   386.5000   2000.0000   2000.0000     10.3983    144.3999
   386.7500   2000.0000   2000.0000     10.1841    143.1680
   387.0000   2000.0000   2000.0000     10.0270    142.3764
   387.2500   2000.0000   2000.0000      9.9242    142.3244
   387.5000   2000.0000   2000.0000      9.8597    143.0114
   387.7500   2000.0000   2000.0000      9.8090    143.8917
   388.0000   2000.0000   2000.0000      9.7451    145.0394
   388.2500   2000.0000   2000.0000      9.6463    145.1748
   388.5000   2000.0000   2000.0000      9.5020    144.3491
   388.7500   2000.0000   2000.0000      9.3145    143.6378
   389.0000   2000.0000   2000.0000      9.0974    143.7022
   389.2500   2000.0000   2000.0000      8.8720    145.0776
   389.5000   2000.0000   2000.0000      8.6607    148.9532
   389.7500   2000.0000   2000.0000      8.4800    151.9200
   390.0000   2000.0000   2000.0000      8.3372    155.0952
   390.2500   2000.0000   2000.0000      8.2305    155.6327
   390.5000   2000.0000   2000.0000      8.1526    154.1117
   390.7500   2000.0000   2000.0000      8.0948    152.1940
   391.0000   2000.0000   2000.0000      8.0498    149.2174
   391.2500   2000.0000   2000.0000      8.0134    147.6399
   391.5000   2000.0000   2000.0000      7.9857    146.2110
   391.7500   2000.0000   2000.0000      7.9710    145.7868
   392.0000   2000.0000   2000.0000      7.9778    145.2781
   392.2500   2000.0000   2000.0000      8.0180    144.6516
   392.5000   2000.0000   2000.0000      8.1037    143.3098
   392.7500   2000.0000   2000.0000      8.2445    142.4455
   393.0000   2000.0000   2000.0000      8.4438    141.5710
   393.2500   2000.0000   2000.0000      8.6981    141.4131
   393.5000   2000.0000   2000.0000      9.0005    142.3067
   393.7500   2000.0000   2000.0000      9.3460    143.9041
   394.0000   2000.0000   2000.0000      9.7346    147.3285
   394.2500   2000.0000   2000.0000     10.1710    149.4222
   394.5000   2000.0000   2000.0000     10.6602    150.6118
   394.7500   2000.0000   2000.0000     11.2051    149.5544
   395.0000   2000.0000   2000.0000     11.8072    145.4067
   395.2500   2000.0000   2000.0000     12.4702    141.5543
   395.5000   2000.0000   2000.0000     13.2052    134.9511
   395.7500   2000.0000   2000.0000     14.0329    129.7926
   396.0000   2000.0000   2000.0000     14.9829    119.8224
   396.2500   2000.0000   2000.0000     16.0896    111.4416
   396.5000   2000.0000   2000.0000     17.3872     97.3550
   396.7500   2000.0000   2000.0000     18.9058     88.0675
   397.0000   2000.0000   2000.0000     20.6669     75.7775
   397.2500   2000.0000   2000.0000     22.6734     69.0047
   397.5000   2000.0000   2000.0000     24.8936     60.8081
   397.7500   2000.0000   2000.0000     27.2465     56.3330
   398.0000   2000.0000   2000.0000     29.5982     50.5726
   398.2500   2000.0000   2000.0000     31.7697     47.3056
   398.5000   2000.0000   2000.0000     33.5564     43.8004
   398.7500   2000.0000   2000.0000     34.7662     42.8930
   399.0000   2000.0000   2000.0000     35.2802     44.1345
   399.2500   2000.0000   2000.0000     35.1001     46.5037
   399.5000   2000.0000   2000.0000     34.3352     51.6028
   399.7500   2000.0000   2000.0000     33.1435     55.7993
   400.0000   2000.0000   2000.0000     31.6812     63.6674
   400.2500   2000.0000   2000.0000     30.0850     70.3222
   400.5000   2000.0000   2000.0000     28.4681     82.3335
   400.7500   2000.0000   2000.0000     26.9083     91.0839
   401.0000   2000.0000   2000.0000     25.4396    103.8229
   401.2500   2000.0000   2000.0000     24.0595    111.2307
   401.5000   2000.0000   2000.0000     22.7510    119.6170
   401.7500   2000.0000   2000.0000     21.5039    123.0109
   402.0000   2000.0000   2000.0000     20.3229    124.8540
   402.2500   2000.0000   2000.0000     19.2244    124.4549
   402.5000   2000.0000   2000.0000     18.2309    122.9809
   402.7500   2000.0000   2000.0000     17.3654    122.3415
   403.0000   2000.0000   2000.0000     16.6458    122.7319
   403.2500   2000.0000   2000.0000     16.0796    123.7570
   403.5000   2000.0000   2000.0000     15.6612    125.5399
   403.7500   2000.0000   2000.0000     15.3708    126.3711
   404.0000   2000.0000   2000.0000     15.1741    126.6571
   404.2500   2000.0000   2000.0000     15.0249    126.2522
   404.5000   2000.0000   2000.0000     14.8698    125.0838
   404.7500   2000.0000   2000.0000     14.6591    124.0272
   405.0000   2000.0000   2000.0000     14.3576    121.6860
   405.2500   2000.0000   2000.0000     13.9557    119.2940
   405.5000   2000.0000   2000.0000     13.4712    114.3831
   405.7500   2000.0000   2000.0000     12.9415    110.6553
   406.0000   2000.0000   2000.0000     12.4071    105.7033
   406.2500   2000.0000   2000.0000     11.8974    103.6978
   406.5000   2000.0000   2000.0000     11.4250    103.6966
   406.7500   2000.0000   2000.0000     10.9889    105.7846
   407.0000   2000.0000   2000.0000     10.5815    111.3773
   407.2500   2000.0000   2000.0000     10.1956    116.2502
