~Version Information
 VERS.                                  2.0 : CWLS LAS VERSION
 WRAP.                                   NO : WRAPING MODE
 SWARE .                 MController 2.5.0J : SOFTWARE VERSION
~Well Information
 WELL.YWAM 7-32R : WELL
 COMP.                Petrogulf Corporation : COMPANY
 FLD.                      Purgatoire River : FIELD
 LOC.                 SW/NE Sec 7 T33S R67W : LOCATION
 DATE.9/28/05 : DATE(S) LOGGED
 SRVC.       BLANCO Geological Services LLC : SERVICE COMPANY
 STAT.                                   CO : STATE
 CNTY.                           Las Animas : COUNTY
 CTRY.                                  USA : COUNTRY
 API.                       05-071-08518-00 : API NUMBER
 STRT.FT                               1.00 : START DEPTH
 STOP.FT                            2100.00 : STOP DEPTH
 STEP.FT                               1.00 : DEPTH INCREMENT
 NULL.                                -9999 : NULL VALUE
~Curve information
 DEPTH.FT                                   :
 ROP.MIN/FT                                 :
 GAS.UNITS                                  :
~ASCII Log data
# ...
      1401.0         0.30         25.8 
      1402.0         0.37         24.6 
      1403.0         0.37         25.2 
      1404.0         0.40         26.6 
      1405.0         0.27         26.8 
      1406.0         0.30         27.1 
      1407.0         0.25         26.8 
      1408.0         0.30         22.2 
      1409.0         0.33         15.1 
      1410.0         3.28         85.5 
      1411.0         0.63         43.4 
      1412.0         0.50         40.8 
      1413.0         0.62         32.9 
      1414.0         0.67         24.6 
      1415.0         0.97         29.4 
      1416.0         0.50         29.2 
      1417.0         0.43         28.0 
      1418.0         0.52         26.9 
      1419.0         0.40         25.9 
      1420.0         0.37         25.8 
      1421.0         0.27         25.5 
      1422.0         0.20         25.5 
      1423.0         0.20         25.4 
      1424.0         0.23         25.3 
      1425.0         0.23         25.8 
      1426.0         0.23         26.5 
      1427.0         0.30         26.6 
      1428.0         0.27         26.5 
      1429.0         0.33         26.3 
      1430.0         0.32         26.7 
      1431.0         0.30         26.5 
      1432.0         0.30         26.3 
      1433.0         0.43         26.8 
      1434.0         0.33         27.4 
      1435.0         0.40         26.9 
      1436.0         0.40         27.7 
      1437.0         0.17         27.7 
      1438.0         0.33         27.6 
      1439.0         0.58         20.4 
      1440.0         4.85         85.9 
      1441.0         0.53         30.3 
      1442.0         0.70         28.1 
      1443.0         0.37         26.6 
      1444.0         0.42         27.4 
      1445.0         0.33         27.9 
      1446.0         0.27         28.6 
      1447.0         0.27         31.1 
      1448.0         0.27         32.5 
      1449.0         0.43         33.7 
      1450.0         0.53         33.0 
      1451.0         0.47         30.1 
      1452.0         0.33         28.2 
      1453.0         0.35         27.8 
      1454.0         0.40         25.8 
      1455.0         0.53         24.0 
      1456.0         0.60         24.6 
      1457.0         0.57         25.7 
      1458.0         0.33         26.0 
      1459.0         0.30         26.5 
      1460.0         0.35         26.2 
      1461.0         0.43         25.9 
      1462.0         0.37         24.9 
      1463.0         0.43         24.7 
      1464.0         0.53         26.7 
      1465.0         0.43         27.7 
      1466.0         0.40         27.4 
      1467.0         0.55         26.5 
      1468.0         0.30         21.1 
      1469.0         0.40         14.3 
      1470.0         4.28         90.0 
      1471.0         0.47         35.7 
      1472.0         0.67         28.4 
      1473.0         0.40         26.4 
      1474.0         0.58         28.1 
      1475.0         0.20         27.5 
      1476.0         0.60         28.4 
      1477.0         0.63         32.3 
      1478.0         0.50         35.6 
      1479.0         0.30         35.2 
      1480.0         0.27         32.0 
      1481.0         0.48         29.3 
      1482.0         0.30         30.6 
      1483.0         0.43         30.7 
      1484.0         0.50         28.3 
      1485.0         0.27         27.0 
      1486.0         0.33         26.8 
      1487.0         0.53         26.8 
      1488.0         0.60         26.8 
      1489.0         0.55         26.6 
      1490.0         0.50         26.7 
      1491.0         0.33         27.3 
      1492.0         0.37         27.9 
      1493.0         0.33         27.9 
      1494.0         0.33         26.6 
      1495.0         0.43         26.1 
      1496.0         0.55         25.3 
      1497.0         0.60         25.1 
      1498.0         0.50         24.1 
      1499.0         0.53         24.3 
      1500.0         6.53        113.2 
      1501.0         0.85         27.9 
      1502.0         0.57         29.9 
      1503.0         0.50         32.3 
      1504.0         0.47         32.1 
      1505.0         0.50         31.5 
      1506.0         0.38         30.1 
      1507.0         0.33         28.9 
      1508.0         0.53         28.3 
      1509.0         0.60         28.4 
      1510.0         0.50         26.8 
      1511.0         0.83         23.9 
      1512.0         0.62         24.9 
      1513.0         0.47         26.5 
      1514.0         0.40         27.6 
      1515.0         0.43         27.6 
      1516.0         0.27         27.5 
      1517.0         0.17         26.6 
      1518.0         0.50         26.4 
      1519.0         0.47         26.7 
      1520.0         0.72         27.0 
      1521.0         0.77         24.2 
      1522.0         0.73         21.2 
      1523.0         0.72         21.9 
      1524.0         0.70         21.7 
      1525.0         0.77         21.4 
      1526.0         0.85         21.7 
      1527.0         0.27         13.1 
      1528.0         0.63         37.1 
      1529.0         0.73         74.9 
      1530.0         4.38         81.5 
      1531.0         0.52         26.3 
      1532.0         0.30         26.9 
      1533.0         0.27         27.0 
      1534.0         0.50         27.1 
      1535.0         0.67         25.7 
      1536.0         0.47         28.0 
      1537.0         0.33         28.5 
      1538.0         0.33         28.4 
      1539.0         0.42         27.7 
      1540.0         0.40         27.4 
      1541.0         0.37         27.8 
      1542.0         0.30         29.2 
      1543.0         0.17         29.4 
      1544.0         0.23         29.3 
      1545.0         0.30         28.9 
      1546.0         0.27         28.4 
      1547.0         0.33         28.3 
      1548.0         0.30         27.6 
      1549.0         0.33         24.9 
      1550.0         0.25         23.0 
      1551.0         0.57         29.2 
      1552.0         0.30         32.9 
      1553.0         0.57         35.3 
      1554.0         0.77         35.3 
      1555.0         0.80         30.3 
      1556.0         0.68         29.4 
      1557.0         0.43         28.1 
      1558.0         0.30         19.4 
      1559.0         0.23         17.7 
      1560.0         4.32         92.3 
      1561.0         0.40         44.3 
      1562.0         0.55         39.8 
      1563.0         0.47         28.9 
      1564.0         0.37         24.2 
      1565.0         0.27         23.8 
      1566.0         0.27         25.0 
      1567.0         0.30         26.7 
      1568.0         0.37         28.2 
      1569.0         0.33         28.7 
      1570.0         0.33         28.8 
      1571.0         0.68         28.9 
      1572.0         0.67         28.8 
      1573.0         0.47         28.5 
      1574.0         0.53         28.1 
      1575.0         0.77         28.5 
      1576.0         0.27         28.7 
      1577.0         0.28         29.2 
      1578.0         0.20         29.4 
      1579.0         0.23         29.6 
      1580.0         0.30         30.0 
      1581.0         0.33         30.3 
      1582.0         0.53         30.3 
      1583.0         0.23         30.3 
      1584.0         0.37         29.9 
      1585.0         0.37         28.8 
      1586.0         0.27         28.1 
      1587.0         0.38         27.7 
      1588.0         0.43         28.1 
      1589.0         0.37         27.1 
      1590.0         7.30        128.2 
      1591.0         0.53         29.4 
      1592.0         0.50         30.4 
      1593.0         0.48         30.9 
      1594.0         0.37         31.0 
      1595.0         0.50         31.4 
      1596.0         0.63         31.5 
      1597.0         0.67         30.5 
      1598.0         0.73         30.0 
      1599.0         0.75         30.6 
      1600.0         0.80         29.6 
