~Version Information
VERS.                      2.0: CWLS Log ASCII Standard - VERSION 2.0
WRAP.                       NO: One line per depth step
~Well Information Block
STRT.FT                -7.5000: 
STOP.FT               988.5000: 
STEP.FT                 0.2500: 
NULL.                -999.2500: 
COMP.          Pioneer Natural Resources: COMPANY
WELL.          Stags Leap 13-30: WELL
FLD.           Purgatorie River: FIELD
LOC.           1813' FSL & 117' FWL--: LOCATION
PROV.                       CO: PROVINCE
CNTY.               Las Animas: COUNTRY
SRVC.          Patterson Wireline: SERVICE COMPANY
DATE.          Tue Dec 13 11:29:26 2005: LOG DATE
UWI.           05 071 08595 00: UNIQUE WELL ID
~Curve Information Block
DEPT.FT            0 000 00 00: Depth
CCL.                          : Casing Collar Locator
TT3.usec                      : CBL 3' Travel Time
AMP3.mV                       : CBL 3' Amplitude
GR.GAPI                       : Gamma Ray
~Parameter Information Block
~A  Depth       CCL         TT3         AMP3         GR     
# ...
   897.0000      0.0000    828.5153      7.6277     70.5403
   897.2500      0.0000    830.3441      7.8054     68.9953
   897.5000      0.0000    829.9133      7.9358     68.1581
   897.7500      0.0000    826.5650      7.9895     67.8324
   898.0000      0.0000    818.9010      7.8906     67.7755
   898.2500      0.0000    807.0140      7.5436     67.5310
   898.5000      0.0000    794.7311      6.9422     66.9150
   898.7500      0.0000    789.9113      6.2608     66.5518
   899.0000      0.0000    801.2994      5.7828     67.3666
   899.2500      0.0000    832.2290      5.6933     69.3444
   899.5000      0.0000    875.5297      5.9475     71.1061
   899.7500      0.0000    916.1549      6.3405     70.9275
   900.0000      0.0000    941.6613      6.6741     68.1334
   900.2500      0.0000    950.2797      6.8610     63.6971
   900.5000     -2.0000    948.1801      6.9204     59.6522
   900.7500      0.0000    941.7147      6.9091     57.6625
   901.0000      0.0000    933.7109      6.8675     57.9377
   901.2500      0.0000    923.2777      6.8200     59.6308
   901.5000      0.0000    907.2526      6.7924     62.0984
   901.7500      0.0000    884.4240      6.7896     65.3275
   902.0000      0.0000    858.6196      6.7742     69.2768
   902.2500      0.0000    836.0724      6.7121     73.3336
   902.5000      0.0000    820.7750      6.6236     76.6259
   902.7500      0.0000    813.1301      6.5579     78.6819
   903.0000      0.0000    811.2051      6.5372     79.7096
   903.2500      0.0000    812.0007      6.5481     80.4871
   903.5000      0.0000    812.5720      6.5650     82.0708
   903.7500      0.0000    811.1169      6.5656     85.1012
   904.0000      0.0000    807.3227      6.5346     88.8555
   904.2500      0.0000    801.8301      6.4629     91.2852
   904.5000      0.0000    795.4192      6.3509     90.6749
   904.7500      0.0000    788.5362      6.2128     87.3581
   905.0000      0.0000    781.0740      6.0757     83.4615
   905.2500      0.0000    772.1340      5.9638     80.9802
   905.5000      0.0000    760.4000      5.8851     80.3562
   905.7500      0.0000    745.5901      5.8357     80.7923
   906.0000      0.0000    729.6376      5.8126     81.5098
   906.2500      0.0000    715.7737      5.8154     82.3736
   906.5000      0.0000    706.2015      5.8440     83.3352
   906.7500      0.0000    700.8883      5.8949     83.6907
   907.0000      0.0000    698.3970      5.9568     82.3947
   907.2500      0.0000    697.3007      6.0096     79.1611
   907.5000      0.0000    696.8057      6.0319     74.9527
   907.7500      0.0000    696.5811      6.0100     71.3172
   908.0000      0.0000    696.4280      5.9385     69.3827
   908.2500      0.0000    696.1697      5.8190     69.3366
   908.5000      0.0000    695.7343      5.6646     70.5329
   908.7500      0.0000    695.2172      5.5012     72.0274
   909.0000      0.0000    694.7842      5.3613     73.0663
   909.2500      0.0000    694.5181      5.2720     73.1765
   909.5000      0.0000    694.3675      5.2444     72.1858
   909.7500      0.0000    694.2309      5.2683     70.3156
   910.0000      0.0000    694.0745      5.3160     67.9729
   910.2500      0.0000    693.9711      5.3532     65.4830
   910.5000      0.0000    694.0297      5.3566     63.2344
   910.7500      0.0000    694.2981      5.3262     61.7986
   911.0000      0.0000    694.7272      5.2853     61.6763
   911.2500      0.0000    695.2064      5.2624     63.1642
   911.5000      0.0000    695.6160      5.2690     66.4283
   911.7500      0.0000    695.8770      5.2937     71.2315
   912.0000      0.0000    695.9904      5.3193     76.6316
   912.2500      0.0000    696.0314      5.3406     81.4040
   912.5000      0.0000    696.0853      5.3637     84.7439
   912.7500      0.0000    696.1885      5.3928     86.2185
   913.0000      0.0000    696.3264      5.4233     85.2886
   913.2500      0.0000    696.4537      5.4445     81.5341
   913.5000      0.0000    696.5040      5.4474     75.5526
   913.7500      0.0000    696.4135      5.4318     69.1389
   914.0000      0.0000    696.1658      5.4079     64.1126
   914.2500      0.0000    695.8115      5.3867     61.1745
   914.5000      0.0000    695.4445      5.3688     60.1776
   914.7500      0.0000    695.1608      5.3474     61.0222
   915.0000      0.0000    695.0210      5.3180     63.5600
   915.2500      0.0000    695.0163      5.2857     66.7570
   915.5000      0.0000    695.0648      5.2616     68.7805
   915.7500      0.0000    695.0582      5.2550     68.3397
   916.0000      0.0000    694.9354      5.2688     65.8307
   916.2500      0.0000    694.7216      5.3000     63.0320
   916.5000      0.0000    694.5001      5.3410     61.6867
   916.7500      0.0000    694.3472      5.3808     62.3063
   917.0000      0.0000    694.2897      5.4063     64.1686
   917.2500      0.0000    694.3081      5.4080     66.2059
   917.5000      0.0000    694.3654      5.3845     67.7634
   917.7500      0.0000    694.4264      5.3435     68.6816
   918.0000      0.0000    694.4047      5.2990     68.9878
   918.2500      0.0000    693.9938      5.2714     68.7501
   918.5000      0.0000    692.4560      5.2874     68.2384
   918.7500      0.0000    688.7075      5.3686     68.0601
   919.0000      0.0000    682.2133      5.5071     68.8993
   919.2500      0.0000    674.4044      5.6564     70.8531
   919.5000      0.0000    668.8470      5.7594     72.9150
   919.7500      0.0000    668.8403      5.7938     73.5207
   920.0000      0.0000    674.4297      5.7872     72.0397
   920.2500      0.0000    682.3747      5.7913     69.4233
   920.5000      0.0000    689.0965      5.8433     66.9577
   920.7500      0.0000    693.0948      5.9445     64.8596
   921.0000      0.0000    694.8292      6.0631     62.7776
   921.2500      0.0000    695.3522      6.1593     61.2936
   921.5000      0.0000    695.4232      6.2138     61.9343
   921.7500      0.0000    695.3831      6.2326     65.4248
   922.0000      0.0000    695.3240      6.2304     70.5941
   922.2500      0.0000    695.2988      6.2197     75.5393
   922.5000      0.0000    695.4933      6.2181     79.5089
   922.7500      0.0000    696.2932      6.2558     83.2579
   923.0000      0.0000    698.0883      6.3652     88.0061
   923.2500      0.0000    700.7748      6.5561     94.4098
   923.5000      0.0000    703.3909      6.7990    102.0129
   923.7500      0.0000    704.5735      7.0275    109.2641
   924.0000      0.0000    703.7751      7.1674    114.3164
   924.2500      0.0000    701.9931      7.1762    116.1438
   924.5000      0.0000    701.2101      7.0680    115.0226
   924.7500      0.0000    703.1224      6.8996    112.1227
   925.0000      0.0000    708.0463      6.7351    108.8209
   925.2500      0.0000    714.4383      6.6179    106.4755
   925.5000      0.0000    719.6257      6.5647    106.4257
   925.7500      0.0000    721.6023      6.5726    109.2782
   926.0000      0.0000    720.1384      6.6284    113.8105
   926.2500      0.0000    715.9041      6.7155    117.3405
   926.5000      0.0000    708.6941      6.8192    117.9272
   926.7500      0.0000    696.4824      6.9307    115.8926
   927.0000      0.0000    676.1242      7.0506    112.8219
   927.2500      0.0000    646.7288      7.1827    109.6489
   927.5000      0.0000    614.6534      7.3148    106.3175
   927.7500      0.0000    593.6450      7.4132    102.9438
   928.0000      0.0000    595.0158      7.4508    100.3522
   928.2500      0.0000    615.8444      7.4387     99.1499
   928.5000      0.0000    639.3258      7.4158     98.9137
   928.7500      0.0000    647.5552      7.4139     98.8139
   929.0000      0.0000    634.0653      7.4426     98.6531
   929.2500      0.0000    607.5331      7.4965     98.7496
   929.5000      0.0000    585.6326      7.5676     98.9995
   929.7500      0.0000    580.7692      7.6576     98.7153
   930.0000      0.0000    587.8153      7.7794     97.3597
   930.2500      0.0000    588.6539      7.9353     94.8351
