~Version Information
VERS.                      2.0: CWLS Log ASCII Standard - VERSION 2.0
WRAP.                       NO: One line per depth step
~Well Information Block
STRT.FT               460.0000: 
STOP.FT              1349.5000: 
STEP.FT                 0.2500: 
NULL.                -999.2500: 
COMP.          Pioneer Natural Resources: COMPANY
WELL.              Dicks 32-5R: WELL
FLD.           Purgatorie River: FIELD
LOC.           1485' FNL & 1684' FEL: LOCATION
PROV.                 Colorado: PROVINCE
CNTY.               Las Animas: COUNTRY
SRVC.                Patterson: SERVICE COMPANY
DATE.          Thu Dec 08 23:11:15 2005: LOG DATE
UWI.                          : UNIQUE WELL ID
~Curve Information Block
DEPT.FT            0 000 00 00: Depth
SN.Ohm-m                      : IEL Short Normal
SP.mV                         : IEL Spontaneous Potential
DIR.Ohm-m                     : IEL Induction Resistivity
GR.GAPI                       : Gamma Ray
~Parameter Information Block
~A  Depth        SN          SP         DIR          GR     
# ...
  1163.5000     26.1040    217.3388     22.5506     57.3490
  1163.7500     23.8858    218.3905     21.2915     60.3896
  1164.0000     22.5652    219.4254     20.2329     65.3820
  1164.2500     21.8266    220.3835     19.3745     68.8899
  1164.5000     21.3940    221.1893     18.7042     74.0340
  1164.7500     21.1367    221.7946     18.1948     77.1913
  1165.0000     21.0008    222.2030     17.8120     81.6128
  1165.2500     20.9459    222.4579     17.5270     84.5543
  1165.5000     20.9390    222.6146     17.3267     88.9240
  1165.7500     20.9563    222.7258     17.2194     91.4416
  1166.0000     20.9922    222.8426     17.2284     93.8655
  1166.2500     21.0723    223.0154     17.3769     94.3931
  1166.5000     21.2085    223.2862     17.6697     93.8655
  1166.7500     21.3440    223.6755     18.0872     93.0218
  1167.0000     21.4242    224.1719     18.5929     91.5357
  1167.2500     21.4825    224.7297     19.1517     90.5129
  1167.5000     21.5830    225.2736     19.7412     89.0660
  1167.7500     21.7525    225.7119     20.3511     88.3064
  1168.0000     21.9862    225.9609     20.9754     87.6087
  1168.2500     22.2563    225.9743     21.6077     87.3410
  1168.5000     22.5289    225.7573     22.2396     87.0546
  1168.7500     22.7979    225.3564     22.8586     87.0067
  1169.0000     23.0754    224.8333     23.4450     87.4945
  1169.2500     23.3433    224.2415     23.9716     88.3766
  1169.5000     23.5718    223.6131     24.4047     90.6092
  1169.7500     23.7716    222.9646     24.7096     92.5410
  1170.0000     23.9567    222.3091     24.8614     95.5290
  1170.2500     24.0977    221.6644     24.8589     97.1727
  1170.5000     24.1656    221.0566     24.7290     98.5103
  1170.7500     24.1738    220.5255     24.5125     98.5079
  1171.0000     24.1377    220.1227     24.2363     97.5509
  1171.2500     24.0385    219.8914     23.8948     96.7761
  1171.5000     23.8514    219.8394     23.4613     96.0956
  1171.7500     23.5808    219.9348     22.9227     96.0027
  1172.0000     23.2529    220.1235     22.3118     95.9898
  1172.2500     22.8698    220.3496     21.6994     95.7891
  1172.5000     22.3993    220.5660     21.1530     95.0064
  1172.7500     21.8489    220.7400     20.6982     94.2733
  1173.0000     21.3008    220.8624     20.3163     93.2777
  1173.2500     20.8201    220.9472     19.9758     92.8195
  1173.5000     20.3860    221.0161     19.6657     92.2009
  1173.7500     19.9540    221.0778     19.3983     91.6177
  1174.0000     19.5434    221.1231     19.1827     90.5789
  1174.2500     19.2297    221.1346     19.0052     90.0705
  1174.5000     19.0532    221.0972     18.8361     89.8098
  1174.7500     18.9910    221.0034     18.6561     89.7277
  1175.0000     18.9976    220.8589     18.4753     89.1237
  1175.2500     19.0155    220.6872     18.3263     88.3122
  1175.5000     18.9964    220.5185     18.2370     86.9509
  1175.7500     18.9569    220.3673     18.2073     86.3240
  1176.0000     18.9856    220.2153     18.2052     86.0698
  1176.2500     19.1712    220.0090     18.1876     86.1680
  1176.5000     19.5234    219.6687     18.1303     86.0118
  1176.7500     19.9549    219.1081     18.0456     85.3860
  1177.0000     20.3230    218.2617     17.9738     83.7928
  1177.2500     20.5099    217.1063     17.9560     82.6937
  1177.5000     20.5095    215.6637     18.0079     81.4766
  1177.7500     20.4315    213.9838     18.1070     80.8523
  1178.0000     20.4000    212.1253     18.1991     79.7417
  1178.2500     20.4652    210.1486     18.2205     78.8337
  1178.5000     20.5726    208.1240     18.1224     77.6701
  1178.7500     20.5724    206.1353     17.8843     77.4116
  1179.0000     20.3309    204.2666     17.5149     78.2477
  1179.2500     19.8936    202.5850     17.0477     79.5425
  1179.5000     19.4677    201.1423     16.5348     81.6134
  1179.7500     19.2117    199.9846     16.0384     82.1805
  1180.0000     19.0967    199.1480     15.6176     80.7098
  1180.2500     18.9921    198.6418     15.3166     78.4209
  1180.5000     18.8182    198.4381     15.1563     75.1668
  1180.7500     18.5780    198.4818     15.1306     74.7089
  1181.0000     18.3175    198.7087     15.2069     78.1469
  1181.2500     18.1000    199.0599     15.3342     82.9743
  1181.5000     17.9689    199.4865     15.4568     92.2036
  1181.7500     17.9257    199.9497     15.5343     98.3024
  1182.0000     17.9822    200.4220     15.5580    105.4012
  1182.2500     18.2051    200.8864     15.5573    108.2895
  1182.5000     18.6514    201.3315     15.5843    110.3669
  1182.7500     19.3006    201.7508     15.6866    110.9054
  1183.0000     20.0816    202.1487     15.8794    111.0771
  1183.2500     20.9330    202.5482     16.1344    110.5916
  1183.5000     21.7991    202.9868     16.3904    108.2393
  1183.7500     22.5793    203.5044     16.5822    105.4611
  1184.0000     23.1500    204.1304     16.6711    100.2759
  1184.2500     23.4148    204.8847     16.6564     96.9319
  1184.5000     23.2845    205.7858     16.5642     93.1732
  1184.7500     22.7102    206.8526     16.4289     91.8027
  1185.0000     21.8128    208.0912     16.2815     91.4271
  1185.2500     20.9091    209.4762     16.1473     91.9668
  1185.5000     20.3609    210.9406     16.0426     92.8703
  1185.7500     20.3567    212.3775     15.9695     92.8307
  1186.0000     20.7900    213.6568     15.9095     91.2611
  1186.2500     21.3842    214.6628     15.8245     89.5741
  1186.5000     21.8589    215.3379     15.6688     87.6239
  1186.7500     21.9385    215.7035     15.4101     87.6582
  1187.0000     21.4503    215.8442     15.0481     90.5071
  1187.2500     20.4688    215.8770     14.6180     93.9700
  1187.5000     19.2310    215.9273     14.1763     99.7126
  1187.7500     18.0344    216.1113     13.7796    102.4645
  1188.0000     17.2126    216.5113     13.4699    102.9329
  1188.2500     16.9840    217.1449     13.2713    100.4449
  1188.5000     17.2850    217.9492     13.1924     93.8698
  1188.7500     17.8118    218.8058     13.2295     89.3648
  1189.0000     18.2467    219.5993     13.3650     85.8400
  1189.2500     18.4419    220.2698     13.5644     86.8580
  1189.5000     18.4255    220.8226     13.7789     93.0164
  1189.7500     18.3176    221.3033     13.9581     98.7521
  1190.0000     18.2280    221.7700     14.0679    106.8830
  1190.2500     18.1923    222.2703     14.1021    110.8908
  1190.5000     18.1930    222.8201     14.0788    114.4688
  1190.7500     18.2334    223.3945     14.0294    115.6284
  1191.0000     18.3443    223.9509     13.9871    116.0441
  1191.2500     18.4886    224.4666     13.9788    115.2959
  1191.5000     18.5459    224.9476     14.0190    112.2248
  1191.7500     18.4399    225.4036     14.1058    109.1921
  1192.0000     18.2224    225.8236     14.2207    104.9398
  1192.2500     18.0451    226.1820     14.3329    103.3928
  1192.5000     18.0560    226.4659     14.4064    103.5433
  1192.7500     18.2376    226.6894     14.4084    104.8111
  1193.0000     18.3677    226.8852     14.3180    107.4008
  1193.2500     18.2185    227.0912     14.1334    109.2080
  1193.5000     17.7758    227.3426     13.8722    111.5317
  1193.7500     17.2180    227.6626     13.5640    112.4035
  1194.0000     16.7237    228.0469     13.2377    112.0670
  1194.2500     16.3695    228.4560     12.9124    110.7475
  1194.5000     16.1620    228.8295     12.5968    107.8506
  1194.7500     16.0571    229.1142     12.2948    105.8987
  1195.0000     15.9367    229.2843     12.0108    103.6421
  1195.2500     15.6627    229.3388     11.7516    102.7080
  1195.5000     15.2111    229.2874     11.5243    102.1481
  1195.7500     14.7053    229.1424     11.3342    102.3090
  1196.0000     14.2985    228.9220     11.1838    103.1011
  1196.2500     14.0481    228.6515     11.0733    103.7398
  1196.5000     13.9142    228.3544     11.0008    104.6740
  1196.7500     13.8547    228.0400     10.9634    105.4130
