~Version Information
VERS.                      2.0: CWLS Log ASCII Standard - VERSION 2.0
WRAP.                       NO: One line per depth step
~Well Information Block
STRT.FT                -7.0000: 
STOP.FT              2328.5000: 
STEP.FT                 0.2500: 
NULL.                -999.2500: 
COMP.          Pioneer Natural Resources: COMPANY
WELL.              Rolls 14-14: WELL
FLD.           Purgatorie River: FIELD
LOC.           572' FSL & 856' FWL--: LOCATION
PROV.                       CO: PROVINCE
CNTY.               Las Animas: COUNTRY
SRVC.          Patterson Wireline: SERVICE COMPANY
DATE.          Mon Aug 08 10:10:54 2005: LOG DATE
UWI.           05 071 08455 00: UNIQUE WELL ID
~Curve Information Block
DEPT.FT            0 000 00 00: Depth
CCL.                          : Casing Collar Locator
TT3.usec                      : CBL 3' Travel Time
AMP3.mV                       : CBL 3' Amplitude
GR.GAPI                       : Gamma Ray
~Parameter Information Block
~A  Depth       CCL         TT3         AMP3         GR     
# ...
  1232.5000      0.0000    794.5895      4.4875     70.5102
  1232.7500      0.0000    799.9272      4.4490     67.8805
  1233.0000      0.0000    797.9073      4.4025     65.8084
  1233.2500      0.0000    785.1066      4.3564     65.4945
  1233.5000      0.0000    766.5660      4.3228     67.7142
  1233.7500      0.0000    751.7236      4.3033     72.2584
  1234.0000      0.0000    746.8918      4.2910     77.5023
  1234.2500      0.0000    750.5433      4.2869     80.9847
  1234.5000      0.0000    753.2098      4.3123     80.9318
  1234.7500      0.0000    740.6039      4.3978     77.5002
  1235.0000      0.0000    700.3965      4.5552     72.7088
  1235.2500      0.0000    632.4646      4.7561     69.2501
  1235.5000      0.0000    555.6215      4.9379     69.1572
  1235.7500      0.0000    500.7398      5.0369     73.1624
  1236.0000      0.0000    491.8255      5.0222     80.8416
  1236.2500      0.0000    530.2864      4.9046     91.0234
  1236.5000      0.0000    595.4280      4.7212    102.1223
  1236.7500      0.0000    659.7233      4.5176    112.5449
  1237.0000      0.0000    705.4675      4.3414    121.2790
  1237.2500      0.0000    730.2707      4.2342    128.3211
  1237.5000      0.0000    740.9353      4.2151    134.3033
  1237.7500      0.0000    744.7153      4.2630    139.5173
  1238.0000      0.0000    744.9689      4.3203    143.5565
  1238.2500      0.0000    742.1535      4.3292    145.9835
  1238.5000      0.0000    737.3916      4.2777    147.0389
  1238.7500      0.0000    734.3098      4.2069    147.6027
  1239.0000      0.0000    736.6198      4.1600    148.4738
  1239.2500      0.0000    744.1256      4.1347    149.4469
  1239.5000      0.0000    751.8035      4.0996    149.2022
  1239.7500      0.0000    752.5672      4.0439    146.4965
  1240.0000      0.0000    741.4332      3.9849    141.3937
  1240.2500      0.0000    719.1014      3.9399    135.2155
  1240.5000      2.0000    692.8923      3.9129    129.7359
  1240.7500      2.0000    673.3722      3.9055    126.5155
  1241.0000      0.0000    668.1622      3.9281    126.3100
  1241.2500      0.0000    677.5154      3.9997    128.5809
  1241.5000      0.0000    694.6418      4.1310    131.6322
  1241.7500      0.0000    709.7985      4.2991    133.5827
  1242.0000      0.0000    715.6652      4.4453    133.6244
  1242.2500      0.0000    711.4854      4.5180    132.5037
  1242.5000      0.0000    703.0244      4.5137    131.5885
  1242.7500      0.0000    698.0931      4.4667    131.4201
  1243.0000      0.0000    701.4490      4.4098    131.2379
  1243.2500      0.0000    712.6519      4.3601    129.6962
  1243.5000      0.0000    727.2806      4.3277    125.8799
  1243.7500      0.0000    740.1677      4.3201    119.8952
  1244.0000      0.0000    748.8732      4.3365    112.9211
  1244.2500      0.0000    754.9631      4.3654    106.7173
  1244.5000      0.0000    761.8746      4.3934    102.7323
  1244.7500      0.0000    771.7549      4.4167    101.4113
  1245.0000      0.0000    784.4802      4.4406    102.2927
  1245.2500      0.0000    798.8497      4.4637    104.4728
  1245.5000      0.0000    813.5588      4.4720    106.7055
  1245.7500      0.0000    827.0373      4.4546    107.4769
  1246.0000      0.0000    837.3654      4.4204    105.8826
  1246.2500      0.0000    842.9279      4.3882    102.6136
  1246.5000      0.0000    843.0052      4.3702     99.4591
  1246.7500      0.0000    837.9725      4.3665     97.5534
  1247.0000      0.0000    829.6807      4.3690     96.3929
  1247.2500      0.0000    821.5578      4.3669     94.6863
  1247.5000      0.0000    817.0128      4.3545     91.9309
  1247.7500      0.0000    816.4103      4.3341     88.9664
  1248.0000      0.0000    815.6067      4.3118     87.0382
  1248.2500      0.0000    808.5748      4.2926     86.4306
  1248.5000      0.0000    792.5516      4.2800     86.1033
  1248.7500      0.0000    770.9001      4.2744     84.6595
  1249.0000      0.0000    750.8472      4.2684     81.6238
  1249.2500      0.0000    738.7682      4.2502     77.6473
  1249.5000      0.0000    737.5954      4.2145     73.4673
  1249.7500      0.0000    746.8572      4.1660     68.9446
  1250.0000      0.0000    763.1254      4.1093     63.4464
  1250.2500      0.0000    781.0830      4.0446     57.0523
  1250.5000      0.0000    796.5881      3.9761     51.0461
  1250.7500      0.0000    809.1746      3.9188     47.1413
  1251.0000      0.0000    820.4952      3.8930     46.3254
  1251.2500      0.0000    830.8942      3.9097     48.3232
  1251.5000      0.0000    838.8463      3.9654     51.9523
  1251.7500      0.0000    842.8748      4.0452     56.1228
  1252.0000      0.0000    842.4918      4.1288     60.8050
  1252.2500      0.0000    837.4361      4.1979     66.9885
  1252.5000      0.0000    826.9970      4.2466     75.6148
  1252.7500      0.0000    810.5467      4.2814     86.6510
  1253.0000      0.0000    788.9839      4.3058     98.9561
  1253.2500      0.0000    765.7099      4.3118    110.6982
  1253.5000      0.0000    745.4892      4.2915    120.2962
  1253.7500      0.0000    731.6263      4.2494    127.2877
  1254.0000      0.0000    724.3032      4.2027    131.9502
  1254.2500      0.0000    721.5919      4.1719    134.1533
  1254.5000      0.0000    721.5950      4.1694    133.1518
  1254.7500      0.0000    723.7933      4.1922    128.4673
  1255.0000      0.0000    729.2272      4.2266    120.4755
  1255.2500      0.0000    739.6912      4.2614    110.1452
  1255.5000      0.0000    756.1063      4.2944     98.6987
  1255.7500      0.0000    776.8951      4.3260     87.6777
  1256.0000      0.0000    797.8663      4.3498     78.9507
  1256.2500      0.0000    813.9461      4.3559     74.2172
  1256.5000      0.0000    821.6842      4.3449     74.3775
  1256.7500      0.0000    821.0358      4.3300     79.2645
  1257.0000      0.0000    815.2964      4.3234     87.7365
  1257.2500      0.0000    808.7988      4.3290     97.8405
  1257.5000      0.0000    803.8193      4.3453    107.2167
  1257.7500      0.0000    799.4510      4.3645    113.9938
  1258.0000      0.0000    793.3073      4.3734    117.6124
  1258.2500      0.0000    783.8476      4.3675    118.6951
  1258.5000      0.0000    771.3048      4.3599    118.2162
  1258.7500      0.0000    757.1643      4.3646    116.9726
  1259.0000      0.0000    742.8010      4.3777    115.6184
  1259.2500      0.0000    727.9962      4.3851    114.8095
  1259.5000      0.0000    710.4850      4.3789    115.1484
  1259.7500      0.0000    687.4622      4.3553    116.8542
  1260.0000      0.0000    658.6009      4.3101    119.4181
  1260.2500      0.0000    627.8755      4.2483    121.7200
  1260.5000      0.0000    601.5682      4.1878    122.7415
  1260.7500      0.0000    583.8918      4.1462    122.3208
  1261.0000      0.0000    574.7407      4.1296    121.2962
  1261.2500      0.0000    571.2073      4.1382    120.9896
  1261.5000      0.0000    570.2903      4.1688    122.6166
  1261.7500      0.0000    570.1929      4.2082    126.8256
  1262.0000      0.0000    570.1008      4.2367    133.0800
  1262.2500      0.0000    569.4489      4.2449    139.3601
  1262.5000      0.0000    567.4597      4.2401    143.1930
  1262.7500      0.0000    563.3564      4.2379    143.4557
  1263.0000      0.0000    557.2131      4.2510    140.9671
  1263.2500      0.0000    550.6392      4.2831    137.4173
  1263.5000      0.0000    546.3096      4.3245    134.1991
  1263.7500      0.0000    546.3217      4.3566    132.0507
  1264.0000      0.0000    550.6199      4.3693    130.9027
  1264.2500      0.0000    556.7779      4.3733    129.7814
  1264.5000      0.0000    561.6440      4.3847    127.5462
  1264.7500      0.0000    564.2352      4.3987    124.1802
  1265.0000      0.0000    568.3032      4.3913    121.1500
  1265.2500      0.0000    582.0285      4.3496    120.1336
  1265.5000      0.0000    612.6797      4.2904    121.1371
  1265.7500      0.0000    658.3405      4.2443    121.9102
