~Version Information
VERS.                      2.0: CWLS Log ASCII Standard - VERSION 2.0
WRAP.                       NO: One line per depth step
~Well Information Block
STRT.FT               245.0000: 
STOP.FT              1208.2000: 
STEP.FT                 0.1000: 
NULL.                -999.2500: 
COMP.          Pioneer Natural Resources: COMPANY
WELL.              Davida 34-8: WELL
FLD.           Purgatoire River: FIELD
LOC.           418' FSL & 1923' FEL--: LOCATION
CNTY.               Las Animas: COUNTY
SRVC.                Patterson: SERVICE COMPANY
DATE.          Mon Mar 20 08:22:01 2006: LOG DATE
UWI.           05 071 08722 00: UNIQUE WELL ID
STAT.                 Colorado: STATE
~Curve Information Block
DEPT.FT            0 000 00 00: Depth
DCAL.in                       : CDL Caliper
RHOB.g/cc                     : CDL Bulk Density
RHOC.g/cc                     : CDL Density Correction
DPOR.pu                       : CDL Density Porosity
NPOR.pu                       : Neutron Porosity
GR.GAPI                       : Gamma Ray
~Parameter Information Block
~A  Depth       DCAL        RHOB        RHOC        DPOR        NPOR         GR     
# ...
   494.6000      7.8563      2.5109      0.0077      8.4287     23.5114     93.6056
   494.7000      7.8563      2.5200      0.0709      7.8763     23.6235    101.6291
   494.8000      7.8586      2.5453      0.0685      6.3440     23.8469    110.0435
   494.9000      7.8586      2.5731      0.1078      4.6582     23.8428    118.4214
   495.0000      7.8568      2.5788      0.1458      4.3143     23.4557    125.9184
   495.1000      7.8568      2.5554      0.0470      5.7332     23.0270    129.4649
   495.2000      7.8568      2.5316      0.0438      7.1781     22.9082    131.3621
   495.3000      7.8616      2.5283      0.0147      7.3762     22.9396    133.3282
   495.4000      7.8616      2.5322      0.0710      7.1408     22.7564    132.9148
   495.5000      7.8869      2.5232      0.0544      7.6819     22.3793    131.6158
   495.6000      7.8869      2.5042      0.0186      8.8386     22.0135    131.7374
   495.7000      7.8869      2.4944      0.0089      9.4324     21.7707    133.0256
   495.8000      7.9210      2.5107     -0.0085      8.4437     21.7768    134.0273
   495.9000      7.9210      2.5482      0.0499      6.1685     21.8713    133.6470
   496.0000      7.9403      2.5781      0.0734      4.3599     21.7451    133.8346
   496.1000      7.9403      2.5803      0.0910      4.2216     21.6580    135.0877
   496.2000      7.9403      2.5660      0.0555      5.0917     22.1477    133.3318
   496.3000      7.9397      2.5655      0.0369      5.1223     23.1266    128.3282
   496.4000      7.9397      2.5883      0.0745      3.7388     24.0375    124.7590
   496.5000      7.9271      2.6077      0.1093      2.5641     24.5661    122.1439
   496.6000      7.9271      2.6038      0.0838      2.7991     24.7452    119.8226
   496.7000      7.9271      2.5804      0.1203      4.2164     24.6706    123.1044
   496.8000      7.9207      2.5502      0.0493      6.0473     24.4638    132.8897
   496.9000      7.9207      2.5350      0.0203      6.9669     24.0187    142.6419
   497.0000      7.9390      2.5375      0.0907      6.8184     23.2400    146.7055
   497.1000      7.9390      2.5306      0.0706      7.2367     22.3128    146.5378
   497.2000      7.9390      2.5076      0.0019      8.6293     21.3951    146.2251
   497.3000      7.9757      2.4869      0.0367      9.8842     20.7522    144.0396
   497.4000      7.9757      2.4696      0.0253     10.9317     20.5531    140.1461
   497.5000      7.9949      2.4435      0.0406     12.5173     20.5011    140.5755
   497.6000      7.9949      2.4110      0.0006     14.4848     20.0548    146.3876
   497.7000      7.9949      2.3943     -0.0077     15.4991     19.1639    151.0839
   497.8000      7.9687      2.4083      0.0247     14.6487     18.4761    147.7648
   497.9000      7.9687      2.4473      0.0655     12.2872     18.4338    135.7882
   498.0000      7.9124      2.5033      0.0759      8.8898     18.9707    124.3678
   498.1000      7.9124      2.5685      0.1100      4.9385     19.9364    120.4734
   498.2000      7.9124      2.6276      0.1630      1.3568     21.2171    121.7004
   498.3000      7.8735      2.6696      0.1625     -1.1903     22.3236    123.8956
   498.4000      7.8735      2.6906      0.1971     -2.4580     22.7993    123.4160
   498.5000      7.8727      2.6948      0.1617     -2.7134     23.0472    116.5019
   498.6000      7.8727      2.7025      0.1290     -3.1825     23.5873    107.4080
   498.7000      7.8727      2.7276      0.1483     -4.7007     24.2953    103.4536
   498.8000      7.8847      2.7592      0.1343     -6.6186     24.8308    103.0182
   498.9000      7.8847      2.7799      0.1216     -7.8706     25.2776    102.0291
   499.0000      7.8895      2.7869      0.0948     -8.2976     25.7198    101.0842
   499.1000      7.8895      2.7922      0.0737     -8.6165     25.9352    101.3454
   499.2000      7.8895      2.7907      0.1148     -8.5299     26.0085    101.2000
   499.3000      7.8814      2.7609      0.0693     -6.7231     26.2007    100.8254
   499.4000      7.8814      2.7084     -0.0056     -3.5412     26.4249    102.0610
   499.5000      7.8747      2.6605     -0.0481     -0.6377     26.5521    105.1902
   499.6000      7.8747      2.6307     -0.0800      1.1707     26.4775    111.4701
   499.7000      7.8747      2.6139     -0.0402      2.1858     26.0586    120.1851
   499.8000      7.8837      2.5977     -0.0736      3.1714     25.4937    126.6229
   499.9000      7.8837      2.5727     -0.0100      4.6828     25.0344    129.5830
   500.0000      7.9006      2.5435     -0.0807      6.4554     24.7055    132.0414
   500.1000      7.9006      2.5255     -0.0264      7.5433     24.2962    135.6125
   500.2000      7.9006      2.5167      0.0297      8.0777     23.7111    138.1357
   500.3000      7.9118      2.5118      0.0014      8.3739     23.0744    135.9537
   500.4000      7.9118      2.5180      0.0312      8.0011     22.5432    131.5086
   500.5000      7.9214      2.5296      0.0436      7.2991     22.4584    131.7644
   500.6000      7.9214      2.5388      0.0053      6.7376     22.8235    137.7281
   500.7000      7.9214      2.5504      0.0106      6.0368     23.0637    145.7685
   500.8000      7.9363      2.5630      0.0560      5.2740     23.0086    150.7434
   500.9000      7.9363      2.5650      0.0631      5.1500     22.8580    147.5500
   501.0000      7.9485      2.5499      0.0721      6.0647     22.4351    139.7365
   501.1000      7.9485      2.5264      0.0361      7.4887     21.8055    136.9875
   501.2000      7.9485      2.5192      0.0084      7.9282     21.5332    138.9653
   501.3000      7.9456      2.5434      0.0305      6.4609     21.7929    136.9298
   501.4000      7.9456      2.5841      0.0650      3.9922     22.1189    131.5737
   501.5000      7.9383      2.6162      0.0734      2.0458     22.3500    129.9207
   501.6000      7.9383      2.6391      0.0029      0.6576     22.8343    131.9317
   501.7000      7.9383      2.6696      0.0932     -1.1879     23.5484    131.4613
   501.8000      7.9335      2.7069      0.1283     -3.4511     24.1319    127.5445
   501.9000      7.9335      2.7412      0.1103     -5.5274     24.6140    123.3831
   502.0000      7.9302      2.7689      0.0990     -7.2054     25.3180    119.1395
   502.1000      7.9302      2.7860      0.1126     -8.2423     26.1906    114.1924
   502.2000      7.9302      2.7885      0.0957     -8.3911     26.8330    109.8660
   502.3000      7.9361      2.7757      0.1012     -7.6209     26.8496    108.7146
   502.4000      7.9361      2.7501      0.0709     -6.0696     26.4606    113.5313
   502.5000      7.9485      2.7191      0.0335     -4.1867     26.1780    121.5367
   502.6000      7.9485      2.6928      0.0177     -2.5932     25.8674    126.0499
   502.7000      7.9485      2.6762      0.0026     -1.5897     25.3548    125.7898
   502.8000      7.9496      2.6684      0.0391     -1.1174     25.0167    125.3323
   502.9000      7.9496      2.6619      0.0416     -0.7183     24.9209    128.3544
   503.0000      7.9372      2.6398      0.0283      0.6203     24.7819    133.6806
   503.1000      7.9372      2.5997     -0.0160      3.0475     24.6745    137.7138
   503.2000      7.9372      2.5664     -0.0043      5.0654     24.5120    137.6963
   503.3000      7.9224      2.5540     -0.0020      5.8155     24.0223    133.2523
   503.4000      7.9224      2.5487      0.0296      6.1406     23.4445    128.8585
   503.5000      7.9203      2.5457      0.0112      6.3196     23.2617    129.9917
   503.6000      7.9203      2.5597      0.0560      5.4747     23.4826    135.2607
   503.7000      7.9203      2.5812      0.1016      4.1704     23.7306    139.8569
   503.8000      7.9287      2.5828      0.0897      4.0719     23.8882    142.4490
   503.9000      7.9287      2.5626      0.0386      5.2984     24.1199    144.3555
   504.0000      7.9230      2.5426      0.0151      6.5066     24.5939    145.3173
   504.1000      7.9230      2.5464      0.0116      6.2809     25.0827    144.7020
