~Version Information
VERS.                      2.0: CWLS Log ASCII Standard - VERSION 2.0
WRAP.                       NO: One line per depth step
~Well Information Block
STRT.FT                 0.0000: 
STOP.FT              3428.7500: 
STEP.FT                 0.2500: 
NULL.                -999.2500: 
COMP.          Pioneer Natural Resources: COMPANY
WELL.          Cordillera 34-7: WELL
FLD.           Purgatorie River: FIELD
LOC.           598' FSL & 1770' FEL: LOCATION
PROV.                 Colorado: PROVINCE
CNTY.               Las Animas: COUNTRY
SRVC.                Patterson: SERVICE COMPANY
DATE.          Fri Nov 18 07:55:32 2005: LOG DATE
UWI.                          : UNIQUE WELL ID
~Curve Information Block
DEPT.FT            0 000 00 00: Depth
AMP3.mV                       : CBL 3' Amplitude
CCL.                          : Casing Collar Locator
GR.GAPI                       : Gamma Ray
TT3.usec                      : CBL 3' Travel Time
~Parameter Information Block
~A  Depth       AMP3        CCL          GR         TT3     
# ...
   670.0000      8.4419      0.0000     51.3148    930.5629
   670.2500      8.4732      0.0000     48.0467    904.3134
   670.5000      8.5077      0.0000     44.5747    877.1951
   670.7500      8.5589      0.0000     42.6081    857.7378
   671.0000      8.6296      0.0000     43.0789    847.8752
   671.2500      8.7118      0.0000     45.9149    844.8929
   671.5000      8.7914      0.0000     50.5625    843.8304
   671.7500      8.8505      0.0000     56.2071    840.0403
   672.0000      8.8740      0.0000     61.7503    832.0800
   672.2500      8.8635      0.0000     66.1434    822.1224
   672.5000      8.8436      0.0000     68.9478    813.2358
   672.7500      8.8441      0.0000     70.4482    807.2450
   673.0000      8.8764      0.0000     71.0798    805.0479
   673.2500      8.9279      0.0000     70.7519    807.2645
   673.5000      8.9781      0.0000     68.8448    813.6410
   673.7500      9.0154      0.0000     65.0001    822.4977
   674.0000      9.0404      0.0000     59.9529    831.4118
   674.2500      9.0594      0.0000     55.3399    838.2666
   674.5000      9.0765      0.0000     52.4228    841.4976
   674.7500      9.0923      0.0000     51.1041    840.1154
   675.0000      9.1051      0.0000     50.4144    834.3542
   675.2500      9.1118      0.0000     49.7399    826.0954
   675.5000      9.1077      0.0000     49.2296    818.1086
   675.7500      9.0878      0.0000     49.2330    812.9292
   676.0000      9.0509      0.0000     49.7674    812.2047
   676.2500      9.0016      0.0000     50.4147    816.0529
   676.5000      8.9442      0.0000     50.4858    822.6161
   676.7500      8.8765      0.0000     49.5097    828.8290
   677.0000      8.7926      0.0000     47.8652    832.1299
   677.2500      8.6953      0.0000     46.8524    831.6078
   677.5000      8.5976      0.0000     47.8185    827.8708
   677.7500      8.5106      0.0000     50.9682    822.1746
   678.0000      8.4346      0.0000     54.9487    815.6620
   678.2500      8.3643      0.0000     57.8171    809.2175
   678.5000      8.2985      0.0000     58.7491    803.6614
   678.7500      8.2383      0.0000     58.9633    799.6224
   679.0000      8.1795      0.0000     60.9865    797.1885
   679.2500      8.1145      0.0000     66.8133    795.8775
   679.5000      8.0402      0.0000     76.2066    794.8786
   679.7500      7.9600      0.0000     86.3866    793.1830
   680.0000      7.8783      0.0000     93.6600    789.9451
   680.2500      7.7941      0.0000     95.8059    786.1110
   680.5000      7.6855      0.0000     93.0993    787.3880
   680.7500      7.4994      0.0000     87.4938    805.1517
   681.0000      7.1880      0.0000     81.4990    850.4548
   681.2500      6.7758      0.0000     77.6645    923.0756
   681.5000      6.3681      0.0000     77.8627   1007.0688
   681.7500      6.0676      0.0000     82.0538   1080.3501
   682.0000      5.8978      0.0000     88.0318   1129.4341
   682.2500      5.8145      2.0000     93.2975   1154.4951
   682.5000      5.7747     -2.0000     97.3595   1162.5964
   682.7500      5.7930      0.0000    101.8357   1158.5320
   683.0000      5.9460      0.0000    108.2895   1140.9318
   683.2500      6.3160      0.0000    116.2273   1104.8630
   683.5000      6.8966      0.0000    123.0735   1048.5742
   683.7500      7.5558      0.0000    125.8312    979.0793
   684.0000      8.1222      0.0000    123.1964    910.6462
   684.2500      8.5010      0.0000    116.7923    856.6058
   684.5000      8.6950      0.0000    110.2077    822.2346
   684.7500      8.7526      0.0000    106.4781    804.5800
   685.0000      8.7302      0.0000    106.6636    797.2470
   685.2500      8.6759      0.0000    110.3392    794.7553
   685.5000      8.6190      0.0000    116.0757    793.9929
   685.7500      8.5682      0.0000    121.2555    793.6853
   686.0000      8.5237      0.0000    122.8381    793.4762
   686.2500      8.4869      0.0000    119.1820    793.3238
   686.5000      8.4602      0.0000    110.9804    793.2485
   686.7500      8.4412      0.0000    100.5855    793.2516
   687.0000      8.4218      0.0000     90.6375    793.3159
   687.2500      8.3919      0.0000     82.8443    793.4210
   687.5000      8.3437      0.0000     77.5658    793.5508
   687.7500      8.2734      0.0000     74.4015    793.6968
   688.0000      8.1847      0.0000     72.9539    793.8644
   688.2500      8.0901      0.0000     72.9490    794.1021
   688.5000      8.0054      0.0000     74.0384    794.5574
   688.7500      7.9409      0.0000     75.9076    795.5382
   689.0000      7.8987      0.0000     78.4421    797.4102
   689.2500      7.8753      0.0000     81.5613    800.1663
   689.5000      7.8613      0.0000     84.9672    802.9666
   689.7500      7.8425      0.0000     88.2236    804.4214
   690.0000      7.8087      0.0000     91.2475    803.7189
   690.2500      7.7643      0.0000     94.7197    801.3887
   690.5000      7.7264      0.0000     99.4586    798.7807
   690.7500      7.7131      0.0000    104.9891    797.0161
   691.0000      7.7332      0.0000    109.4187    796.6123
   691.2500      7.7848      0.0000    111.4776    797.6978
   691.5000      7.8605      0.0000    112.1532    800.0345
   691.7500      7.9516      0.0000    113.4856    802.9428
   692.0000      8.0512      0.0000    116.1116    805.9677
   692.2500      8.1502      0.0000    118.7568    810.1736
   692.5000      8.2328      0.0000    120.0129    818.0322
   692.7500      8.2771      0.0000    119.8691    830.6035
   693.0000      8.2676      0.0000    119.3833    844.5760
   693.2500      8.2093      0.0000    119.3070    853.4495
   693.5000      8.1263      0.0000    119.2139    852.6213
   693.7500      8.0461      0.0000    117.7259    842.8704
   694.0000      7.9884      0.0000    113.7234    828.8262
   694.2500      7.9638      0.0000    107.7517    815.2479
   694.5000      7.9716      0.0000    102.1157    804.9970
   694.7500      7.9945      0.0000     99.1333    799.2987
   695.0000      8.0031      0.0000     99.1879    799.2824
   695.2500      7.9745      0.0000    100.6127    808.1351
   695.5000      7.9046      0.0000    101.3224    832.1414
   695.7500      7.8052      0.0000    100.5031    877.6271
   696.0000      7.6913      0.0000     99.0345    943.8549
   696.2500      7.5726      0.0000     98.4594   1018.5819
   696.5000      7.4515      0.0000     99.4491   1083.1636
   696.7500      7.3293      0.0000    101.1646   1123.2889
   697.0000      7.2163      0.0000    102.0520   1134.4288
   697.2500      7.1327      0.0000    101.1750   1119.3313
   697.5000      7.0964      0.0000     98.8071   1084.5759
   697.7500      7.1118      0.0000     95.9581   1039.9791
   698.0000      7.1721      0.0000     93.5729    998.1848
   698.2500      7.2715      0.0000     92.0518    972.5609
   698.5000      7.4175      0.0000     91.0838    973.3655
   698.7500      7.6344      0.0000     89.6801   1001.9016
   699.0000      7.9469      0.0000     86.6602   1046.4762
   699.2500      8.3468      0.0000     81.6398   1087.4694
   699.5000      8.7750      0.0000     75.6237   1109.8433
   699.7500      9.1504      0.0000     70.4497   1110.8267
   700.0000      9.4227      0.0000     67.6854   1095.7793
   700.2500      9.5950      0.0000     68.0174   1070.3000
   700.5000      9.6980      0.0000     71.1494   1039.4799
   700.7500      9.7497      0.0000     75.7189   1011.3837
   701.0000      9.7403      0.0000     79.6592    993.7607
   701.2500      9.6443      0.0000     81.5591    985.9780
   701.5000      9.4471      0.0000     81.8398    978.9106
   701.7500      9.1646      0.0000     82.2125    963.4706
   702.0000      8.8433      0.0000     83.9978    936.6339
   702.2500      8.5316      0.0000     87.0650    901.2222
   702.5000      8.2526      0.0000     89.9257    863.8037
   702.7500      8.0074      0.0000     90.6398    831.9174
   703.0000      7.7972      0.0000     88.2771    810.2228
   703.2500      7.6283      0.0000     84.0623    798.5370
