~Version Information
VERS.                      2.0: CWLS Log ASCII Standard - VERSION 2.0
WRAP.                       NO: One line per depth step
~Well Information Block
STRT.FT                -8.5000: 
STOP.FT              2030.0000: 
STEP.FT                 0.2500: 
NULL.                -999.2500: 
COMP.          Pioneer Natural Resources: COMPANY
WELL.           Alabaster 11-8: WELL
FLD.           Purgatorie River: FIELD
LOC.           1249' FNL & 215' FWL--: LOCATION
PROV.                       CO: PROVINCE
CNTY.               Las Animas: COUNTRY
SRVC.          Patterson Wireline: SERVICE COMPANY
DATE.          Mon Jan 30 11:59:01 2006: LOG DATE
UWI.           05 071 08642 00: UNIQUE WELL ID
~Curve Information Block
DEPT.FT            0 000 00 00: Depth
CCL.                          : Casing Collar Locator
TT3.usec                      : CBL 3' Travel Time
AMP3.mV                       : CBL 3' Amplitude
GR.GAPI                       : Gamma Ray
~Parameter Information Block
~A  Depth       CCL         TT3         AMP3         GR     
# ...
  1197.5000      0.0000    262.9011     81.8928    119.7405
  1197.7500      0.0000    262.8874     81.9083    114.3151
  1198.0000      0.0000    262.8740     81.9308    110.3763
  1198.2500      0.0000    262.8607     81.9702    110.0024
  1198.5000      0.0000    262.8488     82.0243    114.7302
  1198.7500      0.0000    262.8412     82.0804    124.7054
  1199.0000      0.0000    262.8403     82.1228    137.9811
  1199.2500      0.0000    262.8469     82.1440    150.9935
  1199.5000      0.0000    262.8592     82.1482    160.4970
  1199.7500      0.0000    262.8737     82.1454    165.3289
  1200.0000      0.0000    262.8859     82.1426    166.2024
  1200.2500      0.0000    262.8917     82.1416    164.1675
  1200.5000      0.0000    262.8892     82.1419    159.9068
  1200.7500      0.0000    262.8795     82.1418    154.3075
  1201.0000      0.0000    262.8661     82.1388    148.8749
  1201.2500      0.0000    262.8523     82.1336    145.2549
  1201.5000      0.0000    262.8396     82.1319    144.4621
  1201.7500      0.0000    262.8293     82.1383    146.5437
  1202.0000      0.0000    262.8233     82.1531    150.7837
  1202.2500      0.0000    262.8242     82.1753    155.9621
  1202.5000      0.0000    262.8320     82.2058    160.4927
  1202.7500      0.0000    262.8439     82.2429    162.7182
  1203.0000      0.0000    262.8554     82.2804    161.4110
  1203.2500      0.0000    262.8630     82.3149    156.1088
  1203.5000      0.0000    262.8661     82.3510    147.0490
  1203.7500      0.0000    262.8668     82.3961    134.8367
  1204.0000      0.0000    262.8715     82.4448    120.3707
  1204.2500      0.0000    262.9004     82.4431    105.2730
  1204.5000      0.0000    263.0044     82.2105     91.9760
  1204.7500      0.0000    263.2838     81.3401     82.6529
  1205.0000      0.0000    263.8729     79.2305     77.9884
  1205.2500      0.0000    264.8643     75.4240     77.3262
  1205.5000      0.0000    266.2050     70.1251     79.8251
  1205.7500      0.0000    267.6692     64.3852     85.0108
  1206.0000      0.0000    268.9588     59.6088     92.2924
  1206.2500      0.0000    269.8590     56.7162    100.4787
  1206.5000      0.0000    270.3307     55.6792    108.0123
  1206.7500      0.0000    270.4867     55.7748    113.5895
  1207.0000      2.0000    270.4862     56.2486    116.8783
  1207.2500     -2.0000    270.4328     56.8202    119.0417
  1207.5000      0.0000    270.3418     57.7762    122.3517
  1207.7500      0.0000    270.1645     59.7552    128.5227
  1208.0000      0.0000    269.8222     63.2935    137.0843
  1208.2500      0.0000    269.2287     68.2263    145.6738
  1208.5000      0.0000    268.3246     73.4562    152.1632
  1208.7500      0.0000    267.1416     77.6049    156.0527
  1209.0000      0.0000    265.8468     80.0466    157.3913
  1209.2500      0.0000    264.6875     81.1626    155.2881
  1209.5000      0.0000    263.8512     81.6612    148.8625
  1209.7500      0.0000    263.3705     81.9473    139.3338
  1210.0000      0.0000    263.1528     82.1118    129.7953
  1210.2500      0.0000    263.0765     82.1749    122.6601
  1210.5000      0.0000    263.0561     82.1820    118.1589
  1210.7500      0.0000    263.0508     82.1745    115.5003
  1211.0000      0.0000    263.0468     82.1665    114.8502
  1211.2500      0.0000    263.0411     82.1508    117.7460
  1211.5000      0.0000    263.0341     82.1140    125.3438
  1211.7500      0.0000    263.0273     82.0533    135.9882
  1212.0000      0.0000    263.0230     81.9823    144.9235
  1212.2500      0.0000    263.0229     81.9237    147.2602
  1212.5000      0.0000    263.0275     81.8923    141.4832
  1212.7500      0.0000    263.0352     81.8872    129.9295
  1213.0000      0.0000    263.0429     81.8985    116.4023
  1213.2500      0.0000    263.0476     81.9172    103.9003
  1213.5000      0.0000    263.0484     81.9389     93.9177
  1213.7500      0.0000    263.0461     81.9620     86.6226
  1214.0000      0.0000    263.0417     81.9840     81.5352
  1214.2500      0.0000    263.0357     81.9994     78.5900
  1214.5000      0.0000    263.0289     82.0008     78.5082
  1214.7500      0.0000    263.0233     81.9862     81.8054
  1215.0000      0.0000    263.0207     81.9623     87.7729
  1215.2500      0.0000    263.0219     81.9398     94.6789
  1215.5000      0.0000    263.0259     81.9241    100.5955
  1215.7500      0.0000    263.0303     81.9140    103.9784
  1216.0000      0.0000    263.0336     81.9074    104.1396
  1216.2500      0.0000    263.0350     81.9045    101.6878
  1216.5000      0.0000    263.0339     81.9060     98.3603
  1216.7500      0.0000    263.0291     81.9104     96.0762
  1217.0000      0.0000    263.0194     81.9170     95.9612
  1217.2500      0.0000    263.0052     81.9275     98.1103
  1217.5000      0.0000    262.9886     81.9405    101.9275
  1217.7500      0.0000    262.9725     81.9458    106.3984
  1218.0000      0.0000    262.9594     81.9287    110.2191
  1218.2500      0.0000    262.9507     81.8854    112.1726
  1218.5000      0.0000    262.9477     81.8317    111.5405
  1218.7500      0.0000    262.9508     81.7939    108.0562
  1219.0000      0.0000    262.9596     81.7906    101.7503
  1219.2500      0.0000    262.9722     81.8237     93.2595
  1219.5000      0.0000    262.9857     81.8828     84.1310
  1219.7500      0.0000    262.9968     81.9549     76.4289
  1220.0000      0.0000    263.0024     82.0295     71.9723
  1220.2500      0.0000    263.0005     82.0997     71.6767
  1220.5000      0.0000    262.9914     82.1605     75.0467
  1220.7500      0.0000    262.9776     82.2055     80.1971
  1221.0000      0.0000    262.9626     82.2290     84.9116
  1221.2500      0.0000    262.9487     82.2310     88.2026
  1221.5000      0.0000    262.9364     82.2184     90.8856
  1221.7500      0.0000    262.9260     82.1997     94.4259
  1222.0000      0.0000    262.9181     82.1788     99.3137
  1222.2500      0.0000    262.9136     82.1543    104.8706
  1222.5000      0.0000    262.9131     82.1223    110.5950
  1222.7500      0.0000    262.9165     82.0796    117.2695
  1223.0000      0.0000    262.9227     82.0265    126.2852
  1223.2500      0.0000    262.9294     81.9696    137.7849
  1223.5000      0.0000    262.9339     81.9185    149.9478
  1223.7500      0.0000    262.9343     81.8818    160.4929
  1224.0000      0.0000    262.9297     81.8660    168.6022
  1224.2500      0.0000    262.9206     81.8765    174.9596
  1224.5000      0.0000    262.9081     81.9130    180.2814
  1224.7500      0.0000    262.8941     81.9673    184.3068
  1225.0000      0.0000    262.8817     82.0272    185.9443
  1225.2500      0.0000    262.8740     82.0856    184.0311
  1225.5000      0.0000    262.8722     82.1413    178.1255
  1225.7500      0.0000    262.8745     82.1921    168.8232
  1226.0000      0.0000    262.8773     82.2310    157.3607
  1226.2500      0.0000    262.8786     82.2511    144.9415
  1226.5000      0.0000    262.8788     82.2519    132.4338
  1226.7500      0.0000    262.8802     82.2419    120.6251
  1227.0000      0.0000    262.8831     82.2358    110.5199
  1227.2500      0.0000    262.8848     82.2470    103.0683
  1227.5000      0.0000    262.8806     82.2762     98.3859
  1227.7500      0.0000    262.8685     82.3059     95.3403
  1228.0000      0.0000    262.8511     82.3090     92.3528
  1228.2500      0.0000    262.8349     82.2671     88.9406
  1228.5000      0.0000    262.8256     82.1827     86.4973
  1228.7500      0.0000    262.8255     82.0754     87.2822
  1229.0000      0.0000    262.8330     81.9690     92.3451
  1229.2500      0.0000    262.8454     81.8850    100.3147
  1229.5000      0.0000    262.8611     81.8394    108.3583
  1229.7500      0.0000    262.8788     81.8341    114.4897
  1230.0000      0.0000    262.8964     81.8496    118.8207
  1230.2500      0.0000    262.9099     81.8544    122.7025
  1230.5000      0.0000    262.9150     81.8267    127.2162
  1230.7500      0.0000    262.9098     81.7645    132.5241
