~Version Information
VERS.                      2.0: CWLS Log ASCII Standard - VERSION 2.0
WRAP.                       NO: One line per depth step
~Well Information Block
STRT.FT                 0.0000: 
STOP.FT              1674.7500: 
STEP.FT                 0.2500: 
NULL.                -999.2500: 
COMP.          Pioneer Natural Resources: COMPANY
WELL.          Culver 14-12 Tr: WELL
FLD.           Purgatorie River: FIELD
LOC.           915' FSL & 1048' FWL: LOCATION
STAT.                 Colorado: Colorado
CNTY.               Las Animas: COUNTY
CTRY. USA : Country
SECT. 12 : Section
TOWN. 32S : Township
RANG. 66W : Range
SRVC.                Patterson: SERVICE COMPANY
DATE.          Mon Oct 03 12:52:29 2005: LOG DATE
API. 05-071-08520                         : UNIQUE WELL ID
~Curve Information Block
DEPT.FT            0 000 00 00: Depth
CCL.                          : Casing Collar Locator
TT3.usec                      : CBL 3' Travel Time
AMP3.mV                       : CBL 3' Amplitude
GR.GAPI                       : Gamma Ray
~Parameter Information Block
~A  Depth       CCL         TT3         AMP3         GR     
# ...
   971.5000      0.0000    637.4637     11.6827     99.0367
   971.7500      0.0000    684.5361     10.6870     92.8898
   972.0000      0.0000    739.4431     10.1724     88.6908
   972.2500      0.0000    775.6531     10.0171     86.4042
   972.5000      0.0000    789.5278     10.0728     86.2481
   972.7500      0.0000    788.0627     10.1912     88.9503
   973.0000      0.0000    780.8914     10.2656     94.9591
   973.2500      0.0000    777.3927     10.2661    103.3484
   973.5000      0.0000    781.7436     10.2180    111.6721
   973.7500      0.0000    790.6279     10.1604    117.4772
   974.0000      0.0000    797.3698     10.1085    120.4347
   974.2500      0.0000    797.6552     10.0425    122.6873
   974.5000      0.0000    791.4408      9.9519    126.6645
   974.7500      0.0000    782.1634      9.8766    132.7817
   975.0000      0.0000    774.2548      9.8612    139.4196
   975.2500      0.0000    769.7606      9.8853    144.5003
   975.5000      0.0000    768.1302      9.8887    146.5502
   975.7500      0.0000    768.8717      9.8463    144.8462
   976.0000      0.0000    772.9701      9.7758    139.6376
   976.2500      0.0000    781.2435      9.7063    132.5290
   976.5000      0.0000    791.5510      9.6531    126.0489
   976.7500      0.0000    799.7115      9.5972    122.3355
   977.0000      0.0000    803.6852      9.5177    122.1489
   977.2500      0.0000    804.4250      9.4477    124.8771
   977.5000      0.0000    802.8627      9.4333    129.0350
   977.7500      0.0000    798.0272      9.4574    132.7980
   978.0000      0.0000    789.0111      9.4675    134.7028
   978.2500      0.0000    778.7119      9.4565    134.2401
   978.5000      0.0000    772.9070      9.4564    131.8908
   978.7500      0.0000    774.0982      9.4759    128.8613
   979.0000      0.0000    779.4584      9.5005    126.7035
   979.2500      0.0000    785.7320      9.5204    126.4942
   979.5000      0.0000    791.3765      9.5281    127.9809
   979.7500      0.0000    794.0408      9.5172    129.7971
   980.0000      0.0000    792.8181      9.4910    130.7399
   980.2500      0.0000    791.6114      9.4535    130.7390
   980.5000      0.0000    794.1652      9.3994    130.7668
   980.7500      0.0000    798.7974      9.3189    132.1834
   981.0000      0.0000    802.0909      9.2139    135.8676
   981.2500      0.0000    803.3637      9.0933    141.3711
   981.5000      0.0000    803.5842      8.9531    146.8761
   981.7500      0.0000    803.1168      8.8041    150.1502
   982.0000      0.0000    800.8882      8.6971    149.6453
   982.2500      0.0000    794.8386      8.6690    145.1763
   982.5000      0.0000    784.8094      8.7092    138.1357
   982.7500      0.0000    774.8245      8.7773    131.0083
   983.0000      0.0000    769.3915      8.8080    126.0840
   983.2500      0.0000    769.5049      8.7646    124.3410
   983.5000      0.0000    773.4065      8.6962    125.3452
   983.7500      0.0000    778.0399      8.6733    127.6415
   984.0000      0.0000    781.6982      8.7018    129.0103
   984.2500      0.0000    785.7272      8.7629    127.1237
   984.5000      0.0000    791.4724      8.8919    120.8540
   984.7500      0.0000    797.1703      9.1436    111.1038
   985.0000      0.0000    800.4240      9.5004    100.1697
   985.2500      0.0000    801.3293      9.8856     90.3036
   985.5000      0.0000    801.3905     10.2395     82.6618
   985.7500      0.0000    801.5471     10.5214     77.1495
   986.0000      0.0000    801.8323     10.6677     73.0665
   986.2500      0.0000    801.9877     10.5986     70.0710
   986.5000      0.0000    801.9760     10.2983     68.4592
   986.7500      0.0000    801.8524      9.8765     68.3093
   987.0000      0.0000    801.6068      9.4890     68.6558
   987.2500      0.0000    801.3419      9.2079     68.0932
   987.5000      0.0000    801.2762      9.0215     66.1848
   987.7500      0.0000    801.5095      8.9203     63.9564
   988.0000      0.0000    801.9467      8.9133     62.8779
   988.2500      0.0000    802.3977      8.9939     63.5294
   988.5000      0.0000    802.6824      9.1307     65.4784
   988.7500      0.0000    802.7027      9.2664     68.2891
   989.0000      0.0000    802.5036      9.3323     72.0129
   989.2500      0.0000    802.4505      9.3020     76.5113
   989.5000      0.0000    803.5447      9.2144     80.8569
   989.7500      0.0000    807.2092      9.1411     83.8945
   990.0000      0.0000    813.6577      9.1291     85.2662
   990.2500      0.0000    821.0817      9.1711     85.6165
   990.5000      0.0000    828.2963      9.2481     85.9228
   990.7500      0.0000    835.5990      9.3710     87.0484
   991.0000      0.0000    841.8470      9.5321     89.7930
   991.2500      0.0000    844.8920      9.6647     94.4721
   991.5000      0.0000    844.1274      9.7149     99.9036
   991.7500      0.0000    841.2144      9.7192    103.2000
   992.0000      0.0000    839.6824      9.7506    101.3669
   992.2500      0.0000    841.6736      9.8111     93.8169
   992.5000      0.0000    845.1448      9.8320     83.3952
   992.7500      0.0000    846.3321      9.7673     74.4093
   993.0000      0.0000    842.4821      9.6302     69.3475
   993.2500      0.0000    832.8148      9.4546     67.6464
   993.5000      0.0000    820.3052      9.2732     67.3795
   993.7500      0.0000    810.3746      9.1274     67.5301
   994.0000      0.0000    806.2299      9.0672     68.5757
   994.2500      0.0000    807.7046      9.1202     71.3381
   994.5000      0.0000    812.5173      9.2735     75.6030
   994.7500      0.0000    816.9774      9.4801     79.9696
   995.0000      0.0000    819.9768      9.6680     83.0254
   995.2500      0.0000    824.8418      9.7779     84.3933
   995.5000      0.0000    832.1978      9.7951     84.6055
   995.7500      0.0000    836.7142      9.7311     84.4821
   996.0000      0.0000    834.7194      9.6139     85.0135
   996.2500      0.0000    828.4834      9.4857     87.4765
   996.5000      0.0000    821.0964      9.3555     93.0746
   996.7500      0.0000    813.4517      9.1901    102.1311
   997.0000      0.0000    806.9781      8.9719    113.4058
   997.2500      0.0000    803.5191      8.7025    124.2618
   997.5000      0.0000    803.5549      8.3748    131.9620
   997.7500      0.0000    807.1052      8.0076    135.2523
   998.0000      0.0000    813.6370      7.6552    134.8155
   998.2500      0.0000    821.1356      7.3257    132.2859
   998.5000      0.0000    828.1095      6.9554    128.8871
   998.7500      0.0000    834.0950      6.4975    124.9125
   999.0000      0.0000    837.2320      5.9930    120.3119
   999.2500      0.0000    836.7395      5.5466    115.4523
   999.5000      0.0000    836.2380      5.2474    111.1164
   999.7500      0.0000    839.0720      5.0974    107.8646
  1000.0000      0.0000    843.4031      5.0328    105.6151
  1000.2500      0.0000    845.4426      5.0234    103.9635
  1000.5000      0.0000    843.6491      5.1055    102.9824
  1000.7500      0.0000    839.3405      5.2982    103.6558
  1001.0000      0.0000    835.6501      5.5536    107.2793
  1001.2500      0.0000    833.2375      5.8340    114.1115
  1001.5000      0.0000    828.6420      6.1698    122.6929
  1001.7500      0.0000    821.3949      6.5938    130.7816
  1002.0000      0.0000    817.5535      7.0882    136.8056
  1002.2500      0.0000    822.0576      7.6210    140.0023
  1002.5000      0.0000    832.1570      8.1492    139.4775
  1002.7500      0.0000    841.0317      8.6177    134.2126
  1003.0000      0.0000    845.4641      9.0154    124.4789
  1003.2500      0.0000    848.2488      9.3600    112.7248
  1003.5000      0.0000    853.1160      9.6422    102.4857
  1003.7500      0.0000    855.8947      9.8381     96.3498
  1004.0000      0.0000    845.6163      9.9329     94.9321
  1004.2500      0.0000    820.9028      9.9398     97.2336
  1004.5000      0.0000    797.7856      9.9171    101.3241
  1004.7500      0.0000    793.2271      9.9231    104.8191
