~Version Information
VERS.                      2.0: CWLS Log ASCII Standard - VERSION 2.0
WRAP.                       NO: One line per depth step
~Well Information Block
STRT.FT                -1.5000: 
STOP.FT              2143.7500: 
STEP.FT                 0.2500: 
NULL.                -999.2500: 
COMP.          Pioneer Natural Resources: COMPANY
WELL.              Kermit 32-7: WELL
FLD.           Purgatoire River: FIELD
LOC.           2002' FNL & 2103' FEL: LOCATION
PROV.                 Colorado: PROVINCE
CNTY.               Las Animas: COUNTRY
SRVC.                Patterson: SERVICE COMPANY
DATE.          Wed Jan 18 14:17:49 2006: LOG DATE
UWI.           05 071 08647 00: UNIQUE WELL ID
~Curve Information Block
DEPT.FT            0 000 00 00: Depth
GR.GAPI                       : Gamma Ray
CCL.                          : Casing Collar Locator
TT3.usec                      : CBL 3' Travel Time
AMP3.mV                       : CBL 3' Amplitude
~Parameter Information Block
~A  Depth        GR         CCL         TT3         AMP3    
# ...
  1271.5000    155.0666      0.0000    563.6097      9.5164
  1271.7500    152.2262      0.0000    575.3289      9.3884
  1272.0000    147.0567      0.0000    587.7363      9.2903
  1272.2500    140.3895      0.0000    602.9431      9.2487
  1272.5000    133.7884      0.0000    619.1881      9.2596
  1272.7500    128.4917      0.0000    631.3030      9.2884
  1273.0000    124.9497      0.0000    635.4025      9.2927
  1273.2500    123.0796      0.0000    632.6961      9.2477
  1273.5000    122.3637      0.0000    628.7932      9.1577
  1273.7500    121.7227      0.0000    629.4007      9.0491
  1274.0000    120.0483      0.0000    636.1403      8.9563
  1274.2500    117.2900      0.0000    645.4740      8.9095
  1274.5000    114.6606      0.0000    650.7548      8.9253
  1274.7500    113.5374      0.0000    645.3197      8.9985
  1275.0000    114.4423      0.0000    625.4961      9.1024
  1275.2500    117.0750      0.0000    593.6547      9.2007
  1275.5000    120.6625      0.0000    559.6934      9.2614
  1275.7500    124.0030      0.0000    537.5898      9.2648
  1276.0000    125.9545      0.0000    537.4893      9.2094
  1276.2500    126.4464      0.0000    558.9440      9.1152
  1276.5000    126.5379      0.0000    590.6112      9.0164
  1276.7500    127.1648      0.0000    616.6484      8.9449
  1277.0000    128.2747      0.0000    625.2817      8.9174
  1277.2500    129.2365      0.0000    614.6622      8.9338
  1277.5000    129.5531      0.0000    593.9066      8.9791
  1277.7500    128.9072      0.0000    578.4323      9.0265
  1278.0000    126.8046      0.0000    579.8843      9.0492
  1278.2500    122.5521      0.0000    596.9083      9.0378
  1278.5000    115.7497      0.0000    615.3710      9.0092
  1278.7500    106.8341      0.0000    617.8266      8.9932
  1279.0000     97.1472      0.0000    593.6298      9.0110
  1279.2500     88.3997      0.0000    544.0070      9.0643
  1279.5000     81.8061      0.0000    481.3863      9.1442
  1279.7500     77.6046      0.0000    422.7899      9.2462
  1280.0000     75.5546      0.0000    380.4644      9.3711
  1280.2500     75.8221      0.0000    357.1117      9.5114
  1280.5000     78.8362      0.0000    348.6906      9.6420
  1280.7500     84.1218      0.0000    349.7882      9.7299
  1281.0000     89.8554      0.0000    356.1715      9.7563
  1281.2500     93.9935      0.0000    364.5885      9.7306
  1281.5000     95.5663      0.0000    372.4856      9.6834
  1281.7500     94.7341      0.0000    378.5953      9.6429
  1282.0000     92.1733      0.0000    383.3493      9.6194
  1282.2500     88.8233      0.0000    388.5353      9.6067
  1282.5000     85.7344      0.0000    396.4902      9.5930
  1282.7500     83.6327      0.0000    409.3643      9.5704
  1283.0000     82.5393      0.0000    428.3745      9.5407
  1283.2500     81.7364      0.0000    452.7539      9.5137
  1283.5000     80.1603      0.0000    479.3142      9.4928
  1283.7500     77.2581      0.0000    504.4483      9.4547
  1284.0000     73.6325      0.0000    527.3402      9.3388
  1284.2500     70.5399      0.0000    549.7617      9.0655
  1284.5000     68.6360      0.0000    572.4887      8.5912
  1284.7500     67.4210      0.0000    594.2560      7.9657
  1285.0000     65.9693      0.0000    614.1270      7.3302
  1285.2500     63.9522      0.0000    631.2671      6.8422
  1285.5000     61.7624      0.0000    641.4047      6.5933
  1285.7500     59.9668      0.0000    636.9562      6.5780
  1286.0000     59.0218      0.0000    614.0371      6.7117
  1286.2500     59.2591      0.0000    579.1555      6.8782
  1286.5000     60.6391     -3.0000    546.5622      6.9888
  1286.7500     62.5165     -3.0000    527.8225      7.0296
  1287.0000     63.8789      0.0000    523.8149      7.0887
  1287.2500     63.8291      0.0000    525.9187      7.3320
  1287.5000     61.8795      0.0000    524.4721      7.8849
  1287.7500     58.1305      0.0000    516.8307      8.6747
  1288.0000     53.3522      0.0000    506.6925      9.4285
  1288.2500     48.6975      0.0000    495.4561      9.8921
  1288.5000     45.0881      0.0000    478.1121     10.0315
  1288.7500     42.7145      0.0000    450.1545      9.9902
  1289.0000     41.1247      0.0000    414.9200      9.9141
  1289.2500     39.8900      0.0000    380.9544      9.8636
  1289.5000     39.2655      0.0000    354.5359      9.8426
  1289.7500     40.2258      0.0000    336.8783      9.8494
  1290.0000     43.9192      0.0000    326.5333      9.8955
  1290.2500     50.9553      0.0000    321.8759      9.9958
  1290.5000     60.8107      0.0000    321.5613     10.1456
  1290.7500     71.6230      0.0000    324.2338     10.3079
  1291.0000     80.7344      0.0000    328.4930     10.4301
  1291.2500     85.9456      0.0000    333.0578     10.4758
  1291.5000     86.7621      0.0000    336.9959     10.4433
  1291.7500     84.6618      0.0000    339.9094     10.3608
  1292.0000     82.0243      0.0000    341.8686     10.2717
  1292.2500     80.5969      0.0000    343.1347     10.2169
  1292.5000     80.9038      0.0000    343.9524     10.2198
  1292.7500     82.8515      0.0000    344.5486     10.2759
  1293.0000     86.3603      0.0000    345.2632     10.3543
  1293.2500     91.1778      0.0000    346.7349     10.4115
  1293.5000     96.4388      0.0000    350.0069     10.4107
  1293.7500    100.8715      0.0000    356.2464     10.3377
  1294.0000    103.6245      0.0000    365.9498     10.2092
  1294.2500    104.8480      0.0000    378.0372     10.0688
  1294.5000    105.4609      0.0000    389.7258      9.9709
  1294.7500    106.2029      0.0000    397.8099      9.9586
  1295.0000    106.8287      0.0000    400.9435     10.0463
  1295.2500    106.4762      0.0000    401.1514     10.2128
  1295.5000    104.9467      0.0000    402.7852     10.4121
  1295.7500    103.2086      0.0000    409.4281     10.6010
  1296.0000    102.3819      0.0000    421.4600     10.7632
  1296.2500    102.5342      0.0000    436.1884     10.9071
  1296.5000    102.8338      0.0000    449.7864     11.0417
  1296.7500    102.7918      0.0000    459.0580     11.1615
  1297.0000    102.8709      0.0000    461.8153     11.2544
  1297.2500    103.6566      0.0000    456.3007     11.3167
  1297.5000    104.9079      0.0000    441.3376     11.3564
  1297.7500    105.8823      0.0000    418.0845     11.3863
  1298.0000    106.3799      0.0000    391.4824     11.4164
  1298.2500    107.0624      0.0000    368.7419     11.4483
  1298.5000    108.7413      0.0000    355.8597     11.4755
  1298.7500    111.4767      0.0000    355.6651     11.4910
  1299.0000    114.4067      0.0000    367.9386     11.4963
  1299.2500    116.4367      0.0000    389.1917     11.5037
  1299.5000    117.0861      0.0000    412.0288     11.5280
  1299.7500    116.7861      0.0000    426.9139     11.5772
  1300.0000    116.5172      0.0000    426.9081     11.6474
  1300.2500    116.9686      0.0000    411.8803     11.7269
  1300.5000    117.8437      0.0000    388.4699     11.8050
  1300.7500    118.0773      0.0000    365.6151     11.8772
  1301.0000    116.8152      0.0000    349.2334     11.9411
  1301.2500    114.1534      0.0000    340.2241     11.9912
  1301.5000    111.0116      0.0000    336.3273     12.0223
  1301.7500    108.3340      0.0000    334.9258     12.0388
  1302.0000    106.3762      0.0000    334.4084     12.0554
  1302.2500    104.7101      0.0000    334.1074     12.0882
  1302.5000    102.9140      0.0000    333.8462     12.1433
  1302.7500    101.1830      0.0000    333.6302     12.2131
  1303.0000    100.1543      0.0000    333.5070     12.2826
  1303.2500    100.1238      0.0000    333.5119     12.3419
  1303.5000    100.6042      0.0000    333.6390     12.3909
  1303.7500    100.7726      0.0000    333.8421     12.4353
  1304.0000    100.2335      0.0000    334.0579     12.4789
  1304.2500     99.1354      0.0000    334.2522     12.5198
  1304.5000     97.6426      0.0000    334.4845     12.5491
  1304.7500     95.6883      0.0000    334.9832     12.5534
