~Version Information
VERS.                      2.0: CWLS Log ASCII Standard - VERSION 2.0
WRAP.                       NO: One line per depth step
~Well Information Block
STRT.FT               -15.7500: 
STOP.FT              1862.5000: 
STEP.FT                 0.2500: 
NULL.                -999.2500: 
COMP.          XTO Energy Inc.: COMPANY
WELL.          Golden Eagle 19-11: WELL
FLD.           Purgatorie River: FIELD
LOC.           2351' FSL &1926' WL--: LOCATION
CNTY.               Las Animas: COUNTY
SRVC.          Patterson Wireline: SERVICE COMPANY
DATE.          Fri Mar 24 16:29:29 2006: LOG DATE
UWI.           05 071 08696 00: UNIQUE WELL ID
STAT.                       CO: STATE
~Curve Information Block
DEPT.FT            0 000 00 00: Depth
CCL.                          : Casing Collar Locator
TT3.usec                      : CBL 3' Travel Time
AMP3.mV                       : CBL 3' Amplitude
GR.GAPI                       : Gamma Ray
~Parameter Information Block
~A  Depth       CCL         TT3         AMP3         GR     
# ...
  1324.2500      0.0000    594.9288     10.3218    118.8456
  1324.5000      0.0000    612.5902     10.0835    124.3698
  1324.7500      0.0000    638.4579      9.8036    127.0265
  1325.0000      0.0000    667.4039      9.4643    126.3654
  1325.2500      0.0000    687.0469      9.0987    124.1962
  1325.5000      0.0000    690.2845      8.7597    123.2900
  1325.7500      2.0000    680.5208      8.5113    124.9310
  1326.0000      0.0000    665.7995      8.4289    127.8890
  1326.2500      0.0000    648.3572      8.5843    129.8851
  1326.5000      0.0000    620.8105      8.9867    129.8057
  1326.7500      0.0000    576.2047      9.5097    128.2619
  1327.0000      0.0000    522.6941      9.9201    126.3717
  1327.2500      0.0000    483.8104     10.0358    124.8734
  1327.5000      0.0000    481.2800      9.8473    124.4873
  1327.7500      0.0000    518.1171      9.4755    125.9366
  1328.0000      0.0000    577.5962      9.0483    128.7090
  1328.2500      0.0000    636.6091      8.6347    130.5364
  1328.5000      0.0000    680.3162      8.2554    129.2782
  1328.7500      0.0000    706.5628      7.9197    125.2133
  1329.0000      0.0000    720.3428      7.6515    120.8745
  1329.2500      0.0000    726.9061      7.4872    118.9129
  1329.5000      0.0000    729.3506      7.4534    120.4564
  1329.7500      0.0000    729.3724      7.5477    124.8185
  1330.0000      0.0000    727.9403      7.7361    129.9222
  1330.2500      0.0000    725.2485      7.9619    133.2428
  1330.5000      0.0000    721.0367      8.1560    133.2923
  1330.7500      0.0000    715.6085      8.2473    130.5726
  1331.0000      0.0000    710.6091      8.1862    126.7742
  1331.2500      0.0000    708.5052      7.9716    123.1494
  1331.5000      0.0000    710.7543      7.6550    120.1035
  1331.7500      0.0000    716.0199      7.3069    117.9114
  1332.0000      0.0000    720.6870      6.9717    116.6706
  1332.2500      0.0000    721.9903      6.6554    115.2727
  1332.5000      0.0000    720.4645      6.3494    111.3532
  1332.7500      0.0000    719.0426      6.0569    103.1222
  1333.0000      0.0000    720.2836      5.7925     91.3104
  1333.2500      0.0000    724.5015      5.5667     79.0644
  1333.5000      0.0000    729.6321      5.3775     69.7168
  1333.7500      0.0000    732.7719      5.2203     64.5669
  1334.0000      0.0000    732.5975      5.0998     62.7104
  1334.2500      0.0000    730.2648      5.0249     62.7333
  1334.5000      0.0000    727.5711      4.9946     64.3538
  1334.7500      0.0000    724.8220      4.9946     68.6158
  1335.0000      0.0000    720.8474      5.0090     76.5311
  1335.2500      0.0000    713.9284      5.0339     87.2863
  1335.5000      0.0000    701.7732      5.0777     97.8953
  1335.7500      0.0000    681.9269      5.1485    105.1036
  1336.0000      0.0000    654.4971      5.2390    107.9387
  1336.2500      0.0000    625.1171      5.3260    108.2400
  1336.5000      0.0000    603.5002      5.3861    108.7950
  1336.7500      0.0000    597.1705      5.4117    111.1812
  1337.0000      0.0000    606.2631      5.4118    115.0558
  1337.2500      0.0000    624.3000      5.4007    118.8546
  1337.5000      0.0000    642.7786      5.3894    121.0607
  1337.7500      0.0000    654.5219      5.3861    121.1649
  1338.0000      0.0000    654.8746      5.3983    119.5932
  1338.2500      0.0000    642.5759      5.4317    117.0888
  1338.5000      0.0000    620.2554      5.4829    114.5539
  1338.7500      0.0000    593.8522      5.5393    113.0676
  1339.0000      0.0000    571.0168      5.5941    113.2225
  1339.2500      0.0000    558.5410      5.6575    114.4092
  1339.5000      0.0000    560.1747      5.7480    115.0468
  1339.7500      0.0000    576.7766      5.8692    113.6298
  1340.0000      0.0000    607.2452      5.9999    109.8484
  1340.2500      0.0000    647.2120      6.1048    104.9266
  1340.5000      0.0000    687.4382      6.1535    100.8265
  1340.7500      0.0000    717.0428      6.1349     98.9935
  1341.0000      0.0000    730.4438      6.0603     99.6663
  1341.2500      0.0000    730.4838      5.9584    102.0198
  1341.5000      0.0000    724.5547      5.8620    104.8624
  1341.7500      0.0000    718.6644      5.7958    107.4210
  1342.0000      0.0000    715.0485      5.7688    109.7348
  1342.2500      0.0000    713.4271      5.7754    112.3920
  1342.5000      0.0000    712.9038      5.8021    115.6831
  1342.7500      0.0000    712.8464      5.8335    118.8106
  1343.0000      0.0000    712.9454      5.8532    120.0455
  1343.2500      0.0000    713.0700      5.8460    118.1103
  1343.5000      0.0000    713.1691      5.8039    113.5428
  1343.7500      0.0000    713.2162      5.7296    108.4235
  1344.0000      0.0000    713.1501      5.6342    104.7078
  1344.2500      0.0000    712.6660      5.5331    102.9536
  1344.5000      0.0000    710.7310      5.4428    102.4635
  1344.7500      0.0000    704.9888      5.3750    102.3098
  1345.0000      0.0000    692.0720      5.3316    102.1959
  1345.2500      0.0000    670.3502      5.3067    102.4475
  1345.5000      0.0000    644.2038      5.2966    103.4504
  1345.7500      0.0000    624.3033      5.3033    105.3353
  1346.0000      0.0000    620.2145      5.3312    108.0635
  1346.2500      0.0000    632.1006      5.3827    111.4564
  1346.5000      0.0000    651.9925      5.4569    115.0022
  1346.7500      0.0000    672.6944      5.5481    117.7822
  1347.0000      0.0000    692.1543      5.6465    118.9988
  1347.2500      0.0000    709.6850      5.7419    118.9452
  1347.5000      0.0000    722.4600      5.8295    119.1562
  1347.7500      0.0000    727.9532      5.9098    121.0161
  1348.0000      0.0000    727.4280      5.9865    124.1797
  1348.2500      0.0000    724.6804      6.0633    126.6607
  1348.5000      0.0000    722.1350      6.1412    126.3651
  1348.7500      0.0000    719.5604      6.2176    122.4207
  1349.0000      0.0000    715.6983      6.2857    115.3958
  1349.2500      0.0000    710.2888      6.3377    106.8631
  1349.5000      0.0000    705.4457      6.3703     99.0647
  1349.7500      0.0000    705.8676      6.3882     94.3771
  1350.0000      0.0000    716.5392      6.4007     94.0366
  1350.2500      0.0000    737.8849      6.4137     97.1263
  1350.5000      0.0000    762.9191      6.4263    101.3254
  1350.7500      0.0000    781.4046      6.4368    104.6877
  1351.0000      0.0000    787.5141      6.4468    106.5918
  1351.2500      0.0000    782.3845      6.4582    107.5586
  1351.5000      0.0000    770.3529      6.4680    108.4917
  1351.7500      0.0000    755.4468      6.4699    109.6272
  1352.0000      0.0000    741.3528      6.4605    110.0342
  1352.2500      0.0000    732.0237      6.4435    108.5733
  1352.5000      0.0000    730.4459      6.4263    105.3545
  1352.7500      0.0000    736.9235      6.4148    101.9247
  1353.0000      0.0000    748.7005      6.4091    100.0558
  1353.2500      0.0000    761.3126      6.4042    100.4437
  1353.5000      0.0000    770.5779      6.3947    102.4013
  1353.7500      0.0000    773.7248      6.3776    104.6476
  1354.0000      0.0000    769.0195      6.3520    106.3981
  1354.2500      0.0000    755.1082      6.3186    107.7475
  1354.5000      0.0000    731.8406      6.2791    109.1389
  1354.7500      0.0000    702.4714      6.2357    110.6453
  1355.0000      0.0000    674.5239      6.1857    111.8971
  1355.2500      0.0000    656.7891      6.1199    112.4723
  1355.5000      0.0000    653.8806      6.0299    112.0788
  1355.7500      0.0000    663.0533      5.9207    110.6027
  1356.0000      0.0000    675.9750      5.8127    108.3034
  1356.2500      0.0000    683.4210      5.7277    105.7684
  1356.5000      0.0000    679.2626      5.6730    103.4241
  1356.7500      0.0000    662.2427      5.6408    101.2414
  1357.0000      0.0000    635.9110      5.6192     99.0922
  1357.2500      0.0000    607.2264      5.6003     97.3298
  1357.5000      0.0000    584.5444      5.5810     96.8230
