~Version Information
VERS.                      2.0: CWLS Log ASCII Standard - VERSION 2.0
WRAP.                       NO: One line per depth step
~Well Information Block
STRT.FT               892.0000: 
STOP.FT              2094.0000: 
STEP.FT                 0.1000: 
NULL.                -999.2500: 
COMP.          Pioneer Natural Resources: COMPANY
WELL.          Greenwood 43-29 Tr: WELL
FLD.           Purgatoire River: FIELD
LOC.           1478' FSL & 744' FEL: LOCATION
STAT.                 Colorado: State
CNTY.               Las Animas: COUNTY
CTRY. USA : Country
SECT. 29 : Section
TOWN. 32S : Township
RANG. 67W : Range
SRVC.                Patterson: SERVICE COMPANY
DATE.          Wed Aug 31 10:39:20 2005: LOG DATE
API.           05 071 08478 00: UNIQUE WELL ID
~Curve Information Block
DEPT.FT            0 000 00 00: Depth
DCAL.in                       : CDL Caliper
RHOB.g/cc                     : CDL Bulk Density
RHOC.g/cc                     : CDL Density Correction
DPOR.pu                       : CDL Density Porosity
GR.GAPI                       : Gamma Ray
NPOR.pu                       : Neutron Porosity
~Parameter Information Block
~A  Depth       DCAL        RHOB        RHOC        DPOR         GR         NPOR    
   892.0000      4.9168      0.9238     -0.0928    104.6194    101.1554     18.5116
   892.1000      4.9168      0.9887     -0.0340    100.6863    105.6894     19.0188
   892.2000      4.9168      1.0622      0.1045     96.2304    109.5040     19.5683
   892.3000      4.9071      1.1270      0.0953     92.3026    110.8615     19.5881
   892.4000      4.9071      1.1807      0.1683     89.0460    113.9035     19.1104
   892.5000      4.9130      1.2211      0.1761     86.6007    123.0320     18.9911
   892.6000      4.9130      1.2521      0.1870     84.7228    134.7792     19.6191
   892.7000      4.9130      1.2888      0.1673     82.4960    140.1705     20.3320
   892.8000      4.9128      1.3354      0.2489     79.6700    137.9693     20.5334
   892.9000      4.9128      1.3780      0.2737     77.0934    129.9210     20.4807
   893.0000      4.9141      1.4074      0.2960     75.3116    119.5242     20.3256
   893.1000      4.9141      1.4318      0.2837     73.8318    115.9405     20.1690
   893.2000      4.9141      1.4642      0.3034     71.8649    117.7626     20.2838
   893.3000      4.9122      1.5107      0.3134     69.0477    117.9508     20.3589
   893.4000      4.9122      1.5677      0.3701     65.5949    119.1399     20.1137
   893.5000      4.9195      1.6246      0.3930     62.1449    124.1002     19.7951
   893.6000      4.9195      1.6734      0.3996     59.1875    127.2164     19.2991
   893.7000      4.9195      1.7128      0.4374     56.8025    124.8124     18.5115
   893.8000      4.9142      1.7451      0.4550     54.8440    120.6949     18.0249
   893.9000      4.9142      1.7735      0.4718     53.1191    118.6580     18.0789
   894.0000      4.9129      1.8049      0.4285     51.2195    121.2483     17.9671
   894.1000      4.9129      1.8466      0.4834     48.6938    125.7629     17.4883
   894.2000      4.9129      1.8908      0.5371     46.0106    124.3820     17.6542
   894.3000      4.9189      1.9284      0.5127     43.7337    120.1407     18.4590
   894.4000      4.9189      1.9639      0.5209     41.5834    118.5872     18.6552
   894.5000      4.9136      1.9997      0.5430     39.4150    116.3956     17.9748
   894.6000      4.9136      2.0346      0.5466     37.2962    116.9117     17.2673
   894.7000      4.9136      2.0703      0.5868     35.1308    125.8692     17.1452
   894.8000      4.9227      2.1021      0.5871     33.2089    134.0897     17.3907
   894.9000      4.9227      2.1212      0.5814     32.0489    132.6196     17.7983
   895.0000      4.9223      2.1297      0.5600     31.5311    129.4787     18.2559
   895.1000      4.9223      2.1363      0.5977     31.1326    128.9931     18.3691
   895.2000      4.9223      2.1486      0.5878     30.3864    129.7434     18.3720
   895.3000      4.9292      2.1715      0.5928     29.0013    137.5260     18.9788
   895.4000      4.9292      2.1958      0.6530     27.5284    148.1881     19.9105
   895.5000      4.9248      2.2094      0.5957     26.7046    149.4402     20.1584
   895.6000      4.9248      2.2139      0.6159     26.4300    144.9103     20.0570
   895.7000      4.9248      2.2177      0.5819     26.1978    143.6023     20.4895
   895.8000      4.9326      2.2266      0.5917     25.6576    141.7501     20.9587
   895.9000      4.9326      2.2405      0.5802     24.8203    135.9185     20.8457
   896.0000      4.9303      2.2616      0.5674     23.5422    130.9827     20.3570
   896.1000      4.9303      2.2912      0.6047     21.7469    129.5288     19.9397
   896.2000      4.9303      2.3197      0.6243     20.0181    126.7071     20.2400
   896.3000      4.9214      2.3405      0.6005     18.7586    120.1138     21.1838
   896.4000      4.9214      2.3553      0.6271     17.8630    113.2216     21.7677
   896.5000      4.9215      2.3614      0.6216     17.4900    109.7874     21.6517
   896.6000      4.9215      2.3543      0.6318     17.9238    109.6934     21.2961
   896.7000      4.9215      2.3424      0.5406     18.6405    111.5653     20.8983
   896.8000      4.9329      2.3384      0.6111     18.8831    113.7475     20.3690
   896.9000      4.9329      2.3410      0.5642     18.7281    115.1860     20.0673
   897.0000      4.9263      2.3471      0.5776     18.3605    117.5225     20.3054
   897.1000      4.9263      2.3516      0.6016     18.0839    121.6799     20.9218
   897.2000      4.9263      2.3529      0.5469     18.0043    126.9942     21.4470
   897.3000      4.9357      2.3578      0.5461     17.7063    131.4766     21.2378
   897.4000      4.9357      2.3556      0.5877     17.8409    130.1090     20.2209
   897.5000      4.9304      2.3318      0.5220     19.2833    125.3472     19.0993
   897.6000      4.9304      2.3053      0.5178     20.8904    124.2920     18.6687
   897.7000      4.9304      2.2994      0.5148     21.2492    127.0834     19.0410
   897.8000      4.9369      2.3128      0.5544     20.4383    128.1639     19.4361
   897.9000      4.9369      2.3352      0.5244     19.0811    122.2112     19.7623
   898.0000      4.9311      2.3592      0.5830     17.6214    113.2968     20.5482
   898.1000      4.9311      2.3802      0.5457     16.3543    112.7191     21.3435
   898.2000      4.9311      2.3947      0.6030     15.4752    124.9037     21.2680
   898.3000      4.9327      2.4002      0.5590     15.1415    140.3461     20.4097
   898.4000      4.9327      2.4010      0.5602     15.0901    148.0684     19.9289
   898.5000      4.9384      2.4004      0.5419     15.1301    147.2995     20.2293
   898.6000      4.9384      2.3964      0.5346     15.3672    141.7699     20.6114
   898.7000      4.9384      2.3955      0.4908     15.4226    133.6197     20.8935
   898.8000      4.9221      2.4050      0.5157     14.8483    123.9378     21.5295
   898.9000      4.9221      2.4139      0.5386     14.3065    118.0537     22.1958
   899.0000      4.9324      2.4048      0.5463     14.8609    122.0313     22.2097
   899.1000      4.9324      2.3784      0.4969     16.4612    131.9507     21.8044
   899.2000      4.9324      2.3549      0.4691     17.8840    139.9159     21.4846
   899.3000      4.9374      2.3445      0.4816     18.5148    145.1613     21.3530
   899.4000      4.9374      2.3349      0.4690     19.0940    149.5356     21.0686
   899.5000      4.9347      2.3204      0.4292     19.9766    151.3224     20.4496
   899.6000      4.9347      2.3143      0.4356     20.3460    149.1074     19.7383
   899.7000      4.9347      2.3260      0.4720     19.6380    144.4098     19.1416
   899.8000      4.9378      2.3493      0.4756     18.2223    142.4705     18.8893
   899.9000      4.9378      2.3705      0.5119     16.9379    146.9060     19.2895
   900.0000      4.9339      2.3777      0.4643     16.5002    152.4473     20.2370
   900.1000      4.9339      2.3680      0.4866     17.0900    155.6212     20.9966
   900.2000      4.9339      2.3471      0.4755     18.3601    160.2834     20.9969
   900.3000      4.9355      2.3284      0.4554     19.4906    166.2257     20.8931
   900.4000      4.9355      2.3206      0.4698     19.9664    167.5109     21.1946
   900.5000      4.9387      2.3247      0.4169     19.7154    163.4058     21.4131
   900.6000      4.9387      2.3405      0.4789     18.7586    157.6893     21.3220
   900.7000      4.9387      2.3525      0.5032     18.0299    154.1043     21.0825
   900.8000      4.9381      2.3461      0.4600     18.4190    151.8836     20.5112
   900.9000      4.9381      2.3344      0.4458     19.1269    145.9664     19.6334
   901.0000      4.9277      2.3336      0.4792     19.1761    140.5676     19.3409
   901.1000      4.9277      2.3353      0.4866     19.0705    142.3111     20.2492
   901.2000      4.9277      2.3313      0.4508     19.3123    145.5740     21.4374
   901.3000      4.9311      2.3283      0.4566     19.4955    143.7297     21.8137
   901.4000      4.9311      2.3311      0.4525     19.3296    139.0899     21.5547
   901.5000      4.9384      2.3414      0.4567     18.7044    134.7625     21.1487
