~Version Information
VERS.                      2.0: CWLS Log ASCII Standard - VERSION 2.0
WRAP.                       NO: One line per depth step
~Well Information Block
STRT.FT                -8.5000: 
STOP.FT              2823.2500: 
STEP.FT                 0.2500: 
NULL.                -999.2500: 
COMP.          Pioneer Natural Resources: COMPANY
WELL.                AMX 13-13: WELL
FLD.           Purgatorie River: FIELD
LOC.           2316' FSL & 865' FWL--: LOCATION
PROV.                       CO: PROVINCE
CNTY.               Las Animas: COUNTRY
SRVC.          Patterson Wireline: SERVICE COMPANY
DATE.          Tue Dec 27 10:40:58 2005: LOG DATE
UWI.           05 071 08630 00: UNIQUE WELL ID
~Curve Information Block
DEPT.FT            0 000 00 00: Depth
CCL.                          : Casing Collar Locator
TT3.usec                      : CBL 3' Travel Time
AMP3.mV                       : CBL 3' Amplitude
GR.GAPI                       : Gamma Ray
~Parameter Information Block
~A  Depth       CCL         TT3         AMP3         GR     
    -8.5000   -999.2500   -999.2500   -999.2500     86.3858
    -8.2500   -999.2500   -999.2500   -999.2500     86.2537
    -8.0000   -999.2500   -999.2500   -999.2500     86.4698
    -7.7500   -999.2500   -999.2500   -999.2500     86.9028
    -7.5000   -999.2500   -999.2500   -999.2500     87.2042
    -7.2500   -999.2500   -999.2500   -999.2500     86.8594
    -7.0000   -999.2500   -999.2500   -999.2500     85.4804
    -6.7500   -999.2500   -999.2500   -999.2500     83.5103
    -6.5000   -999.2500   -999.2500   -999.2500     82.4324
    -6.2500   -999.2500   -999.2500   -999.2500     83.5192
    -6.0000   -999.2500   -999.2500   -999.2500     86.1685
    -5.7500   -999.2500   -999.2500   -999.2500     88.0473
    -5.5000   -999.2500   -999.2500   -999.2500     87.3208
    -5.2500   -999.2500   -999.2500   -999.2500     84.5677
    -5.0000   -999.2500   -999.2500   -999.2500     82.1840
    -4.7500   -999.2500   -999.2500   -999.2500     82.0200
    -4.5000   -999.2500   -999.2500   -999.2500     84.0013
    -4.2500   -999.2500   -999.2500   -999.2500     86.8132
    -4.0000   -999.2500   -999.2500   -999.2500     89.0792
    -3.7500   -999.2500   -999.2500   -999.2500     89.7920
    -3.5000   -999.2500   1167.0000      0.9893     88.4249
    -3.2500   -999.2500   1167.0000      0.9841     85.3311
    -3.0000   -999.2500   1167.0000      0.9772     81.9958
    -2.7500   -999.2500   1167.0000      0.9733     80.2671
    -2.5000   -999.2500   1167.0000      0.9742     80.6563
    -2.2500   -999.2500   1167.0000      0.9759     81.2992
    -2.0000   -999.2500   1167.0000      0.9723     79.1999
    -1.7500   -999.2500   1167.0000      0.9622     73.0091
    -1.5000   -999.2500   1167.0000      0.9513     64.3678
    -1.2500   -999.2500   1167.0000      0.9484     56.3358
    -1.0000   -999.2500   1167.0000      0.9583     50.9332
    -0.7500   -999.2500   1167.0000      0.9787     48.3825
    -0.5000   -999.2500   1167.0000      1.0009     48.0064
    -0.2500   -999.2500   1167.0000      1.0163     49.0298
     0.0000   -999.2500   1167.0000      1.0203     50.4878
     0.2500   -999.2500   1167.0000      1.0132     50.9920
     0.5000   -999.2500   1167.0000      0.9829     45.6985
     0.7500   -999.2500   1167.0000      0.9723     42.1878
     1.0000   -999.2500   1167.0000      0.9689     41.3508
     1.2500   -999.2500   1167.0000      0.9694     44.2600
     1.5000   -999.2500   1167.0000      0.9684     49.8636
     1.7500      0.0000   1167.0000      0.9637     55.9955
     2.0000      0.0000   1167.0000      0.9580     60.7222
     2.2500      0.0000   1167.0000      0.9555     63.0338
     2.5000      0.0000   1167.0000      0.9566     62.9019
     2.7500      0.0000   1167.0000      0.9588     61.0211
     3.0000      0.0000   1167.0000      0.9604     58.4590
     3.2500      0.0000   1167.0000      0.9634     56.3839
     3.5000      0.0000   1167.0000      0.9701     55.7939
     3.7500      0.0000   1167.0000      0.9800     57.0344
     4.0000      0.0000   1167.0000      0.9884     59.3940
     4.2500      0.0000   1167.0000      0.9891     61.3971
     4.5000      0.0000   1167.0000      0.9796     61.7831
     4.7500      0.0000   1167.0000      0.9640     60.5007
     5.0000      0.0000   1167.0000      0.9496     58.8907
     5.2500      0.0000   1167.0000      0.9409     58.7271
     5.5000      0.0000   1167.0000      0.9378     60.8663
     5.7500      0.0000   1167.0000      0.9387     64.7962
     6.0000      0.0000   1167.0000      0.9414     69.2832
     6.2500      0.0000   1167.0000      0.9443     73.1813
     6.5000      0.0000   1167.0000      0.9473     75.7737
     6.7500      0.0000   1167.0000      0.9514     76.8571
     7.0000      0.0000   1167.0000      0.9570     76.7225
     7.2500      0.0000   1167.0000      0.9627     76.0406
     7.5000      0.0000   1167.0000      0.9670     75.5616
     7.7500      0.0000   1167.0000      0.9696     75.7005
     8.0000      0.0000   1167.0000      0.9702     76.3721
     8.2500      0.0000   1167.0000      0.9687     77.1757
     8.5000      0.0000   1167.0000      0.9669     77.5138
     8.7500      0.0000   1166.9904      0.9689     76.5788
     9.0000      0.0000   1166.9371      0.9777     73.7177
     9.2500      0.0000   1166.6805      0.9909     69.2405
     9.5000      0.0000   1165.6895      1.0021     64.6666
     9.7500      0.0000   1162.7421      1.0104     61.7080
    10.0000      0.0000   1155.6586      1.0408     60.9257
    10.2500      0.0000   1140.9756      1.1916     61.4888
    10.5000      0.0000   1112.4094      1.7366     62.0598
    10.7500      0.0000   1058.3950      3.2612     61.7278
    11.0000      0.0000    964.4239      6.6492     60.4498
    11.2500      0.0000    825.5767     12.6340     59.0586
    11.5000      0.0000    659.8794     21.0078     58.6584
    11.7500      0.0000    503.5002     30.2610     59.6221
    12.0000     -2.0000    387.5796     38.3496     61.2419
    12.2500      2.0000    320.3701     44.0230     62.5048
    12.5000      0.0000    290.3636     47.4358     62.8925
    12.7500      0.0000    280.6571     49.6545     62.3914
    13.0000      0.0000    278.6471     51.7647     61.2809
    13.2500      0.0000    277.6391     54.2892     60.2279
    13.5000      0.0000    275.2848     57.1812     60.1706
    13.7500      0.0000    271.8805     60.2513     61.6948
    14.0000      0.0000    268.6613     63.4384     64.5549
    14.2500      0.0000    266.4534     66.5979     67.9282
    14.5000      0.0000    265.2845     69.3210     71.0789
    14.7500      0.0000    264.7802     71.2159     73.6058
    15.0000      0.0000    264.5904     72.2397     75.0856
    15.2500      0.0000    264.5219     72.6515     74.9439
    15.5000      0.0000    264.4955     72.7571     73.2449
    15.7500      0.0000    264.4857     72.7569     71.3405
    16.0000      0.0000    264.4834     72.7514     70.7481
    16.2500      0.0000    264.4857     72.7850     71.1359
    16.5000      0.0000    264.4911     72.8769     70.3311
    16.7500      0.0000    264.4986     73.0222     66.8499
    17.0000      0.0000    264.5074     73.1936     61.8969
    17.2500      0.0000    264.5159     73.3556     58.4506
    17.5000      0.0000    264.5230     73.4838     58.6365
    17.7500      0.0000    264.5280     73.5758     62.1429
    18.0000      0.0000    264.5301     73.6431     66.6790
    18.2500      0.0000    264.5285     73.6971     69.6479
    18.5000      0.0000    264.5233     73.7412     69.8109
    18.7500      0.0000    264.5161     73.7737     67.9002
    19.0000      0.0000    264.5090     73.7941     65.7536
    19.2500      0.0000    264.5031     73.8062     64.6812
    19.5000      0.0000    264.4975     73.8154     64.5412
    19.7500      0.0000    264.4907     73.8248     64.3007
    20.0000      0.0000    264.4821     73.8323     63.2476
    20.2500      0.0000    264.4735     73.8307     61.4615
    20.5000      0.0000    264.4676     73.8128     59.2842
    20.7500      0.0000    264.4666     73.7780     56.7104
    21.0000      0.0000    264.4705     73.7331     53.5802
    21.2500      0.0000    264.4773     73.6870     50.3665
    21.5000      0.0000    264.4832     73.6471     48.4389
    21.7500      0.0000    264.4845     73.6175     49.1363
    22.0000      0.0000    264.4791     73.5962     52.5862
    22.2500      0.0000    264.4680     73.5744     57.6140
    22.5000      0.0000    264.4540     73.5426     62.6475
    22.7500      0.0000    264.4393     73.4992     66.5053
    23.0000      0.0000    264.4262     73.4538     68.4585
    23.2500      0.0000    264.4164     73.4199     68.0449
    23.5000      0.0000    264.4112     73.4013     65.2968
    23.7500      0.0000    264.4106     73.3860     61.1079
    24.0000      0.0000    264.4159     73.3486     56.9640
    24.2500      0.0000    264.4366     73.2363     54.1384
    24.5000      0.0000    264.5084     72.9070     53.2129
    24.7500      0.0000    264.7163     72.0491     54.1079
