~Version Information
VERS.                      2.0: CWLS Log ASCII Standard - VERSION 2.0
WRAP.                       NO: One line per depth step
~Well Information Block
STRT.FT               322.3000: 
STOP.FT              1375.0000: 
STEP.FT                 0.1000: 
NULL.                -999.2500: 
COMP.          Pioneer Natural Resources: COMPANY
WELL.          Buffet 41-36 Tr: WELL
FLD.           Purgatoire River: FIELD
LOC.           119' FNL & 271' FEL: LOCATION
PROV.                 Colorado: PROVINCE
CNTY.               Las Animas: COUNTRY
SRVC.                Patterson: SERVICE COMPANY
DATE.          Thu Dec 29 07:13:13 2005: LOG DATE
UWI.           05 071 08627 00: UNIQUE WELL ID
~Curve Information Block
DEPT.FT            0 000 00 00: Depth
DCAL.in                       : CDL Caliper
RHOB.g/cc                     : CDL Bulk Density
RHOC.g/cc                     : CDL Density Correction
DPOR.pu                       : CDL Density Porosity
GR.GAPI                       : Gamma Ray
~Parameter Information Block
~A  Depth       DCAL        RHOB        RHOC        DPOR         GR     
# ...
  1027.9000      8.0105      2.4684      0.1246     11.0090    126.1302
  1028.0000      8.0161      2.4534      0.1341     11.9139    135.2515
  1028.1000      8.0161      2.4271      0.1713     13.5076    136.8416
  1028.2000      8.0161      2.3800      0.1209     16.3640    135.1479
  1028.3000      8.0265      2.3114      0.1212     20.5192    134.1639
  1028.4000      8.0265      2.2380      0.0114     24.9689    131.4111
  1028.5000      8.0387      2.1889     -0.0164     27.9448    127.4425
  1028.6000      8.0387      2.1774     -0.0154     28.6446    127.1320
  1028.7000      8.0387      2.1903      0.0008     27.8584    129.4097
  1028.8000      8.0451      2.2052      0.0426     26.9590    129.8937
  1028.9000      8.0451      2.2099      0.0647     26.6721    128.3538
  1029.0000      8.0463      2.2118      0.0796     26.5585    127.5926
  1029.1000      8.0463      2.2187      0.0830     26.1407    130.9747
  1029.2000      8.0463      2.2271      0.0472     25.6295    135.8078
  1029.3000      8.0453      2.2331      0.0320     25.2649    138.9916
  1029.4000      8.0453      2.2405      0.0306     24.8209    142.4037
  1029.5000      8.0407      2.2572      0.0164     23.8033    143.7244
  1029.6000      8.0407      2.2876      0.0083     21.9613    143.1138
  1029.7000      8.0407      2.3267      0.0530     19.5946    144.9059
  1029.8000      8.0351      2.3580      0.1089     17.6943    146.5591
  1029.9000      8.0351      2.3703      0.0857     16.9511    142.2343
  1030.0000      8.0367      2.3642      0.1124     17.3184    134.3334
  1030.1000      8.0367      2.3413      0.0794     18.7095    132.0363
  1030.2000      8.0367      2.3152      0.0083     20.2930    136.0616
  1030.3000      8.0437      2.3026      0.0236     21.0516    136.5463
  1030.4000      8.0437      2.2983      0.0200     21.3170    131.6380
  1030.5000      8.0455      2.2900     -0.0059     21.8157    130.8914
  1030.6000      8.0455      2.2806      0.0284     22.3896    135.4775
  1030.7000      8.0455      2.2829      0.0202     22.2511    135.3170
  1030.8000      8.0430      2.3058      0.0314     20.8590    129.7345
  1030.9000      8.0430      2.3397      0.0783     18.8041    128.1608
  1031.0000      8.0433      2.3628      0.0935     17.4044    132.7134
  1031.1000      8.0433      2.3617      0.1403     17.4747    138.4581
  1031.2000      8.0433      2.3471      0.0988     18.3604    144.6195
  1031.3000      8.0481      2.3554      0.1130     17.8555    153.1776
  1031.4000      8.0481      2.4061      0.1451     14.7789    161.7548
  1031.5000      8.0440      2.4692      0.2193     10.9602    164.3578
  1031.6000      8.0440      2.5016      0.1926      8.9951    160.6575
  1031.7000      8.0440      2.5045      0.1148      8.8159    158.4547
  1031.8000      8.0221      2.5003      0.1283      9.0707    159.7451
  1031.9000      8.0221      2.4921      0.1407      9.5694    160.3372
  1032.0000      8.0015      2.4857      0.0667      9.9591    163.4946
  1032.1000      8.0015      2.4891      0.1214      9.7487    171.6324
  1032.2000      8.0015      2.4935      0.1348      9.4837    181.7331
  1032.3000      7.9929      2.4863      0.1281      9.9209    189.3725
  1032.4000      7.9929      2.4638      0.0458     11.2833    189.0424
  1032.5000      7.9903      2.4425      0.0289     12.5757    183.8045
  1032.6000      7.9903      2.4416      0.0877     12.6328    186.4675
  1032.7000      7.9903      2.4574      0.1178     11.6736    198.8778
  1032.8000      7.9894      2.4837      0.1140     10.0815    206.8349
  1032.9000      7.9894      2.5248      0.1692      7.5897    203.3997
  1033.0000      7.9893      2.5701      0.2390      4.8407    196.1569
  1033.1000      7.9893      2.5975      0.2353      3.1798    189.3511
  1033.2000      7.9893      2.6047      0.1985      2.7480    179.3687
  1033.3000      7.9894      2.6062      0.1861      2.6522    167.5697
  1033.4000      7.9894      2.6117      0.1771      2.3192    158.6922
  1033.5000      7.9889      2.6176      0.1540      1.9654    151.9064
  1033.6000      7.9889      2.6146      0.1060      2.1441    145.7470
  1033.7000      7.9889      2.6038      0.0405      2.8014    139.9972
  1033.8000      7.9877      2.5904      0.0771      3.6149    132.5225
  1033.9000      7.9877      2.5729      0.0469      4.6742    124.6753
  1034.0000      7.9867      2.5547      0.0153      5.7778    122.4589
  1034.1000      7.9867      2.5466      0.0204      6.2697    127.0747
  1034.2000      7.9867      2.5587      0.0060      5.5342    132.6576
  1034.3000      7.9868      2.5860      0.0634      3.8789    130.8757
  1034.4000      7.9868      2.6035      0.0301      2.8185    121.7531
  1034.5000      7.9874      2.6036     -0.0111      2.8103    114.9894
  1034.6000      7.9874      2.6000      0.0290      3.0292    115.6292
  1034.7000      7.9874      2.5979      0.0224      3.1586    120.3183
  1034.8000      7.9875      2.5983      0.0253      3.1348    123.6777
  1034.9000      7.9875      2.6006     -0.0045      2.9969    123.5888
  1035.0000      7.9870      2.5953      0.0189      3.3151    123.3118
  1035.1000      7.9870      2.5798     -0.0083      4.2520    126.6047
  1035.2000      7.9870      2.5676     -0.0268      4.9958    131.6468
  1035.3000      7.9869      2.5604      0.0285      5.4281    134.5890
  1035.4000      7.9869      2.5526     -0.0096      5.9023    133.0455
  1035.5000      7.9898      2.5567     -0.0415      5.6521    126.0430
  1035.6000      7.9898      2.5776      0.0468      4.3851    117.7073
  1035.7000      7.9898      2.5946      0.0283      3.3587    114.1674
  1035.8000      7.9923      2.5887      0.0349      3.7143    115.5909
  1035.9000      7.9923      2.5686     -0.0421      4.9335    116.3630
  1036.0000      7.9895      2.5579     -0.0014      5.5811    112.6630
  1036.1000      7.9895      2.5626     -0.0371      5.2944    107.3025
  1036.2000      7.9895      2.5708     -0.0066      4.8029    105.1778
  1036.3000      7.9846      2.5740     -0.0205      4.6044    108.2707
  1036.4000      7.9846      2.5863     -0.0357      3.8578    115.4919
  1036.5000      7.9813      2.6182      0.0242      1.9245    123.0535
  1036.6000      7.9813      2.6465      0.0304      0.2143    123.6160
  1036.7000      7.9813      2.6496      0.0712      0.0261    116.2588
  1036.8000      7.9791      2.6457     -0.0332      0.2602    107.8792
  1036.9000      7.9791      2.6618      0.0657     -0.7175    102.2839
  1037.0000      7.9762      2.6899      0.0696     -2.4173     98.9408
  1037.1000      7.9762      2.7039      0.1058     -3.2649     97.5139
  1037.2000      7.9762      2.6954      0.0325     -2.7528     98.2695
  1037.3000      7.9723      2.6808     -0.0132     -1.8652    100.2315
  1037.4000      7.9723      2.6647      0.0532     -0.8905     99.1511
  1037.5000      7.9713      2.6397     -0.0575      0.6223     94.7072
  1037.6000      7.9713      2.6218     -0.0070      1.7113     92.0977
  1037.7000      7.9713      2.6253      0.0266      1.4972     92.2487
  1037.8000      7.9725      2.6377      0.1162      0.7430     90.9687
  1037.9000      7.9725      2.6411      0.0948      0.5395     84.7744
  1038.0000      7.9702      2.6354      0.0875      0.8867     77.0661
  1038.1000      7.9702      2.6319      0.0540      1.0959     73.2577
  1038.2000      7.9702      2.6338      0.0969      0.9805     72.3213
  1038.3000      7.9674      2.6291      0.1059      1.2651     71.4356
  1038.4000      7.9674      2.6154      0.0586      2.0942     71.2893
  1038.5000      7.9663      2.6149      0.0594      2.1249     71.0904
  1038.6000      7.9663      2.6385      0.0711      0.6967     69.0927
  1038.7000      7.9663      2.6585      0.1210     -0.5164     65.6014
  1038.8000      7.9653      2.6523      0.0762     -0.1405     61.6497
  1038.9000      7.9653      2.6385      0.0773      0.6947     59.6989
  1039.0000      7.9642      2.6330      0.0894      1.0306     60.7340
