~Version Information
VERS.                      2.0: CWLS Log ASCII Standard - VERSION 2.0
WRAP.                       NO: One line per depth step
~Well Information Block
STRT.FT                10.0000: 
STOP.FT              1187.0000: 
STEP.FT                 0.1000: 
NULL.                -999.2500: 
COMP.          Pioneer Natural Resources: COMPANY
WELL.          Whitecoat 14-36: WELL
FLD.           Purgatorie River: FIELD
LOC.           606' FSL & 260' FWL: LOCATION
PROV.                 Colorado: PROVINCE
CNTY.               Las Animas: COUNTRY
SRVC.                Patterson: SERVICE COMPANY
DATE.          Tue Dec 06 07:14:37 2005: LOG DATE
UWI.                          : UNIQUE WELL ID
~Curve Information Block
DEPT.FT            0 000 00 00: Depth
DCAL.in                       : CDL Caliper
RHOB.g/cc                     : CDL Bulk Density
RHOC.g/cc                     : CDL Density Correction
DPOR.pu                       : CDL Density Porosity
GR.GAPI                       : Gamma Ray
NPOR.pu                       : Neutron Porosity
~Parameter Information Block
~A  Depth       DCAL        RHOB        RHOC        DPOR         GR         NPOR    
    10.0000     -3.1029      1.9145      2.5975     -0.0147     86.5264     31.4755
    10.1000     -3.1029      2.0565      2.6136     -0.0119     85.5747     32.0888
    10.2000     -3.1029      2.2391      2.5977     -0.0082     87.7553     32.1845
    10.3000     -3.1029      2.4600      2.6045     -0.0038     90.9738     31.8969
    10.4000     -3.1029      2.7022      2.6853      0.0010     91.1060     31.6948
    10.5000     -3.1029      2.9380      2.8408      0.0058     89.0046     31.6167
    10.6000     -3.1029      3.1353      2.8920      0.0097     87.6852     31.4496
    10.7000     -3.1029      3.2649      2.9239      0.0123     86.9143     31.2738
    10.8000     -3.1029      3.2794      2.9673      0.0126     85.4767     31.1149
    10.9000     -3.1029      3.1224      2.8154      0.0095     84.6748     30.7331
    11.0000     -3.1029      2.7817      2.5911      0.0026     86.7155     30.3609
    11.1000     -3.1029      2.2991      2.3461     -0.0070     91.2344     30.3744
    11.2000     -3.1029      1.7599      2.0071     -0.0178     95.1755     30.7022
    11.3000     -3.1029      1.2858      1.7584     -0.0273     96.2213     31.1916
    11.4000     -3.1029      0.9868      1.5565     -0.0333     95.6062     31.6622
    11.5000     -3.1029      0.9184      1.5280     -0.0346     96.3852     31.8682
    11.6000     -3.1029      1.0681      1.7587     -0.0317     99.8746     31.8199
    11.7000     -3.1029      1.3502      2.1130     -0.0260    104.0222     31.5627
    11.8000     -3.1029      1.6342      2.4686     -0.0203    105.3438     31.1518
    11.9000     -3.1029      1.8191      2.5617     -0.0166    103.8059     30.8860
    12.0000     -3.1029      1.8961      2.5101     -0.0151    102.8969     30.8521
    12.1000     -3.1029      1.9218      2.4941     -0.0146    102.7591     30.6932
    12.2000     -3.1029      1.9467      2.4949     -0.0141    102.5106     30.2177
    12.3000     -3.1029      1.9875      2.5500     -0.0133    104.5562     29.8418
    12.4000     -3.1029      2.0417      2.5567     -0.0122    107.5077     29.6845
    12.5000     -3.1029      2.1027      2.6338     -0.0110    106.7329     29.4493
    12.6000     -3.1029      2.1544      2.6776     -0.0099    104.2226     29.3782
    12.7000     -3.1029      2.1830      2.6728     -0.0093    104.1453     29.6932
    12.8000     -3.1029      2.1909      2.6599     -0.0092    106.3882     29.8731
    12.9000     -3.1029      2.1828      2.6621     -0.0093    109.9061     29.4664
    13.0000     -3.1029      2.1558      2.6709     -0.0099    112.1110     28.8030
    13.1000     -3.1029      2.1155      2.5966     -0.0107    112.1689     28.4042
    13.2000     -3.1029      2.0843      2.5823     -0.0113    113.0435     28.2365
    13.3000     -3.1029      2.0791      2.5637     -0.0114    115.2423     27.9321
    13.4000     -3.1029      2.0994      2.5817     -0.0110    116.4813     27.4659
    13.5000     -3.1029      2.1364      2.6101     -0.0103    114.4812     27.3499
    13.6000     -3.1029      2.1861      2.6138     -0.0093    110.7491     27.8277
    13.7000     -3.1029      2.2451      2.6890     -0.0081    109.4535     28.5012
    13.8000     -3.1029      2.2974      2.7094     -0.0071    111.1527     28.9892
    13.9000     -3.1029      2.3292      2.6859     -0.0064    111.1737     29.1360
    14.0000     -3.1029      2.3435      2.6747     -0.0061    108.5429     28.9132
    14.1000     -3.1029      2.3442      2.6770     -0.0061    107.8814     28.6694
    14.2000     -3.1029      2.3201      2.6864     -0.0066    110.3897     29.0115
    14.3000     -3.1029      2.2615      2.6040     -0.0078    113.1451     29.8748
    14.4000     -3.1029      2.1855      2.5201     -0.0093    114.9424     30.2005
    14.5000     -3.1029      2.1230      2.4726     -0.0105    115.3380     29.5682
    14.6000     -3.1029      2.0908      2.4483     -0.0112    114.8693     28.9912
    14.7000     -3.1029      2.0861      2.4591     -0.0113    114.5768     29.0575
    14.8000     -3.1029      2.0994      2.4731     -0.0110    113.0419     29.3022
    14.9000     -3.1029      2.1281      2.4566     -0.0104    110.7604     29.5693
    15.0000     -3.1029      2.1713      2.5202     -0.0096    111.0292     29.9123
    15.1000     -3.1029      2.2246      2.5072     -0.0085    113.8453     30.0667
    15.2000     -3.1029      2.2869      2.5457     -0.0073    115.1609     29.8951
    15.3000     -3.1029      2.3498      2.6135     -0.0060    112.1652     29.4881
    15.4000     -3.1029      2.3963      2.5853     -0.0051    108.6093     28.9852
    15.5000     -3.1029      2.4146      2.5889     -0.0047    108.2031     28.4845
    15.6000     -3.1029      2.3992      2.5577     -0.0050    108.4976     28.0843
    15.7000     -3.1029      2.3552      2.4885     -0.0059    107.6101     27.9033
    15.8000     -3.1029      2.2970      2.4204     -0.0071    105.7950     28.0323
    15.9000     -3.1029      2.2349      2.3382     -0.0083    103.7511     28.4533
    16.0000     -3.1029      2.1722      2.2667     -0.0096    102.4877     28.9033
    16.1000     -3.1029      2.1083      2.2642     -0.0108    102.1647     29.0914
    16.2000     -3.1029      2.0475      2.1484     -0.0121    103.6809     28.9593
    16.3000     -3.1029      2.0075      2.1580     -0.0129    107.5019     28.7687
    16.4000     -3.1029      2.0016      2.1335     -0.0130    110.3110     28.9949
    16.5000     -3.1029      2.0316      2.1525     -0.0124    111.0765     29.5958
    16.6000     -3.1029      2.0902      2.2235     -0.0112    112.6574     29.9237
    16.7000     -3.1029      2.1558      2.2737     -0.0099    114.1426     29.6554
    16.8000     -3.1029      2.2044      2.3063     -0.0089    112.4042     29.2509
    16.9000     -3.1029      2.2332      2.3082     -0.0083    109.6402     29.0226
    17.0000     -3.1029      2.2534      2.3213     -0.0079    108.4441     28.8237
    17.1000     -3.1029      2.2666      2.3114     -0.0077    107.8856     28.7164
    17.2000     -3.1029      2.2657      2.2804     -0.0077    107.2121     28.8066
    17.3000     -3.1029      2.2428      2.2841     -0.0081    105.8959     28.9552
    17.4000     -3.1029      2.1924      2.1842     -0.0092    103.6828     28.8175
    17.5000     -3.1029      2.1215      2.1393     -0.0106    102.4173     28.3239
    17.6000     -3.1029      2.0505      2.0041     -0.0120    102.9720     27.8846
    17.7000     -3.1029      1.9958      2.0381     -0.0131    105.0845     27.6294
    17.8000     -3.1029      1.9488      2.0436     -0.0140    109.0938     27.3302
    17.9000     -3.1029      1.8991      1.9519     -0.0150    113.6635     27.0363
    18.0000     -3.1029      1.8583      1.9065     -0.0158    113.7437     26.8596
    18.1000     -3.1029      1.8394      1.9143     -0.0162    106.5615     26.6801
    18.2000     -3.1029      1.8446      1.9494     -0.0161     98.0806     26.4307
    18.3000     -3.1029      1.8769      1.9748     -0.0155     94.0816     26.2622
    18.4000     -3.1029      1.9395      2.0189     -0.0142     93.3248     26.1300
    18.5000     -3.1029      2.0167      2.1405     -0.0127     94.9507     26.0303
    18.6000     -3.1029      2.0798      2.1398     -0.0114     99.7951     26.3940
    18.7000     -3.1029      2.1234      2.1644     -0.0105    105.5433     27.1731
    18.8000     -3.1029      2.1632      2.1919     -0.0097    108.1318     27.7179
    18.9000     -3.1029      2.2053      2.2107     -0.0089    107.0321     27.8460
    19.0000     -3.1029      2.2415      2.2552     -0.0082    103.7785     27.9489
    19.1000     -3.1029      2.2628      2.2329     -0.0077     99.6697     28.0684
    19.2000     -3.1029      2.2732      2.1888     -0.0075     97.3292     27.7234
    19.3000     -3.1029      2.2829      2.1681     -0.0073     98.0788     26.9455
    19.4000     -3.1029      2.2880      2.1701     -0.0072    101.2831     26.3555
    19.5000     -3.1029      2.2652      2.1777     -0.0077    106.3425     26.2686
