~Version Information
VERS.                      2.0: CWLS Log ASCII Standard - VERSION 2.0
WRAP.                       NO: One line per depth step
~Well Information Block
STRT.FT               420.0000: 
STOP.FT              2888.7000: 
STEP.FT                 0.1000: 
NULL.                -999.2500: 
COMP.          Pioneer Natural Resources: COMPANY
WELL.          Touchstone 11-32: WELL
FLD.           Purgatoire River: FIELD
LOC.           853' FNL & 407' FWL--: LOCATION
CNTY.               Las Animas: COUNTY
SRVC.                Patterson: SERVICE COMPANY
DATE.          Fri Feb 24 11:16:52 2006: LOG DATE
UWI.           05 071 08564 00: UNIQUE WELL ID
STAT.                 Colorado: STATE
~Curve Information Block
DEPT.FT            0 000 00 00: Depth
DCAL.in                       : CDL Caliper
RHOB.g/cc                     : CDL Bulk Density
RHOC.g/cc                     : CDL Density Correction
DPOR.pu                       : CDL Density Porosity
NPOR.pu                       : Neutron Porosity
GR.GAPI                       : Gamma Ray
~Parameter Information Block
~A  Depth       DCAL        RHOB        RHOC        DPOR        NPOR         GR     
# ...
  2695.2000      7.8533      2.5972      0.0306      3.1983     24.5377    111.4005
  2695.3000      7.8520      2.5858      0.0495      3.8901     24.3847    109.3499
  2695.4000      7.8520      2.5599      0.0033      5.4613     24.4077    107.0200
  2695.5000      7.8501      2.5384     -0.0075      6.7635     24.6346    108.4883
  2695.6000      7.8501      2.5405      0.0041      6.6336     24.8271    115.1019
  2695.7000      7.8501      2.5572      0.0338      5.6263     24.6841    120.2706
  2695.8000      7.8494      2.5679      0.0514      4.9783     24.2196    119.4787
  2695.9000      7.8494      2.5686      0.0637      4.9363     23.8279    118.6405
  2696.0000      7.8488      2.5689      0.0505      4.9161     23.7498    121.5818
  2696.1000      7.8488      2.5753      0.0571      4.5291     23.5448    121.0732
  2696.2000      7.8488      2.5842      0.0748      3.9872     23.0787    118.0786
  2696.3000      7.8494      2.5909      0.0795      3.5847     22.8345    117.0435
  2696.4000      7.8494      2.5951      0.0554      3.3247     23.2920    112.2064
  2696.5000      7.8506      2.5979      0.0538      3.1554     24.3083    106.4074
  2696.6000      7.8506      2.6008      0.0354      2.9811     24.9505    109.0615
  2696.7000      7.8506      2.6069      0.0816      2.6133     24.8004    117.2728
  2696.8000      7.8511      2.6107      0.0741      2.3792     24.1895    119.1153
  2696.9000      7.8511      2.6038      0.0604      2.7978     23.4161    110.3521
  2697.0000      7.8522      2.5859      0.0465      3.8820     22.8683    100.7837
  2697.1000      7.8522      2.5646      0.0589      5.1765     23.0504     97.7506
  2697.2000      7.8522      2.5487      0.0232      6.1420     23.7519     98.4646
  2697.3000      7.8545      2.5472      0.0077      6.2280     24.0524    102.1364
  2697.4000      7.8545      2.5603      0.0227      5.4386     23.5261    108.7083
  2697.5000      7.8544      2.5733      0.0460      4.6481     22.7355    110.3348
  2697.6000      7.8544      2.5736      0.0646      4.6279     22.4020    105.1181
  2697.7000      7.8544      2.5607      0.0449      5.4106     22.6628    103.7785
  2697.8000      7.8512      2.5511      0.0069      5.9952     23.2290    107.0888
  2697.9000      7.8512      2.5586      0.0403      5.5400     23.7206    104.3471
  2698.0000      7.8486      2.5736      0.0525      4.6292     23.9384     94.5967
  2698.1000      7.8486      2.5843      0.0606      3.9825     23.8551     88.6467
  2698.2000      7.8486      2.5910      0.0777      3.5773     23.5730     93.8453
  2698.3000      7.8462      2.5901      0.0705      3.6292     23.2544    105.0017
  2698.4000      7.8462      2.5697      0.0808      4.8689     22.9150    112.4016
  2698.5000      7.8441      2.5401     -0.0214      6.6633     22.7344    112.7272
  2698.6000      7.8441      2.5321      0.0438      7.1443     22.7766    111.4715
  2698.7000      7.8441      2.5496      0.0454      6.0847     22.9766    115.6993
  2698.8000      7.8437      2.5715      0.0912      4.7588     23.5380    120.3063
  2698.9000      7.8437      2.5776      0.0860      4.3849     24.3587    118.0055
  2699.0000      7.8454      2.5684      0.0613      4.9448     24.9008    112.6803
  2699.1000      7.8454      2.5607      0.0440      5.4137     24.8421    109.6347
  2699.2000      7.8454      2.5627      0.0508      5.2927     24.2359    107.7088
  2699.3000      7.8472      2.5708      0.0546      4.7991     23.5897    102.9887
  2699.4000      7.8472      2.5809      0.0443      4.1868     23.2609     97.4758
  2699.5000      7.8508      2.5880      0.0675      3.7585     22.9060     98.6808
  2699.6000      7.8508      2.5875      0.0550      3.7871     22.5300    104.6765
  2699.7000      7.8508      2.5810      0.0875      4.1831     22.4326    104.4171
  2699.8000      7.8544      2.5693      0.0662      4.8910     22.7321     99.4131
  2699.9000      7.8544      2.5554      0.0481      5.7353     23.4297     95.7277
  2700.0000      7.8523      2.5507      0.0562      6.0188     23.7182     92.9926
  2700.1000      7.8523      2.5645      0.0484      5.1792     23.2684     92.8411
  2700.2000      7.8523      2.5864      0.1067      3.8516     23.0615     93.3641
  2700.3000      7.8491      2.5991      0.0558      3.0846     23.2782     92.5450
  2700.4000      7.8491      2.6053      0.0560      2.7074     23.0924     93.7138
  2700.5000      7.8483      2.6092      0.0844      2.4713     22.5573     98.4720
  2700.6000      7.8483      2.6071      0.0781      2.5991     22.2181    103.2115
  2700.7000      7.8483      2.6003      0.0874      3.0102     21.9844    104.6730
  2700.8000      7.8463      2.5887      0.0577      3.7151     21.6732    106.1128
  2700.9000      7.8463      2.5748      0.0650      4.5600     21.5709    108.3693
  2701.0000      7.8426      2.5647      0.0448      5.1696     21.8490    106.9762
  2701.1000      7.8426      2.5581      0.0623      5.5676     22.2850    102.8904
  2701.2000      7.8426      2.5536      0.0244      5.8432     22.4567    101.6971
  2701.3000      7.8392      2.5507      0.0492      6.0205     22.3936    106.4230
  2701.4000      7.8392      2.5475      0.0246      6.2098     22.4497    113.1589
  2701.5000      7.8381      2.5486      0.0434      6.1428     22.3793    113.2493
  2701.6000      7.8381      2.5653     -0.0211      5.1345     22.1182    106.3845
  2701.7000      7.8381      2.5960      0.0677      3.2702     21.9359     98.1277
  2701.8000      7.8393      2.6120      0.1202      2.3050     21.7850     93.7002
  2701.9000      7.8393      2.6045      0.0215      2.7593     21.7819     96.0352
  2702.0000      7.8406      2.5984      0.0643      3.1276     22.2110    101.5113
  2702.1000      7.8406      2.5984      0.0416      3.1295     22.8618    103.1756
  2702.2000      7.8406      2.5912      0.0613      3.5635     23.0965     98.1200
  2702.3000      7.8419      2.5822      0.0234      4.1104     22.8111     91.4025
  2702.4000      7.8419      2.5880      0.0498      3.7602     22.4430     88.9579
  2702.5000      7.8416      2.6050      0.0638      2.7274     22.0129     88.5658
  2702.6000      7.8416      2.6176      0.0636      1.9632     21.4622     86.2361
  2702.7000      7.8416      2.6210      0.0603      1.7559     21.0722     85.8220
  2702.8000      7.8386      2.6187      0.0527      1.8955     21.1240     87.7328
  2702.9000      7.8386      2.6108      0.0553      2.3739     21.5622     85.2514
  2703.0000      7.8344      2.5969      0.0386      3.2210     21.5614     79.4151
  2703.1000      7.8344      2.5876      0.0304      3.7836     20.7067     78.5175
  2703.2000      7.8344      2.5933      0.0256      3.4392     20.3028     82.7724
  2703.3000      7.8292      2.6047      0.0544      2.7472     21.3262     84.0373
  2703.4000      7.8292      2.6070      0.0317      2.6067     22.5712     84.1276
  2703.5000      7.8227      2.6006      0.0688      2.9936     22.6484     88.7587
  2703.6000      7.8227      2.5903      0.0608      3.6196     22.0198     95.8483
  2703.7000      7.8227      2.5749      0.0934      4.5507     21.7160    102.2069
  2703.8000      7.8203      2.5601      0.0028      5.4499     21.9513    102.9919
  2703.9000      7.8203      2.5593      0.0465      5.5000     22.1634     95.7901
  2704.0000      7.8228      2.5757      0.0320      4.5037     22.0754     88.5867
  2704.1000      7.8228      2.6038      0.0681      2.7976     22.0668     87.3098
  2704.2000      7.8228      2.6313      0.0637      1.1318     22.2369     89.7011
  2704.3000      7.8260      2.6420      0.0963      0.4820     22.2008     94.0012
  2704.4000      7.8260      2.6306      0.1043      1.1785     21.7795     98.4293
  2704.5000      7.8273      2.6123      0.0576      2.2834     21.3009     96.6493
  2704.6000      7.8273      2.6072      0.0040      2.5922     20.7877     89.0072
  2704.7000      7.8273      2.6142      0.0668      2.1699     19.8924     85.3577
