~Version Information
VERS.                      2.0: CWLS Log ASCII Standard - VERSION 2.0
WRAP.                       NO: One line per depth step
~Well Information Block
STRT.FT               840.0000: 
STOP.FT              1912.0000: 
STEP.FT                 0.1000: 
NULL.                -999.2500: 
COMP.          Petrogulf Corporation: COMPANY
WELL.             Kraft 17-23R: WELL
FLD.           Purgatorie River: FIELD
LOC.           1509' FSL & 1673' FWL: LOCATION
PROV.                 Colorado: PROVINCE
CNTY.               Las Animas: COUNTRY
SRVC.                Patterson: SERVICE COMPANY
DATE.          Wed Oct 12 07:01:14 2005: LOG DATE
UWI.                          : UNIQUE WELL ID
~Curve Information Block
DEPT.FT            0 000 00 00: Depth
DCAL.in                       : CDL Caliper
RHOB.g/cc                     : CDL Bulk Density
RHOC.g/cc                     : CDL Density Correction
DPOR.pu                       : CDL Density Porosity
GR.GAPI                       : Gamma Ray
NPOR.pu                       : Neutron Porosity
~Parameter Information Block
~A  Depth       DCAL        RHOB        RHOC        DPOR         GR         NPOR    
# ...
  1896.0000      8.0046      1.5118     -0.1274     68.9820     90.6479   -999.2500
  1896.1000      8.0046      1.4880     -0.1104     70.4241     87.2266   -999.2500
  1896.2000      8.0046      1.5019     -0.1069     69.5799     82.9690   -999.2500
  1896.3000      8.0226      1.5755     -0.0090     65.1218     80.6097   -999.2500
  1896.4000      8.0226      1.7042      0.1392     57.3215     79.7208   -999.2500
  1896.5000      8.0937      1.8383      0.1722     49.1936     77.2798   -999.2500
  1896.6000      8.0937      1.9474      0.1907     42.5845     75.8438   -999.2500
  1896.7000      8.0937      2.0435      0.2437     36.7546     78.7181   -999.2500
  1896.8000      8.2363      2.1410      0.2253     30.8472     83.6075   -999.2500
  1896.9000      8.2363      2.2325      0.1902     25.3023     85.8907   -999.2500
  1897.0000      8.2800      2.3033      0.1098     21.0140     86.3065   -999.2500
  1897.1000      8.2800      2.3559      0.0451     17.8272     88.4330   -999.2500
  1897.2000      8.2800      2.4020      0.0814     15.0306     92.1654   -999.2500
  1897.3000      7.9693      2.4361      0.0794     12.9616     96.3353   -999.2500
  1897.4000      7.9693      2.4515      0.0612     12.0332    101.2155   -999.2500
  1897.5000      7.8311      2.4658      0.0249     11.1650    105.2371   -999.2500
  1897.6000      7.8311      2.4955      0.0803      9.3614    104.1777   -999.2500
  1897.7000      7.8311      2.5327      0.1015      7.1083     97.2371   -999.2500
  1897.8000      7.7978      2.5587      0.1176      5.5314     89.6319   -999.2500
  1897.9000      7.7978      2.5620      0.0671      5.3323     84.6651   -999.2500
  1898.0000      7.7803      2.5547      0.0162      5.7784     82.6504   -999.2500
  1898.1000      7.7803      2.5569      0.0447      5.6425     82.5112   -999.2500
  1898.2000      7.7803      2.5673      0.0715      5.0125     81.1999   -999.2500
  1898.3000      7.7677      2.5706      0.0936      4.8134     78.6305   -999.2500
  1898.4000      7.7677      2.5665      0.0454      5.0595     75.6688   -999.2500
  1898.5000      7.7717      2.5727      0.0413      4.6837     67.9183   -999.2500
  1898.6000      7.7717      2.5934      0.0803      3.4322     49.7290   -999.2500
  1898.7000      7.7717      2.6076      0.0616      2.5709     25.5214   -999.2500
  1898.8000      7.7805      2.5984      0.0778      3.1269      8.1323   -999.2500
  1898.9000      7.7805      2.5751      0.0220      4.5393      1.4913   -999.2500
  1899.0000      7.7677      2.5617      0.0209      5.3502      0.1507   -999.2500
  1899.1000      7.7677      2.5675      0.0313      5.0014      0.0080   -999.2500
  1899.2000      7.7677      2.5869      0.0306      3.8232      0.0000   -999.2500
  1899.3000      7.7760      2.6139      0.0323      2.1884   -999.2500   -999.2500
  1899.4000      7.7760      2.6376      0.0409      0.7528   -999.2500   -999.2500
  1899.5000      7.7785      2.6506      0.0298     -0.0376   -999.2500   -999.2500
  1899.6000      7.7785      2.6567      0.0761     -0.4036   -999.2500   -999.2500
  1899.7000      7.7785      2.6507      0.1116     -0.0454   -999.2500   -999.2500
  1899.8000      7.7864      2.6244      0.0724      1.5485   -999.2500   -999.2500
  1899.9000      7.7864      2.5840      0.0711      3.9980   -999.2500   -999.2500
  1900.0000      7.7848      2.5435      0.0260      6.4526   -999.2500   -999.2500
  1900.1000      7.7848      2.5143      0.0110      8.2268   -999.2500   -999.2500
  1900.2000      7.7848      2.5040     -0.0092      8.8455   -999.2500   -999.2500
  1900.3000      7.7880      2.5139      0.0078      8.2497   -999.2500   -999.2500
  1900.4000      7.7880      2.5273      0.0751      7.4378   -999.2500   -999.2500
  1900.5000      7.7908      2.5273      0.0194      7.4344   -999.2500   -999.2500
  1900.6000      7.7908      2.5240      0.0375      7.6348   -999.2500   -999.2500
  1900.7000      7.7908      2.5356      0.0463      6.9355   -999.2500   -999.2500
  1900.8000      7.7748      2.5535      0.1294      5.8464   -999.2500   -999.2500
  1900.9000      7.7748      2.5601      0.0895      5.4498   -999.2500   -999.2500
  1901.0000      7.7459      2.5614      0.1374      5.3686   -999.2500   -999.2500
  1901.1000      7.7459      2.5688      0.1414      4.9191   -999.2500   -999.2500
  1901.2000      7.7459      2.5865      0.0865      3.8500   -999.2500   -999.2500
  1901.3000      7.7120      2.6101      0.1335      2.4204   -999.2500   -999.2500
  1901.4000      7.7120      2.6192      0.1467      1.8651   -999.2500   -999.2500
  1901.5000      7.7238      2.6037      0.1457      2.8061   -999.2500   -999.2500
  1901.6000      7.7238      2.5837      0.0723      4.0196   -999.2500   -999.2500
  1901.7000      7.7238      2.5796      0.1088      4.2677   -999.2500   -999.2500
  1901.8000      7.7752      2.5848      0.0642      3.9535   -999.2500   -999.2500
  1901.9000      7.7752      2.5856      0.0839      3.9001   -999.2500   -999.2500
  1902.0000      7.7772      2.5733      0.1051      4.6465   -999.2500   -999.2500
  1902.1000      7.7772      2.5487      0.0619      6.1420   -999.2500   -999.2500
  1902.2000      7.7772      2.5287      0.0466      7.3524   -999.2500   -999.2500
  1902.3000      7.7683      2.5269      0.0240      7.4601   -999.2500   -999.2500
  1902.4000      7.7683      2.5382      0.0430      6.7759   -999.2500   -999.2500
  1902.5000      7.7414      2.5497      0.0464      6.0817   -999.2500   -999.2500
  1902.6000      7.7414      2.5607      0.0721      5.4116   -999.2500   -999.2500
  1902.7000      7.7414      2.5770      0.0686      4.4266   -999.2500   -999.2500
  1902.8000      7.7219      2.5952      0.0760      3.3217   -999.2500   -999.2500
  1902.9000      7.7219      2.6081      0.0940      2.5372   -999.2500   -999.2500
  1903.0000      7.7294      2.6187      0.0772      1.8966   -999.2500   -999.2500
  1903.1000      7.7294      2.6333      0.0772      1.0135   -999.2500   -999.2500
  1903.2000      7.7294      2.6409      0.1143      0.5529   -999.2500   -999.2500
  1903.3000      7.7371      2.6330      0.0925      1.0287   -999.2500   -999.2500
  1903.4000      7.7371      2.6213      0.0945      1.7402   -999.2500   -999.2500
  1903.5000      7.7570      2.6137      0.1092      2.2024   -999.2500   -999.2500
  1903.6000      7.7570      2.6162      0.0658      2.0464   -999.2500   -999.2500
  1903.7000      7.7570      2.6303      0.0721      1.1934   -999.2500   -999.2500
  1903.8000      7.7723      2.6388      0.0991      0.6814   -999.2500   -999.2500
  1903.9000      7.7723      2.6329      0.1041      1.0367   -999.2500   -999.2500
  1904.0000      7.7779      2.6213      0.0873      1.7415   -999.2500   -999.2500
  1904.1000      7.7779      2.6086      0.1022      2.5108   -999.2500   -999.2500
  1904.2000      7.7779      2.5953      0.0845      3.3136   -999.2500   -999.2500
  1904.3000      7.7772      2.5845      0.0670      3.9682   -999.2500   -999.2500
  1904.4000      7.7772      2.5776      0.0348      4.3885   -999.2500   -999.2500
  1904.5000      7.7828      2.5667      0.0660      5.0486   -999.2500   -999.2500
  1904.6000      7.7828      2.5419      0.0395      6.5522   -999.2500   -999.2500
  1904.7000      7.7828      2.5148      0.0380      8.1937   -999.2500   -999.2500
  1904.8000      7.7736      2.5090      0.0509      8.5435   -999.2500   -999.2500
  1904.9000      7.7736      2.5247      0.0791      7.5925   -999.2500   -999.2500
  1905.0000      7.7151      2.5451      0.0702      6.3591   -999.2500   -999.2500
  1905.1000      7.7151      2.5630      0.1087      5.2711   -999.2500   -999.2500
  1905.2000      7.7151      2.5822      0.0857      4.1076   -999.2500   -999.2500
  1905.3000      7.7120      2.6026      0.1372      2.8715   -999.2500   -999.2500
  1905.4000      7.7120      2.6117      0.1643      2.3228   -999.2500   -999.2500
  1905.5000      7.7119      2.6023      0.1210      2.8912   -999.2500   -999.2500
