~Version Information
VERS.                      2.0: CWLS Log ASCII Standard - VERSION 2.0
WRAP.                       NO: One line per depth step
~Well Information Block
STRT.FT               686.2000: 
STOP.FT              1252.7000: 
STEP.FT                 0.1000: 
NULL.                -999.2500: 
COMP.          Pioneer Natural Resources: COMPANY
WELL.          Rock Island 44-24 Tr: WELL
FLD.           Purgatoire River: FIELD
LOC.           814' FSL & 761' FEL--: LOCATION
CNTY.               Las Animas: COUNTY
SRVC.                Patterson: SERVICE COMPANY
DATE.          Thu Apr 20 08:34:45 2006: LOG DATE
UWI.           05 071 08680 00: UNIQUE WELL ID
STAT.                 Colorado: STATE
~Curve Information Block
DEPT.FT            0 000 00 00: Depth
DCAL.in                       : CDL Caliper
RHOB.g/cc                     : CDL Bulk Density
RHOC.g/cc                     : CDL Density Correction
DPOR.pu                       : CDL Density Porosity
GR.GAPI                       : Gamma Ray
~Parameter Information Block
~A  Depth       DCAL        RHOB        RHOC        DPOR         GR     
# ...
  1078.2000      7.8974      2.6310      0.0731      1.1487     93.3014
  1078.3000      7.9047      2.6311      0.0743      1.1427     92.0007
  1078.4000      7.9047      2.6401      0.0235      0.6020     88.9556
  1078.5000      7.9130      2.6712      0.0934     -1.2873     82.8102
  1078.6000      7.9130      2.7117      0.1022     -3.7388     74.8583
  1078.7000      7.9130      2.7426      0.1041     -5.6151     67.7008
  1078.8000      7.9247      2.7634      0.0862     -6.8707     64.6341
  1078.9000      7.9247      2.7743      0.0726     -7.5357     63.6853
  1079.0000      7.9325      2.7700      0.0447     -7.2697     59.4851
  1079.1000      7.9325      2.7553      0.0437     -6.3802     52.9103
  1079.2000      7.9325      2.7373      0.0551     -5.2928     48.2973
  1079.3000      7.9351      2.7141      0.0119     -3.8853     48.3304
  1079.4000      7.9351      2.6848      0.0152     -2.1085     52.7807
  1079.5000      7.9402      2.6516     -0.0287     -0.0972     57.9478
  1079.6000      7.9402      2.6157     -0.0156      2.0818     61.1713
  1079.7000      7.9402      2.5811     -0.0680      4.1777     62.7831
  1079.8000      7.9487      2.5626     -0.0674      5.2972     64.0094
  1079.9000      7.9487      2.5624      0.0145      5.3069     68.0131
  1080.0000      7.9575      2.5644      0.0018      5.1870     77.3547
  1080.1000      7.9575      2.5643      0.0076      5.1931     87.0614
  1080.2000      7.9575      2.5663      0.0121      5.0752     92.7265
  1080.3000      7.9618      2.5671      0.0640      5.0262     98.1188
  1080.4000      7.9618      2.5610      0.0512      5.3962    104.0049
  1080.5000      7.9623      2.5520      0.0495      5.9404    105.9855
  1080.6000      7.9623      2.5555      0.0345      5.7285    107.0557
  1080.7000      7.9623      2.5814      0.0440      4.1551    110.5873
  1080.8000      7.9618      2.6167      0.0704      2.0173    111.0911
  1080.9000      7.9618      2.6327      0.0821      1.0499    108.3162
  1081.0000      7.9623      2.6166      0.0628      2.0233    107.9043
  1081.1000      7.9623      2.5855      0.0203      3.9113    111.2329
  1081.2000      7.9623      2.5640      0.0158      5.2099    115.6670
  1081.3000      7.9633      2.5598      0.0412      5.4666    117.4007
  1081.4000      7.9633      2.5650      0.0408      5.1511    115.4000
  1081.5000      7.9632      2.5762      0.0360      4.4754    114.9720
  1081.6000      7.9632      2.5926      0.0639      3.4782    119.2924
  1081.7000      7.9632      2.6024      0.0800      2.8830    121.3476
  1081.8000      7.9617      2.5924      0.0212      3.4883    116.5095
  1081.9000      7.9617      2.5637      0.0503      5.2276    110.8235
  1082.0000      7.9601      2.5329     -0.0059      7.0944    108.8692
  1082.1000      7.9601      2.5193     -0.0153      7.9212    107.0077
  1082.2000      7.9601      2.5233      0.0166      7.6787    103.0654
  1082.3000      7.9594      2.5313      0.0257      7.1941     98.7779
  1082.4000      7.9594      2.5337      0.0271      7.0501     96.0752
  1082.5000      7.9578      2.5322      0.0005      7.1369     95.7946
  1082.6000      7.9578      2.5358      0.0173      6.9225     96.6309
  1082.7000      7.9578      2.5467      0.0070      6.2630     96.8221
  1082.8000      7.9513      2.5631      0.0495      5.2680     97.5318
  1082.9000      7.9513      2.5869      0.0460      3.8250     99.5235
  1083.0000      7.9429      2.6105      0.1250      2.3940    100.4686
  1083.1000      7.9429      2.6169      0.1033      2.0036     99.4656
  1083.2000      7.9429      2.6102      0.0796      2.4146     98.2542
  1083.3000      7.9380      2.6010      0.1128      2.9688     99.1041
  1083.4000      7.9380      2.5846      0.0694      3.9632    100.3147
  1083.5000      7.9365      2.5652      0.0382      5.1364     98.6643
  1083.6000      7.9365      2.5593      0.0318      5.4963     96.7057
  1083.7000      7.9365      2.5717      0.0349      4.7453     98.0130
  1083.8000      7.9358      2.5868      0.0650      3.8320    100.8015
  1083.9000      7.9358      2.5836      0.0760      4.0219    103.3143
  1084.0000      7.9348      2.5683     -0.0185      4.9536    106.4273
  1084.1000      7.9348      2.5637     -0.0028      5.2300    107.5481
  1084.2000      7.9348      2.5730      0.0225      4.6653    104.9261
  1084.3000      7.9309      2.5864      0.0249      3.8536    102.5294
  1084.4000      7.9309      2.5953      0.0802      3.3167    104.0609
  1084.5000      7.9167      2.5951      0.0588      3.3293    108.7226
  1084.6000      7.9167      2.5933      0.0285      3.4356    112.9902
  1084.7000      7.9167      2.5995      0.0226      3.0584    113.7413
  1084.8000      7.8920      2.6161      0.0827      2.0554    110.7830
  1084.9000      7.8920      2.6400      0.0468      0.6074    104.7984
  1085.0000      7.8688      2.6574      0.1049     -0.4466     96.5592
  1085.1000      7.8688      2.6501      0.1007     -0.0056     91.9051
  1085.2000      7.8688      2.6220      0.0418      1.6994     93.7866
  1085.3000      7.8592      2.6001     -0.0282      3.0266     97.0424
  1085.4000      7.8592      2.6079     -0.0244      2.5517     96.8895
  1085.5000      7.8832      2.6512     -0.0133     -0.0714     96.4816
  1085.6000      7.8832      2.7039      0.0856     -3.2645     98.2686
  1085.7000      7.8832      2.7280      0.0726     -4.7247     98.1036
  1085.8000      7.9362      2.7258     -0.0106     -4.5963     95.9483
  1085.9000      7.9362      2.7185      0.0198     -4.1503     96.0142
  1086.0000      7.9736      2.7073      0.0124     -3.4728     97.8094
  1086.1000      7.9736      2.6923      0.0316     -2.5607     99.3398
  1086.2000      7.9736      2.6771      0.0520     -1.6447    100.9980
  1086.3000      7.9798      2.6613      0.0417     -0.6859    101.2514
  1086.4000      7.9798      2.6394      0.0778      0.6398     99.5279
  1086.5000      7.9758      2.6120      0.0006      2.3045     98.4237
  1086.6000      7.9758      2.5975     -0.0163      3.1839     99.8317
  1086.7000      7.9758      2.6023      0.0422      2.8908    104.1341
  1086.8000      7.9785      2.6132      0.0465      2.2318    109.2572
  1086.9000      7.9785      2.6233      0.0496      1.6156    112.4485
  1087.0000      7.9855      2.6259      0.0574      1.4600    114.6321
  1087.1000      7.9855      2.6099      0.0477      2.4296    115.9784
  1087.2000      7.9855      2.5859      0.0007      3.8853    114.6732
  1087.3000      7.9881      2.5807      0.0145      4.1972    112.3751
  1087.4000      7.9881      2.6014      0.0359      2.9444    112.6078
  1087.5000      7.9879      2.6294      0.0561      1.2456    114.1801
  1087.6000      7.9879      2.6479      0.0520      0.1253    115.1097
  1087.7000      7.9879      2.6520      0.0671     -0.1203    115.5060
  1087.8000      7.9895      2.6388      0.0674      0.6792    116.7119
  1087.9000      7.9895      2.6130      0.0542      2.2426    118.5497
  1088.0000      7.9920      2.5899      0.0401      3.6417    119.3104
  1088.1000      7.9920      2.5783      0.0176      4.3471    119.2711
  1088.2000      7.9920      2.5734      0.0759      4.6454    119.0196
  1088.3000      7.9937      2.5743      0.0452      4.5896    116.6606
  1088.4000      7.9937      2.5898      0.0337      3.6479    114.0425
  1088.5000      7.9947      2.6120      0.0767      2.3053    114.8092
  1088.6000      7.9947      2.6214      0.0750      1.7354    114.3156
  1088.7000      7.9947      2.6189      0.0644      1.8875    109.8693
  1088.8000      7.9928      2.6145      0.0785      2.1512    106.0326
  1088.9000      7.9928      2.6090      0.0521      2.4833    103.8357
  1089.0000      7.9856      2.5984      0.0686      3.1277    102.3909
  1089.1000      7.9856      2.5816      0.0427      4.1438    103.1994
  1089.2000      7.9856      2.5658      0.0134      5.1044    106.0473
  1089.3000      7.9783      2.5588      0.0478      5.5290    108.8736
