~Version Information
VERS.                      2.0: CWLS Log ASCII Standard - VERSION 2.0
WRAP.                       NO: One line per depth step
~Well Information Block
STRT.FT                31.2500: 
STOP.FT               700.7500: 
STEP.FT                 0.2500: 
NULL.                -999.2500: 
COMP.          XTO Energy Inc.: COMPANY
WELL.          Golden Eagle 20-14: WELL
FLD.           Purgatrorie River: FIELD
LOC.           587' FSL & 2478' FWL--: LOCATION
STAT.                       CO: State
CNTY.               Las Animas: COUNTY
CTRY. USA : Country
SECT. 20 : Section
TOWN. 33S : Township
RANG. 67W : Range
SRVC.          Patterson Wireline: SERVICE COMPANY
DATE.          Sat Dec 10 15:54:00 2005: LOG DATE
API.           05 071 08614 00: UNIQUE WELL ID
~Curve Information Block
DEPT.FT            0 000 00 00: Depth
CCL.                          : Casing Collar Locator
TT3.usec                      : CBL 3' Travel Time
AMP3.mV                       : CBL 3' Amplitude
GR.GAPI                       : Gamma Ray
~Parameter Information Block
~A  Depth       CCL         TT3         AMP3         GR     
# ...
   567.2500      0.0000    684.8900      4.4589    113.4855
   567.5000      0.0000    684.9344      4.4221    114.9148
   567.7500      0.0000    684.9437      4.3623    115.4904
   568.0000      0.0000    684.9011      4.2786    115.8661
   568.2500      0.0000    684.8008      4.1923    116.2445
   568.5000      0.0000    684.6537      4.1427    115.2695
   568.7500      0.0000    684.4828      4.1678    111.0913
   569.0000      0.0000    684.3149      4.2809    103.7204
   569.2500      0.0000    684.1740      4.4605     95.3337
   569.5000      0.0000    684.0807      4.6599     87.9406
   569.7500      0.0000    684.0538      4.8306     81.8365
   570.0000      0.0000    684.1063      4.9427     76.9492
   570.2500      0.0000    684.2307      4.9907     74.4179
   570.5000      0.0000    684.3896      4.9841     75.4760
   570.7500      0.0000    684.5294      4.9370     79.1680
   571.0000      0.0000    684.6105      4.8664     82.4904
   571.2500      0.0000    684.6301      4.7942     83.0378
   571.5000      0.0000    684.6154      4.7441     80.8818
   571.7500      0.0000    684.5989      4.7317     77.8590
   572.0000      0.0000    684.5992      4.7540     75.6386
   572.2500      0.0000    684.6210      4.7866     74.7724
   572.5000      0.0000    684.6674      4.7945     75.1804
   572.7500      0.0000    684.7467      4.7554     76.8108
   573.0000      0.0000    684.8621      4.6745     79.3838
   573.2500      0.0000    684.9957      4.5772     81.8325
   573.5000      0.0000    685.1091      4.4896     82.7120
   573.7500      0.0000    685.1666      4.4286     81.5328
   574.0000      0.0000    685.1605      4.4051     79.4234
   574.2500      0.0000    685.1140      4.4259     78.0772
   574.5000      0.0000    685.0621      4.4843     78.0740
   574.7500      0.0000    685.0297      4.5544     78.4846
   575.0000      0.0000    685.0213      4.5982     78.1003
   575.2500      0.0000    685.0321      4.5871     76.7554
   575.5000      0.0000    685.0661      4.5188     75.3250
   575.7500      0.0000    685.1432      4.4184     74.6130
   576.0000      0.0000    685.2833      4.3210     74.4749
   576.2500      0.0000    685.4845      4.2523     74.0248
   576.5000      0.0000    685.7204      4.2189     72.5689
   576.7500      0.0000    685.9575      4.2125     70.2522
   577.0000      0.0000    686.1707      4.2205     67.8219
   577.2500      0.0000    686.3349      4.2376     65.9670
   577.5000      0.0000    686.4050      4.2695     65.0801
   577.7500      0.0000    686.2955      4.3262     65.3924
   578.0000      0.0000    685.8615      4.4079     66.7782
   578.2500      0.0000    684.8763      4.4950     68.3992
   578.5000      0.0000    683.1197      4.5567     69.0662
   578.7500      0.0000    680.7066      4.5742     68.3131
   579.0000      0.0000    678.4152      4.5556     66.9972
   579.2500      0.0000    677.3846      4.5254     66.6589
   579.5000      0.0000    678.1558      4.5012     68.2590
   579.7500      0.0000    680.1219      4.4898     71.6165
   580.0000      0.0000    682.1317      4.5031     76.2133
   580.2500      0.0000    683.4434      4.5686     82.2929
   580.5000      0.0000    683.9388      4.7150     90.4330
   580.7500      0.0000    683.6744      4.9410     99.8649
   581.0000      0.0000    682.5654      5.1971    108.1314
   581.2500      0.0000    680.5817      5.4105    113.1532
   581.5000      0.0000    678.0691      5.5400    115.4181
   581.7500      0.0000    675.5483      5.6082    117.3946
   582.0000      0.0000    673.1850      5.6699    120.5604
   582.2500      0.0000    670.8648      5.7537    123.6106
   582.5000      0.0000    668.9072      5.8432    124.1085
   582.7500      0.0000    668.1816      5.9102    121.4289
   583.0000      0.0000    669.2953      5.9445    117.4993
   583.2500      0.0000    671.9523      5.9538    115.0087
   583.5000      0.0000    675.0583      5.9492    115.3114
   583.7500      0.0000    677.2607      5.9385    117.6624
   584.0000      0.0000    677.7140      5.9221    119.9595
   584.2500      0.0000    676.6619      5.8889    120.2204
   584.5000      0.0000    675.1707      5.8195    117.6999
   584.7500      0.0000    674.2197      5.6982    113.0819
   585.0000      0.0000    674.2466      5.5256    107.8840
   585.2500      0.0000    675.3705      5.3209    103.4834
   585.5000      0.0000    677.4642      5.1130    100.4641
   585.7500      0.0000    679.9666      4.9267     98.6949
   586.0000      0.0000    682.1167      4.7715     97.7481
   586.2500      0.0000    683.4705      4.6403     97.0940
   586.5000      0.0000    683.9927      4.5175     96.1062
   586.7500      0.0000    683.7036      4.3966     94.1253
   587.0000      0.0000    682.4720      4.2939     90.7572
   587.2500      0.0000    680.2746      4.2438     86.2958
   587.5000      0.0000    677.5487      4.2705     81.8482
   587.7500      0.0000    675.0655      4.3607     79.0162
   588.0000      0.0000    673.4287      4.4670     79.2467
   588.2500      0.0000    672.9091      4.5448     82.9120
   588.5000      0.0000    673.6247      4.5820     88.7699
   588.7500      0.0000    675.3351      4.5934     94.6279
   589.0000      0.0000    677.1647      4.5923     98.7326
   589.2500      0.0000    678.2372      4.5736    100.6221
   589.5000      0.0000    678.7053      4.5278    101.0766
   589.7500      0.0000    679.6205      4.4759    101.4756
   590.0000      0.9824    681.6192      4.4839    102.8656
   590.2500      0.0000    684.1301      4.6244    105.4088
   590.5000      0.0000    686.0408      4.9166    108.8218
   590.7500      0.0000    686.7775      5.2960    113.1025
   591.0000      0.0000    686.5460      5.6360    118.4070
   591.2500      0.0000    685.8616      5.8199    124.3828
   591.5000      0.0000    685.1294      5.8254    130.1215
   591.7500      0.0000    684.5580      5.7457    134.7727
   592.0000      0.0000    684.2162      5.7036    137.8440
   592.2500      0.0000    684.0869      5.7481    138.9005
   592.5000      0.0000    684.1100      5.8457    137.5355
   592.7500      0.0000    684.2192      5.9481    134.1127
   593.0000      0.0000    684.3650      6.0315    130.1838
   593.2500      0.0000    684.4988      6.0697    127.6151
   593.5000      0.0000    684.5477      6.0027    127.4875
   593.7500      0.0000    684.4386      5.7531    130.0529
   594.0000      0.0000    684.1711      5.2788    135.1288
   594.2500      0.0000    683.8446      4.6182    141.9372
   594.5000      0.0000    683.5880      3.8875    148.6638
   594.7500      0.0000    683.4678      3.2284    152.6833
   595.0000      0.0000    683.4653      2.7402    151.7462
   595.2500      0.0000    683.5197      2.4496    145.1527
   595.5000      0.0000    683.5724      2.3279    133.9532
   595.7500      0.0000    683.5749      2.3268    120.6087
   596.0000      0.0000    683.4752      2.3973    108.5590
   596.2500      0.0000    683.2210      2.4959    101.1377
   596.5000      0.0000    682.7909      2.5904     99.9243
   596.7500      0.0000    682.2371      2.6631    104.1447
   597.0000      0.0000    681.7012      2.7061    111.7697
   597.2500      0.0000    681.3566      2.7173    120.9011
   597.5000      0.0000    681.2947      2.7145    130.0100
   597.7500      0.0000    681.4650      2.7552    137.5314
   598.0000      0.0000    681.7283      2.9221    141.9866
   598.2500      0.0000    681.9630      3.2647    142.6849
   598.5000      0.0000    682.1220      3.7573    140.3135
   598.7500      0.0000    682.2191      4.3154    136.9300
   599.0000      0.0000    682.2798      4.8415    134.9721
   599.2500      0.0000    682.3022      5.2517    135.5669
   599.5000      0.0000    682.2551      5.4918    137.6510
   599.7500      0.0000    682.1140      5.5561    138.9963
   600.0000      0.0000    681.8942      5.4902    138.1692
   600.2500      0.0000    681.6490      5.3611    135.5103
   600.5000      0.0000    681.4465      5.2223    132.4269
