~Version Information
VERS.                      2.0: CWLS Log ASCII Standard - VERSION 2.0
WRAP.                       NO: One line per depth step
~Well Information Block
STRT.FT               -12.0000: 
STOP.FT              1266.5000: 
STEP.FT                 0.2500: 
NULL.                -999.2500: 
COMP.          Pioneer Natural Resources: COMPANY
WELL.          Hot Tomatoes 22-20: WELL
FLD.           Purgatorie River: FIELD
LOC.           2120' FNL & 2585' FWL: LOCATION
CNTY.               Las Animas: COUNTY
SRVC.                Patterson: SERVICE COMPANY
DATE.          Thu Mar 02 13:59:39 2006: LOG DATE
UWI.           05 071 08701 00: UNIQUE WELL ID
STAT.                       CO: STATE
~Curve Information Block
DEPT.FT            0 000 00 00: Depth
GR.GAPI                       : Gamma Ray
CCL.                          : Casing Collar Locator
TT3.usec                      : CBL 3' Travel Time
AMP3.mV                       : CBL 3' Amplitude
~Parameter Information Block
~A  Depth        GR         CCL         TT3         AMP3    
# ...
   892.5000    156.1900      0.0000    760.5245      4.3875
   892.7500    163.2416      0.0000    735.5605      4.6256
   893.0000    169.4723      0.0000    709.1942      5.1930
   893.2500    172.7811      0.0000    685.0345      5.9861
   893.5000    172.6045      0.0000    667.2232      6.8269
   893.7500    170.1917      0.0000    659.7635      7.5240
   894.0000    167.4004      0.0000    663.4734      7.9502
   894.2500    165.4607      0.0000    674.0670      8.0794
   894.5000    164.6845      0.0000    685.0728      7.9467
   894.7500    164.7156      0.0000    692.4442      7.5938
   895.0000    164.7316      0.0000    695.8519      7.0712
   895.2500    163.6912      0.0000    696.7824      6.4772
   895.5000    160.7937      0.0000    696.6601      5.9528
   895.7500    155.9044      0.0000    696.2949      5.6138
   896.0000    149.6061      0.0000    696.0308      5.4942
   896.2500    142.8106      0.0000    695.9327      5.5666
   896.5000    136.3238      0.0000    695.9870      5.7980
   896.7500    130.7882      0.0000    696.2962      6.1606
   897.0000    126.7176      0.0000    697.1914      6.5958
   897.2500    124.0474      0.0000    699.0300      7.0012
   897.5000    121.9654      0.0000    701.6954      7.2673
   897.7500    120.0863      0.0000    704.2430      7.3192
   898.0000    119.7435      0.0000    705.3223      7.1342
   898.2500    123.1135      0.0000    704.2009      6.7373
   898.5000    130.8355      0.0000    701.1434      6.1926
   898.7500    141.1564      0.0000    696.4265      5.6017
   899.0000    151.5050      0.0000    689.2065      5.0983
   899.2500    160.2239      0.0000    678.0346      4.8026
   899.5000    166.6909      0.0000    663.0277      4.7490
   899.7500    170.6473      0.0000    647.4615      4.8644
   900.0000    172.1456      0.0000    636.8269      5.0378
   900.2500    171.9956      0.0000    635.9027      5.2022
   900.5000    171.5561      0.0000    645.8809      5.3537
   900.7500    171.5853      0.0000    663.1010      5.5267
   901.0000    171.3390      0.0000    680.4293      5.7548
   901.2500    169.0845      0.0000    691.3330      6.0221
   901.5000    163.8006      0.0000    693.4684      6.2500
   901.7500    156.4129      0.0000    688.4734      6.3448
   902.0000    149.2167      0.0000    679.5668      6.2396
   902.2500    144.1243      0.0000    670.6196      5.8885
   902.5000    141.5819      0.0000    665.9445      5.2808
   902.7500    140.8119      0.0000    667.6805      4.5162
   903.0000    140.5698      0.0000    672.5435      3.8274
   903.2500    139.5708      0.0000    672.1630      3.4697
   903.5000    136.7173      0.0000    656.8380      3.5816
   903.7500    131.6421      0.0000    620.2054      4.1510
   904.0000    125.4201      0.0000    564.2383      5.0595
   904.2500    120.5087      0.0000    501.8919      6.1198
   904.5000    119.3672      0.0000    452.9436      7.0958
   904.7500    122.7619      0.0000    434.5974      7.7423
   905.0000    129.2948      0.0000    453.4777      7.8767
   905.2500    136.3806      0.0000    502.3281      7.4782
   905.5000    141.7521      0.0000    561.7933      6.7522
   905.7500    144.5126      0.0000    608.9894      6.0543
   906.0000    145.1344      0.0000    629.9521      5.6795
   906.2500    144.6463      0.0000    626.8218      5.6932
   906.5000    143.9746      0.0000    614.2711      5.9615
   906.7500    143.8357      0.0000    608.7141      6.3149
   907.0000    144.7013      0.0000    618.0145      6.6619
   907.2500    146.5419      0.0000    638.2061      6.9825
   907.5000    148.7295      0.0000    658.9357      7.2736
   907.7500    150.2578      0.0000    672.1573      7.5279
   908.0000    150.2007      0.0000    676.3540      7.7512
   908.2500    148.3533      0.0000    674.2465      7.9728
   908.5000    145.5886      0.0000    668.4929      8.2189
   908.7500    143.3089      0.0000    659.7939      8.4738
   909.0000    142.3469      0.0000    647.6034      8.6714
   909.2500    142.3822      0.0000    630.9174      8.7323
   909.5000    142.2566      0.0000    607.8539      8.6249
   909.7500    140.7457      0.0000    575.9626      8.4024
   910.0000    137.3850      0.0000    535.0157      8.1743
   910.2500    132.9730      0.0000    489.6412      8.0371
   910.5000    129.0718      0.0000    447.5722      8.0295
   910.7500    126.6676      0.0000    414.8258      8.1364
   911.0000    125.3726      0.0000    393.0958      8.3093
   911.2500    124.0035      0.0000    380.7677      8.4869
   911.5000    121.8164      0.0000    374.7194      8.6216
   911.7500    119.1810      0.0000    371.5826      8.6990
   912.0000    117.2813      0.0000    369.1400      8.7254
   912.2500    117.0785      0.0000    367.3212      8.7014
   912.5000    118.3471      0.0000    367.8109      8.6221
   912.7500    119.7769      0.0000    372.9380      8.5037
   913.0000    120.1076      0.0000    385.2995      8.3904
   913.2500    118.9847      0.0000    407.9234      8.3243
   913.5000    116.8035      0.0000    442.9868      8.3127
   913.7500    114.0941      0.0000    487.9967      8.3298
   914.0000    111.1410      0.0000    532.4758      8.3467
   914.2500    108.0800      0.0000    560.6338      8.3623
   914.5000    105.2785      0.0000    560.5671      8.4028
   914.7500    103.2759      0.0000    532.8347      8.4948
   915.0000    101.9349      0.0000    490.6369      8.6419
   915.2500    100.0338      0.0000    451.4087      8.8307
   915.5000     96.5068      0.0000    427.5556      9.0408
   915.7500     91.9883      0.0000    423.5307      9.2337
   916.0000     88.3799      0.0000    438.1566      9.3464
   916.2500     86.8807      0.0000    466.4026      9.3355
   916.5000     87.0068      0.0000    499.7023      9.2343
   916.7500     87.4319      0.0000    528.4870      9.1438
   917.0000     87.2062      0.0000    546.7354      9.1493
   917.2500     86.0602      0.0000    553.3975      9.2580
   917.5000     84.0417      0.0000    549.2141      9.4184
   917.7500     81.3787      0.0000    534.0932      9.5805
   918.0000     78.6897      0.0000    509.4032      9.7165
   918.2500     76.7961      0.0000    482.2648      9.7853
   918.5000     76.0272      0.0000    464.7690      9.7053
   918.7500     76.0397      0.0000    466.1087      9.3991
   919.0000     76.5880      0.0000    484.2623      8.8849
   919.2500     78.1386      0.0000    505.6424      8.3018
   919.5000     81.2533      0.0000    513.9626      7.8171
   919.7500     85.4207      0.0000    501.4158      7.5108
   920.0000     88.9728      0.0000    473.2950      7.3520
   920.2500     90.4696      0.0000    442.7032      7.2660
   920.5000     90.0205      0.0000    421.0922      7.2042
   920.7500     88.9712      0.0000    413.5637      7.1569
   921.0000     88.3660      0.0000    420.6039      7.1262
   921.2500     87.9598      0.0000    440.0844      7.1062
   921.5000     86.7827      0.0000    466.0165      7.0979
   921.7500     84.4173      0.0000    489.0274      7.1291
   922.0000     81.3430      0.0000    503.1870      7.2317
   922.2500     78.1013      0.0000    512.5242      7.3912
   922.5000     74.7405      0.0000    526.8282      7.5348
   922.7500     71.3793      0.0000    550.3822      7.5849
   923.0000     68.7905      0.0000    577.9020      7.5184
   923.2500     67.8564      0.0000    601.3080      7.3728
   923.5000     68.5395      0.0000    616.9810      7.2087
   923.7500     69.8166      0.0000    626.1843      7.0768
   924.0000     70.6334      0.0000    631.2808      7.0111
   924.2500     70.5698      0.0000    632.4526      7.0332
   924.5000     69.6569      0.0000    626.6837      7.1483
   924.7500     68.0970      0.0000    609.3141      7.3378
   925.0000     66.3997      0.0000    577.5088      7.5666
   925.2500     65.4117      0.0000    533.7535      7.8011
   925.5000     65.8972      0.0000    486.5742      8.0138
   925.7500     68.0571      0.0000    446.8319      8.1713
