~Version Information
VERS.                      2.0: CWLS Log ASCII Standard - VERSION 2.0
WRAP.                       NO: One line per depth step
~Well Information Block
STRT.FT                 0.0000: 
STOP.FT              1871.2500: 
STEP.FT                 0.2500: 
NULL.                -999.2500: 
COMP.          Petrogulf Corporation: COMPANY
WELL.             Norton 9-14R: WELL
FLD.           Purgatorie River: FIELD
LOC.           725' FSL & 1103' FWL: LOCATION
STAT.                 Colorado: State
CNTY.               Las Animas: COUNTY
CTRY. USA : Country
SECT. 9 : Section
TOWN. 33S : Township
RANG. 67W : Range
SRVC.                Patterson: SERVICE COMPANY
DATE.          Thu Nov 10 13:05:53 2005: LOG DATE
API. 05-071-08444                         : UNIQUE WELL ID
~Curve Information Block
DEPT.FT            0 000 00 00: Depth
CCL.                          : Casing Collar Locator
TT3.usec                      : CBL 3' Travel Time
AMP3.mV                       : CBL 3' Amplitude
GR.GAPI                       : Gamma Ray
~Parameter Information Block
~A  Depth       CCL         TT3         AMP3         GR     
# ...
   737.0000      0.0000    556.2221      6.3607     94.3319
   737.2500      0.0000    581.2608      6.4461     94.2057
   737.5000      0.0000    592.3102      6.5952     94.5568
   737.7500      0.0000    598.7475      6.7309     94.7388
   738.0000      0.0000    604.1364      6.6940     94.3545
   738.2500      0.0000    611.7103      6.4628     93.4880
   738.5000      0.0000    627.0167      6.2195     92.4028
   738.7500      0.0000    650.4470      6.1018     91.0435
   739.0000      0.0000    673.4834      6.1220     88.9802
   739.2500      0.0000    686.7635      6.2745     86.0258
   739.5000      0.0000    691.1426      6.4786     82.8225
   739.7500      2.0000    697.8148      6.6256     80.5900
   740.0000     -2.0000    709.4474      6.6961     80.2996
   740.2500      0.0000    709.3272      6.6719     82.1730
   740.5000      0.0000    686.5920      6.4951     85.6011
   740.7500      0.0000    653.3345      6.2421     89.2199
   741.0000      0.0000    616.2502      6.2211     91.5092
   741.2500      0.0000    562.1021      6.6402     91.8646
   741.5000      0.0000    490.4572      7.2276     91.0275
   741.7500      0.0000    428.3788      7.5676     90.2223
   742.0000      0.0000    395.6049      7.6344     89.9355
   742.2500      0.0000    384.3661      7.6359     89.5137
   742.5000      0.0000    380.0371      7.6672     87.7541
   742.7500      0.0000    378.7702      7.7095     83.9656
   743.0000      0.0000    382.6941      7.7309     78.7701
   743.2500      0.0000    390.8509      7.7138     73.8362
   743.5000      0.0000    399.6864      7.6564     70.5741
   743.7500      0.0000    408.3247      7.5749     69.1673
   744.0000      0.0000    418.3309      7.4907     69.0786
   744.2500      0.0000    429.0907      7.4091     70.2080
   744.5000      0.0000    437.5496      7.3254     73.0691
   744.7500      0.0000    442.2553      7.2392     77.9982
   745.0000      0.0000    444.9653      7.1419     84.5623
   745.2500      0.0000    450.1684      7.0171     91.5583
   745.5000      0.0000    464.8729      6.8790     97.4780
   745.7500      0.0000    493.5298      6.7773    101.4043
   746.0000      0.0000    529.3290      6.7490    103.6086
   746.2500      0.0000    557.9730      6.7818    104.9622
   746.5000      0.0000    572.9105      6.8304    105.8544
   746.7500      0.0000    579.3641      6.8464    106.0311
   747.0000      0.0000    586.9766      6.7909    105.2289
   747.2500      0.0000    605.4372      6.6562    103.4987
   747.5000      0.0000    639.0804      6.4878    101.1787
   747.7500      0.0000    678.9067      6.3513     99.0584
   748.0000      0.0000    709.6174      6.2860     98.2890
   748.2500      0.0000    725.9485      6.3045     99.3638
   748.5000      0.0000    730.5590      6.3965    101.1046
   748.7500      0.0000    723.7169      6.5262    101.3045
   749.0000      0.0000    707.5695      6.6547     98.5808
   749.2500      0.0000    690.8018      6.7608     93.3444
   749.5000      0.0000    678.5281      6.8330     87.0148
   749.7500      0.0000    667.0308      6.8622     80.6053
   750.0000      0.0000    652.9069      6.8529     74.1867
   750.2500      0.0000    635.0505      6.8220     67.6386
   750.5000      0.0000    612.5862      6.7851     61.6622
   750.7500      0.0000    591.9049      6.7568     57.7056
   751.0000      0.0000    584.8813      6.7515     56.7737
   751.2500      0.0000    593.4902      6.7779     58.5122
   751.5000      0.0000    606.8179      6.8292     61.6571
   751.7500      0.0000    615.4659      6.8787     65.3415
   752.0000      0.0000    619.0120      6.9047     69.7300
   752.2500      0.0000    620.6995      6.9094     75.1778
   752.5000      0.0000    623.2047      6.8945     80.9916
   752.7500      0.0000    629.0175      6.8520     85.5935
   753.0000      0.0000    639.6545      6.7805     87.9233
   753.2500      0.0000    652.7377      6.6789     88.2039
   753.5000      0.0000    663.1613      6.5394     87.3824
   753.7500      0.0000    668.4907      6.3755     86.3791
   754.0000      0.0000    670.2326      6.2324     85.8293
   754.2500      0.0000    670.5796      6.1503     85.8952
   754.5000      0.0000    670.5927      6.1400     86.0942
   754.7500      0.0000    670.5736      6.1900     85.6310
   755.0000      0.0000    670.6672      6.2789     84.0707
   755.2500      0.0000    671.2630      6.3816     81.6053
   755.5000      0.0000    673.2680      6.4736     78.6206
   755.7500      0.0000    677.6266      6.5453     75.1588
   756.0000      0.0000    682.8453      6.6103     71.2035
   756.2500      0.0000    683.4078      6.6745     67.5895
   756.5000      0.0000    677.1013      6.7144     65.9905
   756.7500      0.0000    672.6776      6.7042     67.5384
   757.0000      0.0000    677.3757      6.6430     71.7182
   757.2500      0.0000    683.8374      6.5545     76.8343
   757.5000      0.0000    683.6266      6.4738     81.1670
   757.7500      0.0000    680.0993      6.4248     83.5314
   758.0000      0.0000    680.7201      6.4010     83.3110
   758.2500      0.0000    688.1989      6.3833     80.6642
   758.5000      0.0000    699.9504      6.3716     76.6837
   758.7500      0.0000    711.5797      6.3811     72.8110
   759.0000      0.0000    720.0563      6.4145     69.9140
   759.2500      0.0000    723.4429      6.4555     68.1696
   759.5000      0.0000    720.6843      6.4864     67.6468
   759.7500      0.0000    712.1317      6.4996     68.4819
   760.0000      0.0000    698.1064      6.5102     70.4723
   760.2500      0.0000    679.5690      6.5605     72.8909
   760.5000      0.0000    661.0897      6.6582     74.8574
   760.7500      0.0000    649.4084      6.7460     75.8413
   761.0000      0.0000    646.4077      6.7955     75.8810
   761.2500      0.0000    646.9686      6.8454     75.4504
   761.5000      0.0000    646.5270      6.9121     75.0135
   761.7500      0.0000    644.8431      6.9779     74.5336
   762.0000      0.0000    641.8267      7.0501     73.5518
   762.2500      0.0000    634.8967      7.1398     71.9309
   762.5000      0.0000    621.5294      7.2338     70.3687
   762.7500      0.0000    604.3545      7.3251     69.9773
   763.0000      0.0000    590.5368      7.4110     71.3860
   763.2500      0.0000    580.0532      7.4651     74.1264
   763.5000      0.0000    557.6684      7.4590     76.7574
   763.7500      0.0000    508.9993      7.4088     77.8624
   764.0000      0.0000    443.9741      7.3646     77.2725
   764.2500      0.0000    388.9387      7.3522     76.1984
   764.5000      0.0000    357.8712      7.3576     75.9004
   764.7500      0.0000    344.8862      7.3647     76.3113
   765.0000      0.0000    338.6379      7.3741     76.1882
   765.2500      0.0000    333.7196      7.3913     74.6216
   765.5000      0.0000    331.3112      7.4221     72.1990
   765.7500      0.0000    333.1772      7.4623     70.5815
   766.0000      0.0000    337.6850      7.4805     71.0232
   766.2500      0.0000    343.6448      7.4287     73.3721
   766.5000      0.0000    354.8121      7.3018     76.4247
   766.7500      0.0000    377.5267      7.1525     78.9923
   767.0000      0.0000    411.4880      7.0142     80.5156
   767.2500      0.0000    441.8578      6.8812     80.9558
   767.5000      0.0000    449.2909      6.7577     80.5776
   767.7500      0.0000    432.6692      6.6566     79.9753
   768.0000      0.0000    409.8313      6.5913     80.0012
   768.2500      0.0000    394.1140      6.5768     81.1733
   768.5000      0.0000    383.9227      6.6118     82.9078
   768.7500      0.0000    373.1179      6.6772     83.4651
   769.0000      0.0000    360.8236      6.7422     81.0801
   769.2500      0.0000    350.4906      6.7622     75.5647
   769.5000      0.0000    343.6171      6.7131     68.7915
   769.7500      0.0000    337.6381      6.6269     63.3987
   770.0000      0.0000    329.6573      6.5543     60.9016
   770.2500      0.0000    320.3537      6.5186     60.9509
