~Version Information
VERS.                      2.0: CWLS Log ASCII Standard - VERSION 2.0
WRAP.                       NO: One line per depth step
~Well Information Block
STRT.FT               400.0000: 
STOP.FT              1577.5000: 
STEP.FT                 0.1000: 
NULL.                -999.2500: 
COMP.          Pioneer Natural Resources: COMPANY
WELL.          Lorencito 10-36-33-67: WELL
FLD.           Purgatoire River: FIELD
LOC.           2130' FSL & 2362' FEL: LOCATION
STAT.                 Colorado: State
CNTY.               Las Animas: COUNTY
CTRY. USA : Country
SECT. 36 : Section
TOWN. 33S : Township
RANG. 67W : Range
SRVC.                Patterson: SERVICE COMPANY
DATE.          Mon Aug 29 07:03:31 2005: LOG DATE
API.           05 071 08501 00: UNIQUE WELL ID
~Curve Information Block
DEPT.FT            0 000 00 00: Depth
DCAL.in                       : CDL Caliper
RHOB.g/cc                     : CDL Bulk Density
RHOC.g/cc                     : CDL Density Correction
DPOR.pu                       : CDL Density Porosity
GR.GAPI                       : Gamma Ray
NPOR.pu                       : Neutron Porosity
~Parameter Information Block
~A  Depth       DCAL        RHOB        RHOC        DPOR         GR         NPOR    
# ...
  1561.6000      7.8972      2.5274      0.0907      7.4327   -999.2500     22.9844
  1561.7000      7.8972      2.5585      0.1194      5.5484   -999.2500     22.9300
  1561.8000      7.9176      2.5919      0.1662      3.5201   -999.2500     22.4393
  1561.9000      7.9176      2.6091      0.1995      2.4777   -999.2500     22.0072
  1562.0000      7.8937      2.6024      0.1234      2.8853   -999.2500     22.0608
  1562.1000      7.8937      2.5926      0.1078      3.4786   -999.2500     22.2556
  1562.2000      7.8937      2.5970      0.1424      3.2142   -999.2500     21.9959
  1562.3000      7.8940      2.6123      0.1088      2.2826   -999.2500     21.4148
  1562.4000      7.8940      2.6307      0.1229      1.1723   -999.2500     20.5556
  1562.5000      7.8734      2.6396      0.0936      0.6285   -999.2500     19.3345
  1562.6000      7.8734      2.6309      0.0997      1.1563   -999.2500     19.9130
  1562.7000      7.8734      2.6075      0.0942      2.5750   -999.2500     26.2720
  1562.8000      7.9231      2.5779      0.0724      4.3690   -999.2500     38.0878
  1562.9000      7.9231      2.5519      0.0168      5.9429   -999.2500     47.0965
  1563.0000      7.9459      2.5373      0.0197      6.8298   -999.2500     50.3714
  1563.1000      7.9459      2.5357      0.0174      6.9266   -999.2500     51.0135
  1563.2000      7.9459      2.5430      0.0173      6.4824   -999.2500     51.0817
  1563.3000      7.9584      2.5517      0.0254      5.9602   -999.2500     51.0856
  1563.4000      7.9584      2.5536      0.0306      5.8423   -999.2500   -999.2500
  1563.5000      7.9379      2.5479      0.0805      6.1909   -999.2500   -999.2500
  1563.6000      7.9379      2.5431      0.0308      6.4792   -999.2500   -999.2500
  1563.7000      7.9379      2.5431      0.0735      6.4768   -999.2500   -999.2500
  1563.8000      7.9086      2.5359      0.0382      6.9170   -999.2500   -999.2500
  1563.9000      7.9086      2.5153     -0.0337      8.1617   -999.2500   -999.2500
  1564.0000      7.9012      2.4938      0.0215      9.4637   -999.2500   -999.2500
  1564.1000      7.9012      2.4891     -0.0016      9.7504   -999.2500   -999.2500
  1564.2000      7.9012      2.5098      0.0514      8.4989   -999.2500   -999.2500
  1564.3000      7.9016      2.5461      0.0769      6.2948   -999.2500   -999.2500
  1564.4000      7.9016      2.5768      0.1312      4.4363   -999.2500   -999.2500
  1564.5000      7.9063      2.5844      0.1787      3.9743   -999.2500   -999.2500
  1564.6000      7.9063      2.5753      0.0791      4.5280   -999.2500   -999.2500
  1564.7000      7.9063      2.5796      0.0741      4.2666   -999.2500   -999.2500
  1564.8000      7.8912      2.6050      0.1938      2.7270   -999.2500   -999.2500
  1564.9000      7.8912      2.6221      0.1822      1.6901   -999.2500   -999.2500
  1565.0000      7.8747      2.6124      0.1526      2.2797   -999.2500   -999.2500
  1565.1000      7.8747      2.5795      0.1159      4.2744   -999.2500   -999.2500
  1565.2000      7.8747      2.5388      0.0505      6.7388   -999.2500   -999.2500
  1565.3000      7.8769      2.5115      0.0432      8.3925   -999.2500   -999.2500
  1565.4000      7.8769      2.5024      0.0627      8.9465   -999.2500   -999.2500
  1565.5000      7.9362      2.4993      0.0940      9.1348   -999.2500   -999.2500
  1565.6000      7.9362      2.4926      0.0694      9.5379   -999.2500   -999.2500
  1565.7000      7.9362      2.4862      0.0699      9.9259   -999.2500   -999.2500
  1565.8000      7.9499      2.4883      0.0611      9.8020   -999.2500   -999.2500
  1565.9000      7.9499      2.4917      0.1169      9.5943   -999.2500   -999.2500
  1566.0000      7.9046      2.4835      0.1240     10.0928   -999.2500   -999.2500
  1566.1000      7.9046      2.4873     -0.0062      9.8586   -999.2500   -999.2500
  1566.2000      7.9046      2.5329      0.0827      7.0943   -999.2500   -999.2500
  1566.3000      7.8975      2.5825      0.1666      4.0888   -999.2500   -999.2500
  1566.4000      7.8975      2.5913      0.0992      3.5558   -999.2500   -999.2500
  1566.5000      7.9042      2.5822      0.0727      4.1083   -999.2500   -999.2500
  1566.6000      7.9042      2.5804      0.1380      4.2170   -999.2500   -999.2500
  1566.7000      7.9042      2.5700      0.1457      4.8496   -999.2500   -999.2500
  1566.8000      7.9387      2.5430      0.1017      6.4847   -999.2500   -999.2500
  1566.9000      7.9387      2.5123      0.1052      8.3444   -999.2500   -999.2500
  1567.0000      7.8980      2.4899      0.0549      9.7045   -999.2500   -999.2500
  1567.1000      7.8980      2.4896      0.0528      9.7236   -999.2500   -999.2500
  1567.2000      7.8980      2.5083      0.0959      8.5876   -999.2500   -999.2500
  1567.3000      7.8830      2.5171      0.1017      8.0534   -999.2500   -999.2500
  1567.4000      7.8830      2.5044      0.0460      8.8259   -999.2500   -999.2500
  1567.5000      7.9076      2.4914      0.0294      9.6108   -999.2500   -999.2500
  1567.6000      7.9076      2.4891      0.0914      9.7536   -999.2500   -999.2500
  1567.7000      7.9076      2.4742      0.0589     10.6561   -999.2500   -999.2500
  1567.8000      7.9264      2.4212      0.0956     13.8670   -999.2500   -999.2500
  1567.9000      7.9264      2.3383      0.0165     18.8934   -999.2500   -999.2500
  1568.0000      7.9354      2.2664      0.0073     23.2485   -999.2500   -999.2500
  1568.1000      7.9354      2.2301      0.0551     25.4465   -999.2500   -999.2500
  1568.2000      7.9354      2.2210      0.0346     26.0026   -999.2500   -999.2500
  1568.3000      7.8861      2.2342      0.0405     25.2023   -999.2500   -999.2500
  1568.4000      7.8861      2.2709      0.1161     22.9758   -999.2500   -999.2500
  1568.5000      7.8737      2.3199      0.2638     20.0077   -999.2500   -999.2500
  1568.6000      7.8737      2.3769      0.2808     16.5498   -999.2500   -999.2500
  1568.7000      7.8737      2.4443      0.3645     12.4660   -999.2500   -999.2500
  1568.8000      7.7927      2.4929      0.4146      9.5237   -999.2500   -999.2500
  1568.9000      7.7927      2.4936      0.2605      9.4787   -999.2500   -999.2500
  1569.0000      7.6848      2.4705      0.2055     10.8795   -999.2500   -999.2500
  1569.1000      7.6848      2.4607      0.1755     11.4746   -999.2500   -999.2500
  1569.2000      7.6848      2.4603      0.2380     11.4976   -999.2500   -999.2500
  1569.3000      7.6825      2.4480      0.2224     12.2430   -999.2500   -999.2500
  1569.4000      7.6825      2.4280      0.1847     13.4559   -999.2500   -999.2500
  1569.5000      7.7469      2.4213      0.1367     13.8589   -999.2500   -999.2500
  1569.6000      7.7469      2.4419      0.1552     12.6103   -999.2500   -999.2500
  1569.7000      7.7469      2.4837      0.1656     10.0798   -999.2500   -999.2500
  1569.8000      7.9294      2.5235      0.1428      7.6655   -999.2500   -999.2500
  1569.9000      7.9294      2.5453      0.1355      6.3440   -999.2500   -999.2500
  1570.0000      8.0635      2.5506      0.1632      6.0264   -999.2500   -999.2500
  1570.1000      8.0635      2.5483      0.1442      6.1612   -999.2500   -999.2500
  1570.2000      8.0635      2.5433      0.2106      6.4674   -999.2500   -999.2500
  1570.3000      8.4611      2.5307      0.1993      7.2292   -999.2500   -999.2500
  1570.4000      8.4611      2.5183      0.1217      7.9821   -999.2500   -999.2500
  1570.5000      8.4580      2.5201      0.1277      7.8724   -999.2500   -999.2500
  1570.6000      8.4580      2.5301      0.1184      7.2649   -999.2500   -999.2500
  1570.7000      8.4580      2.5411      0.0871      6.5993   -999.2500   -999.2500
  1570.8000      7.9717      2.5502      0.1005      6.0469   -999.2500   -999.2500
  1570.9000      7.9717      2.5501      0.0641      6.0538   -999.2500   -999.2500
  1571.0000      7.8582      2.5445      0.0717      6.3911   -999.2500   -999.2500
  1571.1000      7.8582      2.5394      0.1330      6.7014   -999.2500   -999.2500
