~Version Information
VERS.                      2.0: CWLS Log ASCII Standard - VERSION 2.0
WRAP.                       NO: One line per depth step
~Well Information Block
STRT.FT                10.0000: 
STOP.FT              1380.7500: 
STEP.FT                 0.2500: 
NULL.                -999.2500: 
COMP.          Pioneer Natural Resources: COMPANY
WELL.          Baa Baa 34-1 Tr: WELL
FLD.           Purgatoire River: FIELD
LOC.           785' FSL & 2304' FEL: LOCATION
CNTY.               Las Animas: COUNTY
SRVC.                Patterson: SERVICE COMPANY
DATE.          Tue Mar 07 13:08:19 2006: LOG DATE
UWI.           05 071 08710 00: UNIQUE WELL ID
STAT.                 Colorado: STATE
~Curve Information Block
DEPT.FT            0 000 00 00: Depth
GR.GAPI                       : Gamma Ray
CCL.                          : Casing Collar Locator
TT3.usec                      : CBL 3' Travel Time
AMP3.mV                       : CBL 3' Amplitude
~Parameter Information Block
~A  Depth        GR         CCL         TT3         AMP3    
# ...
   981.5000     71.6099      0.0000    805.0795     11.2047
   981.7500     75.1794      0.0000    804.8508     11.0793
   982.0000     80.6195      0.0000    804.5861     10.9818
   982.2500     87.4540      0.0000    804.3038     10.9141
   982.5000     94.3170      0.0000    804.0480     10.8680
   982.7500    100.1177      0.0000    803.8648     10.8238
   983.0000    104.8517      0.0000    803.7802     10.7632
   983.2500    108.9070      0.0000    803.7916     10.6818
   983.5000    112.0000      0.0000    803.8731     10.5850
   983.7500    113.3489      0.0000    803.9871     10.4724
   984.0000    112.7076      0.0000    804.0956     10.3314
   984.2500    110.7071      0.0000    804.1668     10.1507
   984.5000    108.1361      0.0000    804.1798      9.9423
   984.7500    105.2961      0.0000    804.1322      9.7536
   985.0000    102.2518      0.0000    804.0443      9.6534
   985.2500     99.2613      0.0000    803.9461      9.6909
   985.5000     96.3947      0.0000    803.8552      9.8590
   985.7500     92.7803      0.0000    803.7269     10.0965
   986.0000     86.8123      0.0000    803.3881     10.3240
   986.2500     77.5839      0.0000    802.5033     10.4767
   986.5000     66.0925      0.0000    800.7256     10.5136
   986.7500     54.7582      0.0000    798.1286     10.4173
   987.0000     45.7239      0.0000    795.5567     10.1975
   987.2500     39.7536      0.0000    794.2004      9.8971
   987.5000     36.5169      0.0000    794.4321      9.5910
   987.7500     35.3955      0.0000    795.2726      9.3698
   988.0000     35.9200      0.0000    795.4603      9.3055
   988.2500     37.8723      0.0000    794.9603      9.4200
   988.5000     41.3097      0.0000    794.9774      9.6889
   988.7500     46.3466      0.0000    796.4611     10.0770
   989.0000     52.6669      0.0000    799.0010     10.5674
   989.2500     59.3495      0.0000    801.2897     11.1563
   989.5000     65.3676      0.0000    802.2303     11.8324
   989.7500     70.1168      0.0000    801.4724     12.5718
   990.0000     73.3742      0.0000    799.4625     13.3509
   990.2500     75.1562      0.0000    797.4041     14.1510
   990.5000     75.9466      0.0000    796.7570     14.9479
   990.7500     76.7656      0.0000    798.1593     15.7022
   991.0000     78.5916      0.0000    800.8625     16.3611
   991.2500     81.7076      0.0000    803.4895     16.8673
   991.5000     85.7162      0.0000    805.1924     17.1715
   991.7500     89.9490      0.0000    805.9688     17.2539
   992.0000     93.7223      0.0000    806.1933     17.1432
   992.2500     96.6243      0.0000    806.1354     16.9140
   992.5000     99.0010      0.0000    805.7869     16.6544
   992.7500    101.7824      0.0000    804.8699     16.4287
   993.0000    105.3624      0.0000    803.0208     16.2649
   993.2500    108.9896      0.0000    800.2738     16.1768
   993.5000    111.7434      0.0000    797.5140     16.1888
   993.7500    113.7886      0.0000    796.1381     16.3311
   994.0000    116.0687      0.0000    796.8929     16.6113
   994.2500    118.8083      0.0000    799.1686     17.0031
   994.5000    120.9352      0.0000    801.6440     17.4703
   994.7500    121.2043      0.0000    803.4153     17.9946
   995.0000    119.4428      0.0000    804.3647     18.5730
   995.2500    116.5010      0.0000    804.7841     19.1858
   995.5000    113.4638      0.0000    804.9687     19.7748
   995.7500    111.1539      0.0000    805.0841     20.2635
   996.0000    110.1292      0.0000    805.1876     20.5988
   996.2500    110.8528      0.0000    805.2443     20.7717
   996.5000    113.5875      0.0000    805.0714     20.7958
   996.7500    117.7328      0.0000    804.1890     20.6801
   997.0000    121.3860      0.0000    801.8023     20.4285
   997.2500    122.1836      0.0000    797.2804     20.0629
   997.5000    119.0241      0.0000    791.1210     19.6346
   997.7500    112.8307      0.0000    785.4633     19.2072
   998.0000    105.4095      0.0000    783.0662     18.8293
   998.2500     97.8048      0.0000    785.2062     18.5224
   998.5000     90.1461      0.0000    790.5182     18.2930
   998.7500     82.8344      0.0000    795.7346     18.1488
   999.0000     77.0880      0.0000    796.8346     18.0986
   999.2500     74.0386      0.0000    788.8899     18.1391
   999.5000     73.6754      0.0000    766.1319     18.2475
   999.7500     74.8504      0.0000    726.3585     18.3899
  1000.0000     76.1486      0.0000    678.8280     18.5338
  1000.2500     76.7910      0.0000    645.0880     18.6512
  1000.5000     76.8877      0.0000    644.6758     18.7146
  1000.7500     76.8947      0.0000    677.2294     18.7013
  1001.0000     76.9839      0.0000    721.7246     18.6024
  1001.2500     76.9968      0.0000    752.9500     18.4245
  1001.5000     76.7604      0.0000    755.8754     18.1782
  1001.7500     76.2751      0.0000    728.3551     17.8692
  1002.0000     75.8070      0.0000    679.4811     17.4992
  1002.2500     75.7604      0.0000    627.2326     17.0698
  1002.5000     76.1210      0.0000    590.3237     16.5752
  1002.7500     76.1215      0.0000    577.1685     15.9806
  1003.0000     74.8645      0.0000    584.6547     15.2015
  1003.2500     72.2531      0.0000    607.7978     14.1233
  1003.5000     69.2263      0.0000    645.1384     12.6911
  1003.7500     67.2935      0.0000    693.3462     11.0079
  1004.0000     67.7584      0.0000    743.1015      9.3016
  1004.2500     70.8077      0.0000    784.1171      7.7581
  1004.5000     75.0630      0.0000    811.0546      6.4287
  1004.7500     78.2974      0.0000    823.3002      5.3192
  1005.0000     78.9418      0.0000    822.7330      4.4792
  1005.2500     77.1240      0.0000    813.8035      3.9491
  1005.5000     74.4485      0.0000    803.5762      3.6858
  1005.7500     72.8695      0.0000    798.5778      3.6017
  1006.0000     73.5842      3.0000    800.8542      3.6581
  1006.2500     76.6510      0.0000    807.7978      3.9301
  1006.5000     81.3212      0.0000    815.6164      4.6113
  1006.7500     86.4518      0.0000    822.0474      5.9117
  1007.0000     90.7984      0.0000    826.1672      7.8362
  1007.2500     93.6757      0.0000    827.2361     10.0530
  1007.5000     95.8389      0.0000    824.7288     12.0878
  1007.7500     99.1523      0.0000    819.1961     13.6783
  1008.0000    104.7772      0.0000    812.1906     14.8842
  1008.2500    111.9336      0.0000    805.0049     15.8725
  1008.5000    118.7850      0.0000    798.0598     16.6979
  1008.7500    124.1220      0.0000    791.8673     17.3034
  1009.0000    127.8440      0.0000    787.9203     17.6435
  1009.2500    130.2730      0.0000    787.7392     17.7457
  1009.5000    131.6207      0.0000    791.1155     17.6807
  1009.7500    132.0717      0.0000    795.9811     17.5134
  1010.0000    131.9770      0.0000    800.0958     17.2735
  1010.2500    131.7921      0.0000    802.4862     16.9541
  1010.5000    131.7714      0.0000    803.3870     16.5333
  1010.7500    131.6813      0.0000    803.3873     16.0098
  1011.0000    130.7398      0.0000    802.8243     15.4240
  1011.2500    127.8169      0.0000    801.6134     14.8471
  1011.5000    122.0108      0.0000    799.3550     14.3477
  1011.7500    113.2957      0.0000    795.6665     13.9544
  1012.0000    102.4933      0.0000    790.5626     13.6476
  1012.2500     90.6367      0.0000    784.5124     13.3892
  1012.5000     78.7434      0.0000    778.1697     13.1625
  1012.7500     68.2021      0.0000    772.2049     12.9795
  1013.0000     60.7287      0.0000    767.3333     12.8596
  1013.2500     57.2519      0.0000    764.1783     12.8163
  1013.5000     56.7990      0.0000    763.0657     12.8605
  1013.7500     56.9378      0.0000    764.0654     12.9987
  1014.0000     55.6411      0.0000    767.0986     13.2222
  1014.2500     52.7041      0.0000    771.8427     13.5025
  1014.5000     49.5276      0.0000    777.6485     13.7979
  1014.7500     47.9500      0.0000    783.6242     14.0642
