~Version Information
VERS.                      2.0: CWLS Log ASCII Standard - VERSION 2.0
WRAP.                       NO: One line per depth step
~Well Information Block
STRT.FT               196.3000: 
STOP.FT              1631.0000: 
STEP.FT                 0.1000: 
NULL.                -999.2500: 
COMP.          Petrogulf Corporation: COMPANY
WELL.             State 16-44R: WELL
FLD.           Purgatoire River: FIELD
LOC.           632' FSL & 223' FEL--: LOCATION
PROV.                 Colorado: PROVINCE
CNTY.               Las Animas: COUNTRY
SRVC.                Patterson: SERVICE COMPANY
DATE.          Fri Oct 21 14:20:18 2005: LOG DATE
UWI.           05 071 08457 00: UNIQUE WELL ID
~Curve Information Block
DEPT.FT            0 000 00 00: Depth
DCAL.in                       : CDL Caliper
RHOB.g/cc                     : CDL Bulk Density
RHOC.g/cc                     : CDL Density Correction
DPOR.pu                       : CDL Density Porosity
NPOR.pu                       : Neutron Porosity
GR.GAPI                       : Gamma Ray
~Parameter Information Block
~A  Depth       DCAL        RHOB        RHOC        DPOR        NPOR         GR     
# ...
  1492.3000      7.9533      2.5184      0.0562      7.9770     26.2519    118.9921
  1492.4000      7.9533      2.5280      0.0739      7.3934     26.4213    112.0977
  1492.5000      7.9540      2.5409      0.0646      6.6091     26.7551    104.3251
  1492.6000      7.9540      2.5504      0.0833      6.0381     26.9839    102.1746
  1492.7000      7.9540      2.5497      0.0624      6.0782     26.9751    103.5174
  1492.8000      7.9549      2.5368      0.0598      6.8576     26.9851    101.7008
  1492.9000      7.9549      2.5230      0.0182      7.6973     27.4358    101.3799
  1493.0000      7.9555      2.5198      0.0210      7.8915     28.2175    107.4668
  1493.1000      7.9555      2.5183      0.0349      7.9825     28.8520    114.2491
  1493.2000      7.9555      2.5093      0.0243      8.5299     28.9458    115.4804
  1493.3000      7.9549      2.5045      0.0321      8.8165     28.7700    114.2669
  1493.4000      7.9549      2.5106      0.0444      8.4501     28.7617    114.2619
  1493.5000      7.9528      2.5101      0.0734      8.4767     28.8054    114.5229
  1493.6000      7.9528      2.4873      0.0685      9.8610     28.7166    115.3460
  1493.7000      7.9528      2.4563      0.0272     11.7394     28.7180    118.3009
  1493.8000      7.9522      2.4430      0.0257     12.5460     28.9948    121.8040
  1493.9000      7.9522      2.4469      0.0763     12.3081     29.1901    122.0727
  1494.0000      7.9537      2.4548      0.0661     11.8305     29.1264    120.5898
  1494.1000      7.9537      2.4674      0.0658     11.0661     29.1520    124.3286
  1494.2000      7.9537      2.4884      0.0868      9.7953     29.2358    131.8501
  1494.3000      7.9536      2.5137      0.0790      8.2608     29.1997    134.0943
  1494.4000      7.9536      2.5363      0.1019      6.8917     29.2467    131.0261
  1494.5000      7.9504      2.5520      0.1089      5.9390     29.3686    130.6037
  1494.6000      7.9504      2.5615      0.1155      5.3643     29.4526    135.9253
  1494.7000      7.9504      2.5686      0.0998      4.9336     29.6279    145.5934
  1494.8000      7.9472      2.5777      0.1000      4.3837     29.8610    155.0948
  1494.9000      7.9472      2.5888      0.0907      3.7062     29.8827    157.9227
  1495.0000      7.9471      2.5983      0.1098      3.1316     29.6768    151.8645
  1495.1000      7.9471      2.6039      0.0353      2.7919     29.6566    138.7030
  1495.2000      7.9471      2.6019      0.1019      2.9180     29.8015    124.1294
  1495.3000      7.9488      2.5833      0.0741      4.0433     29.7257    117.1873
  1495.4000      7.9488      2.5553      0.0452      5.7394     29.6086    122.2798
  1495.5000      7.9495      2.5425     -0.0026      6.5182     29.8918    134.0321
  1495.6000      7.9495      2.5577      0.0374      5.5913     30.2987    142.9107
  1495.7000      7.9495      2.5829      0.0933      4.0679     30.1121    146.0721
  1495.8000      7.9511      2.5925      0.0933      3.4877     29.3940    150.8166
  1495.9000      7.9511      2.5861      0.0758      3.8699     29.0606    156.0408
  1496.0000      7.9533      2.5760      0.0565      4.4847     29.5357    153.1440
  1496.1000      7.9533      2.5639      0.0833      5.2155     30.3286    148.0802
  1496.2000      7.9533      2.5439      0.0815      6.4322     30.7521    154.0993
  1496.3000      7.9543      2.5182      0.0761      7.9877     30.5438    165.1600
  1496.4000      7.9543      2.5016      0.0233      8.9953     30.1269    162.8600
  1496.5000      7.9530      2.5020      0.0362      8.9708     30.0581    148.5880
  1496.6000      7.9530      2.5053      0.0383      8.7706     30.5258    140.4980
  1496.7000      7.9530      2.4912      0.0507      9.6220     31.3186    144.5618
  1496.8000      7.9535      2.4466      0.0338     12.3243     31.9365    150.3539
  1496.9000      7.9535      2.3633      0.0531     17.3732     32.0188    149.5040
  1497.0000      7.9626      2.2528     -0.0279     24.0756     31.8245    142.7037
  1497.1000      7.9626      2.1529     -0.0647     30.1258     32.0175    131.9772
  1497.2000      7.9626      2.0908     -0.0584     33.8912     32.5561    121.3853
  1497.3000      7.9739      2.0601     -0.0671     35.7498     32.7318    117.0430
  1497.4000      7.9739      2.0496     -0.0322     36.3857     32.5508    119.4703
  1497.5000      7.9782      2.0566      0.0146     35.9616     32.5174    122.7152
  1497.6000      7.9782      2.0786      0.0519     34.6303     32.4049    122.5899
  1497.7000      7.9782      2.1155      0.0798     32.3957     31.6757    119.5804
  1497.8000      7.9771      2.1669      0.1463     29.2813     30.6281    117.8747
  1497.9000      7.9771      2.2244      0.2155     25.7951     30.0655    121.1793
  1498.0000      7.9744      2.2813      0.2000     22.3431     30.0544    126.3133
  1498.1000      7.9744      2.3428      0.2134     18.6209     29.8536    128.8965
  1498.2000      7.9744      2.4094      0.1937     14.5812     29.2316    129.8667
  1498.3000      7.9676      2.4678      0.1161     11.0412     28.8026    131.7078
  1498.4000      7.9676      2.5001      0.1105      9.0824     28.9610    135.3532
  1498.5000      7.9567      2.5017      0.0872      8.9906     29.4719    139.1762
  1498.6000      7.9567      2.4908      0.0464      9.6498     29.7400    141.6692
  1498.7000      7.9567      2.4849      0.0709     10.0038     29.5575    143.2622
  1498.8000      7.9500      2.4788      0.0738     10.3729     29.4321    142.1674
  1498.9000      7.9500      2.4659      0.0368     11.1580     29.8358    136.4330
  1499.0000      7.9512      2.4533      0.0355     11.9221     30.6550    127.2374
  1499.1000      7.9512      2.4465      0.0459     12.3348     31.4116    117.3057
  1499.2000      7.9512      2.4454      0.0408     12.3978     31.6325    111.5892
  1499.3000      7.9590      2.4446      0.0891     12.4498     31.3586    114.4438
  1499.4000      7.9590      2.4351      0.0634     13.0224     30.9944    123.8997
  1499.5000      7.9692      2.4289      0.0257     13.3984     30.7173    132.3416
  1499.6000      7.9692      2.4453      0.0654     12.4062     30.3595    135.1803
  1499.7000      7.9692      2.4705      0.1468     10.8781     29.9631    134.6258
  1499.8000      7.9759      2.4804      0.1344     10.2762     29.8418    134.1186
  1499.9000      7.9759      2.4794      0.1114     10.3396     29.9928    138.1897
  1500.0000      7.9736      2.4771      0.1386     10.4797     30.2400    146.2985
  1500.1000      7.9736      2.4729      0.1104     10.7350     30.4455    149.8936
  1500.2000      7.9736      2.4704      0.1116     10.8846     30.3267    143.3809
  1500.3000      7.9653      2.4751      0.1270     10.6022     29.7801    129.8172
  1500.4000      7.9653      2.4909      0.1103      9.6404     29.0623    118.1364
  1500.5000      7.9656      2.5168      0.1344      8.0708     28.5069    115.7261
  1500.6000      7.9656      2.5372      0.1607      6.8352     28.4457    121.1870
  1500.7000      7.9656      2.5341      0.1223      7.0253     28.9838    129.6304
  1500.8000      7.9751      2.5087      0.0873      8.5649     29.9568    138.3365
  1500.9000      7.9751      2.4814      0.0427     10.2154     31.1618    141.9781
  1501.0000      7.9883      2.4639      0.0789     11.2783     31.9712    137.7433
  1501.1000      7.9883      2.4461      0.0505     12.3562     31.9112    129.1189
  1501.2000      7.9883      2.4220      0.0423     13.8192     31.5737    120.5859
  1501.3000      8.0077      2.3959      0.0526     15.3990     31.5475    114.3651
  1501.4000      8.0077      2.3640      0.0701     17.3361     31.6758    111.3037
  1501.5000      8.0267      2.3119      0.0630     20.4912     31.7822    110.4887
  1501.6000      8.0267      2.2350      0.0324     25.1537     32.1069    110.4248
  1501.7000      8.0267      2.1447     -0.0017     30.6218     32.7692    110.9696
  1501.8000      8.0407      2.0498     -0.0232     36.3765     33.2337    110.1265
