~Version Information
VERS.                      2.0: CWLS Log ASCII Standard - VERSION 2.0
WRAP.                       NO: One line per depth step
~Well Information Block
STRT.FT                -7.7500: 
STOP.FT              2248.5000: 
STEP.FT                 0.2500: 
NULL.                -999.2500: 
COMP.          Pioneer Natural Resources: COMPANY
WELL.          Interceptor 43-13 Tr: WELL
FLD.           Purgatoire River: FIELD
LOC.           2006' FSL & 438' FEL--: LOCATION
PROV.                       CO: PROVINCE
CNTY.               Las Animas: COUNTRY
SRVC.          Patterson Wireline: SERVICE COMPANY
DATE.          Thu Nov 17 10:14:59 2005: LOG DATE
UWI.           05 071 08549 00: UNIQUE WELL ID
~Curve Information Block
DEPT.FT            0 000 00 00: Depth
CCL.                          : Casing Collar Locator
TT3.usec                      : CBL 3' Travel Time
AMP3.mV                       : CBL 3' Amplitude
GR.GAPI                       : Gamma Ray
~Parameter Information Block
~A  Depth       CCL         TT3         AMP3         GR     
# ...
  1164.7500      0.0000    793.5110      6.5089    120.5096
  1165.0000      0.0000    790.7362      6.7280    119.1362
  1165.2500      0.0000    784.2025      6.9050    116.9405
  1165.5000      0.0000    776.9249      7.0366    114.3579
  1165.7500      0.0000    772.2167      7.1417    112.7717
  1166.0000      0.0000    770.9482      7.2276    113.5040
  1166.2500      0.0000    770.9506      7.2662    116.7328
  1166.5000      0.0000    769.5262      7.2240    121.3881
  1166.7500      0.0000    766.2175      7.1112    125.9214
  1167.0000      0.0000    762.8285      6.9840    129.0837
  1167.2500      0.0000    761.4062      6.8960    130.4070
  1167.5000      0.0000    762.4020      6.8572    130.2652
  1167.7500      0.0000    764.0023      6.8351    129.2747
  1168.0000      0.0000    763.1675      6.7833    127.6255
  1168.2500      0.0000    758.1957      6.6770    125.2559
  1168.5000      0.0000    750.3534      6.5346    122.3744
  1168.7500      0.0000    742.5215      6.4021    119.4135
  1169.0000      0.0000    736.6034      6.3115    116.8160
  1169.2500      0.0000    732.4719      6.2601    115.1810
  1169.5000      0.0000    728.7225      6.2294    115.3415
  1169.7500      0.0000    724.1406      6.2121    118.0685
  1170.0000      0.0000    719.0222      6.2150    123.6118
  1170.2500      0.0000    715.2858      6.2431    131.1145
  1170.5000      0.0000    714.8877      6.2918    138.3603
  1170.7500      0.0000    718.0513      6.3525    142.7089
  1171.0000      0.0000    723.2748      6.4220    142.8570
  1171.2500      0.0000    729.1856      6.5035    139.5689
  1171.5000      0.0000    736.0336      6.5970    134.4768
  1171.7500      0.0000    744.9524      6.6891    128.4728
  1172.0000      0.0000    755.9556      6.7615    121.4973
  1172.2500      0.0000    767.2233      6.8129    113.3981
  1172.5000      0.0000    776.4147      6.8685    104.5203
  1172.7500      0.0000    782.3216      6.9566     95.7541
  1173.0000      0.0000    785.2373      7.0755     88.2810
  1173.2500      0.0000    786.1556      7.1885     82.8397
  1173.5000      0.0000    785.8296      7.2480     78.9220
  1173.7500      0.0000    784.2228      7.2229     75.0761
  1174.0000      0.0000    780.3413      7.1104     70.3455
  1174.2500      0.0000    772.6403      6.9355     65.2414
  1174.5000      0.0000    760.2455      6.7387     61.1244
  1174.7500      0.0000    744.1991      6.5622     58.8510
  1175.0000      0.0000    727.0698      6.4385     58.3111
  1175.2500      0.0000    710.7552      6.3797     58.9589
  1175.5000      0.0000    694.9258      6.3707     60.2901
  1175.7500      0.0000    678.8521      6.3786     61.8577
  1176.0000      0.0000    665.1905      6.3748     63.2375
  1176.2500      0.0000    660.1027      6.3514     64.1379
  1176.5000      0.0000    667.2733      6.3130     64.5150
  1176.7500      0.0000    682.6271      6.2607     64.6194
  1177.0000      0.0000    697.6631      6.1900     64.8381
  1177.2500      0.0000    707.6685      6.1004     65.3144
  1177.5000      0.0000    714.4546      6.0001     65.7867
  1177.7500      0.0000    721.9492      5.8991     65.8352
  1178.0000      0.0000    731.6933      5.7999     65.2572
  1178.2500      0.0000    742.5228      5.6973     64.3813
  1178.5000      0.0000    752.5187      5.5873     64.1080
  1178.7500      0.0000    760.2855      5.4792     65.3228
  1179.0000      0.0000    764.9872      5.3960     67.9527
  1179.2500      0.0000    766.0670      5.3555     70.6566
  1179.5000      0.0000    763.4929      5.3530     71.7576
  1179.7500      0.0000    758.3597      5.3674     70.6619
  1180.0000      0.0000    752.7051      5.3790     68.3641
  1180.2500      0.0000    748.3257      5.3789     66.6075
  1180.5000      0.0000    745.8187      5.3644     66.6047
  1180.7500      0.0000    744.7397      5.3350     68.4016
  1181.0000      0.0000    744.3625      5.2943     71.0309
  1181.2500      0.0000    744.1967      5.2520     73.0805
  1181.5000      0.0000    744.0569      5.2189     73.5385
  1181.7500      0.0000    743.9295      5.2003     72.5827
  1182.0000      0.0000    743.8376      5.1926     71.3817
  1182.2500      0.0000    743.7899      5.1868     70.8043
  1182.5000      0.0000    743.7789      5.1739     70.5123
  1182.7500      0.0000    743.7558      5.1498     69.5693
  1183.0000      0.0000    743.5283      5.1184     67.6288
  1183.2500      0.0000    742.6177      5.0892     65.2668
  1183.5000      0.0000    740.2726      5.0705     63.4749
  1183.7500      0.0000    735.9412      5.0631     62.9992
  1184.0000      0.0000    729.9981      5.0575     63.8409
  1184.2500      0.0000    723.7717      5.0371     65.2737
  1184.5000      0.0000    718.4208      4.9869     66.4522
  1184.7500      0.0000    713.9460      4.9057     66.9881
  1185.0000      0.0000    709.7178      4.8072     66.9886
  1185.2500      0.0000    705.6522      4.7100     66.8222
  1185.5000      0.0000    702.3135      4.6306     66.8463
  1185.7500      0.0000    700.1088      4.5836     67.0954
  1186.0000      0.0000    698.8880      4.5758     67.2959
  1186.2500      0.0000    698.2301      4.5897     67.4088
  1186.5000      0.0000    697.7806      4.5774     67.8551
  1186.7500      0.0000    697.3130      4.4766     68.8203
  1187.0000      0.0000    696.7477      4.2412     69.5694
  1187.2500      0.0000    696.3334      3.8615     69.0011
  1187.5000      0.0000    696.9491      3.3661     66.7845
  1187.7500      0.0000    700.0887      2.8074     63.6662
  1188.0000      0.0000    706.9471      2.2399     60.9078
  1188.2500      0.0000    716.9149      1.7046     59.7819
  1188.5000      0.0000    727.2056      1.2288     61.1791
  1188.7500      0.0000    734.9683      0.8356     64.9333
  1189.0000      0.0000    740.2236      0.5432     69.4258
  1189.2500      0.0000    746.3212      0.3492     72.6725
  1189.5000      0.0000    757.2242      0.2212     74.3075
  1189.7500      0.0000    774.9865      0.1127     75.9295
  1190.0000      0.0000    799.5585     -0.0033     78.9421
  1190.2500      0.0000    828.0703     -0.1147     82.5742
  1190.5000      0.0000    852.3280     -0.1833     84.7895
  1190.7500      0.0000    860.9825     -0.1740     84.7672
  1191.0000      0.0000    850.0694     -0.0702     83.5242
  1191.2500      0.0000    830.8063      0.1363     82.0898
  1191.5000      0.0000    822.7502      0.4557     80.2333
  1191.7500      0.0000    839.1232      0.8917     77.7388
  1192.0000      0.0000    880.0014      1.4282     76.0106
  1192.2500      0.0000    935.8012      2.0384     77.1412
  1192.5000      0.0000    992.3188      2.7174     81.5907
  1192.7500      0.0000   1033.8662      3.5027     87.8592
  1193.0000      0.0000   1047.7527      4.4402     94.4520
  1193.2500      0.0000   1029.8807      5.5058    101.2359
  1193.5000      0.0000    986.9374      6.5671    108.5531
  1193.7500      0.0000    933.0870      7.4477    115.7605
  1194.0000      0.0000    882.9056      8.0358    121.3658
  1194.2500      0.0000    845.0176      8.3251    124.5919
  1194.5000      0.0000    820.5751      8.3736    126.2799
  1194.7500      0.0000    806.2322      8.2527    127.8173
  1195.0000      0.0000    797.6836      8.0268    129.4696
  1195.2500      0.0000    791.6711      7.7328    130.3435
  1195.5000      0.0000    787.5708      7.3523    129.8530
  1195.7500      0.0000    788.5149      6.8418    128.3868
  1196.0000      0.0000    799.2048      6.2382    126.1792
  1196.2500      0.0000    820.1535      5.7061    122.2222
  1196.5000      0.0000    845.0425      5.4135    115.1269
  1196.7500      0.0000    866.0340      5.3731    105.1642
  1197.0000      0.0000    880.2415      5.4570     94.8969
  1197.2500      2.0000    888.9600      5.5279     87.3356
  1197.5000      0.0000    893.2279      5.5067     83.5273
  1197.7500      0.0000    892.7547      5.3581     82.0107
  1198.0000      0.0000    886.4884      5.1016     80.2574
