~Version Information
VERS.                      2.0: CWLS Log ASCII Standard - VERSION 2.0
WRAP.                       NO: One line per depth step
~Well Information Block
STRT.FT               350.0000: 
STOP.FT              2803.2000: 
STEP.FT                 0.1000: 
NULL.                -999.2500: 
COMP.          Pioneer Natural Resources: COMPANY
WELL.          Grey Goose 33-30: WELL
FLD.           Purgatoire River: FIELD
LOC.           2136' FSL & 2065' FEL--: LOCATION
STAT.                 Colorado: State
CNTY.               Las Animas: COUNTY
CTRY. USA : Country
SECT. 30 : Section
TOWN. 32S : Township
RANG. 67W : Range
SRVC.                Patterson: SERVICE COMPANY
DATE.          Fri Nov 04 09:27:53 2005: LOG DATE
API.           05 071 08546 00: UNIQUE WELL ID
~Curve Information Block
DEPT.FT            0 000 00 00: Depth
DCAL.in                       : CDL Caliper
DPOR.pu                       : CDL Density Porosity
NPOR.pu                       : Neutron Porosity
RHOB.g/cc                     : CDL Bulk Density
RHOC.g/cc                     : CDL Density Correction
GR.GAPI                       : Gamma Ray
~Parameter Information Block
~A  Depth       DCAL        DPOR        NPOR        RHOB        RHOC         GR     
# ...
   676.4000      8.0698     10.1442     19.5540      2.4826      0.0063     71.9331
   676.5000      8.0710      8.8046     19.6980      2.5047      0.0073     68.0419
   676.6000      8.0710      7.1263     19.6996      2.5324      0.0565     66.1189
   676.7000      8.0710      5.9012     19.6294      2.5526      0.0619     68.9494
   676.8000      8.0739      5.5558     19.5555      2.5583      0.0600     71.6362
   676.9000      8.0739      5.9944     19.3727      2.5511      0.0538     71.6963
   677.0000      8.0797      6.7862     19.2285      2.5380      0.0457     71.0727
   677.1000      8.0797      7.4902     19.1411      2.5264      0.0343     71.5925
   677.2000      8.0797      8.1737     18.8267      2.5151      0.0653     72.5278
   677.3000      8.0846      9.0958     18.2709      2.4999      0.0401     71.9055
   677.4000      8.0846      9.8583     17.7771      2.4873      0.0034     70.2236
   677.5000      8.0847     10.0395     17.5529      2.4843      0.0334     68.3413
   677.6000      8.0847     10.0021     17.5704      2.4850      0.0361     65.5468
   677.7000      8.0847     10.0355     17.6959      2.4844      0.0179     62.5996
   677.8000      8.0811      9.6344     17.8179      2.4910     -0.0158     60.9857
   677.9000      8.0811      8.7159     17.8311      2.5062      0.0121     59.8949
   678.0000      8.0788      8.0942     17.6969      2.5164      0.0125     58.4939
   678.1000      8.0788      8.2176     17.5105      2.5144      0.0379     59.2995
   678.2000      8.0788      9.0605     17.3002      2.5005      0.0471     62.9524
   678.3000      8.0777     10.3821     17.1222      2.4787      0.0755     65.5634
   678.4000      8.0777     11.1876     16.9577      2.4654      0.0032     65.0466
   678.5000      8.0758     10.4494     16.5712      2.4776      0.0246     62.8638
   678.6000      8.0758      9.1876     15.9744      2.4984      0.0695     60.5847
   678.7000      8.0758      9.2981     15.4309      2.4966      0.0494     58.8940
   678.8000      8.0730     10.5861     15.1687      2.4753      0.0250     57.7813
   678.9000      8.0730     11.1371     15.2172      2.4662      0.0076     57.0492
   679.0000      8.0700     10.0304     15.4217      2.4845      0.0220     56.3925
   679.1000      8.0700      8.5873     15.6116      2.5083      0.1045     55.6036
   679.2000      8.0700      8.3368     15.7464      2.5124      0.0628     55.4174
   679.3000      8.0672      9.0174     15.7430      2.5012      0.0400     55.0798
   679.4000      8.0672      9.5509     15.4247      2.4924      0.0235     53.3594
   679.5000      8.0655      9.6060     14.8762      2.4915      0.0460     51.9553
   679.6000      8.0655      9.5658     14.4943      2.4922      0.0212     51.2525
   679.7000      8.0655      9.6127     14.6116      2.4914      0.0390     49.9302
   679.8000      8.0659     10.0882     15.0388      2.4835      0.0722     47.8341
   679.9000      8.0659     11.3357     15.2767      2.4630      0.0096     44.6267
   680.0000      8.0700     12.4688     15.3521      2.4443     -0.0047     41.2617
   680.1000      8.0700     12.1694     15.5001      2.4492     -0.0028     39.6043
   680.2000      8.0700     10.6960     15.4749      2.4735      0.0431     40.4274
   680.3000      8.0732      9.9986     15.2259      2.4850      0.0852     42.4403
   680.4000      8.0732     11.0154     15.1994      2.4682      0.0277     43.2021
   680.5000      8.0748     12.0964     15.4815      2.4504     -0.0214     43.1140
   680.6000      8.0748     11.6885     15.5209      2.4571      0.0065     44.1058
   680.7000      8.0748     10.9329     15.0834      2.4696      0.0581     46.5265
   680.8000      8.0778     11.1530     14.6878      2.4660      0.0102     50.0349
   680.9000      8.0778     11.3490     14.6281      2.4627      0.0184     52.7430
   681.0000      8.0787     10.8826     14.6943      2.4704      0.0629     53.2870
   681.1000      8.0787     10.7087     14.6184      2.4733      0.0425     53.2100
   681.2000      8.0787     11.4235     14.4769      2.4615      0.0624     54.2191
   681.3000      8.0764     12.6432     14.7024      2.4414      0.0086     54.9944
   681.4000      8.0764     13.3223     15.2589      2.4302     -0.0024     54.7856
   681.5000      8.0751     12.9145     15.6890      2.4369      0.0316     55.1510
   681.6000      8.0751     12.1148     15.8979      2.4501      0.0325     55.1666
   681.7000      8.0751     11.9655     15.9606      2.4526      0.0420     54.1681
   681.8000      8.0767     12.5959     15.8218      2.4422      0.0110     54.5646
   681.9000      8.0767     12.8776     15.6670      2.4375      0.0025     55.1954
   682.0000      8.0779     12.2628     15.7130      2.4477      0.0618     54.7622
   682.1000      8.0779     11.8658     15.7961      2.4542      0.0378     55.0737
   682.2000      8.0779     12.3179     15.8012      2.4468      0.0371     55.7476
   682.3000      8.0789     12.7943     15.8398      2.4389      0.0001     56.7045
   682.4000      8.0789     12.8295     15.8002      2.4383      0.0443     58.4688
   682.5000      8.0801     12.7856     15.5958      2.4390      0.0217     59.1041
   682.6000      8.0801     12.6087     15.5008      2.4420      0.0325     56.3736
   682.7000      8.0801     12.2721     15.5617      2.4475      0.0410     53.0351
   682.8000      8.0800     12.1128     15.5999      2.4501      0.0347     55.6861
   682.9000      8.0800     11.7876     15.7176      2.4555      0.0196     61.6984
   683.0000      8.0792     10.9811     15.9552      2.4688      0.0750     64.1476
   683.1000      8.0792     10.3092     16.0334      2.4799      0.0794     64.5359
   683.2000      8.0792      9.9868     15.9412      2.4852      0.0530     64.9653
   683.3000      8.0791      9.4021     15.9554      2.4949      0.0786     64.9247
   683.4000      8.0791      8.4755     16.2601      2.5102      0.0711     65.4968
   683.5000      8.0793      7.9122     16.7166      2.5194      0.1116     67.1619
   683.6000      8.0793      8.2336     17.1888      2.5141      0.0665     68.5643
   683.7000      8.0793      8.8808     17.8768      2.5035      0.0294     69.2026
   683.8000      8.0808      8.8492     18.7706      2.5040      0.0165     70.4522
   683.9000      8.0808      8.0556     19.5123      2.5171      0.0322     73.0499
   684.0000      8.0839      7.2992     19.7797      2.5296      0.0554     76.7724
   684.1000      8.0839      6.9137     19.6858      2.5359      0.0448     82.0231
   684.2000      8.0839      6.5674     19.9444      2.5416      0.0512     86.8009
   684.3000      8.0858      6.6016     20.9421      2.5411      0.0758     88.4165
   684.4000      8.0858      7.3854     21.9426      2.5281      0.0075     89.1458
   684.5000      8.0850      7.9886     22.2671      2.5182      0.0001     92.3304
   684.6000      8.0850      7.3632     22.3454      2.5285      0.0323     98.7844
   684.7000      8.0850      5.8126     22.5022      2.5541      0.0578    102.9304
   684.8000      8.0828      4.7898     22.4176      2.5710      0.1018     99.2639
   684.9000      8.0828      4.9856     22.0360      2.5677      0.0253     92.8684
   685.0000      8.0811      5.4943     21.6506      2.5593      0.0185     88.5466
   685.1000      8.0811      5.4115     21.4484      2.5607      0.0393     85.3077
   685.2000      8.0811      4.4843     21.3308      2.5760      0.0208     84.3031
   685.3000      8.0824      3.2746     21.1658      2.5960      0.0954     85.3791
   685.4000      8.0824      2.9680     21.0793      2.6010      0.0680     85.7496
   685.5000      8.0855      3.6026     21.1026      2.5906      0.0683     85.3339
   685.6000      8.0855      4.4277     21.0688      2.5769      0.0796     84.4976
   685.7000      8.0855      5.6254     21.0371      2.5572      0.0591     82.5500
   685.8000      8.0861      7.5740     21.2137      2.5250      0.0553     79.9632
   685.9000      8.0861      9.5262     21.4886      2.4928     -0.0522     78.2174
