~Version Information
VERS.                      2.0: CWLS Log ASCII Standard - VERSION 2.0
WRAP.                       NO: One line per depth step
~Well Information Block
STRT.FT                -8.2500: 
STOP.FT              1439.2500: 
STEP.FT                 0.2500: 
NULL.                -999.2500: 
COMP.          Pioneer Natural Resources: COMPANY
WELL.          Old Faithful 21-2: WELL
FLD.           Purgatorie River: FIELD
LOC.           806' FNL & 2509' FWL--: LOCATION
PROV.                       CO: PROVINCE
CNTY.               Las Animas: COUNTRY
SRVC.          Patterson Wireline: SERVICE COMPANY
DATE.          Mon Dec 12 11:21:25 2005: LOG DATE
UWI.           08 071 08617 00: UNIQUE WELL ID
~Curve Information Block
DEPT.FT            0 000 00 00: Depth
CCL.                          : Casing Collar Locator
TT3.usec                      : CBL 3' Travel Time
AMP3.mV                       : CBL 3' Amplitude
GR.GAPI                       : Gamma Ray
~Parameter Information Block
~A  Depth       CCL         TT3         AMP3         GR     
# ...
  1298.2500      0.0000    685.4830      6.1870     88.8474
  1298.5000      0.0000    684.6962      6.0963     89.2387
  1298.7500      0.0000    683.5154      5.9937     88.3781
  1299.0000      0.0000    681.2791      5.9283     86.4605
  1299.2500      0.0000    679.1289      5.9173     83.8447
  1299.5000      0.0000    678.9892      5.9311     81.3914
  1299.7500      0.0000    681.4977      5.9202     79.9775
  1300.0000      0.0000    685.4322      5.8532     79.8415
  1300.2500      0.0000    689.0640      5.7300     80.5500
  1300.5000      0.0000    691.6049      5.5729     81.4766
  1300.7500      0.0000    693.5419      5.4192     82.2427
  1301.0000      0.0000    696.3549      5.3231     82.8224
  1301.2500      0.0000    701.9603      5.3403     83.2865
  1301.5000      0.0000    711.4049      5.4827     83.2522
  1301.7500      0.0000    723.2017      5.6882     81.6171
  1302.0000      0.0000    733.5106      5.8568     77.3089
  1302.2500      0.0000    739.1423      5.9261     70.7295
  1302.5000      0.0000    740.4360      5.9072     64.3514
  1302.7500      0.0000    740.6215      5.8493     61.2683
  1303.0000      0.0000    742.5561      5.7868     62.6487
  1303.2500      0.0000    746.3227      5.7291     66.6833
  1303.5000      0.0000    749.5621      5.6887     70.2788
  1303.7500      0.0000    749.8776      5.6999     71.8139
  1304.0000      0.0000    747.0645      5.7943     72.2575
  1304.2500      0.0000    742.8890      5.9591     73.8542
  1304.5000      0.0000    738.6981      6.1323     77.9264
  1304.7500      0.0000    733.7769      6.2536     83.8337
  1305.0000      0.0000    726.5307      6.3182     89.7367
  1305.2500      0.0000    716.9702      6.3729     94.0560
  1305.5000      0.0000    707.3681      6.4593     96.1051
  1305.7500      0.0000    700.4240      6.5695     95.6948
  1306.0000      0.0000    697.4321      6.6585     92.7026
  1306.2500      0.0000    698.3140      6.6906     87.1431
  1306.5000      0.0000    702.5310      6.6687     79.4166
  1306.7500      0.0000    709.2646      6.6243     70.3630
  1307.0000      0.0000    717.0513      6.5927     61.1505
  1307.2500      0.0000    724.0513      6.6004     53.1105
  1307.5000      0.0000    729.0040      6.6691     47.4168
  1307.7500      0.0000    731.8039      6.8211     44.5804
  1308.0000      0.0000    733.1721      7.0794     44.2164
  1308.2500      0.0000    733.9719      7.4609     45.5142
  1308.5000      0.0000    734.7082      7.9656     47.9707
  1308.7500      0.0000    735.2184      8.5712     51.6722
  1309.0000      0.0000    734.6718      9.2399     56.9741
  1309.2500      0.0000    732.1971      9.9317     63.8603
  1309.5000      0.0000    727.7165     10.6116     71.5079
  1309.7500      0.0000    722.0673     11.2533     78.6315
  1310.0000      0.0000    716.5130     11.8416     84.4328
  1310.2500      0.0000    712.4165     12.3664     89.0771
  1310.5000      0.0000    711.1550     12.7989     93.1749
  1310.7500      0.0000    714.0486     13.0710     97.0341
  1311.0000      0.0000    722.1805     13.0856    100.5445
  1311.2500      0.0000    735.4608     12.7693    103.5482
  1311.5000      0.0000    751.2484     12.1358    106.0755
  1311.7500      0.0000    764.8630     11.2950    108.1693
  1312.0000      0.0000    773.0433     10.3817    109.3462
  1312.2500      0.0000    777.3373      9.4717    108.1896
  1312.5000      0.0000    782.9180      8.5789    102.9837
  1312.7500      0.0000    792.6245      7.7167     93.3169
  1313.0000      0.0000    802.4815      6.9285     80.9649
  1313.2500      0.0000    805.0115      6.2637     68.9071
  1313.5000      0.0000    797.2866      5.7590     59.5377
  1313.7500      0.0000    783.9239      5.4453     53.8660
  1314.0000      0.0000    772.0200      5.3532     52.0469
  1314.2500      0.0000    765.2859      5.5030     53.9806
  1314.5000      0.0000    763.2485      5.8990     59.1451
  1314.7500      0.0000    763.4000      6.5377     66.3840
  1315.0000      0.0000    762.7825      7.4155     74.3710
  1315.2500      0.0000    758.5802      8.5216     82.0352
  1315.5000      0.0000    748.7582      9.8189     88.4379
  1315.7500      0.0000    733.4938     11.2257     93.0032
  1316.0000      0.0000    716.8127     12.6125     96.0565
  1316.2500      0.0000    704.9081     13.8294     98.3425
  1316.5000      0.0000    700.5310     14.7577     99.7423
  1316.7500      0.0000    700.8876     15.3479     99.0121
  1317.0000      0.0000    703.1274     15.6210     94.9941
  1317.2500      0.0000    708.2676     15.6468     87.7844
  1317.5000      0.0000    715.7876     15.5188     78.7737
  1317.7500      0.0000    718.3411     15.3291     69.8367
  1318.0000      0.0000    707.3889     15.1478     62.3979
  1318.2500      0.0000    683.3546     15.0112     57.0203
  1318.5000      0.0000    657.2201     14.9180     53.7518
  1318.7500      0.0000    642.1992     14.8411     52.7160
  1319.0000      0.0000    644.4672     14.7541     54.1770
  1319.2500      0.0000    660.1729     14.6535     57.9275
  1319.5000      0.0000    679.5777     14.5534     62.7689
  1319.7500      0.0000    694.2079     14.4688     67.0152
  1320.0000      0.0000    701.4467     14.4125     69.6973
  1320.2500      0.0000    703.9028     14.4043     71.1257
  1320.5000      0.0000    705.7060     14.4729     72.3535
  1320.7500      0.0000    708.9940     14.6410     74.4277
  1321.0000      0.0000    712.4070     14.8979     78.0966
  1321.2500      0.0000    712.1066     15.1788     83.5727
  1321.5000      0.0000    704.4604     15.3627     90.2014
  1321.7500      0.0000    688.3679     15.2997     96.6157
  1322.0000      0.0000    665.8016     14.8656    101.5537
  1322.2500      0.0000    642.2767     14.0237    104.5363
  1322.5000      0.0000    628.4768     12.8390    105.6335
  1322.7500      0.0000    638.9425     11.4322    104.6883
  1323.0000      0.0000    683.8019      9.9362    101.0309
  1323.2500      0.0000    759.2222      8.4867     94.0499
  1323.5000      0.0000    846.5124      7.1936     83.9718
  1323.7500      0.0000    921.1772      6.0972     72.0690
  1324.0000      0.0000    966.0052      5.1705     60.1495
  1324.2500      2.0000    979.8769      4.3677     49.8989
  1324.5000      0.0000    974.7441      3.6652     42.4418
  1324.7500      0.0000    962.5801      3.0769     37.9595
  1325.0000      0.0000    945.6764      2.6452     35.6150
  1325.2500      0.0000    919.8399      2.4124     34.2086
  1325.5000      0.0000    884.1357      2.3982     33.0521
  1325.7500      0.0000    844.7266      2.6108     32.1280
  1326.0000      0.0000    810.2828      3.0610     31.7863
  1326.2500      0.0000    785.9615      3.7417     32.8571
  1326.5000      0.0000    771.8052      4.5984     36.9063
  1326.7500      0.0000    765.0073      5.5409     45.5897
  1327.0000      0.0000    762.4159      6.4818     59.0582
  1327.2500      0.0000    761.5651      7.3601     74.9065
  1327.5000      0.0000    760.7638      8.1342     89.1630
  1327.7500      0.0000    758.8755      8.7570     98.7401
  1328.0000      0.0000    755.6168      9.1650    102.9179
  1328.2500      0.0000    752.2742      9.3047    102.7163
  1328.5000      0.0000    751.4423      9.1773     99.4931
  1328.7500      0.0000    755.0889      8.8467     94.2580
  1329.0000      0.0000    762.8211      8.3967     87.8578
  1329.2500      0.0000    772.1066      7.8860     81.5145
  1329.5000      0.0000    779.8423      7.3416     76.8685
  1329.7500      0.0000    783.8120      6.7858     75.1046
  1330.0000      0.0000    783.4666      6.2575     76.0316
  1330.2500      0.0000    779.6891      5.8087     78.1976
  1330.5000      0.0000    773.5554      5.4866     79.8331
  1330.7500      0.0000    765.3386      5.3192     79.8264
  1331.0000      0.0000    755.0215      5.3062     78.1361
  1331.2500      0.0000    743.5933      5.4156     75.3486
  1331.5000      0.0000    733.2516      5.5872     71.9365
