~Version Information
VERS.                      2.0: CWLS Log ASCII Standard - VERSION 2.0
WRAP.                       NO: One line per depth step
~Well Information Block
STRT.FT               245.0000: 
STOP.FT              1208.2000: 
STEP.FT                 0.1000: 
NULL.                -999.2500: 
COMP.          Pioneer Natural Resources: COMPANY
WELL.              Davida 34-8: WELL
FLD.           Purgatoire River: FIELD
LOC.           418' FSL & 1923' FEL--: LOCATION
CNTY.               Las Animas: COUNTY
SRVC.                Patterson: SERVICE COMPANY
DATE.          Mon Mar 20 08:22:01 2006: LOG DATE
UWI.           05 071 08722 00: UNIQUE WELL ID
STAT.                 Colorado: STATE
~Curve Information Block
DEPT.FT            0 000 00 00: Depth
DCAL.in                       : CDL Caliper
RHOB.g/cc                     : CDL Bulk Density
RHOC.g/cc                     : CDL Density Correction
DPOR.pu                       : CDL Density Porosity
NPOR.pu                       : Neutron Porosity
GR.GAPI                       : Gamma Ray
~Parameter Information Block
~A  Depth       DCAL        RHOB        RHOC        DPOR        NPOR         GR     
# ...
  1118.6000      7.7024      2.5254      0.0540      7.5494     22.0376     68.0494
  1118.7000      7.7024      2.5431      0.0489      6.4814     22.3278     71.7136
  1118.8000      7.6965      2.5538      0.0188      5.8333     22.6206     77.3096
  1118.9000      7.6965      2.5616      0.0727      5.3605     22.9332     78.1289
  1119.0000      7.6894      2.5558      0.0641      5.7100     23.1082     77.1716
  1119.1000      7.6894      2.5364      0.0196      6.8832     23.0227     80.2018
  1119.2000      7.6894      2.5277      0.0210      7.4094     22.6656     84.0858
  1119.3000      7.6869      2.5347      0.0648      6.9889     22.3185     83.5985
  1119.4000      7.6869      2.5297      0.0521      7.2901     22.4692     85.0984
  1119.5000      7.6827      2.5039      0.0227      8.8529     23.0760     90.7855
  1119.6000      7.6827      2.4832      0.0017     10.1068     23.5677     91.5949
  1119.7000      7.6827      2.4804      0.0717     10.2787     23.5651     88.5340
  1119.8000      7.6779      2.4814      0.0711     10.2174     23.1617     91.3534
  1119.9000      7.6779      2.4845      0.0324     10.0321     22.7138     99.1079
  1120.0000      7.6879      2.5004      0.0832      9.0644     22.5847    104.8548
  1120.1000      7.6879      2.5274      0.0587      7.4286     22.7741    106.0763
  1120.2000      7.6879      2.5529      0.0748      5.8824     22.8424    106.1883
  1120.3000      7.7052      2.5572      0.1181      5.6244     22.5206    110.9977
  1120.4000      7.7052      2.5300      0.0786      7.2715     22.0707    114.8222
  1120.5000      7.7071      2.4947      0.0191      9.4150     21.6840    110.9726
  1120.6000      7.7071      2.4780      0.0507     10.4251     21.2892    103.0446
  1120.7000      7.7071      2.4746      0.0422     10.6288     20.9501     93.8968
  1120.8000      7.6898      2.4762      0.0025     10.5363     20.7001     83.6275
  1120.9000      7.6898      2.4896      0.0221      9.7203     20.4480     74.0773
  1121.0000      7.6659      2.5105      0.0645      8.4562     20.3546     67.6632
  1121.1000      7.6659      2.5237      0.0853      7.6547     20.5566     65.9817
  1121.2000      7.6659      2.5301      0.0312      7.2678     20.7708     69.0780
  1121.3000      7.6535      2.5416      0.0758      6.5687     20.7024     71.5379
  1121.4000      7.6535      2.5534      0.0883      5.8542     20.5793     68.5517
  1121.5000      7.6611      2.5484      0.0956      6.1587     20.8155     66.5588
  1121.6000      7.6611      2.5261      0.0861      7.5081     21.1387     72.7736
  1121.7000      7.6611      2.5062      0.0579      8.7132     20.9958     84.1472
  1121.8000      7.6817      2.5031      0.0469      8.9055     20.6037     91.0265
  1121.9000      7.6817      2.5105      0.0727      8.4533     20.5445     87.4644
  1122.0000      7.7076      2.5137      0.0688      8.2611     20.7334     77.6148
  1122.1000      7.7076      2.5108      0.0383      8.4377     20.7339     70.2973
  1122.2000      7.7076      2.5106      0.0507      8.4495     20.7426     69.2080
  1122.3000      7.7224      2.5110      0.0589      8.4248     21.3224     73.5355
  1122.4000      7.7224      2.5123      0.0447      8.3437     22.0056     81.6738
  1122.5000      7.7246      2.5238      0.0461      7.6465     21.8917     91.2101
  1122.6000      7.7246      2.5439      0.0523      6.4309     21.0553     99.0597
  1122.7000      7.7246      2.5621      0.0919      5.3284     20.3221     99.0406
  1122.8000      7.7300      2.5669      0.0937      5.0381     20.3180     90.3901
  1122.9000      7.7300      2.5533      0.0557      5.8577     21.0934     84.3633
  1123.0000      7.7398      2.5304      0.0551      7.2491     22.0385     88.0323
  1123.1000      7.7398      2.5117      0.0461      8.3818     22.4439     96.1278
  1123.2000      7.7398      2.5104      0.0367      8.4596     22.3365     98.2208
  1123.3000      7.7393      2.5297      0.0594      7.2897     22.2936     91.8045
  1123.4000      7.7393      2.5505      0.0718      6.0301     22.4894     86.7672
  1123.5000      7.7289      2.5515      0.1013      5.9692     22.8107     88.4118
  1123.6000      7.7289      2.5372      0.0431      6.8380     23.3771     90.8941
  1123.7000      7.7289      2.5297      0.0278      7.2901     23.8594     92.4129
  1123.8000      7.7216      2.5382      0.0708      6.7766     23.4935     95.7530
  1123.9000      7.7216      2.5523      0.0732      5.9184     22.5510    100.0679
  1124.0000      7.7214      2.5598      0.0777      5.4680     22.0276    103.5010
  1124.1000      7.7214      2.5555      0.0609      5.7294     22.0508    106.6318
  1124.2000      7.7214      2.5399      0.0630      6.6739     22.4043    109.6535
  1124.3000      7.7267      2.5218      0.0210      7.7705     22.8748    111.2552
  1124.4000      7.7267      2.5149      0.0174      8.1901     22.9489    110.0954
  1124.5000      7.7316      2.5172      0.0401      8.0493     22.3610    106.6128
  1124.6000      7.7316      2.5211      0.0168      7.8133     21.7633    105.1285
  1124.7000      7.7316      2.5223      0.0706      7.7420     21.8559    106.6894
  1124.8000      7.7274      2.5186      0.0431      7.9657     22.3351    105.9098
  1124.9000      7.7274      2.5213      0.0212      7.8017     22.6568    100.7506
  1125.0000      7.7200      2.5325      0.0479      7.1207     22.8494     98.1785
  1125.1000      7.7200      2.5357      0.0646      6.9276     23.2037    102.4839
  1125.2000      7.7200      2.5285      0.0266      7.3622     23.5342    108.7142
  1125.3000      7.7166      2.5182      0.0282      7.9856     23.1773    108.3203
  1125.4000      7.7166      2.5022      0.0224      8.9597     22.3511     98.5224
  1125.5000      7.7151      2.4829      0.0281     10.1301     22.1092     85.5701
  1125.6000      7.7151      2.4740     -0.0181     10.6697     22.8299     80.1520
  1125.7000      7.7151      2.4833     -0.0034     10.1031     23.6806     84.7155
  1125.8000      7.7131      2.5036      0.0131      8.8708     23.7874     89.1908
  1125.9000      7.7131      2.5235      0.0499      7.6682     23.3427     88.7029
  1126.0000      7.7134      2.5327      0.0749      7.1120     22.9544     88.0235
  1126.1000      7.7134      2.5262      0.0394      7.5043     22.6962     88.8017
  1126.2000      7.7134      2.5164      0.0228      8.0948     22.4235     92.5432
  1126.3000      7.7153      2.5192      0.0297      7.9280     22.3698    101.5607
  1126.4000      7.7153      2.5333      0.0437      7.0749     22.6517    109.4939
  1126.5000      7.7177      2.5450      0.1052      6.3608     23.0072    108.4864
  1126.6000      7.7177      2.5441      0.0630      6.4184     23.1268    100.4729
  1126.7000      7.7177      2.5336      0.0565      7.0549     22.8235     91.5755
  1126.8000      7.7229      2.5218      0.0512      7.7704     22.3047     85.6986
  1126.9000      7.7229      2.5170      0.0326      8.0613     21.8615     83.0538
  1127.0000      7.7290      2.5288      0.0313      7.3476     21.3954     81.4372
  1127.1000      7.7290      2.5544      0.0718      5.7912     20.9578     80.6443
  1127.2000      7.7290      2.5806      0.0871      4.2035     20.8043     83.5480
  1127.3000      7.7326      2.6045      0.0885      2.7586     20.7817     93.3336
  1127.4000      7.7326      2.6282      0.0951      1.3194     20.8329    106.9823
  1127.5000      7.7325      2.6412      0.1083      0.5340     21.0019    115.4653
  1127.6000      7.7325      2.6318      0.0615      1.1040     20.9565    111.8698
  1127.7000      7.7325      2.6046      0.0773      2.7510     20.5235     98.4490
  1127.8000      7.7285      2.5792      0.0089      4.2880     20.1101     86.4888
  1127.9000      7.7285      2.5725      0.0476      4.6988     20.0396     82.9452
  1128.0000      7.7225      2.5776      0.0286      4.3906     19.9642     85.8034
  1128.1000      7.7225      2.5809      0.0537      4.1883     19.7769     90.2397
