~Version Information
 VERS.                                  2.0 : CWLS LAS VERSION
 WRAP.                                   NO : WRAPING MODE
 SWARE .                  MController 2.5.1 : SOFTWARE VERSION
~Well Information
 WELL.                   Touchstone 11-32Tr : WELL
 COMP.  Pioneer Natural Resources USA, Inc. : COMPANY
 FLD.                      Purgatoire River : FIELD
 LOC.             NW/NW Sec. 32, T32S, R67W : LOCATION
 DATE.                02/24/2006-02/25/2006 : DATE(S) LOGGED
 SRVC.                  Entrada GeoSciences : SERVICE COMPANY
 STAT.                             Colorado : STATE
 CNTY.                           Las Animas : COUNTY
 CTRY.                        United States : COUNTRY
 API.                          05-071-08626 : API NUMBER
 STRT.FT                             393.00 : START DEPTH
 STOP.FT                            1800.00 : STOP DEPTH
 STEP.FT                               1.00 : DEPTH INCREMENT
 NULL.                                -9999 : NULL VALUE
~Curve information
 DEPTH.FT                                   :
 ROP.MIN/FT                                 :
 GAS.UNITS                                  :
~ASCII Log data
# ...
     1193.00         0.43         28.3 
     1194.00         0.47          8.1 
     1195.00         0.40          6.2 
     1196.00         0.40          6.0 
     1197.00         0.47          5.9 
     1198.00         0.40          5.5 
     1199.00         0.37          5.6 
     1200.00         0.23          6.1 
     1201.00         0.17          6.9 
     1202.00         0.30          7.5 
     1203.00         0.20          8.1 
     1204.00         0.17          9.1 
     1205.00         0.17          9.7 
     1206.00         0.20          9.0 
     1207.00         0.40          9.0 
     1208.00         0.28          7.8 
     1209.00         0.37          7.2 
     1210.00         0.37          6.5 
     1211.00         0.43          6.1 
     1212.00         0.47          6.0 
     1213.00         0.53          5.4 
     1214.00         0.40          4.7 
     1215.00         0.43          5.5 
     1216.00         0.48          5.1 
     1217.00         0.43          5.4 
     1218.00         0.40          5.7 
     1219.00         0.47          5.6 
     1220.00         0.57          5.1 
     1221.00         0.53          5.1 
     1222.00         0.47         36.7 
     1223.00         0.45         10.5 
     1224.00         0.37          6.1 
     1225.00         0.37          5.9 
     1226.00         0.30          6.9 
     1227.00         0.43          6.0 
     1228.00         0.38          6.5 
     1229.00         0.37          5.5 
     1230.00         0.37          6.3 
     1231.00         0.50          5.8 
     1232.00         0.53          5.2 
     1233.00         0.33          4.6 
     1234.00         0.53          4.6 
     1235.00         0.42          5.3 
     1236.00         0.37          4.7 
     1237.00         0.27          4.9 
     1238.00         0.33          5.6 
     1239.00         0.37          5.5 
     1240.00         0.43          5.4 
     1241.00         0.40          4.8 
     1242.00         0.33          5.0 
     1243.00         0.37          5.0 
     1244.00         0.30          4.8 
     1245.00         0.35          4.9 
     1246.00         0.40          4.4 
     1247.00         0.30          4.8 
     1248.00         0.23          4.2 
     1249.00         0.27          3.5 
     1250.00         0.33          4.8 
     1251.00         0.33          4.6 
     1252.00         0.37         20.7 
     1253.00         0.33         12.0 
     1254.00         0.33         10.1 
     1255.00         0.35          7.3 
     1256.00         0.37          6.1 
     1257.00         0.37          7.9 
     1258.00         0.30          8.4 
     1259.00         0.37          8.3 
     1260.00         0.30          7.7 
     1261.00         0.37          7.7 
     1262.00         0.27          7.4 
     1263.00         0.27          6.7 
     1264.00         0.30          6.7 
     1265.00         0.38          6.6 
     1266.00         0.53          5.9 
     1267.00         0.50          5.4 
     1268.00         0.50          5.4 
     1269.00         0.27          5.7 
     1270.00         0.23          5.1 
     1271.00         0.33          4.6 
     1272.00         0.43          5.4 
     1273.00         0.38          5.5 
     1274.00         0.33          5.3 
     1275.00         0.37          5.6 
     1276.00         0.33          5.7 
     1277.00         0.33          5.7 
     1278.00         0.30          6.9 
     1279.00         0.33          6.2 
     1280.00         0.37          5.7 
     1281.00         0.47         26.8 
     1282.00         0.45         34.3 
     1283.00         0.30         25.4 
     1284.00         0.33         19.4 
     1285.00         0.27          9.0 
     1286.00         0.40          8.6 
     1287.00         0.37          6.4 
     1288.00         0.40          5.5 
     1289.00         0.30          5.6 
     1290.00         0.33          5.5 
     1291.00         0.35          4.9 
     1292.00         0.33          4.6 
     1293.00         0.33          5.4 
     1294.00         0.33          5.1 
     1295.00         0.33          5.4 
     1296.00         0.33          4.5 
     1297.00         0.33          4.9 
     1298.00         0.33          4.8 
     1299.00         0.40          4.5 
     1300.00         0.33          4.8 
     1301.00         0.35          4.3 
     1302.00         0.37          4.8 
     1303.00         0.43          4.9 
     1304.00         0.33          4.0 
     1305.00         0.37          5.3 
     1306.00         0.37          4.0 
     1307.00         0.37          4.2 
     1308.00         0.40          4.9 
     1309.00         0.33          5.2 
     1310.00         0.38          4.6 
     1311.00         0.33         26.9 
     1312.00         0.33         26.9 
     1313.00         0.33         28.5 
     1314.00         0.37         16.3 
     1315.00         0.33         15.5 
     1316.00         0.40          6.5 
     1317.00         0.30          6.2 
     1318.00         0.28          6.1 
     1319.00         0.27          5.1 
     1320.00         0.30          4.8 
     1321.00         0.27          5.8 
     1322.00         0.23          8.6 
     1323.00         0.20         11.1 
     1324.00         0.17         12.6 
     1325.00         0.20         14.0 
     1326.00         0.13         15.1 
     1327.00         0.17         15.5 
     1328.00         0.23         14.9 
     1329.00         0.30         14.3 
     1330.00         0.27         12.4 
     1331.00         0.33         12.0 
     1332.00         0.42          9.6 
     1333.00         0.27          7.7 
     1334.00         0.30          7.7 
     1335.00         0.30          7.6 
     1336.00         0.33          6.2 
     1337.00         0.33          5.7 
     1338.00         0.33          5.6 
     1339.00         0.37          4.9 
     1340.00         0.33         28.4 
     1341.00         0.33         29.1 
     1342.00         0.35         25.3 
     1343.00         0.30         18.6 
     1344.00         0.30         13.3 
     1345.00         0.30          8.9 
     1346.00         0.27          6.4 
     1347.00         0.37          5.1 
     1348.00         0.40          4.7 
     1349.00         0.37          5.1 
     1350.00         0.35          5.3 
     1351.00         0.30          5.3 
     1352.00         0.27          4.0 
     1353.00         0.27          5.5 
     1354.00         0.27          5.9 
     1355.00         0.23         10.8 
     1356.00         0.17         10.8 
     1357.00         0.13         11.6 
     1358.00         0.13         13.9 
     1359.00         0.13         15.2 
     1360.00         0.13         15.2 
     1361.00         0.17         14.4 
     1362.00         0.23         13.9 
     1363.00         0.27         12.9 
     1364.00         0.38         12.4 
     1365.00         0.57          8.9 
     1366.00         0.37          7.3 
     1367.00         0.40          6.2 
     1368.00         0.30          6.5 
     1369.00         0.23          5.8 
     1370.00         0.23          5.3 
     1371.00         0.30         11.2 
     1372.00         0.40         11.2 
     1373.00         0.43         13.8 
     1374.00         0.35         11.5 
     1375.00         0.33          9.1 
     1376.00         0.27          7.7 
     1377.00         0.47          6.2 
     1378.00         0.53          5.5 
     1379.00         0.30          4.2 
     1380.00         0.37          4.9 
     1381.00         0.37          5.4 
     1382.00         0.37          5.1 
     1383.00         0.30          5.7 
     1384.00         0.27          5.2 
     1385.00         0.35          7.7 
     1386.00         0.20          8.0 
     1387.00         0.17          8.8 
     1388.00         0.17          8.8 
     1389.00         0.17          7.8 
     1390.00         0.30          8.2 
     1391.00         0.33          6.1 
     1392.00         0.30          5.7 
