~Version Information
VERS.                      2.0: CWLS Log ASCII Standard - VERSION 2.0
WRAP.                       NO: One line per depth step
~Well Information Block
STRT.FT                -6.5000: 
STOP.FT              1773.5000: 
STEP.FT                 0.2500: 
NULL.                -999.2500: 
COMP.          Pioneer Natural Resources: COMPANY
WELL.           Lynch 43-30 Tr: WELL
FLD.           Purgatorie River: FIELD
LOC.           1431' FSL & 296' FEL--: LOCATION
PROV.                       CO: PROVINCE
CNTY.               Las Animas: COUNTRY
SRVC.          Patterson Wireline: SERVICE COMPANY
DATE.          Tue Aug 02 09:28:21 2005: LOG DATE
UWI.           05 071 08447 00: UNIQUE WELL ID
~Curve Information Block
DEPT.FT            0 000 00 00: Depth
CCL.                          : Casing Collar Locator
TT3.usec                      : CBL 3' Travel Time
AMP3.mV                       : CBL 3' Amplitude
GR.GAPI                       : Gamma Ray
~Parameter Information Block
MINAMPL.mV              1.0000: Minimum Amplitude
~A  Depth       CCL         TT3         AMP3         GR     
    -6.5000   -999.2500   -999.2500   -999.2500     70.0340
    -6.2500   -999.2500   -999.2500   -999.2500     69.2923
    -6.0000   -999.2500   -999.2500   -999.2500     70.4879
    -5.7500   -999.2500   -999.2500   -999.2500     72.4841
    -5.5000   -999.2500   -999.2500   -999.2500     74.3380
    -5.2500   -999.2500   -999.2500   -999.2500     75.3630
    -5.0000   -999.2500   -999.2500   -999.2500     75.2458
    -4.7500   -999.2500   -999.2500   -999.2500     74.4539
    -4.5000   -999.2500   -999.2500   -999.2500     74.0918
    -4.2500   -999.2500   -999.2500   -999.2500     74.9214
    -4.0000   -999.2500   -999.2500   -999.2500     76.5916
    -3.7500   -999.2500   -999.2500   -999.2500     77.9527
    -3.5000   -999.2500   -999.2500   -999.2500     78.0953
    -3.2500   -999.2500   -999.2500   -999.2500     77.1417
    -3.0000   -999.2500   -999.2500   -999.2500     76.0936
    -2.7500   -999.2500   -999.2500   -999.2500     75.9087
    -2.5000   -999.2500   -999.2500   -999.2500     76.6646
    -2.2500   -999.2500   -999.2500   -999.2500     77.4803
    -2.0000   -999.2500   -999.2500   -999.2500     77.1448
    -1.7500   -999.2500   1149.0000      1.9399     75.0773
    -1.5000   -999.2500   1149.0000      1.9345     71.8972
    -1.2500   -999.2500   1149.0000      1.9296     68.9255
    -1.0000   -999.2500   1149.0000      1.9295     67.0032
    -0.7500   -999.2500   1149.0000      1.9354     65.8393
    -0.5000   -999.2500   1149.0000      1.9438     64.3419
    -0.2500   -999.2500   1149.0000      1.9495     61.3426
     0.0000   -999.2500   1149.0000      1.9508     49.8511
     0.2500   -999.2500   1149.0000      1.9486     43.6510
     0.5000   -999.2500   1149.0000      1.9410     39.2483
     0.7500   -999.2500   1149.0000      1.9261     37.0303
     1.0000   -999.2500   1149.0000      1.9088     36.3131
     1.2500   -999.2500   1149.0000      1.8985     36.2737
     1.5000   -999.2500   1149.0000      1.9013     36.5077
     1.7500   -999.2500   1149.0000      1.9140     36.7616
     2.0000   -999.2500   1149.0000      1.9278     36.6785
     2.2500   -999.2500   1149.0000      1.9356     36.1836
     2.5000   -999.2500   1149.0000      1.9369     35.8454
     2.7500   -999.2500   1149.0000      1.9335     36.4126
     3.0000   -999.2500   1149.0000      1.9268     38.0693
     3.2500   -999.2500   1149.0000      1.9196     40.3903
     3.5000      0.0000   1149.0000      1.9178     42.8538
     3.7500      0.0000   1149.0000      1.9263     45.1543
     4.0000      0.0000   1149.0000      1.9427     47.2296
     4.2500      0.0000   1149.0000      1.9579     49.1575
     4.5000      0.0000   1149.0000      1.9634     50.8528
     4.7500      0.0000   1149.0000      1.9581     51.8384
     5.0000      0.0000   1149.0000      1.9485     51.6577
     5.2500      0.0000   1149.0000      1.9427     50.5709
     5.5000      0.0000   1149.0000      1.9439     49.4099
     5.7500      0.0000   1149.0000      1.9480     48.6783
     6.0000      0.0000   1149.0000      1.9471     48.2505
     6.2500      0.0000   1149.0000      1.9357     47.9817
     6.5000      0.0000   1149.0000      1.9151     47.9700
     6.7500      0.0000   1149.0000      1.8931     48.0002
     7.0000      0.0000   1149.0000      1.8791     47.3337
     7.2500      0.0000   1148.9406      1.8817     45.5046
     7.5000      0.0000   1148.5531      1.9140     43.0504
     7.7500      0.0000   1146.5852      2.0428     41.2783
     8.0000      0.0000   1138.8025      2.5110     41.4187
     8.2500      0.0000   1114.8298      3.9286     43.7089
     8.5000      0.0000   1057.3234      7.3240     47.0261
     8.7500      0.0000    949.8883     13.6801     49.6661
     9.0000      0.0000    793.5736     22.9598     50.7454
     9.2500      0.0000    616.4491     33.5260     50.7690
     9.5000      0.0000    460.1407     42.9128     50.8218
     9.7500      0.0000    352.7139     49.4167     51.3827
    10.0000      0.0000    295.2108     52.9165     52.0382
    10.2500      0.0000    271.2309     54.3565     52.2179
    10.5000      0.0000    263.4272     54.7990     51.8407
    10.7500      0.0000    261.4274     54.9287     51.1460
    11.0000      0.0000    261.0034     55.0490     50.2802
    11.2500      0.0000    260.9096     55.2373     49.3884
    11.5000      0.0000    260.8808     55.4718     48.8785
    11.7500      0.0000    260.8587     55.7060     49.2079
    12.0000      0.0000    260.8425     55.9101     50.4305
    12.2500      0.0000    260.8283     56.0895     52.1921
    12.5000      0.0000    260.8110     56.2618     54.1155
    12.7500      0.0000    260.7893     56.4200     55.9050
    13.0000      0.0000    260.7732     56.5233     57.1157
    13.2500      0.0000    260.7911     56.5123     57.2420
    13.5000      0.0000    260.9290     56.3033     56.2082
    13.7500      0.0000    261.4290     55.7624     54.5061
    14.0000      0.0000    262.8271     54.6991     52.8285
    14.2500      0.0000    265.9464     52.9087     51.8142
    14.5000      0.0000    271.4750     50.2732     51.9387
    14.7500      0.0000    279.2119     46.9171     53.1689
    15.0000      0.0000    287.7182     43.3035     54.6669
    15.2500      0.0000    295.0340     40.0887     55.1202
    15.5000      0.0000    299.9328     37.7758     53.6606
    15.7500      0.0000    302.4692     36.4708     50.7310
    16.0000      0.0000    303.4445     35.9501     48.0262
    16.2500      2.0000    303.5647     35.9186     47.2592
    16.5000      0.0000    303.0192     36.2573     48.8725
    16.7500      0.0000    301.5877     37.1174     52.0978
    17.0000      0.0000    299.0758     38.7435     56.0821
    17.2500      0.0000    295.6596     41.1058     60.5118
    17.5000      0.0000    291.6656     43.7915     65.1555
    17.7500      0.0000    287.0284     46.4015     69.2465
    18.0000      0.0000    281.4241     48.8903     71.5339
    18.2500      0.0000    275.1402     51.3190     71.1508
    18.5000      0.0000    269.3395     53.4847     68.7341
    18.7500      0.0000    265.1629     55.0474     66.4754
    19.0000      0.0000    262.8599     55.8913     66.5267
    19.2500      0.0000    261.9034     56.1895     69.1931
    19.5000      0.0000    261.6268     56.2023     72.6475
    19.7500      0.0000    261.6093     56.1138     74.2632
    20.0000      0.0000    261.6844     56.0130     72.5543
    20.2500      0.0000    261.8173     55.9351     68.4186
    20.5000      0.0000    261.9926     55.8949     64.4869
    20.7500      0.0000    262.1543     55.8925     62.8893
    21.0000      0.0000    262.2197     55.9178     63.6549
    21.2500      0.0000    262.1494     55.9657     65.3518
    21.5000      0.0000    261.9895     56.0357     66.7997
    21.7500      0.0000    261.8270     56.1198     67.8142
    22.0000      0.0000    261.7167     56.2049     68.8329
    22.2500      0.0000    261.6605     56.2865     70.5818
    22.5000      0.0000    261.6380     56.3588     73.9011
    22.7500      0.0000    261.6350     56.3971     79.1162
    23.0000      0.0000    261.6463     56.3784     85.3380
    23.2500      0.0000    261.6647     56.3190     90.6992
    23.5000      0.0000    261.6784     56.2670     93.6768
    23.7500      0.0000    261.6793     56.2574     94.2669
    24.0000      0.0000    261.6679     56.2913     93.7186
    24.2500      0.0000    261.6502     56.3491     93.1805
    24.5000      0.0000    261.6311     56.4054     92.9275
    24.7500      0.0000    261.6127     56.4347     92.9498
    25.0000      0.0000    261.5957     56.4206     93.6835
    25.2500      0.0000    261.5815     56.3643     95.5056
    25.5000      0.0000    261.5718     56.2882     97.6070
    25.7500      0.0000    261.5683     56.2308     98.1173
    26.0000      0.0000    261.5708     56.2264     95.8608
    26.2500      0.0000    261.5795     56.2756     91.7784
    26.5000      0.0000    261.5948     56.3442     88.1584
    26.7500      0.0000    261.6142     56.3983     86.5704
