~Version Information
VERS.                      2.0: CWLS Log ASCII Standard - VERSION 2.0
WRAP.                       NO: One line per depth step
~Well Information Block
STRT.FT                 0.0000: 
STOP.FT              2473.5000: 
STEP.FT                 0.2500: 
NULL.                -999.2500: 
COMP.          Petrogulf Corporation: COMPANY
WELL.          Montoya 18-11V-B: WELL
FLD.           Purgatorie River: FIELD
LOC.           848' FNL & 619' FWL: LOCATION
PROV.                 Colorado: PROVINCE
CNTY.               Las Animas: COUNTRY
SRVC.                Patterson: SERVICE COMPANY
DATE.          Wed Nov 09 10:15:13 2005: LOG DATE
UWI.                          : UNIQUE WELL ID
~Curve Information Block
DEPT.FT            0 000 00 00: Depth
CCL.                          : Casing Collar Locator
TT3.usec                      : CBL 3' Travel Time
AMP3.mV                       : CBL 3' Amplitude
GR.GAPI                       : Gamma Ray
~Parameter Information Block
~A  Depth       CCL         TT3         AMP3         GR     
# ...
  1943.0000      0.0000    754.3518      1.5356     58.6558
  1943.2500      0.0000    741.4176      1.7032     57.6088
  1943.5000      0.0000    730.0797      1.8668     57.7915
  1943.7500      0.0000    725.4567      2.0099     60.1695
  1944.0000      0.0000    725.4202      2.1104     64.8893
  1944.2500      0.0000    722.0725      2.1370     71.1190
  1944.5000      0.0000    711.7846      2.1353     77.6442
  1944.7500      0.0000    702.4122      2.2428     83.7774
  1945.0000      0.0000    705.2802      2.4721     89.4553
  1945.2500      0.0000    723.6773      2.6604     94.3047
  1945.5000      0.0000    751.9706      2.7236     97.1391
  1945.7500      0.0000    779.5766      2.7041     96.8706
  1946.0000      0.0000    796.8326      2.6294     93.7708
  1946.2500      0.0000    803.3075      2.4999     89.5029
  1946.5000      2.0000    810.3625      2.3395     85.8791
  1946.7500      0.0000    825.9840      2.1919     83.6094
  1947.0000      0.0000    836.8300      2.0755     82.0416
  1947.2500      0.0000    825.6928      1.9847     79.8401
  1947.5000      0.0000    799.4943      1.9156     76.0830
  1947.7500      0.0000    773.8745      1.8383     71.1310
  1948.0000      0.0000    751.2769      1.7318     66.4831
  1948.2500      0.0000    731.4313      1.6423     63.6123
  1948.5000      0.0000    720.5558      1.6139     62.9389
  1948.7500      0.0000    720.4364      1.6391     63.7407
  1949.0000      0.0000    721.2233      1.6986     64.5625
  1949.2500      0.0000    712.9460      1.7814     63.8474
  1949.5000      0.0000    698.1350      1.8840     61.0102
  1949.7500      0.0000    685.9904      2.0002     57.1082
  1950.0000      0.0000    680.3908      2.1075     53.9006
  1950.2500      0.0000    679.2043      2.1959     52.1485
  1950.5000      0.0000    679.6025      2.2835     51.3132
  1950.7500      0.0000    680.2953      2.3765     50.7512
  1951.0000      0.0000    681.0999      2.4530     50.4813
  1951.2500      0.0000    682.6802      2.5021     50.8030
  1951.5000      0.0000    686.7503      2.5468     51.7940
  1951.7500      0.0000    694.6065      2.6204     53.3175
  1952.0000      0.0000    704.2211      2.7282     55.2183
  1952.2500      0.0000    710.7901      2.8394     57.4127
  1952.5000      0.0000    710.8978      2.9314     59.9276
  1952.7500      0.0000    705.1813      3.0273     62.9768
  1953.0000      0.0000    698.6995      3.1508     66.9523
  1953.2500      0.0000    697.3839      3.2857     72.0795
  1953.5000      0.0000    701.4565      3.4081     77.9528
  1953.7500      0.0000    705.8075      3.5230     83.5675
  1954.0000      0.0000    707.1730      3.6578     87.8238
  1954.2500      0.0000    706.4191      3.8238     89.7797
  1954.5000      0.0000    705.2020      3.9997     88.5803
  1954.7500      0.0000    704.1042      4.1530     83.7078
  1955.0000      0.0000    703.1762      4.2654     75.6440
  1955.2500      0.0000    702.5837      4.3617     66.1880
  1955.5000      0.0000    702.9164      4.5001     57.8167
  1955.7500      0.0000    705.1949      4.7155     52.3681
  1956.0000      0.0000    709.6332      4.9952     50.0664
  1956.2500      0.0000    713.9023      5.3030     49.7708
  1956.5000      0.0000    715.0388      5.6090     50.1572
  1956.7500      0.0000    715.0639      5.8957     50.5369
  1957.0000      0.0000    721.8152      6.1326     50.6985
  1957.2500      0.0000    740.8873      6.2835     50.5083
  1957.5000      0.0000    767.8151      6.3671     49.9763
  1957.7500      0.0000    789.6038      6.4567     49.4387
  1958.0000      0.0000    794.8924      6.5969     49.2658
  1958.2500      0.0000    782.3583      6.7540     49.3567
  1958.5000      0.0000    759.9431      6.8599     49.2635
  1958.7500      0.0000    739.1328      6.8621     48.9628
  1959.0000      0.0000    726.3986      6.7384     49.2053
  1959.2500      0.0000    721.8549      6.5203     50.8513
  1959.5000      0.0000    726.2100      6.2865     54.0007
  1959.7500      0.0000    737.7892      6.1114     57.7958
  1960.0000      0.0000    745.4410      6.0211     60.9125
  1960.2500      0.0000    739.0319      5.9761     62.3806
  1960.5000      0.0000    723.7229      5.8831     62.2530
  1960.7500      0.0000    715.8797      5.6412     61.5831
  1961.0000      0.0000    729.1089      5.1991     61.7116
  1961.2500      0.0000    759.3035      4.5790     63.3209
  1961.5000      0.0000    781.4342      3.8824     65.8321
  1961.7500      0.0000    776.8483      3.2537     67.7783
  1962.0000      0.0000    757.0650      2.7766     68.1069
  1962.2500      0.0000    742.5683      2.4245     67.0676
  1962.5000      0.0000    737.0716      2.1295     65.5208
  1962.7500      0.0000    734.1458      1.8600     63.5921
  1963.0000      0.0000    730.2132      1.6248     60.6080
  1963.2500      0.0000    724.9610      1.4333     56.4635
  1963.5000      0.0000    717.3118      1.2898     52.6254
  1963.7500      0.0000    708.0313      1.2062     51.3951
  1964.0000      0.0000    704.0440      1.1968     54.0676
  1964.2500      0.0000    716.0729      1.2724     59.7909
  1964.5000      0.0000    747.6122      1.4204     66.1977
  1964.7500      0.0000    780.0386      1.6179     71.0374
  1965.0000      0.0000    785.0294      1.8836     73.2331
  1965.2500      0.0000    762.9310      2.2519     72.7706
  1965.5000      0.0000    742.5941      2.7142     70.1603
  1965.7500      0.0000    738.7450      3.2260     66.2266
  1966.0000      0.0000    738.9677      3.7399     62.0508
  1966.2500      0.0000    732.8784      4.2411     58.6857
  1966.5000      0.0000    725.8978      4.7623     56.8206
  1966.7500      0.0000    723.5951      5.3471     56.6783
  1967.0000      0.0000    723.9229      6.0278     58.0393
  1967.2500      0.0000    724.1698      6.8308     60.3441
  1967.5000      0.0000    724.6041      7.7308     62.9299
  1967.7500      0.0000    726.3813      8.5748     65.1689
  1968.0000      0.0000    729.3221      9.1467     66.5183
  1968.2500      0.0000    732.0827      9.3540     66.9078
  1968.5000      0.0000    734.2452      9.2741     67.1087
  1968.7500      0.0000    736.3345      9.0376     68.0150
  1969.0000      0.0000    737.6714      8.7530     69.2567
  1969.2500      0.0000    737.9641      8.4748     69.1025
  1969.5000      0.0000    738.6948      8.1724     66.1505
  1969.7500      0.0000    740.5694      7.7751     60.8493
  1970.0000      0.0000    744.1248      7.2580     55.2116
  1970.2500      0.0000    749.4133      6.6527     51.3332
  1970.5000      0.0000    754.1697      5.9996     50.1577
  1970.7500      0.0000    754.4462      5.3327     51.1400
  1971.0000      0.0000    744.5305      4.7124     52.7959
  1971.2500      0.0000    724.0220      4.2288     53.7391
  1971.5000      0.0000    702.7760      3.9394     53.4027
  1971.7500      0.0000    691.5146      3.8203     51.9837
  1972.0000      0.0000    693.2420      3.8028     50.0601
  1972.2500      0.0000    705.6019      3.8333     48.3535
  1972.5000      0.0000    726.1444      3.8976     47.4973
  1972.7500      0.0000    749.3876      4.0202     47.7190
  1973.0000      0.0000    761.8078      4.2430     48.7797
  1973.2500      0.0000    754.5089      4.5861     50.3005
  1973.5000      0.0000    736.2840      5.0344     52.0863
  1973.7500      0.0000    719.6166      5.5929     54.1175
  1974.0000      0.0000    706.4308      6.3075     56.3640
  1974.2500      0.0000    694.9316      7.1712     58.7291
  1974.5000      0.0000    686.4094      8.0757     61.1049
  1974.7500      0.0000    681.9833      8.8931     63.2186
  1975.0000      0.0000    680.3238      9.5470     64.4612
  1975.2500      0.0000    679.7056      9.9807     64.2782
  1975.5000      0.0000    679.6746     10.1185     62.8288
  1975.7500      0.0000    681.4012      9.9437     60.9424
  1976.0000      0.0000    687.8164      9.5612     59.3894
  1976.2500      0.0000    701.5238      9.0786     58.4619
