~Version Information
VERS.                      2.0: CWLS Log ASCII Standard - VERSION 2.0
WRAP.                       NO: One line per depth step
~Well Information Block
STRT.FT               491.0000: 
STOP.FT              1911.5000: 
STEP.FT                 0.2500: 
NULL.                -999.2500: 
COMP.          Pioneer Natural Resources: COMPANY
WELL.            Corazon 13-10: WELL
FLD.           Purgatoire River: FIELD
LOC.           2510' FSL & 439' FWL: LOCATION
PROV.                 Colorado: PROVINCE
CNTY.               Las Animas: COUNTRY
SRVC.                Patterson: SERVICE COMPANY
DATE.          Wed Nov 30 22:14:48 2005: LOG DATE
UWI.           05 071 08613 00: UNIQUE WELL ID
~Curve Information Block
DEPT.FT            0 000 00 00: Depth
SN.Ohm-m                      : IEL Short Normal
SP.mV                         : IEL Spontaneous Potential
DIR.Ohm-m                     : IEL Induction Resistivity
GR.GAPI                       : Gamma Ray
~Parameter Information Block
~A  Depth        SN          SP         DIR          GR     
# ...
  1027.0000     17.8578      3.5741     18.4601     80.3662
  1027.2500     17.8892      3.5436     18.5655     81.9790
  1027.5000     17.9444      3.5219     18.6484     83.2480
  1027.7500     17.9185      3.5023     18.7039     83.0832
  1028.0000     17.7428      3.4700     18.7359     81.5709
  1028.2500     17.5410      3.4058     18.7514     80.0050
  1028.5000     17.5286      3.2937     18.7508     77.3144
  1028.7500     17.7476      3.1269     18.7283     75.6415
  1029.0000     18.0121      2.9090     18.6859     73.8202
  1029.2500     18.1242      2.6513     18.6468     73.0932
  1029.5000     18.0732      2.3678     18.6522     72.4645
  1029.7500     18.0016      2.0709     18.7379     72.3159
  1030.0000     18.0335      1.7707     18.9092     72.8106
  1030.2500     18.1909      1.4766     19.1313     73.6997
  1030.5000     18.4302      1.2029     19.3485     75.2150
  1030.7500     18.6749      0.9702     19.5198     75.6063
  1031.0000     18.8559      0.7995     19.6451     74.3326
  1031.2500     18.9777      0.7007     19.7584     72.3223
  1031.5000     19.1148      0.6650     19.8974     68.7282
  1031.7500     19.3180      0.6720     20.0763     66.7895
  1032.0000     19.5250      0.7028     20.2806     65.3173
  1032.2500     19.5954      0.7476     20.4798     65.1263
  1032.5000     19.4476      0.8050     20.6445     65.2250
  1032.7500     19.1484      0.8762     20.7574     65.1595
  1033.0000     18.8835      0.9635     20.8143     64.6126
  1033.2500     18.8087      1.0694     20.8194     64.0401
  1033.5000     18.9008      1.1952     20.7806     63.3226
  1033.7500     19.0038      1.3350     20.7044     63.1783
  1034.0000     19.0261      1.4764     20.5957     63.4550
  1034.2500     18.9720      1.6092     20.4589     63.7454
  1034.5000     18.8437      1.7310     20.2997     63.9649
  1034.7500     18.6916      1.8400     20.1256     63.8794
  1035.0000     18.6314      1.9277     19.9480     63.3958
  1035.2500     18.7128      1.9851     19.7850     62.8629
  1035.5000     18.8959      2.0134     19.6614     61.9222
  1035.7500     19.1108      2.0226     19.6000     61.4173
  1036.0000     19.2810      2.0188     19.6085     61.2178
  1036.2500     19.3257      1.9992     19.6726     61.4779
  1036.5000     19.2050      1.9606     19.7625     62.0342
  1036.7500     19.0120      1.9105     19.8476     62.2119
  1037.0000     18.9031      1.8634     19.9060     62.0930
  1037.2500     18.9095      1.8240     19.9264     61.9838
  1037.5000     18.9130      1.7810     19.9043     62.1284
  1037.7500     18.8022      1.7205     19.8424     62.3322
  1038.0000     18.6324      1.6422     19.7528     62.2442
  1038.2500     18.5557      1.5598     19.6535     61.7813
  1038.5000     18.5571      1.4892     19.5584     61.0278
  1038.7500     18.4624      1.4377     19.4674     61.0108
  1039.0000     18.2299      1.4022     19.3686     62.0801
  1039.2500     17.9930      1.3718     19.2501     63.2728
  1039.5000     17.8342      1.3343     19.1134     64.9799
  1039.7500     17.7291      1.2839     18.9752     65.6405
  1040.0000     17.6662      1.2272     18.8563     65.5251
  1040.2500     17.6759      1.1811     18.7698     64.7862
  1040.5000     17.7538      1.1622     18.7150     63.3438
  1040.7500     17.8241      1.1754     18.6829     62.6426
  1041.0000     17.8205      1.2118     18.6636     62.5207
  1041.2500     17.7602      1.2542     18.6479     63.0849
  1041.5000     17.6765      1.2869     18.6238     64.4421
  1041.7500     17.5652      1.3035     18.5769     65.2395
  1042.0000     17.4392      1.3066     18.5000     65.6973
  1042.2500     17.3874      1.3038     18.4057     65.5357
  1042.5000     17.5288      1.3009     18.3249     65.1413
  1042.7500     17.8440      1.2986     18.2882     65.1061
  1043.0000     18.1149      1.2932     18.3031     65.6792
  1043.2500     18.1259      1.2825     18.3471     66.5455
  1043.5000     17.8664      1.2676     18.3834     68.3893
  1043.7500     17.5250      1.2501     18.3867     69.4213
  1044.0000     17.2945      1.2272     18.3582     69.1139
  1044.2500     17.1993      1.1911     18.3187     67.2211
  1044.5000     17.1916      1.1344     18.2885     63.1138
  1044.7500     17.2708      1.0555     18.2749     60.9743
  1045.0000     17.4227      0.9627     18.2731     60.0097
  1045.2500     17.6023      0.8712     18.2757     60.4308
  1045.5000     17.7864      0.7967     18.2804     61.3360
  1045.7500     17.9362      0.7483     18.2875     62.1319
  1046.0000     17.9568      0.7239     18.2892     65.1051
  1046.2500     17.8065      0.7123     18.2597     69.0775
  1046.5000     17.6059      0.6982     18.1596     77.7905
  1046.7500     17.5519      0.6705     17.9547     84.3466
  1047.0000     17.7106      0.6285     17.6366     92.8245
  1047.2500     17.9736      0.5837     17.2309     96.4479
  1047.5000     18.2242      0.5576     16.7885     98.3574
  1047.7500     18.3898      0.5715     16.3700     97.9453
  1048.0000     18.3778      0.6326     16.0295     97.2455
  1048.2500     18.1036      0.7270     15.8019     98.5714
  1048.5000     17.5537      0.8306     15.6984    105.9277
  1048.7500     16.8140      0.9248     15.7082    114.7378
  1049.0000     16.0621      1.0059     15.8053    131.2165
  1049.2500     15.4671      1.0838     15.9540    141.5733
  1049.5000     15.0697      1.1773     16.1146    151.5653
  1049.7500     14.8368      1.3094     16.2481    152.8869
  1050.0000     14.8243      1.5031     16.3217    145.9944
  1050.2500     15.1969      1.7794     16.3167    136.0388
  1050.5000     16.0672      2.1506     16.2363    116.0667
  1050.7500     17.3951      2.6104     16.1086    102.0073
  1051.0000     19.1161      3.1283     15.9803     83.9085
  1051.2500     21.1599      3.6587     15.9032     75.2761
  1051.5000     23.1660      4.1596     15.9177     68.5206
  1051.7500     24.4671      4.6053     16.0415     68.3124
  1052.0000     24.5728      4.9875     16.2647     74.0536
  1052.2500     23.5288      5.3112     16.5571     81.1833
  1052.5000     21.8045      5.5890     16.8824     94.8732
  1052.7500     19.9890      5.8348     17.2125    104.7771
  1053.0000     18.5702      6.0567     17.5326    119.2227
  1053.2500     17.8195      6.2531     17.8348    128.0282
  1053.5000     17.7097      6.4146     18.1088    139.2051
  1053.7500     17.9705      6.5314     18.3375    144.6754
  1054.0000     18.3388      6.6016     18.5023    148.6109
  1054.2500     18.7468      6.6342     18.5957    147.8356
  1054.5000     19.2690      6.6468     18.6353    141.7874
  1054.7500     19.9731      6.6596     18.6693    135.4532
  1055.0000     20.8569      6.6895     18.7668    124.7393
  1055.2500     21.8699      6.7458     18.9978    117.7859
  1055.5000     22.9519      6.8256     19.4121    108.3977
  1055.7500     24.0667      6.9162     20.0214    102.8526
  1056.0000     25.1968      7.0028     20.7851     95.2014
  1056.2500     26.2927      7.0784     21.5993     90.3220
  1056.5000     27.2536      7.1461     22.3067     83.7023
  1056.7500     27.9459      7.2138     22.7503     80.4699
  1057.0000     28.2313      7.2848     22.8544     78.7470
  1057.2500     28.0378      7.3556     22.6618     80.1234
  1057.5000     27.4003      7.4203     22.2824     85.7257
  1057.7500     26.4157      7.4793     21.8126     91.0399
  1058.0000     25.2264      7.5401     21.3019     99.4204
  1058.2500     24.0011      7.6072     20.7722    104.3728
  1058.5000     22.8584      7.6718     20.2453    110.5665
  1058.7500     21.8388      7.7156     19.7492    114.2797
  1059.0000     20.9319      7.7241     19.3054    119.6917
  1059.2500     20.1191      7.6957     18.9204    122.8183
  1059.5000     19.4257      7.6415     18.5882    125.2753
  1059.7500     18.8857      7.5792     18.3001    124.6886
  1060.0000     18.4631      7.5271     18.0520    120.5126
  1060.2500     18.1110      7.4985     17.8491    116.3714
