~Version Information
VERS.                      2.0: CWLS Log ASCII Standard - VERSION 2.0
WRAP.                       NO: One line per depth step
~Well Information Block
STRT.FT               310.0000: 
STOP.FT              2295.5000: 
STEP.FT                 0.1000: 
NULL.                -999.2500: 
COMP.          Pioneer Natural Resources: COMPANY
WELL.               Relay 12-7: WELL
FLD.           Purgatoire River: FIELD
LOC.           1999' FNL & 848' FWL: LOCATION
PROV.                 Colorado: PROVINCE
CNTY.               Las Animas: COUNTRY
SRVC.                Patterson: SERVICE COMPANY
DATE.          Mon Dec 19 07:37:11 2005: LOG DATE
UWI.           05 071 08453 00: UNIQUE WELL ID
~Curve Information Block
DEPT.FT            0 000 00 00: Depth
DCAL.in                       : CDL Caliper
RHOB.g/cc                     : CDL Bulk Density
RHOC.g/cc                     : CDL Density Correction
DPOR.pu                       : CDL Density Porosity
GR.GAPI                       : Gamma Ray
NPOR.pu                       : Neutron Porosity
~Parameter Information Block
~A  Depth       DCAL        RHOB        RHOC        DPOR         GR         NPOR    
# ...
  1884.4000      7.9463      2.3033      0.0475     21.0145     76.2263     20.4550
  1884.5000      7.9397      2.2911      0.0343     21.7487     71.2959     20.0582
  1884.6000      7.9397      2.2793      0.0268     22.4691     62.4049     20.0812
  1884.7000      7.9397      2.2818      0.0874     22.3141     55.3758     20.2881
  1884.8000      7.9445      2.2972      0.0483     21.3836     51.8086     19.8599
  1884.9000      7.9445      2.3212      0.0648     19.9284     51.6428     18.8103
  1885.0000      7.9468      2.3473      0.1069     18.3469     52.4936     18.0704
  1885.1000      7.9468      2.3637      0.0964     17.3533     48.9330     18.3359
  1885.2000      7.9468      2.3628      0.1142     17.4078     39.9105     19.1463
  1885.3000      7.9517      2.3447      0.1048     18.5053     31.1089     19.8400
  1885.4000      7.9517      2.3228      0.0555     19.8315     26.8603     20.2679
  1885.5000      7.9531      2.3106      0.0784     20.5686     25.7608     19.9315
  1885.6000      7.9531      2.3013      0.0719     21.1321     26.1523     18.8520
  1885.7000      7.9531      2.2857      0.0341     22.0767     27.9624     17.7933
  1885.8000      7.9373      2.2725      0.0071     22.8793     31.2256     17.2005
  1885.9000      7.9373      2.2747      0.0104     22.7480     35.0913     17.2104
  1886.0000      7.9523      2.2904      0.0423     21.7932     36.5678     17.9234
  1886.1000      7.9523      2.3042      0.0697     20.9572     34.3283     18.6855
  1886.2000      7.9523      2.3026      0.0354     21.0533     32.5541     18.4886
  1886.3000      7.9596      2.2851      0.0344     22.1176     34.1086     17.5715
  1886.4000      7.9596      2.2643      0.0036     23.3746     36.7413     17.2352
  1886.5000      8.0041      2.2566      0.0101     23.8450     40.0984     18.0971
  1886.6000      8.0041      2.2655      0.0004     23.3030     44.2265     19.4388
  1886.7000      8.0041      2.2870     -0.0148     22.0010     47.6544     19.8510
  1886.8000      8.0231      2.3141      0.0075     20.3587     51.7332     18.7815
  1886.9000      8.0231      2.3318      0.0386     19.2833     56.2548     17.2208
  1887.0000      8.0252      2.3328      0.0383     19.2267     56.4222     16.3720
  1887.1000      8.0252      2.3280      0.0197     19.5153     50.5046     16.3783
  1887.2000      8.0252      2.3274      0.0013     19.5523     43.8644     16.8531
  1887.3000      8.0077      2.3267      0.0219     19.5915     42.7828     17.4712
  1887.4000      8.0077      2.3228     -0.0313     19.8325     46.7198     17.8065
  1887.5000      8.0085      2.3266      0.0006     19.6008     49.4728     17.7801
  1887.6000      8.0085      2.3487     -0.0040     18.2616     48.6629     17.7054
  1887.7000      8.0085      2.3865      0.0195     15.9695     49.5074     18.0422
  1887.8000      7.9916      2.4358      0.0143     12.9835     55.1794     18.6983
  1887.9000      7.9916      2.4912      0.0713      9.6258     62.7298     18.9540
  1888.0000      7.9658      2.5381      0.1080      6.7802     69.9451     18.9968
  1888.1000      7.9658      2.5670      0.1203      5.0314     74.8727     19.3882
  1888.2000      7.9658      2.5805      0.0965      4.2127     76.0348     19.8533
  1888.3000      7.9655      2.5763      0.1150      4.4664     80.7834     20.1203
  1888.4000      7.9655      2.5453      0.0416      6.3451     96.6810     20.1389
  1888.5000      7.9673      2.5002      0.0056      9.0781    113.2066     20.1377
  1888.6000      7.9673      2.4737     -0.0029     10.6845    116.9602     20.4497
  1888.7000      7.9673      2.4758      0.0551     10.5562    113.1729     20.7021
  1888.8000      7.9681      2.4893      0.0594      9.7386    110.8081     20.6994
  1888.9000      7.9681      2.5036      0.0346      8.8755    108.3534     20.6369
  1889.0000      7.9512      2.5084      0.0916      8.5844    103.9792     20.6504
  1889.1000      7.9512      2.4905      0.0859      9.6671    103.4101     20.9986
  1889.2000      7.9512      2.4688      0.0218     10.9806    111.3496     21.7100
  1889.3000      7.9651      2.4701      0.0142     10.9017    123.2557     22.2028
  1889.4000      7.9651      2.4838      0.0263     10.0755    128.3747     21.5882
  1889.5000      7.9699      2.4914     -0.0081      9.6151    120.6122     20.3731
  1889.6000      7.9699      2.4862      0.0389      9.9245    107.3721     20.0594
  1889.7000      7.9699      2.4654      0.0205     11.1890     99.3448     20.8751
  1889.8000      7.9723      2.4459     -0.0071     12.3696    100.4777     21.9783
  1889.9000      7.9723      2.4493      0.0164     12.1618    110.0501     23.0903
  1890.0000      7.9777      2.4680      0.0872     11.0285    122.8492     24.2829
  1890.1000      7.9777      2.4795      0.0396     10.3320    134.2609     25.2557
  1890.2000      7.9777      2.4826      0.0157     10.1428    142.0503     25.6414
  1890.3000      7.9832      2.4935      0.0292      9.4869    140.7522     25.3920
  1890.4000      7.9832      2.5105      0.1162      8.4521    131.1805     25.2555
  1890.5000      7.9907      2.5181      0.1058      7.9953    124.2726     25.8531
  1890.6000      7.9907      2.5103      0.0813      8.4648    124.4888     26.4492
  1890.7000      7.9907      2.4889      0.1072      9.7632    128.2485     26.5860
  1890.8000      7.9906      2.4705      0.0480     10.8775    130.0492     26.7114
  1890.9000      7.9906      2.4740      0.0718     10.6666    128.9400     26.5846
  1891.0000      7.9900      2.4915      0.0449      9.6064    132.2669     26.0616
  1891.1000      7.9900      2.5069      0.0808      8.6717    139.8791     25.8479
  1891.2000      7.9900      2.5158      0.0831      8.1319    138.7713     26.3069
  1891.3000      7.9928      2.5250      0.0849      7.5752    125.8178     26.7980
  1891.4000      7.9928      2.5369      0.0882      6.8527    116.9423     26.6075
  1891.5000      7.9906      2.5367      0.1122      6.8682    118.2889     25.8039
  1891.6000      7.9906      2.5125      0.0846      8.3350    115.5170     24.6760
  1891.7000      7.9906      2.4740      0.0879     10.6655    102.1170     23.5478
  1891.8000      7.9917      2.4407     -0.0085     12.6861     85.1367     22.6445
  1891.9000      7.9917      2.4209      0.0233     13.8876     72.3022     22.1064
  1892.0000      7.9930      2.4050      0.0294     14.8487     66.9489     22.0601
  1892.1000      7.9930      2.3884      0.0322     15.8542     66.0022     22.1753
  1892.2000      7.9930      2.3774      0.0488     16.5193     64.9704     21.9286
  1892.3000      7.9982      2.3709      0.0490     16.9166     62.5984     21.5148
  1892.4000      7.9982      2.3662      0.0140     17.2025     59.3594     21.1849
  1892.5000      7.9982      2.3707      0.0000     16.9268     55.7356     20.7863
  1892.6000      7.9982      2.3783      0.0820     16.4673     52.7993     20.3531
  1892.7000      7.9982      2.3673      0.0927     17.1363     53.3622     19.8495
  1892.8000      7.9988      2.3375      0.0462     18.9379     58.0296     19.1400
  1892.9000      7.9988      2.3068      0.0376     20.7989     60.2597     18.2665
  1893.0000      7.9947      2.2821      0.0481     22.2943     57.7521     17.7389
  1893.1000      7.9947      2.2621      0.0182     23.5068     57.4234     17.7579
  1893.2000      7.9947      2.2477      0.0255     24.3798     56.9735     17.9971
  1893.3000      7.9977      2.2383      0.0446     24.9498     49.8857     18.3017
  1893.4000      7.9977      2.2280      0.0331     25.5750     43.2039     18.6420
  1893.5000      7.9997      2.2176     -0.0053     26.2040     42.5495     18.8368
  1893.6000      7.9997      2.2269     -0.0621     25.6414     43.4109     18.6005
  1893.7000      7.9997      2.2602      0.0272     23.6224     42.1934     18.3973
  1893.8000      7.9977      2.2832      0.0988     22.2292     38.9990     18.8549
  1893.9000      7.9977      2.2762      0.0320     22.6544     37.0405     19.7717
