~Version Information
VERS.                      2.0: CWLS Log ASCII Standard - VERSION 2.0
WRAP.                       NO: One line per depth step
~Well Information Block
STRT.FT               335.0000: 
STOP.FT              1154.7000: 
STEP.FT                 0.1000: 
NULL.                -999.2500: 
COMP.          Pioneer Natural Resources: COMPANY
WELL.             Croc 42-9 Tr: WELL
FLD.           Purgatoire River: FIELD
LOC.           2429' FNL & 315' FEL--: LOCATION
STAT.                 Colorado: State
CNTY.               Las Animas: COUNTY
CTRY. USA : Country
SECT. 9 : Section
TOWN. 32S : Township
RANG. 66W : Range
SRVC.                Patterson: SERVICE COMPANY
DATE.          Fri Oct 14 07:56:23 2005: LOG DATE
API.           05 071 08550 00: UNIQUE WELL ID
~Curve Information Block
DEPT.FT            0 000 00 00: Depth
DCAL.in                       : CDL Caliper
RHOB.g/cc                     : CDL Bulk Density
RHOC.g/cc                     : CDL Density Correction
DPOR.pu                       : CDL Density Porosity
NPOR.pu                       : Neutron Porosity
GR.GAPI                       : Gamma Ray
~Parameter Information Block
~A  Depth       DCAL        RHOB        RHOC        DPOR        NPOR         GR     
# ...
   488.6000      8.0205      2.5853      0.0344      3.9217     23.8344    109.1607
   488.7000      8.0205      2.5785      0.0554      4.3348     20.6380    105.8293
   488.8000      8.0173      2.5740      0.0446      4.6038     18.1598    103.3248
   488.9000      8.0173      2.5679      0.0612      4.9744     16.5657    102.6503
   489.0000      8.0173      2.5662      0.0227      5.0788     16.6264    102.7945
   489.1000      8.0173      2.5729      0.0669      4.6746     19.0319    103.5884
   489.2000      8.0173      2.5785      0.0554      4.3331     23.1021    109.1839
   489.3000      8.0193      2.5817      0.0511      4.1417     25.6640    119.3374
   489.4000      8.0193      2.5849      0.0540      3.9483     25.2341    127.5143
   489.5000      8.0219      2.5757      0.0492      4.5034     24.4741    133.1624
   489.6000      8.0219      2.5490      0.0335      6.1213     24.0684    141.0968
   489.7000      8.0219      2.5248      0.0403      7.5885     22.3325    148.5489
   489.8000      8.0234      2.5296     -0.0003      7.2976     20.1982    148.3412
   489.9000      8.0234      2.5611      0.0816      5.3884     20.2287    142.5476
   490.0000      8.0228      2.5841      0.1159      3.9946     21.6961    138.1129
   490.1000      8.0228      2.5833      0.0627      4.0406     21.0920    137.5468
   490.2000      8.0228      2.5808      0.0741      4.1929     19.0048    140.0674
   490.3000      8.0223      2.5924      0.0917      3.4888     19.2294    141.2149
   490.4000      8.0223      2.6060      0.0742      2.6680     20.8975    135.9530
   490.5000      8.0240      2.6010      0.0756      2.9671     20.3754    127.4170
   490.6000      8.0240      2.5780      0.0239      4.3621     18.3920    119.9752
   490.7000      8.0240      2.5584      0.0412      5.5532     17.7411    111.7257
   490.8000      8.0233      2.5562      0.0208      5.6852     18.1029    101.6601
   490.9000      8.0233      2.5729      0.0019      4.6701     17.5655     92.9062
   491.0000      8.0200      2.5963      0.0396      3.2539     17.5577     87.5255
   491.1000      8.0200      2.5987      0.0675      3.1088     20.1196     86.8614
   491.2000      8.0200      2.5766     -0.0019      4.4506     21.6442     89.2467
   491.3000      8.0198      2.5571      0.0125      5.6310     19.1069     89.3575
   491.4000      8.0198      2.5525      0.0439      5.9072     17.3292     87.1506
   491.5000      8.0223      2.5563     -0.0073      5.6778     19.4522     84.6191
   491.6000      8.0223      2.5631      0.0410      5.2680     21.7635     82.7243
   491.7000      8.0223      2.5699      0.0102      4.8534     20.5389     83.7067
   491.8000      8.0221      2.5746      0.0404      4.5681     18.9034     85.3867
   491.9000      8.0221      2.5715      0.0624      4.7580     19.5429     85.1369
   492.0000      8.0211      2.5625      0.0294      5.3036     20.6680     84.0867
   492.1000      8.0211      2.5609     -0.0023      5.4019     21.0541     85.3867
   492.2000      8.0211      2.5730      0.0305      4.6679     21.9792     90.3295
   492.3000      8.0269      2.5905      0.0284      3.6069     24.0907     96.2328
   492.4000      8.0269      2.6005      0.0586      3.0009     25.7921    103.6197
   492.5000      8.0373      2.5977      0.0479      3.1688     24.5778    114.9913
   492.6000      8.0373      2.5916      0.0161      3.5375     21.5470    126.1931
   492.7000      8.0373      2.5909      0.0568      3.5804     21.0068    130.9720
   492.8000      8.0446      2.5872      0.0795      3.8086     23.9559    129.2976
   492.9000      8.0446      2.5780      0.0199      4.3609     26.1587    126.0656
   493.0000      8.0475      2.5749      0.0585      4.5535     25.2763    123.6275
   493.1000      8.0475      2.5757      0.0520      4.5013     25.4394    121.5232
   493.2000      8.0475      2.5668      0.0658      5.0399     28.5243    123.0077
   493.3000      8.0427      2.5451      0.0281      6.3552     29.8825    128.9748
   493.4000      8.0427      2.5260      0.0161      7.5136     27.2183    131.9734
   493.5000      8.0310      2.5215      0.0263      7.7859     24.9871    128.4380
   493.6000      8.0310      2.5253      0.0262      7.5580     25.4575    124.7530
   493.7000      8.0310      2.5288      0.0270      7.3480     25.3029    127.0610
   493.8000      8.0226      2.5335      0.0257      7.0614     23.3533    133.0551
   493.9000      8.0226      2.5430      0.0135      6.4839     22.9862    138.1751
   494.0000      8.0217      2.5541      0.0263      5.8139     24.1655    141.5355
   494.1000      8.0217      2.5629      0.0737      5.2767     23.7816    139.6467
   494.2000      8.0217      2.5755      0.0446      4.5169     22.4572    132.5928
   494.3000      8.0237      2.5966      0.1088      3.2379     22.5812    126.4949
   494.4000      8.0237      2.6122      0.0865      2.2938     22.7240    123.2723
   494.5000      8.0251      2.6066      0.0742      2.6282     21.1766    119.1040
   494.6000      8.0251      2.5828      0.0769      4.0728     21.0981    111.7383
   494.7000      8.0251      2.5541      0.0481      5.8137     23.8370    105.0600
   494.8000      8.0299      2.5352      0.0274      6.9574     25.5246    105.2685
   494.9000      8.0299      2.5395      0.0281      6.6943     24.6506    112.2556
   495.0000      8.0365      2.5642      0.0453      5.2008     24.4210    119.5447
   495.1000      8.0365      2.5788      0.0908      4.3150     25.4180    121.1847
   495.2000      8.0365      2.5610      0.0508      5.3967     25.5077    118.2654
   495.3000      8.0393      2.5308      0.0247      7.2213     25.0975    116.6953
   495.4000      8.0393      2.5160      0.0249      8.1217     26.1868    117.8312
   495.5000      8.0428      2.5121      0.0538      8.3559     28.6332    120.4883
   495.6000      8.0428      2.5118      0.0147      8.3779     29.5162    126.2383
   495.7000      8.0428      2.5275      0.0173      7.4220     27.9070    133.6516
   495.8000      8.0487      2.5563      0.0819      5.6796     26.4239    138.8093
   495.9000      8.0487      2.5701      0.1010      4.8414     25.3735    141.9059
   496.0000      8.0524      2.5553      0.0807      5.7400     22.7682    142.7641
   496.1000      8.0524      2.5269      0.0184      7.4613     19.6055    138.0916
   496.2000      8.0524      2.5127      0.0196      8.3228     19.2055    131.9659
   496.3000      8.0528      2.5251      0.0430      7.5722     21.8246    132.8152
   496.4000      8.0528      2.5486      0.0723      6.1444     23.3622    137.5349
   496.5000      8.0509      2.5615      0.0317      5.3619     21.7205    138.3875
   496.6000      8.0509      2.5575      0.0496      5.6063     20.6509    138.8486
   496.7000      8.0509      2.5408      0.0368      6.6206     22.1418    143.1785
   496.8000      8.0501      2.5197      0.0406      7.8952     23.5976    142.9337
   496.9000      8.0501      2.5057     -0.0095      8.7466     22.8585    134.8811
   497.0000      8.0514      2.5068      0.0460      8.6779     21.5181    129.4982
   497.1000      8.0514      2.5220     -0.0011      7.7600     22.1904    131.9021
   497.2000      8.0514      2.5425      0.0059      6.5144     24.4771    134.4267
   497.3000      8.0544      2.5531      0.0564      5.8710     25.1992    132.3802
   497.4000      8.0544      2.5441      0.0393      6.4171     23.7947    134.1934
   497.5000      8.0608      2.5253      0.0223      7.5563     23.9863    142.2269
   497.6000      8.0608      2.5110      0.0385      8.4234     26.9277    148.6231
   497.7000      8.0608      2.5000      0.0629      9.0914     28.6974    151.5462
   497.8000      8.0714      2.4899      0.0035      9.7030     27.4373    153.2769
   497.9000      8.0714      2.4893     -0.0003      9.7399     26.9986    153.9019
   498.0000      8.0794      2.4945      0.0538      9.4221     29.3125    155.3812
   498.1000      8.0794      2.4874      0.0780      9.8563     31.1338    159.7403
