~Version Information
VERS.                      2.0: CWLS Log ASCII Standard - VERSION 2.0
WRAP.                       NO: One line per depth step
~Well Information Block
STRT.FT               620.0000: 
STOP.FT              3067.2500: 
STEP.FT                 0.2500: 
NULL.                -999.2500: 
COMP.          Pioneer Natural Resources: COMPANY
WELL.          Interceptor 43-13 Kv: WELL
FLD.           Purgatoire River: FIELD
LOC.           2073' FSL & 519' FEL--: LOCATION
PROV.                 Colorado: PROVINCE
CNTY.               Las Animas: COUNTRY
SRVC.                Patterson: SERVICE COMPANY
DATE.          Sat Jan 14 19:35:17 2006: LOG DATE
UWI.           05 071 08655 00: UNIQUE WELL ID
~Curve Information Block
DEPT.FT            0 000 00 00: Depth
SN.Ohm-m                      : IEL Short Normal
SP.mV                         : IEL Spontaneous Potential
DIR.Ohm-m                     : IEL Induction Resistivity
GR.GAPI                       : Gamma Ray
~Parameter Information Block
~A  Depth        SN          SP         DIR          GR     
# ...
  2395.5000     13.1555     40.9382     11.7807    117.4098
  2395.7500     13.0868     41.1300     11.5584    117.3622
  2396.0000     12.9720     41.3571     11.3328    117.9338
  2396.2500     12.8111     41.6130     11.1061    118.8273
  2396.5000     12.6177     41.8864     10.8797    120.7206
  2396.7500     12.4137     42.1615     10.6555    122.1789
  2397.0000     12.2217     42.4192     10.4365    124.4855
  2397.2500     12.0574     42.6389     10.2260    126.0347
  2397.5000     11.9233     42.8001     10.0285    128.2183
  2397.7500     11.8107     42.8861      9.8486    129.4647
  2398.0000     11.7060     42.8869      9.6899    130.7314
  2398.2500     11.5970     42.8023      9.5531    130.9616
  2398.5000     11.4762     42.6432      9.4347    130.1164
  2398.7500     11.3409     42.4301      9.3281    128.8723
  2399.0000     11.1906     42.1896      9.2266    126.8814
  2399.2500     11.0255     41.9475      9.1254    126.2069
  2399.5000     10.8455     41.7231      9.0230    126.8800
  2399.7500     10.6496     41.5246      8.9208    128.2605
  2400.0000     10.4355     41.3485      8.8221    130.8850
  2400.2500     10.2015     41.1832      8.7319    132.6264
  2400.5000      9.9584     41.0149      8.6562    134.8125
  2400.7500      9.7416     40.8335      8.6029    135.6916
  2401.0000      9.6110     40.6360      8.5804    135.6880
  2401.2500      9.6234     40.4266      8.5972    134.8046
  2401.5000      9.7926     40.2142      8.6597    132.5128
  2401.7500     10.0651     40.0082      8.7729    130.5051
  2402.0000     10.3437     39.8168      8.9401    126.8954
  2402.2500     10.5508     39.6464      9.1637    124.1353
  2402.5000     10.6939     39.5035      9.4463    119.5145
  2402.7500     10.8806     39.3957      9.7905    116.2427
  2403.0000     11.2728     39.3328     10.1976    111.7599
  2403.2500     12.0165     39.3241     10.6658    109.6256
  2403.5000     13.1924     39.3760     11.1890    108.2214
  2403.7500     14.8002     39.4880     11.7579    108.3197
  2404.0000     16.7515     39.6519     12.3612    109.2086
  2404.2500     18.8719     39.8514     12.9862    109.7874
  2404.5000     20.9400     40.0648     13.6192    110.0883
  2404.7500     22.7728     40.2680     14.2495    109.8021
  2405.0000     24.2994     40.4372     14.8766    108.5380
  2405.2500     25.5630     40.5508     15.5157    107.0525
  2405.5000     26.6584     40.5894     16.1957    103.8769
  2405.7500     27.6714     40.5359     16.9506    101.3676
  2406.0000     28.6636     40.3745     17.8094     97.6743
  2406.2500     29.6901     40.0902     18.7900     95.5090
  2406.5000     30.8160     39.6695     19.8983     92.4239
  2406.7500     32.1115     39.1016     21.1320     89.9844
  2407.0000     33.6313     38.3798     22.4868     85.3299
  2407.2500     35.3964     37.5037     23.9587     81.9338
  2407.5000     37.3850     36.4800     25.5383     77.3338
  2407.7500     39.5360     35.3231     27.1972     74.5080
  2408.0000     41.7616     34.0545     28.8765     69.1775
  2408.2500     43.9668     32.7020     30.4873     64.1355
  2408.5000     46.0711     31.2984     31.9275     54.7554
  2408.7500     48.0232     29.8816     33.1085     48.5023
  2409.0000     49.7855     28.4953     33.9827     41.3788
  2409.2500     51.2830     27.1907     34.5551     38.7492
  2409.5000     52.3562     26.0282     34.8645     37.5571
  2409.7500     52.7754     25.0770     34.9362     37.9892
  2410.0000     52.3134     24.4125     34.7370     39.8920
  2410.2500     50.8298     24.1094     34.1756     42.0270
  2410.5000     48.3294     24.2315     33.1587     46.6880
  2410.7500     44.9902     24.8203     31.6678     50.7328
  2411.0000     41.1437     25.8838     29.7883     58.0897
  2411.2500     37.1909     27.3907     27.6704     63.9019
  2411.5000     33.4807     29.2698     25.4658     74.1634
  2411.7500     30.2229     31.4177     23.2960     81.9912
  2412.0000     27.4801     33.7102     21.2520     94.6274
  2412.2500     25.2211     36.0173     19.4014    103.0499
  2412.5000     23.3862     38.2164     17.7874    114.4130
  2412.7500     21.9264     40.2026     16.4292    120.4059
  2413.0000     20.8092     41.8936     15.3282    126.2785
  2413.2500     20.0073     43.2316     14.4769    128.2605
  2413.5000     19.4885     44.1828     13.8676    129.4957
  2413.7500     19.2128     44.7365     13.4944    129.8983
  2414.0000     19.1317     44.9052     13.3529    130.0441
  2414.2500     19.1897     44.7261     13.4358    128.9949
  2414.5000     19.3289     44.2615     13.7277    123.5347
  2414.7500     19.5035     43.5981     14.1991    116.6373
  2415.0000     19.6989     42.8408     14.8047    102.5733
  2415.2500     19.9497     42.1017     15.4887     92.5512
  2415.5000     20.3359     41.4842     16.1976     80.1762
  2415.7500     20.9442     41.0659     16.8948     75.3887
  2416.0000     21.8071     40.8830     17.5656     75.0239
  2416.2500     22.8630     40.9236     18.2059     79.3987
  2416.5000     23.9729     41.1301     18.8040     91.1696
  2416.7500     24.9873     41.4111     19.3329    100.4809
  2417.0000     25.8220     41.6610     19.7626    112.6623
  2417.2500     26.5002     41.7802     20.0880    117.8087
  2417.5000     27.1451     41.6913     20.3502    119.7475
  2417.7500     27.9295     41.3489     20.6314    117.3556
  2418.0000     29.0089     40.7414     21.0299    109.6627
  2418.2500     30.4707     39.8869     21.6344    102.9564
  2418.5000     32.3265     38.8269     22.5120     92.2359
  2418.7500     34.5381     37.6190     23.7111     85.1042
  2419.0000     37.0512     36.3311     25.2688     74.3792
  2419.2500     39.8169     35.0353     27.2120     67.0625
  2419.5000     42.7980     33.8025     29.5426     55.9179
  2419.7500     45.9500     32.6956     32.2127     48.6965
  2420.0000     49.1832     31.7633     35.1076     39.1483
  2420.2500     52.3441     31.0348     38.0536     34.2750
  2420.5000     55.2456     30.5172     40.8562     29.8236
  2420.7500     57.7255     30.1966     43.3436     28.6166
  2421.0000     59.6842     30.0419     45.3886     28.5364
  2421.2500     61.0903     30.0107     46.9087     29.0988
  2421.5000     61.9719     30.0555     47.8687     30.3852
  2421.7500     62.4040     30.1282     48.2943     31.3925
  2422.0000     62.4911     30.1832     48.2766     32.6629
  2422.2500     62.3465     30.1787     47.9409     33.0006
  2422.5000     62.0741     30.0784     47.3923     32.5534
  2422.7500     61.7484     29.8518     46.6758     31.8953
  2423.0000     61.3961     29.4773     45.7867     31.1560
  2423.2500     60.9882     28.9456     44.7160     31.1765
  2423.5000     60.4512     28.2645     43.4946     32.1385
  2423.7500     59.6949     27.4636     42.1924     33.3052
  2424.0000     58.6365     26.5971     40.8770     35.4694
  2424.2500     57.2053     25.7439     39.5653     36.8469
  2424.5000     55.3277     25.0020     38.2048     38.1670
  2424.7500     52.9174     24.4785     36.6917     38.4042
  2425.0000     49.8962     24.2747     34.9208     38.3399
  2425.2500     46.2567     24.4700     32.8408     38.6993
  2425.5000     42.1312     25.1073     30.4870     41.0385
  2425.7500     37.8023     26.1845     27.9711     44.3116
  2426.0000     33.6171     27.6525     25.4364     52.4419
  2426.2500     29.8493     29.4230     23.0119     60.2539
  2426.5000     26.6141     31.3817     20.7860     75.1035
  2426.7500     23.8834     33.4057     18.8017     85.9176
  2427.0000     21.5629     35.3808     17.0640    100.5378
  2427.2500     19.5613     37.2152     15.5524    107.9913
  2427.5000     17.8189     38.8480     14.2357    115.8063
  2427.7500     16.3066     40.2512     13.0852    119.5676
  2428.0000     15.0119     41.4266     12.0818    123.8530
  2428.2500     13.9224     42.3992     11.2149    125.7851
  2428.5000     13.0151     43.2076     10.4759    127.4114
  2428.7500     12.2547     43.8957      9.8513    127.9346
