~Version Information
VERS.                      2.0: CWLS Log ASCII Standard - VERSION 2.0
WRAP.                       NO: One line per depth step
~Well Information Block
STRT.FT                10.0000: 
STOP.FT              1380.7500: 
STEP.FT                 0.2500: 
NULL.                -999.2500: 
COMP.          Pioneer Natural Resources: COMPANY
WELL.          Baa Baa 34-1 Tr: WELL
FLD.           Purgatoire River: FIELD
LOC.           785' FSL & 2304' FEL: LOCATION
CNTY.               Las Animas: COUNTY
SRVC.                Patterson: SERVICE COMPANY
DATE.          Tue Mar 07 13:08:19 2006: LOG DATE
UWI.           05 071 08710 00: UNIQUE WELL ID
STAT.                 Colorado: STATE
~Curve Information Block
DEPT.FT            0 000 00 00: Depth
GR.GAPI                       : Gamma Ray
CCL.                          : Casing Collar Locator
TT3.usec                      : CBL 3' Travel Time
AMP3.mV                       : CBL 3' Amplitude
~Parameter Information Block
~A  Depth        GR         CCL         TT3         AMP3    
# ...
   445.5000    124.9825      0.0000    762.1517     13.0739
   445.7500    128.5517      0.0000    763.0222     12.9335
   446.0000    131.6674      0.0000    764.9059     12.8240
   446.2500    133.5685      0.0000    768.0215     12.7608
   446.5000    133.8671      0.0000    771.8685     12.7570
   446.7500    132.7411      0.0000    775.1221     12.8225
   447.0000    130.4925      0.0000    776.3004     12.9539
   447.2500    127.2609      0.0000    774.7830     13.1287
   447.5000    123.3841      0.0000    771.3112     13.3173
   447.7500    119.7985      0.0000    767.5302     13.5012
   448.0000    117.7339      0.0000    764.9544     13.6724
   448.2500    117.7059      0.0000    764.2686     13.8187
   448.5000    118.7121      0.0000    765.3661     13.9188
   448.7500    118.7714      0.0000    767.5968     13.9570
   449.0000    116.5915      0.0000    769.8267     13.9453
   449.2500    112.6201      0.0000    770.7834     13.9271
   449.5000    108.4174      0.0000    769.9267     13.9553
   449.7500    105.3846      0.0000    767.9257     14.0601
   450.0000    104.0925      0.0000    765.9833     14.2332
   450.2500    104.1399      0.0000    764.8014     14.4441
   450.5000    104.2881      0.0000    764.3051     14.6675
   450.7500    103.2457      0.0000    764.1006     14.8949
   451.0000    100.9825      0.0000    763.9326     15.1223
   451.2500     99.1892      0.0000    763.7673     15.3354
   451.5000     99.9748      0.0000    763.6381     15.5115
   451.7500    103.9501      0.0000    763.5402     15.6274
   452.0000    109.6193      0.0000    763.4603     15.6632
   452.2500    114.4817      0.0000    763.4485     15.6000
   452.5000    116.6597      0.0000    763.6393     15.4202
   452.7500    115.8294      0.0000    764.2686     15.1248
   453.0000    112.9721      0.0000    765.6171     14.7512
   453.2500    109.2396      0.0000    767.6795     14.3656
   453.5000    104.8295      0.0000    769.7538     14.0281
   453.7500     98.9111      0.0000    770.6610     13.7681
   454.0000     90.9149      0.0000    769.7473     13.5792
   454.2500     82.1273      0.0000    767.5652     13.4263
   454.5000     75.7319      0.0000    765.3281     13.2618
   454.7500     74.8957      0.0000    763.8513     13.0562
   455.0000     80.6716      0.0000    763.1825     12.8237
   455.2500     91.4582      0.0000    762.9839     12.6144
   455.5000    104.0850      0.0000    762.9726     12.4793
   455.7500    115.5785      0.0000    763.0447     12.4360
   456.0000    124.5554      0.0000    763.1879     12.4564
   456.2500    131.3564      0.0000    763.3913     12.4860
   456.5000    136.9756      0.0000    763.6298     12.4807
   456.7500    141.9115      0.0000    763.8942     12.4315
   457.0000    145.9007      0.0000    764.1880     12.3562
   457.2500    148.3450      0.0000    764.4940     12.2749
   457.5000    148.7017      0.0000    764.7540     12.1983
   457.7500    146.6451      0.0000    764.9019     12.1318
   458.0000    142.3547      0.0000    764.9221     12.0783
   458.2500    136.8606      0.0000    764.8701     12.0336
   458.5000    131.7656      0.0000    764.8299     11.9825
   458.7500    128.3461      0.0000    764.8497     11.9104
   459.0000    126.8458      0.0000    764.8884     11.8209
   459.2500    126.4527      0.0000    764.7885     11.7418
   459.5000    125.7978      0.0000    764.2560     11.7024
   459.7500    123.8086      0.0000    762.9462     11.7010
   460.0000    120.4728      0.0000    760.8147     11.6996
   460.2500    116.7285      0.0000    758.5345     11.6571
   460.5000    113.5472      0.0000    757.2818     11.5631
   460.7500    111.2519      0.0000    757.7416     11.4361
   461.0000    109.5208      0.0000    759.4294     11.2971
   461.2500    107.6032      0.0000    761.2256     11.1544
   461.5000    104.6341      0.0000    762.3926     11.0096
   461.7500    100.1266      0.0000    762.8994     10.8679
   462.0000     94.1617      0.0000    763.0422     10.7365
   462.2500     87.1201      0.0000    763.0533     10.6150
   462.5000     79.5929      0.0000    763.0159     10.4901
   462.7500     72.5601      0.0000    762.9484     10.3471
   463.0000     67.0992      0.0000    762.8798     10.1892
   463.2500     63.5952      0.0000    762.8625     10.0436
   463.5000     61.3507      0.0000    762.9311      9.9416
   463.7500     59.1590      0.0000    763.0755      9.8903
   464.0000     56.3345      0.0000    763.2573      9.8678
   464.2500     53.2274      0.0000    763.4447      9.8467
   464.5000     50.8257      0.0000    763.6315      9.8195
   464.7500     49.9827      0.0000    763.8670      9.8005
   465.0000     50.8986      0.0000    764.3114      9.8055
   465.2500     52.9409      0.0000    765.2819      9.8381
   465.5000     54.8618      0.0000    767.1230      9.8919
   465.7500     55.5766      0.0000    769.7882      9.9614
   466.0000     55.0299      0.0000    772.4980     10.0509
   466.2500     54.1780      0.0000    774.2333     10.1754
   466.5000     54.0341      0.0000    775.0573     10.3493
   466.7500     54.8494      0.0000    776.8925     10.5740
   467.0000     56.1434      0.0000    782.5126     10.8404
   467.2500     57.1714      0.0000    793.3497     11.1399
   467.5000     57.3150      0.0000    808.0275     11.4639
   467.7500     56.4072      0.0000    823.0100     11.7923
   468.0000     54.9544      0.0000    834.8929     12.0905
   468.2500     53.9412      0.0000    842.3164     12.3207
   468.5000     54.1695      0.0000    846.0245     12.4584
   468.7500     55.6727      0.0000    847.6022     12.5055
   469.0000     57.7109      0.0000    848.3489     12.4956
   469.2500     59.3131      0.0000    848.9502     12.4908
   469.5000     59.8638      0.0000    849.6689     12.5622
   469.7500     59.3207      0.0000    850.6439     12.7541
   470.0000     58.0407      0.0000    852.0989     13.0533
   470.2500     56.4115      0.0000    854.3090     13.3968
   470.5000     54.6024      0.0000    857.2284     13.7226
   470.7500     52.5979      0.0000    860.0643     14.0163
   471.0000     50.3023      0.0000    861.4328     14.3126
   471.2500     47.5581      0.0000    860.1204     14.6616
   471.5000     44.3370      0.0000    855.5385     15.0969
   471.7500     41.0972      0.0000    847.4254     15.6310
   472.0000     38.7283      0.0000    835.7070     16.2699
   472.2500     37.8661      0.0000    821.1775     17.0206
   472.5000     38.3406      0.0000    806.2040     17.8737
   472.7500     39.4849      0.0000    794.3140     18.7737
   473.0000     40.8695      0.0000    788.5403     19.6157
   473.2500     42.5672      0.0000    789.5688     20.2839
   473.5000     44.9571      0.0000    795.2518     20.7086
   473.7500     48.7491      0.0000    802.0715     20.9016
   474.0000     55.1846      0.0000    807.2501     20.9385
   474.2500     65.4783      0.0000    809.6212     20.9041
   474.5000     79.3953      0.0000    809.0895     20.8445
   474.7500     94.4994      0.0000    805.9572     20.7597
   475.0000    107.5252      0.0000    800.8167     20.6243
   475.2500    116.8534      0.0000    794.5620     20.4102
   475.5000    123.3401      0.0000    788.2047     20.1028
   475.7500    128.6734      0.0000    782.8412     19.7114
   476.0000    133.5288      0.0000    779.7053     19.2685
   476.2500    137.5869      0.0000    779.7413     18.8166
   476.5000    140.6188      0.0000    782.9434     18.3926
   476.7500    142.9123      0.0000    788.4019     18.0215
   477.0000    144.9425      0.0000    795.0447     17.7110
   477.2500    146.9939      0.0000    802.5631     17.4483
   477.5000    148.8888      0.0000    812.3381     17.1982
   477.7500    149.9653      0.0000    828.4185     16.9083
   478.0000    149.5681      0.0000    856.0645     16.5142
   478.2500    147.5202      0.0000    895.1467     15.9217
   478.5000    143.9590      0.0000    933.3410     14.9876
   478.7500    138.9109      0.0000    950.9351     13.5988
