~Version Information
VERS.                      2.0: CWLS Log ASCII Standard - VERSION 2.0
WRAP.                       NO: One line per depth step
~Well Information Block
STRT.FT               235.0000: 
STOP.FT              1271.0000: 
STEP.FT                 0.1000: 
NULL.                -999.2500: 
COMP.          Pioneer Natural Resources: COMPANY
WELL.              Julie 11-30: WELL
FLD.           Purgatoire River: FIELD
LOC.           672' FNL & 1052' FWL: LOCATION
CNTY.               Las Animas: COUNTY
SRVC.                Patterson: SERVICE COMPANY
DATE.          Fri Apr 14 07:21:24 2006: LOG DATE
UWI.           05 071 08724 00: UNIQUE WELL ID
STAT.                 Colorado: STATE
~Curve Information Block
DEPT.FT            0 000 00 00: Depth
DCAL.in                       : CDL Caliper
RHOB.g/cc                     : CDL Bulk Density
RHOC.g/cc                     : CDL Density Correction
DPOR.pu                       : CDL Density Porosity
GR.GAPI                       : Gamma Ray
NPOR.pu                       : Neutron Porosity
~Parameter Information Block
~A  Depth       DCAL        RHOB        RHOC        DPOR         GR         NPOR    
   235.0000     -1.6979      1.9654      0.4164     41.4886    102.2406     24.7250
   235.1000     -1.6979      1.9875      0.4311     40.1519    100.8358     24.9152
   235.2000     -1.6979      1.9953      0.4285     39.6814     97.5046     25.5984
   235.3000     -1.7389      1.9955      0.4407     39.6685     96.5078     26.2836
   235.4000     -1.7389      1.9922      0.4296     39.8637     97.4004     25.9592
   235.5000     -1.7776      1.9944      0.3872     39.7348     98.1026     24.9782
   235.6000     -1.7776      2.0058      0.4370     39.0444     97.4053     24.1826
   235.7000     -1.7776      2.0151      0.4429     38.4778     95.4433     23.7451
   235.8000     -1.8210      2.0147      0.4141     38.5024     94.3811     23.6717
   235.9000     -1.8210      2.0093      0.4189     38.8306     93.6056     23.7163
   236.0000     -1.8704      2.0056      0.4280     39.0551     92.0124     23.8330
   236.1000     -1.8704      2.0066      0.4124     38.9931     92.6418     24.4902
   236.2000     -1.8704      2.0114      0.4615     38.7054     96.3676     25.1301
   236.3000     -1.9260      2.0183      0.4259     38.2853    100.3163     24.6727
   236.4000     -1.9260      2.0249      0.4738     37.8859    105.1045     23.1437
   236.5000     -1.9720      2.0221      0.4431     38.0560    110.1490     21.5647
   236.6000     -1.9720      2.0073      0.4330     38.9488    108.5965     20.7716
   236.7000     -1.9720      1.9930      0.4261     39.8168     98.6772     20.7218
   236.8000     -2.0273      1.9914      0.4500     39.9156     88.6979     21.0441
   236.9000     -2.0273      2.0021      0.4311     39.2661     87.5864     21.5629
   237.0000     -2.0790      2.0123      0.4588     38.6481     93.6174     21.7408
   237.1000     -2.0790      2.0094      0.4217     38.8231     98.9474     21.2277
   237.2000     -2.0790      1.9975      0.4381     39.5435    101.0631     20.8673
   237.3000     -2.1270      1.9841      0.4071     40.3570     99.6530     21.6407
   237.4000     -2.1270      1.9710      0.4070     41.1524     93.8200     22.9195
   237.5000     -2.1797      1.9638      0.3667     41.5880     87.6271     23.4718
   237.6000     -2.1797      1.9753      0.3887     40.8931     88.9106     23.2138
   237.7000     -2.1797      2.0012      0.4276     39.3185     99.2406     22.8074
   237.8000     -2.2345      2.0205      0.4216     38.1487    108.7837     22.7561
   237.9000     -2.2345      2.0305      0.4214     37.5435    109.8618     23.0883
   238.0000     -2.2986      2.0414      0.4044     36.8876    107.3989     23.4376
   238.1000     -2.2986      2.0518      0.4545     36.2559    108.7791     23.3240
   238.2000     -2.2986      2.0567      0.4576     35.9592    113.9376     22.9015
   238.3000     -2.3465      2.0569      0.4527     35.9483    116.0914     22.8733
   238.4000     -2.3465      2.0529      0.4166     36.1902    111.5173     22.9479
   238.5000     -2.4086      2.0451      0.4289     36.6616    105.3077     22.6843
   238.6000     -2.4086      2.0360      0.4241     37.2130    104.3707     22.5874
   238.7000     -2.4086      2.0228      0.4658     38.0147    109.6133     23.2508
   238.8000     -2.4666      1.9985      0.4103     39.4873    115.2068     24.5543
   238.9000     -2.4666      1.9703      0.4141     41.1932    118.2033     24.9755
   239.0000     -2.5202      1.9581      0.3477     41.9333    121.3499     23.9858
   239.1000     -2.5202      1.9684      0.4118     41.3091    120.7818     23.3181
   239.2000     -2.5202      1.9839      0.4292     40.3723    110.4444     23.5143
   239.3000     -2.5828      1.9953      0.4076     39.6797     98.8661     23.4744
   239.4000     -2.5828      2.0115      0.4394     38.6945     99.6868     22.9364
   239.5000     -2.6462      2.0303      0.4550     37.5599    111.0724     22.9201
   239.6000     -2.6462      2.0343      0.4766     37.3122    119.7874     23.6809
   239.7000     -2.6462      2.0149      0.4399     38.4894    118.1704     24.5921
   239.8000     -2.7113      1.9811      0.4173     40.5370    112.2608     24.9996
   239.9000     -2.7113      1.9481      0.4098     42.5408    110.7332     24.1402
   240.0000     -2.7751      1.9299      0.3702     43.6433    112.7529     22.5811
   240.1000     -2.7751      1.9297      0.4098     43.6553    113.1582     21.9166
   240.2000     -2.7751      1.9335      0.3872     43.4234    113.6824     22.0938
   240.3000     -2.8435      1.9351      0.3678     43.3286    117.9667     22.3811
   240.4000     -2.8435      1.9396      0.4019     43.0571    120.3942     22.9489
   240.5000     -2.9036      1.9468      0.3890     42.6168    114.4855     23.8244
   240.6000     -2.9036      1.9556      0.4139     42.0826    103.3299     23.9372
   240.7000     -2.9036      1.9702      0.3882     41.2010     99.1500     23.1191
   240.8000     -2.9732      1.9956      0.3866     39.6593    108.2521     22.6704
   240.9000     -2.9732      2.0217      0.4729     38.0813    123.6277     22.9590
   241.0000     -3.0461      2.0330      0.4444     37.3949    136.9014     23.4302
   241.1000     -3.0461      2.0372      0.4194     37.1392    140.9126     24.0052
   241.2000     -3.0461      2.0466      0.4482     36.5687    132.5997     24.5961
   241.3000     -3.1133      2.0546      0.4565     36.0867    120.0224     24.7912
   241.4000     -3.1133      2.0496      0.4565     36.3906    111.3472     24.5140
   241.5000     -3.1811      2.0295      0.4251     37.6080    107.6250     23.7343
   241.6000     -3.1811      2.0047      0.4290     39.1115    108.3264     22.4583
   241.7000     -3.1811      1.9925      0.4130     39.8497    110.8286     21.5652
   241.8000     -3.2559      1.9971      0.4067     39.5679    112.4855     21.6907
   241.9000     -3.2559      2.0041      0.3769     39.1473    114.9001     21.8905
   242.0000     -3.3268      2.0031      0.4111     39.2042    119.8195     21.5315
   242.1000     -3.3268      2.0003      0.3756     39.3776    121.5743     21.9286
   242.2000     -3.3268      2.0035      0.4001     39.1848    114.0195     23.4446
   242.3000     -3.4012      2.0126      0.3798     38.6282    104.4480     24.6043
   242.4000     -3.4012      2.0275      0.3982     37.7302    103.6313     24.6435
   242.5000     -3.4632      2.0456      0.3971     36.6320    106.4091     24.2627
   242.6000     -3.4632      2.0610      0.4213     35.6944    105.2391     23.9733
   242.7000     -3.4632      2.0697      0.3886     35.1671    105.1275     23.6703
   242.8000     -3.5565      2.0708      0.4055     35.1038    107.1037     23.4216
   242.9000     -3.5565      2.0715      0.3722     35.0631    106.5166     23.0887
   243.0000     -3.6348      2.0782      0.4061     34.6571    104.2913     22.4272
   243.1000     -3.6348      2.0783      0.4027     34.6485    104.0158     21.8610
   243.2000     -3.6348      2.0682      0.3564     35.2611    104.9177     21.9451
   243.3000     -3.7137      2.0635      0.3699     35.5447    105.3306     22.5085
   243.4000     -3.7137      2.0665      0.3731     35.3611    106.5670     22.7695
   243.5000     -3.7940      2.0677      0.3480     35.2901    107.4272     22.6516
   243.6000     -3.7940      2.0652      0.3692     35.4428    106.1353     22.4798
   243.7000     -3.7940      2.0611      0.3665     35.6917    103.5891     22.0864
   243.8000     -3.8774      2.0623      0.3361     35.6202    102.7076     21.8035
   243.9000     -3.8774      2.0750      0.3739     34.8478    104.1716     22.0845
   244.0000     -3.9620      2.0877      0.3873     34.0769    105.4378     22.5796
   244.1000     -3.9620      2.0853      0.3641     34.2243    104.0827     22.8118
   244.2000     -3.9620      2.0685      0.3672     35.2443     97.7671     22.5296
   244.3000     -4.0492      2.0498      0.2996     36.3754     90.4132     22.0001
   244.4000     -4.0492      2.0422      0.3376     36.8354     86.5130     21.4692
   244.5000     -4.1374      2.0420      0.3452     36.8504     84.5038     20.6320
