~Version Information
VERS.                      2.0: CWLS Log ASCII Standard - VERSION 2.0
WRAP.                       NO: One line per depth step
~Well Information Block
STRT.FT               235.0000: 
STOP.FT              1271.0000: 
STEP.FT                 0.1000: 
NULL.                -999.2500: 
COMP.          Pioneer Natural Resources: COMPANY
WELL.              Julie 11-30: WELL
FLD.           Purgatoire River: FIELD
LOC.           672' FNL & 1052' FWL: LOCATION
CNTY.               Las Animas: COUNTY
SRVC.                Patterson: SERVICE COMPANY
DATE.          Fri Apr 14 07:21:24 2006: LOG DATE
UWI.           05 071 08724 00: UNIQUE WELL ID
STAT.                 Colorado: STATE
~Curve Information Block
DEPT.FT            0 000 00 00: Depth
DCAL.in                       : CDL Caliper
RHOB.g/cc                     : CDL Bulk Density
RHOC.g/cc                     : CDL Density Correction
DPOR.pu                       : CDL Density Porosity
GR.GAPI                       : Gamma Ray
NPOR.pu                       : Neutron Porosity
~Parameter Information Block
~A  Depth       DCAL        RHOB        RHOC        DPOR         GR         NPOR    
# ...
   782.2000      8.0334      2.6007      0.2054      2.9863    111.5915     26.8068
   782.3000      8.0403      2.6869      0.2740     -2.2346    102.9575     27.1498
   782.4000      8.0403      2.7722      0.3161     -7.4069     98.6226     27.5964
   782.5000      8.0801      2.8347      0.3830    -11.1953     98.8605     28.1289
   782.6000      8.0801      2.8415      0.3930    -11.6056    100.2934     28.2211
   782.7000      8.0801      2.7780      0.3171     -7.7596    102.6268     27.7066
   782.8000      8.0812      2.6889      0.1756     -2.3567    104.4085     27.2358
   782.9000      8.0812      2.6317      0.0978      1.1063    104.3276     27.1006
   783.0000      8.0713      2.6110      0.0856      2.3623    105.8475     27.1736
   783.1000      8.0713      2.6006      0.0604      2.9961    109.8734     27.2714
   783.2000      8.0713      2.5950     -0.0224      3.3317    113.9295     27.0822
   783.3000      8.1216      2.5938      0.0494      3.4068    118.1967     26.7236
   783.4000      8.1216      2.5786      0.0409      4.3263    124.6683     26.7596
   783.5000      8.1272      2.5428      0.0541      6.4972    133.3624     27.1937
   783.6000      8.1272      2.4937      0.0148      9.4730    138.4301     27.0861
   783.7000      8.1272      2.4447     -0.0608     12.4439    134.4798     26.0263
   783.8000      8.1275      2.4165     -0.0611     14.1545    126.2936     25.0397
   783.9000      8.1275      2.4186     -0.0395     14.0212    121.9017     25.1449
   784.0000      8.1327      2.4444     -0.0481     12.4609    124.6679     26.1185
   784.1000      8.1327      2.4779      0.0365     10.4333    135.4899     27.0192
   784.2000      8.1327      2.5017      0.0596      8.9880    151.1826     27.4655
   784.3000      8.1313      2.5058      0.1148      8.7406    162.2952     27.7182
   784.4000      8.1313      2.4898      0.1027      9.7120    162.1508     27.7939
   784.5000      8.1311      2.4719      0.0938     10.7916    157.4461     27.6821
   784.6000      8.1311      2.4762      0.1502     10.5306    156.7415     27.6869
   784.7000      8.1311      2.4981      0.2338      9.2053    156.9340     27.7739
   784.8000      8.1161      2.5141      0.1996      8.2353    153.0995     27.7926
   784.9000      8.1161      2.5246      0.1755      7.5996    147.4303     27.9155
   785.0000      8.1064      2.5418      0.1689      6.5583    143.5554     28.2128
   785.1000      8.1064      2.5625      0.1654      5.3042    141.6071     28.4852
   785.2000      8.1064      2.5834      0.1740      4.0366    140.1633     28.8276
   785.3000      8.0969      2.6078      0.2117      2.5549    139.1301     29.6155
   785.4000      8.0969      2.6280      0.2587      1.3313    139.6382     30.5500
   785.5000      8.1162      2.6269      0.2215      1.3999    143.5938     30.9163
   785.6000      8.1162      2.6013      0.1789      2.9524    149.8415     30.7924
   785.7000      8.1162      2.5727      0.1477      4.6856    154.7225     30.6456
   785.8000      8.1179      2.5580      0.1228      5.5752    158.3671     30.1451
   785.9000      8.1179      2.5344      0.1322      7.0087    160.6213     29.2446
   786.0000      8.1229      2.4813      0.0589     10.2271    160.6348     28.6634
   786.1000      8.1229      2.4336      0.0295     13.1124    158.6584     28.3328
   786.2000      8.1229      2.4362      0.0193     12.9553    152.6521     27.7389
   786.3000      8.1184      2.4809      0.1650     10.2477    145.6295     27.1527
   786.4000      8.1184      2.5204      0.1292      7.8531    144.5932     27.0689
   786.5000      8.1229      2.5359      0.1405      6.9182    146.6821     27.4477
   786.6000      8.1229      2.5494      0.1559      6.0946    145.7368     27.9129
   786.7000      8.1229      2.5761      0.1953      4.4782    140.7132     28.2652
   786.8000      8.1188      2.5978      0.2370      3.1664    134.4546     28.6879
   786.9000      8.1188      2.5878      0.1883      3.7701    132.4403     28.9607
   787.0000      8.1218      2.5532      0.1223      5.8653    135.5387     28.8102
   787.1000      8.1218      2.5309      0.0686      7.2200    137.4847     28.5415
   787.2000      8.1218      2.5359      0.0765      6.9176    134.4314     28.3677
   787.3000      8.1226      2.5507      0.0459      6.0190    132.1717     28.4124
   787.4000      8.1226      2.5557      0.0847      5.7178    133.6708     28.6456
   787.5000      8.1232      2.5488      0.0790      6.1362    133.4131     28.8758
   787.6000      8.1232      2.5443      0.0277      6.4072    133.1612     29.2791
   787.7000      8.1232      2.5451      0.0683      6.3560    134.8681     29.8906
   787.8000      8.1274      2.5375      0.0180      6.8155    132.3054     29.9949
   787.9000      8.1274      2.5232     -0.0104      7.6871    127.6853     29.6342
   788.0000      8.1265      2.5239      0.0096      7.6439    130.8168     29.6501
   788.1000      8.1265      2.5523      0.0247      5.9215    140.6857     29.9804
   788.2000      8.1265      2.5994      0.0220      3.0674    143.7000     29.9561
   788.3000      8.1259      2.6482      0.0637      0.1103    132.4085     29.4636
   788.4000      8.1259      2.6717      0.1340     -1.3172    117.3200     28.8276
   788.5000      8.1230      2.6497      0.0862      0.0171    109.6966     28.2666
   788.6000      8.1230      2.6029      0.0263      2.8539    107.8089     27.9923
   788.7000      8.1230      2.5654     -0.0003      5.1289    109.3741     27.8478
   788.8000      8.1242      2.5445      0.0065      6.3919    116.2885     27.4732
   788.9000      8.1242      2.5321      0.0050      7.1477    123.8007     27.0440
   789.0000      8.1241      2.5281     -0.0390      7.3885    124.8068     27.1078
   789.1000      8.1241      2.5360      0.0155      6.9115    122.5070     27.7668
   789.2000      8.1241      2.5484      0.0393      6.1552    120.0811     28.2386
   789.3000      8.1238      2.5534     -0.0119      5.8549    116.4816     28.0843
   789.4000      8.1238      2.5482      0.0089      6.1707    114.1272     27.8282
   789.5000      8.1239      2.5464      0.0406      6.2759    114.9099     27.8893
   789.6000      8.1239      2.5572      0.0473      5.6248    117.1558     28.0784
   789.7000      8.1239      2.5685      0.0634      4.9404    118.1948     28.2900
   789.8000      8.1269      2.5757      0.0467      4.5054    119.0831     28.6729
   789.9000      8.1269      2.5893      0.0214      3.6793    122.1563     29.1850
   790.0000      8.1267      2.6117      0.0483      2.3209    124.7721     29.5596
   790.1000      8.1267      2.6289      0.0547      1.2774    123.6196     29.6416
   790.2000      8.1267      2.6287      0.0857      1.2891    120.6348     29.4607
   790.3000      8.1264      2.6126      0.0656      2.2661    118.5623     29.3233
   790.4000      8.1264      2.5827      0.1012      4.0783    119.4694     29.4883
   790.5000      8.1264      2.5501      0.0005      6.0562    122.4783     29.7763
   790.6000      8.1264      2.5398      0.0229      6.6763    124.0970     29.8334
   790.7000      8.1264      2.5423      0.0682      6.5302    123.1954     29.6779
   790.8000      8.1242      2.5297     -0.0124      7.2904    121.9598     29.5043
   790.9000      8.1242      2.5091      0.0174      8.5399    123.4412     29.2261
   791.0000      8.1229      2.4986      0.0548      9.1745    128.9372     28.9998
   791.1000      8.1229      2.5029      0.0549      8.9172    136.7120     28.8370
   791.2000      8.1229      2.5210      0.0750      7.8161    139.4232     28.4577
   791.3000      8.1255      2.5450      0.1089      6.3638    133.1482     27.9192
   791.4000      8.1255      2.5662      0.1193      5.0780    127.6300     27.3128
   791.5000      8.1250      2.5807      0.1579      4.2003    130.3442     26.8325
   791.6000      8.1250      2.5845      0.1157      3.9695    136.3939     27.0311
   791.7000      8.1250      2.5803      0.1251      4.2246    140.1299     27.9350
