~Version Information
VERS.                      2.0: CWLS Log ASCII Standard - VERSION 2.0
WRAP.                       NO: One line per depth step
~Well Information Block
STRT.FT               550.0000: 
STOP.FT              1981.5000: 
STEP.FT                 0.2500: 
NULL.                -999.2500: 
COMP.          Pioneer Natural Resources: COMPANY
WELL.          Flying Horse 12-11 Tr: WELL
FLD.           Purgatoire River: FIELD
LOC.           2459' FNL & 410' FWL: LOCATION
STAT.                 Colorado: State
CNTY.               Las Animas: COUNTY
CTRY. USA : Country
SECT. 11 : Section
TOWN. 32S : Township
RANG. 66W : Range
SRVC.                Patterson: SERVICE COMPANY
DATE.          Sat Sep 03 20:17:31 2005: LOG DATE
API.           05 071 08485 00: UNIQUE WELL ID
~Curve Information Block
DEPT.FT            0 000 00 00: Depth
SN.Ohm-m                      : IEL Short Normal
SP.mV                         : IEL Spontaneous Potential
DIR.Ohm-m                     : IEL Induction Resistivity
GR.GAPI                       : Gamma Ray
~Parameter Information Block
~A  Depth        SN          SP         DIR          GR     
# ...
   751.0000   2000.0000   2000.0000     20.9029    141.6521
   751.2500   2000.0000   2000.0000     21.3529    143.0019
   751.5000   2000.0000   2000.0000     21.8818    144.3091
   751.7500   2000.0000   2000.0000     22.4620    144.4404
   752.0000   2000.0000   2000.0000     23.0366    142.9359
   752.2500   2000.0000   2000.0000     23.5198    140.7280
   752.5000   2000.0000   2000.0000     23.8175    136.3040
   752.7500   2000.0000   2000.0000     23.8725    133.1560
   753.0000   2000.0000   2000.0000     23.7050    128.6702
   753.2500   2000.0000   2000.0000     23.4099    126.0856
   753.5000   2000.0000   2000.0000     23.0995    123.6101
   753.7500   2000.0000   2000.0000     22.8375    123.3357
   754.0000   2000.0000   2000.0000     22.6145    124.9099
   754.2500   2000.0000   2000.0000     22.3814    126.7407
   754.5000   2000.0000   2000.0000     22.1098    129.6297
   754.7500   2000.0000   2000.0000     21.8218    131.2670
   755.0000   2000.0000   2000.0000     21.5638    132.9098
   755.2500   2000.0000   2000.0000     21.3616    133.4245
   755.5000   2000.0000   2000.0000     21.2127    134.0237
   755.7500   2000.0000   2000.0000     21.1173    135.0891
   756.0000   2000.0000   2000.0000     21.1054    138.4189
   756.2500   2000.0000   2000.0000     21.2217    141.2469
   756.5000   2000.0000   2000.0000     21.4851    144.2868
   756.7500   2000.0000   2000.0000     21.8626    144.5779
   757.0000   2000.0000   2000.0000     22.2798    142.4928
   757.2500   2000.0000   2000.0000     22.6580    140.0208
   757.5000   2000.0000   2000.0000     22.9500    135.0970
   757.7500   2000.0000   2000.0000     23.1547    130.8822
   758.0000   2000.0000   2000.0000     23.3148    123.8464
   758.2500   2000.0000   2000.0000     23.5036    119.8468
   758.5000   2000.0000   2000.0000     23.8007    116.6652
   758.7500   2000.0000   2000.0000     24.2581    116.5102
   759.0000   2000.0000   2000.0000     24.8709    117.8920
   759.2500   2000.0000   2000.0000     25.5714    118.9121
   759.5000   2000.0000   2000.0000     26.2572    119.5812
   759.7500   2000.0000   2000.0000     26.8357    119.3623
   760.0000   2000.0000   2000.0000     27.2517    118.4720
   760.2500   2000.0000   2000.0000     27.4828    117.9943
   760.5000   2000.0000   2000.0000     27.5224    118.5857
   760.7500   2000.0000   2000.0000     27.3722    120.4155
   761.0000   2000.0000   2000.0000     27.0500    125.3376
   761.2500   2000.0000   2000.0000     26.6014    129.3184
   761.5000   2000.0000   2000.0000     26.0957    134.2632
   761.7500   2000.0000   2000.0000     25.6015    135.8778
   762.0000   2000.0000   2000.0000     25.1549    135.4561
   762.2500   2000.0000   2000.0000     24.7522    133.8870
   762.5000   2000.0000   2000.0000     24.3795    130.9723
   762.7500   2000.0000   2000.0000     24.0554    129.0155
   763.0000   2000.0000   2000.0000     23.8427    125.5930
   763.2500   2000.0000   2000.0000     23.8148    122.4840
   763.5000   2000.0000   2000.0000     24.0075    116.3087
   763.7500   2000.0000   2000.0000     24.3963    111.5040
   764.0000   2000.0000   2000.0000     24.9158    104.1687
   764.2500   2000.0000   2000.0000     25.5067     99.7085
   764.5000   2000.0000   2000.0000     26.1566     94.3856
   764.7500   2000.0000   2000.0000     26.8982     92.0051
   765.0000   2000.0000   2000.0000     27.7584     90.1934
   765.2500   2000.0000   2000.0000     28.6937     89.9538
   765.5000   2000.0000   2000.0000     29.5668     90.5463
   765.7500   2000.0000   2000.0000     30.2054     91.2867
   766.0000   2000.0000   2000.0000     30.5201     92.5152
   766.2500   2000.0000   2000.0000     30.5745     93.2146
   766.5000   2000.0000   2000.0000     30.5365     93.6311
   766.7500   2000.0000   2000.0000     30.5638     93.1888
   767.0000   2000.0000   2000.0000     30.7253     91.5356
   767.2500   2000.0000   2000.0000     30.9913     90.4896
   767.5000   2000.0000   2000.0000     31.2687     90.7379
   767.7500   2000.0000   2000.0000     31.4569     92.6529
   768.0000   2000.0000   2000.0000     31.4961     97.7200
   768.2500   2000.0000   2000.0000     31.3891    101.9663
   768.5000   2000.0000   2000.0000     31.1846    108.9279
   768.7500   2000.0000   2000.0000     30.9327    113.6604
   769.0000   2000.0000   2000.0000     30.6420    119.9126
   769.2500   2000.0000   2000.0000     30.2692    122.6904
   769.5000   2000.0000   2000.0000     29.7459    123.8659
   769.7500   2000.0000   2000.0000     29.0301    122.8137
   770.0000   2000.0000   2000.0000     28.1431    119.6991
   770.2500   2000.0000   2000.0000     27.1621    117.5822
   770.5000   2000.0000   2000.0000     26.1796    116.1367
   770.7500   2000.0000   2000.0000     25.2661    117.0577
   771.0000   2000.0000   2000.0000     24.4561    121.2029
   771.2500   2000.0000   2000.0000     23.7517    125.1290
   771.5000   2000.0000   2000.0000     23.1331    131.5402
   771.7500   2000.0000   2000.0000     22.5700    135.6886
   772.0000   2000.0000   2000.0000     22.0316    141.1152
   772.2500   2000.0000   2000.0000     21.4915    143.9125
   772.5000   2000.0000   2000.0000     20.9338    146.6460
   772.7500   2000.0000   2000.0000     20.3635    147.5186
   773.0000   2000.0000   2000.0000     19.8083    147.5853
   773.2500   2000.0000   2000.0000     19.3014    146.9852
   773.5000   2000.0000   2000.0000     18.8514    145.7005
   773.7500   2000.0000   2000.0000     18.4286    145.0974
   774.0000   2000.0000   2000.0000     17.9850    145.3894
   774.2500   2000.0000   2000.0000     17.4952    146.4739
   774.5000   2000.0000   2000.0000     16.9812    148.6388
   774.7500   2000.0000   2000.0000     16.4992    149.6942
   775.0000   2000.0000   2000.0000     16.1040    149.8923
   775.2500   2000.0000   2000.0000     15.8213    149.2291
   775.5000   2000.0000   2000.0000     15.6433    147.9526
   775.7500   2000.0000   2000.0000     15.5421    147.3607
   776.0000   2000.0000   2000.0000     15.4887    146.9187
   776.2500   2000.0000   2000.0000     15.4684    146.6622
   776.5000   2000.0000   2000.0000     15.4867    145.8287
   776.7500   2000.0000   2000.0000     15.5662    144.6556
   777.0000   2000.0000   2000.0000     15.7349    141.3713
   777.2500   2000.0000   2000.0000     16.0114    138.0661
   777.5000   2000.0000   2000.0000     16.3955    132.2755
   777.7500   2000.0000   2000.0000     16.8709    128.6804
   778.0000   2000.0000   2000.0000     17.4202    124.3146
   778.2500   2000.0000   2000.0000     18.0410    121.6658
   778.5000   2000.0000   2000.0000     18.7497    116.9416
   778.7500   2000.0000   2000.0000     19.5677    113.0429
   779.0000   2000.0000   2000.0000     20.4983    106.6122
   779.2500   2000.0000   2000.0000     21.5109    102.5259
   779.5000   2000.0000   2000.0000     22.5485     97.6700
   779.7500   2000.0000   2000.0000     23.5584     95.6324
   780.0000   2000.0000   2000.0000     24.5257     94.2892
   780.2500   2000.0000   2000.0000     25.4866     93.9711
   780.5000   2000.0000   2000.0000     26.5096     92.7690
   780.7500   2000.0000   2000.0000     27.6618     90.6659
   781.0000   2000.0000   2000.0000     28.9725     85.2962
   781.2500   2000.0000   2000.0000     30.4060     80.8710
   781.5000   2000.0000   2000.0000     31.8525     74.5574
   781.7500   2000.0000   2000.0000     33.1550     71.1947
   782.0000   2000.0000   2000.0000     34.1740     67.5877
   782.2500   2000.0000   2000.0000     34.8563     65.9561
   782.5000   2000.0000   2000.0000     35.2526     64.3914
   782.7500   2000.0000   2000.0000     35.4629     63.8518
   783.0000   2000.0000   2000.0000     35.5655     63.6782
   783.2500   2000.0000   2000.0000     35.5929     63.9079
   783.5000   2000.0000   2000.0000     35.5618     64.5872
   783.7500   2000.0000   2000.0000     35.5177     65.1409
   784.0000   2000.0000   2000.0000     35.5480     66.0127
   784.2500   2000.0000   2000.0000     35.7501     66.6145
