~Version Information
 VERS.                                  2.0 : CWLS LAS VERSION
 WRAP.                                   NO : WRAPING MODE
 SWARE .                 MController 2.5.0E : SOFTWARE VERSION
~Well Information
 WELL.                      Black Cat 13-23 : WELL
 COMP.     Pioneer Natural Resources USA Inc: COMPANY
 FLD.                      Purgatorie River : FIELD
 LOC.                 NW/SW Sec32 T32S R67W : LOCATION
 DATE.                           7/30-31/05 : DATE(S) LOGGED
 SRVC.       Blanco Geological Services LLC : SERVICE COMPANY
 STAT.                                   CO : STATE
 CNTY.                           Las Animas : COUNTY
 CTRY.                                  USA : COUNTRY
 API.                       05-071-08450-00 : API NUMBER
 STRT.FT                             327.00 : START DEPTH
 STOP.FT                            2850.00 : STOP DEPTH
 STEP.FT                               1.00 : DEPTH INCREMENT
 NULL.                                -9999 : NULL VALUE
~Curve information
 DEPTH.FT                                   :
 ROP.MIN/FT                                 :
 GAS.UNITS                                  :
~ASCII Log data
# ...
      2727.0         0.43         11.3 
      2728.0         0.47         12.4 
      2729.0         0.53         13.0 
      2730.0         0.52         11.1 
      2731.0         8.50         17.7 
      2732.0         0.60         22.4 
      2733.0         0.68         40.2 
      2734.0         0.50         38.2 
      2735.0         0.50         16.4 
      2736.0         0.53          6.4 
      2737.0         0.53          3.0 
      2738.0         0.50          2.8 
      2739.0         0.50          2.5 
      2740.0         0.52          3.0 
      2741.0         0.53          3.5 
      2742.0         0.57          3.1 
      2743.0         0.60          3.7 
      2744.0         0.60          3.3 
      2745.0         0.70          4.3 
      2746.0         0.68          4.2 
      2747.0         0.80          3.8 
      2748.0         0.77          4.9 
      2749.0         0.60          4.7 
      2750.0         0.58          4.6 
      2751.0         0.57          4.3 
      2752.0         0.50          4.0 
      2753.0         0.50          3.9 
      2754.0         0.50          4.3 
      2755.0         0.50          4.5 
      2756.0         0.50          5.0 
      2757.0         0.55          4.8 
      2758.0         0.53          5.7 
      2759.0         0.63          6.3 
      2760.0         0.50          6.9 
      2761.0        10.02         53.6 
      2762.0         1.00         71.5 
      2763.0         0.62         55.5 
      2764.0         0.60         16.2 
      2765.0         0.63          3.7 
      2766.0         0.63          1.2 
      2767.0         0.57          1.8 
      2768.0         0.60          1.3 
      2769.0         0.75          2.6 
      2770.0         0.83          2.4 
      2771.0         0.83          3.1 
      2772.0         0.83          3.2 
      2773.0         0.85          3.3 
      2774.0         1.07          3.4 
      2775.0         0.90          4.6 
      2776.0         0.82          3.6 
      2777.0         0.77          2.8 
      2778.0         0.73          3.3 
      2779.0         0.73          3.1 
      2780.0         0.57          2.7 
      2781.0         0.72          3.4 
      2782.0         0.67          3.4 
      2783.0         0.67          4.2 
      2784.0         0.43          4.0 
      2785.0         0.40          4.8 
      2786.0         0.40          4.4 
      2787.0         0.37          5.2 
      2788.0         0.38          5.2 
      2789.0         0.37          5.5 
      2790.0         0.40          5.2 
      2791.0         9.48         44.0 
      2792.0         0.87         50.8 
      2793.0         0.67         41.8 
      2794.0         0.77         11.6 
      2795.0         0.65          1.7 
      2796.0         0.63          0.9 
      2797.0         0.73          1.9 
      2798.0         0.73          1.4 
      2799.0         0.87          2.5 
      2800.0         1.05          2.9 
      2801.0         0.83          2.9 
      2802.0         0.83          5.6 
      2803.0         0.87          8.8 
      2804.0         0.72         10.3 
      2805.0         0.57          9.9 
      2806.0         0.53          7.5 
      2807.0         0.43          7.1 
      2808.0         0.53          7.5 
      2809.0         0.47          6.9 
      2810.0         0.55          7.4 
      2811.0         0.40          7.3 
      2812.0         0.53          6.7 
      2813.0         0.53          3.4 
      2814.0         0.80          3.8 
      2815.0         0.37          3.0 
      2816.0         0.30          3.0 
      2817.0         0.58          3.8 
      2818.0         0.50          4.3 
      2819.0         0.70          5.8 
      2820.0         0.50          6.6 
      2821.0         8.45         59.5 
      2822.0         1.20         52.3 
      2823.0         1.33         70.1 
      2824.0         1.12         71.1 
      2825.0         1.00         10.5 
      2826.0         0.57          1.8 
      2827.0         0.60          2.7 
      2828.0         1.08          3.4 
      2829.0         1.20          5.0 
      2830.0         1.07          5.5 
      2831.0         1.28          5.7 
      2832.0         1.37          4.0 
      2833.0         1.32          5.3 
      2834.0         1.20          7.6 
      2835.0         0.87          8.6 
      2836.0         0.70          9.4 
      2837.0         0.78         10.2 
      2838.0         0.67         15.6 
      2839.0         0.57         22.9 
      2840.0         0.60         26.4 
      2841.0         0.73         27.1 
      2842.0         0.72         20.6 
      2843.0         0.47          8.8 
      2844.0         0.73          5.4 
      2845.0         0.43          3.5 
      2846.0         0.73      -9999.0 
      2847.0         0.98      -9999.0 
      2848.0         0.77      -9999.0 
      2849.0         0.77      -9999.0 
      2850.0         0.83      -9999.0 
