~Version Information
VERS.                      2.0: CWLS Log ASCII Standard - VERSION 2.0
WRAP.                       NO: One line per depth step
~Well Information Block
STRT.FT               240.0000: 
STOP.FT               940.5000: 
STEP.FT                 0.1000: 
NULL.                -999.2500: 
COMP.          Pioneer Natural Resources: COMPANY
WELL.               Ernie 31-6: WELL
FLD.           Purgatoire River: FIELD
LOC.           681' FNL & 2138' FEL: LOCATION
CNTY.               Las Animas: COUNTY
SRVC.                Patterson: SERVICE COMPANY
DATE.          Tue May 30 07:05:10 2006: LOG DATE
UWI.           05 071 08716 00: UNIQUE WELL ID
STAT.                 Colorado: STATE
~Curve Information Block
DEPT.FT            0 000 00 00: Depth
DCAL.in                       : CDL Caliper
RHOB.g/cc                     : CDL Bulk Density
RHOC.g/cc                     : CDL Density Correction
DPOR.pu                       : CDL Density Porosity
GR.GAPI                       : Gamma Ray
NPOR.pu                       : Neutron Porosity
~Parameter Information Block
~A  Depth       DCAL        RHOB        RHOC        DPOR         GR         NPOR    
# ...
   883.2000      7.8564      2.4434      0.0237     12.5189     90.7524     20.5886
   883.3000      7.8560      2.4410      0.0625     12.6691     95.2956     20.8017
   883.4000      7.8560      2.4454      0.0494     12.3973     95.1062     21.2696
   883.5000      7.8565      2.4557      0.0559     11.7761     94.0377     21.6313
   883.6000      7.8565      2.4711      0.0688     10.8433     94.9128     21.9116
   883.7000      7.8565      2.4816      0.1115     10.2046     95.0120     22.2415
   883.8000      7.8560      2.4743      0.1097     10.6483     94.1327     22.2735
   883.9000      7.8560      2.4627      0.0572     11.3496     94.8546     21.9823
   884.0000      7.8568      2.4716      0.0688     10.8145     96.4501     21.6536
   884.1000      7.8568      2.4973      0.1012      9.2535     97.2910     21.1214
   884.2000      7.8568      2.5263      0.1020      7.4996     97.6010     20.5750
   884.3000      7.8582      2.5521      0.1509      5.9327     98.5126     20.3746
   884.4000      7.8582      2.5612      0.1365      5.3836     99.1522     20.2981
   884.5000      7.8570      2.5502      0.0928      6.0455     98.1377     20.1457
   884.6000      7.8570      2.5370      0.0815      6.8489     97.6077     19.7362
   884.7000      7.8570      2.5332      0.0771      7.0795     96.2417     19.3018
   884.8000      7.8549      2.5314      0.1043      7.1895     92.2748     19.3289
   884.9000      7.8549      2.5205      0.0731      7.8483     87.2307     19.9906
   885.0000      7.8562      2.5058      0.0601      8.7420     81.0690     20.8991
   885.1000      7.8562      2.4909      0.0934      9.6410     77.0247     21.3378
   885.2000      7.8562      2.4749      0.0466     10.6126     77.6736     21.2251
   885.3000      7.8572      2.4711      0.0141     10.8447     81.6036     21.1984
   885.4000      7.8572      2.4823      0.0441     10.1649     87.4598     21.6501
   885.5000      7.8554      2.4951      0.0275      9.3891     92.1921     22.3634
   885.6000      7.8554      2.5021      0.0463      8.9653     93.0223     22.7835
   885.7000      7.8554      2.4901      0.0853      9.6893     92.9219     22.5146
   885.8000      7.8526      2.4506      0.0263     12.0822     94.4439     22.2020
   885.9000      7.8526      2.4131     -0.0045     14.3588     96.3214     22.8165
   886.0000      7.8428      2.4099     -0.0130     14.5498     99.8197     23.7327
   886.1000      7.8428      2.4299     -0.0027     13.3407    105.6106     23.6226
   886.2000      7.8428      2.4467      0.0256     12.3226    110.9843     22.5876
   886.3000      7.8545      2.4510     -0.0008     12.0631    113.5204     21.6755
   886.4000      7.8545      2.4467      0.0114     12.3204    111.8491     21.2240
   886.5000      7.8588      2.4478     -0.0535     12.2564    105.8644     20.8999
   886.6000      7.8588      2.4627      0.0263     11.3545     99.4065     20.8180
   886.7000      7.8588      2.4777      0.0526     10.4428     95.2510     21.0098
   886.8000      7.8576      2.4779      0.0598     10.4319     88.6477     21.0304
   886.9000      7.8576      2.4696      0.0504     10.9312     77.8404     20.7267
   887.0000      7.8589      2.4691      0.0517     10.9661     70.3988     20.1988
   887.1000      7.8589      2.4753      0.0842     10.5907     70.3275     19.7142
   887.2000      7.8589      2.4756      0.0657     10.5698     74.7510     19.6506
   887.3000      7.8574      2.4699      0.0444     10.9131     81.3042     20.0719
   887.4000      7.8574      2.4644      0.0585     11.2500     86.3669     20.7111
   887.5000      7.8569      2.4604      0.0510     11.4885     86.7479     21.1168
   887.6000      7.8569      2.4589      0.0394     11.5819     84.0448     20.8612
   887.7000      7.8569      2.4579      0.0813     11.6397     83.5956     20.0713
   887.8000      7.8547      2.4527      0.0692     11.9572     89.8027     19.4264
   887.9000      7.8547      2.4431      0.0678     12.5372     98.6995     19.1556
   888.0000      7.8544      2.4378      0.0770     12.8620    101.6493     19.0846
   888.1000      7.8544      2.4446      0.0853     12.4492     97.6474     19.4348
   888.2000      7.8544      2.4582      0.1072     11.6266     92.4845     20.3021
   888.3000      7.8572      2.4704      0.0990     10.8836     89.3725     20.9868
   888.4000      7.8572      2.4822      0.0953     10.1711     85.8647     21.2561
   888.5000      7.8573      2.4906      0.1272      9.6590     82.3833     21.2391
   888.6000      7.8573      2.4914      0.1042      9.6137     85.0777     20.6791
   888.7000      7.8573      2.4881      0.1299      9.8137     94.1328     20.0485
   888.8000      7.8578      2.4874      0.0778      9.8547     98.9457     19.8182
   888.9000      7.8578      2.4909      0.1087      9.6408     95.5238     19.7969
   889.0000      7.8568      2.4920      0.1248      9.5751     91.0517     20.0609
   889.1000      7.8568      2.4889      0.0789      9.7647     88.2350     20.6901
   889.2000      7.8568      2.4823      0.0826     10.1614     83.7006     21.2092
   889.3000      7.8560      2.4673      0.0771     11.0755     78.5095     21.3159
   889.4000      7.8560      2.4520      0.0389     12.0008     77.3375     21.2865
   889.5000      7.8542      2.4514      0.0674     12.0382     78.7898     20.9821
   889.6000      7.8542      2.4579      0.0806     11.6401     78.4019     20.2818
   889.7000      7.8542      2.4597      0.0732     11.5314     76.4137     19.7105
   889.8000      7.8563      2.4621      0.0537     11.3874     74.5931     19.5120
   889.9000      7.8563      2.4664      0.0996     11.1280     74.4571     19.5635
   890.0000      7.8560      2.4634      0.0294     11.3098     79.4432     19.5516
   890.1000      7.8560      2.4501      0.0605     12.1151     85.8516     19.2335
   890.2000      7.8560      2.4310      0.0174     13.2726     86.0114     18.8157
   890.3000      7.8564      2.4175      0.0106     14.0899     81.0155     18.6643
   890.4000      7.8564      2.4178     -0.0253     14.0752     77.8996     18.6801
   890.5000      7.8572      2.4274      0.0552     13.4880     81.5414     18.3575
   890.6000      7.8572      2.4329      0.0368     13.1552     88.0835     17.7217
   890.7000      7.8572      2.4247      0.0196     13.6522     89.9051     17.4602
   890.8000      7.8557      2.4086      0.0067     14.6301     86.7624     17.6928
   890.9000      7.8557      2.4028     -0.0075     14.9805     79.5653     17.9226
   891.0000      7.8561      2.4175      0.0055     14.0926     68.0591     18.0391
   891.1000      7.8561      2.4373      0.0345     12.8929     61.3941     18.1000
   891.2000      7.8561      2.4418      0.0301     12.6207     65.3368     18.0559
   891.3000      7.8555      2.4338      0.0281     13.1004     69.6856     18.2619
   891.4000      7.8555      2.4294      0.0113     13.3683     68.5647     19.0040
   891.5000      7.8555      2.4316      0.0461     13.2338     68.8670     19.9422
   891.6000      7.8555      2.4359      0.0541     12.9749     74.1710     20.7429
   891.7000      7.8555      2.4453      0.0310     12.4090     80.5575     21.4780
   891.8000      7.8569      2.4578      0.0391     11.6495     86.6260     21.6830
   891.9000      7.8569      2.4629      0.0319     11.3405     90.9423     20.6636
   892.0000      7.8564      2.4609      0.0344     11.4608     90.2551     18.9299
   892.1000      7.8564      2.4629      0.0340     11.3393     86.0824     17.6124
   892.2000      7.8564      2.4681      0.0775     11.0217     80.8901     17.3053
   892.3000      7.8563      2.4650      0.0763     11.2118     77.2123     17.5819
   892.4000      7.8563      2.4627      0.0366     11.3521     78.4364     17.8532
   892.5000      7.8566      2.4784      0.0648     10.3978     80.0204     18.1944
   892.6000      7.8566      2.5016      0.1121      8.9967     77.2467     18.7550
   892.7000      7.8566      2.5098      0.1194      8.4988     76.5411     19.2761
