~Version Information
VERS.                      2.0: CWLS Log ASCII Standard - VERSION 2.0
WRAP.                       NO: One line per depth step
~Well Information Block
STRT.FT                -8.2500: 
STOP.FT              1729.7500: 
STEP.FT                 0.2500: 
NULL.                -999.2500: 
COMP.          Pioneer Natural Resources: COMPANY
WELL.            Dude 43-34 Tr: WELL
FLD.           Purgatorie River: FIELD
LOC.           2083' FSL & 1042' FEL--: LOCATION
PROV.                       CO: PROVINCE
CNTY.               Las Animas: COUNTRY
SRVC.          Patterson Wireline: SERVICE COMPANY
DATE.          Tue Jan 31 09:23:54 2006: LOG DATE
UWI.           05 071 08676 00: UNIQUE WELL ID
~Curve Information Block
DEPT.FT            0 000 00 00: Depth
CCL.                          : Casing Collar Locator
TT3.usec                      : CBL 3' Travel Time
AMP3.mV                       : CBL 3' Amplitude
GR.GAPI                       : Gamma Ray
~Parameter Information Block
~A  Depth       CCL         TT3         AMP3         GR     
# ...
   661.7500      0.0000    773.7882      6.3349    119.6978
   662.0000      0.0000    766.4243      6.3319    118.3132
   662.2500      0.0000    756.0493      6.3623    118.1345
   662.5000      0.0000    745.7352      6.4409    118.5101
   662.7500      0.0000    739.1697      6.5628    118.4297
   663.0000      0.0000    737.7050      6.7012    117.2455
   663.2500      0.0000    739.3415      6.8157    114.9160
   663.5000      0.0000    740.9689      6.8723    111.9169
   663.7500      0.0000    741.0912      6.8611    109.1186
   664.0000      0.0000    740.1539      6.7946    107.6039
   664.2500      0.0000    739.0817      6.6915    108.3493
   664.5000      0.0000    738.2621      6.5662    111.8791
   664.7500      0.0000    737.6168      6.4356    118.0530
   665.0000      0.0000    736.9301      6.3215    125.9352
   665.2500      0.0000    735.9839      6.2399    133.6324
   665.5000      0.0000    734.7277      6.1913    138.7585
   665.7500      0.0000    733.5414      6.1647    140.0121
   666.0000      0.0000    733.1263      6.1497    138.3416
   666.2500      0.0000    733.8660      6.1399    135.8523
   666.5000      0.0000    735.3344      6.1293    133.7892
   666.7500      0.0000    736.5678      6.1113    132.4039
   667.0000      0.0000    736.7790      6.0836    132.1797
   667.2500      0.0000    735.8677      6.0510    133.7422
   667.5000      0.0000    734.4836      6.0206    136.4825
   667.7500      0.0000    733.5913      5.9954    138.2681
   668.0000      0.0000    733.7221      5.9741    137.0538
   668.2500      0.0000    734.5897      5.9528    132.7089
   668.5000      0.0000    735.4882      5.9266    127.0640
   668.7500      0.0000    735.9360      5.8885    122.2446
   669.0000      0.0000    735.8051      5.8279    119.2789
   669.2500      0.0000    734.9045      5.7284    118.1426
   669.5000      0.0000    732.4960      5.5675    118.4620
   669.7500      0.0000    727.3112      5.3310    119.8667
   670.0000      0.0000    718.6418      5.0330    121.9720
   670.2500      0.0000    708.1238      4.7162    124.3653
   670.5000      0.0000    700.1372      4.4240    126.6003
   670.7500      0.0000    699.2249      4.1842    128.0614
   671.0000      0.0000    706.5790      4.0223    127.9275
   671.2500      0.0000    719.2114      3.9621    125.5102
   671.5000      0.0000    732.1343      3.9976    120.7357
   671.7500      0.0000    741.1648      4.0819    114.3010
   672.0000      0.0000    744.8215      4.1618    107.4263
   672.2500     -2.0000    744.4423      4.2175    101.4781
   672.5000      2.0000    742.1822      4.2690     97.6416
   672.7500      0.0000    739.0126      4.3597     96.6811
   673.0000      0.0000    735.1325      4.5315     98.6980
   673.2500      0.0000    731.4543      4.7930    102.8874
   673.5000      0.0000    729.4545      5.1053    107.6913
   673.7500      0.0000    729.7891      5.4113    111.7681
   674.0000      0.0000    731.7211      5.6757    115.0924
   674.2500      0.0000    733.7531      5.8837    118.6958
   674.5000      0.0000    734.6724      6.0243    123.2495
   674.7500      0.0000    734.4714      6.0984    128.3558
   675.0000      0.0000    734.7514      6.1320    133.1573
   675.2500      0.0000    737.9755      6.1606    137.1880
   675.5000      0.0000    745.5178      6.2033    140.7558
   675.7500      0.0000    756.0883      6.2523    144.6716
   676.0000      0.0000    766.4065      6.2863    149.2097
   676.2500      0.0000    773.5628      6.2923    153.0374
   676.5000      0.0000    776.5180      6.2757    153.6619
   676.7500      0.0000    775.7298      6.2555    149.6807
   677.0000      0.0000    772.3320      6.2500    142.8296
   677.2500      0.0000    767.8511      6.2675    137.1918
   677.5000      0.0000    763.6855      6.3055    135.6813
   677.7500      0.0000    760.0696      6.3569    137.3175
   678.0000      0.0000    756.0402      6.4179    138.4474
   678.2500      0.0000    750.9694      6.4868    136.6596
   678.5000      0.0000    745.6428      6.5564    132.8335
   678.7500      0.0000    741.4540      6.6127    129.1321
   679.0000      0.0000    739.0670      6.6440    126.2233
   679.2500      0.0000    738.2274      6.6477    123.4498
   679.5000      0.0000    738.5060      6.6250    120.7219
   679.7500      0.0000    739.9331      6.5738    118.8840
   680.0000      0.0000    743.0004      6.4905    118.5483
   680.2500      0.0000    748.0078      6.3788    119.5026
   680.5000      0.0000    754.0626      6.2539    121.1691
   680.7500      0.0000    758.7689      6.1360    123.0387
   681.0000      0.0000    759.7168      6.0398    124.7205
   681.2500      0.0000    757.0899      5.9681    126.0441
   681.5000      0.0000    754.4696      5.9151    127.2162
   681.7500      0.0000    756.1040      5.8731    128.4733
   682.0000      0.0000    763.0166      5.8386    129.4790
   682.2500      0.0000    771.9750      5.8147    129.5052
   682.5000      0.0000    778.0989      5.8075    128.4335
   682.7500      0.0000    778.2958      5.8184    127.2411
   683.0000      0.0000    772.5959      5.8417    127.2599
   683.2500      0.0000    762.8802      5.8698    129.0419
   683.5000      0.0000    751.1093      5.8978    132.0995
   683.7500      0.0000    739.0475      5.9208    135.5803
   684.0000      0.0000    728.5871      5.9320    138.9962
   684.2500      0.0000    721.1289      5.9285    142.4510
   684.5000      0.0000    716.7850      5.9159    146.3955
   684.7500      0.0000    714.7219      5.9041    150.9164
   685.0000      0.0000    714.1582      5.9010    154.9828
   685.2500      0.0000    714.9342      5.9089    156.7584
   685.5000      0.0000    717.2968      5.9229    155.1506
   685.7500      0.0000    721.1536      5.9330    150.9108
   686.0000      0.0000    725.4692      5.9297    145.8874
   686.2500      0.0000    728.9888      5.9089    141.4828
   686.5000      0.0000    732.0775      5.8687    138.1458
   686.7500      0.0000    737.1899      5.8056    135.8672
   687.0000      0.0000    746.4398      5.7186    134.4829
   687.2500      0.0000    758.6851      5.6192    133.8018
   687.5000      0.0000    769.5981      5.5273    133.9269
   687.7500      0.0000    774.6544      5.4551    135.0997
   688.0000      0.0000    772.2231      5.3979    137.0216
   688.2500      0.0000    764.6760      5.3469    138.8742
   688.5000      0.0000    756.9767      5.3067    140.3370
   688.7500      0.0000    753.1790      5.2932    142.1744
   689.0000      0.0000    753.0982      5.3138    145.4481
   689.2500      0.0000    752.6399      5.3564    150.1039
   689.5000      0.0000    748.2159      5.4000    154.4916
   689.7500      0.0000    740.8849      5.4316    156.4232
   690.0000      0.0000    735.5440      5.4516    154.6237
   690.2500      0.0000    735.8990      5.4691    149.3745
   690.5000      0.0000    740.7806      5.4965    142.4882
   690.7500      0.0000    745.8112      5.5459    136.6599
   691.0000      0.0000    748.1326      5.6246    133.8721
   691.2500      0.0000    749.0001      5.7312    134.2238
   691.5000      0.0000    752.4443      5.8544    136.7220
   691.7500      0.0000    761.7930      5.9762    140.6763
   692.0000      0.0000    776.6644      6.0779    145.6696
   692.2500      0.0000    792.7051      6.1472    150.8999
   692.5000      0.0000    804.3616      6.1842    155.3445
   692.7500      0.0000    808.1275      6.2002    158.2103
   693.0000      0.0000    803.9615      6.2086    159.0059
   693.2500      0.0000    795.0923      6.2142    157.6649
   693.5000      0.0000    786.5693      6.2066    154.6949
   693.7500      0.0000    782.3575      6.1669    150.9209
   694.0000      0.0000    782.9382      6.0842    147.2180
   694.2500      0.0000    786.1234      5.9679    144.5485
   694.5000      0.0000    789.9185      5.8445    143.6589
   694.7500      0.0000    793.8857      5.7409    144.3762
   695.0000      0.0000    798.2039      5.6704    145.4928
