~Version Information
VERS.                      2.0: CWLS Log ASCII Standard - VERSION 2.0
WRAP.                       NO: One line per depth step
~Well Information Block
STRT.FT               380.0000: 
STOP.FT              1887.5000: 
STEP.FT                 0.1000: 
NULL.                -999.2500: 
COMP.          Pioneer Natural Resources: COMPANY
WELL.          Cortina 23-25 Tr: WELL
FLD.           Purgatoire River: FIELD
LOC.           2521' FSL & 2345' FWL: LOCATION
STAT.                 Colorado: State
CNTY.               Las Animas: COUNTY
CTRY. USA : Country
SECT. 25 : Section
TOWN. 32S : Township
RANG. 67W : Range
SRVC.                Patterson: SERVICE COMPANY
DATE.          Mon Sep 26 06:09:01 2005: LOG DATE
API.           05 071 08534 00: UNIQUE WELL ID
~Curve Information Block
DEPT.FT            0 000 00 00: Depth
DCAL.in                       : CDL Caliper
RHOB.g/cc                     : CDL Bulk Density
RHOC.g/cc                     : CDL Density Correction
DPOR.pu                       : CDL Density Porosity
GR.GAPI                       : Gamma Ray
NPOR.pu                       : Neutron Porosity
~Parameter Information Block
~A  Depth       DCAL        RHOB        RHOC        DPOR         GR         NPOR    
# ...
  1282.4000      7.9093      2.6167      0.0986      2.0173    128.0751     22.8236
  1282.5000      7.9065      2.6068      0.0196      2.6194    118.9098     18.5326
  1282.6000      7.9036      2.5842      0.0029      3.9887    111.6585     16.6994
  1282.7000      7.9007      2.5797      0.0281      4.2605    110.0236     17.8651
  1282.8000      7.8983      2.5944     -0.0035      3.3696    110.4152     19.6494
  1282.9000      7.8964      2.6096      0.0474      2.4484    108.3504     20.5392
  1283.0000      7.8955      2.6090      0.0241      2.4830    105.8219     22.2758
  1283.1000      7.8956      2.5996      0.0055      3.0524    103.6098     23.6612
  1283.2000      7.8967      2.6008      0.0103      2.9837    100.9535     21.7123
  1283.3000      7.8989      2.6156      0.0436      2.0875    101.3524     19.2868
  1283.4000      7.9019      2.6313      0.0324      1.1354    104.1561     19.5320
  1283.5000      7.9056      2.6385      0.0151      0.6959    105.4779     20.9864
  1283.6000      7.9096      2.6395      0.0024      0.6367    107.0017     19.6141
  1283.7000      7.9135      2.6482      0.0049      0.1082    109.1876     17.4837
  1283.8000      7.9168      2.6696      0.0749     -1.1883    110.4632     17.8967
  1283.9000      7.9194      2.6835      0.1036     -2.0283    111.2688     20.0441
  1284.0000      7.9209      2.6728      0.0948     -1.3847    110.8802     20.1084
  1284.1000      7.9212      2.6454      0.0645      0.2789    110.1709     17.1045
  1284.2000      7.9203      2.6147      0.0565      2.1416    108.6626     15.1009
  1284.3000      7.9186      2.5873      0.0439      3.8008    105.3148     16.0301
  1284.4000      7.9162      2.5664      0.0408      5.0688    101.8503     18.0181
  1284.5000      7.9136      2.5561      0.0526      5.6896     99.9472     16.8340
  1284.6000      7.9111      2.5657     -0.0029      5.1096     99.8407     14.7799
  1284.7000      7.9092      2.5835      0.0645      4.0331    101.3710     15.6776
  1284.8000      7.9079      2.5749      0.0371      4.5502    101.4696     19.1842
  1284.9000      7.9076      2.5476     -0.0405      6.2084     97.3337     21.5020
  1285.0000      7.9082      2.5417     -0.0122      6.5660     93.5380     19.6415
  1285.1000      7.9096      2.5638      0.0225      5.2235     94.3484     17.0025
  1285.2000      7.9117      2.5896      0.0954      3.6581     96.9793     16.7848
  1285.3000      7.9141      2.5988      0.0835      3.1048     98.2701     19.0152
  1285.4000      7.9169      2.5932      0.0305      3.4401     98.1308     21.2184
  1285.5000      7.9199      2.5859      0.0689      3.8821     97.3361     21.6333
  1285.6000      7.9229      2.5811      0.0233      4.1765     96.4153     21.0386
  1285.7000      7.9260      2.5781      0.0561      4.3580     95.0564     19.8659
  1285.8000      7.9293      2.5766      0.0356      4.4514     95.0329     17.7376
  1285.9000      7.9326      2.5801      0.0027      4.2352     99.7508     15.2141
  1286.0000      7.9361      2.5893      0.0768      3.6806    106.6946     14.5148
  1286.1000      7.9395      2.5976      0.0682      3.1777    107.1335     16.8437
  1286.2000      7.9428      2.6116      0.0448      2.3295    100.6138     20.4697
  1286.3000      7.9459      2.6353      0.1002      0.8938     94.9659     21.6843
  1286.4000      7.9486      2.6533      0.0673     -0.2022     94.9124     21.4021
  1286.5000      7.9508      2.6619      0.0624     -0.7220     97.2664     21.8906
  1286.6000      7.9523      2.6699      0.0770     -1.2037     97.2188     22.0040
  1286.7000      7.9531      2.6742      0.0987     -1.4679     96.7709     21.1462
  1286.8000      7.9533      2.6714      0.0401     -1.2943     99.5837     21.1103
  1286.9000      7.9530      2.6698      0.0747     -1.1994    105.2863     21.9779
  1287.0000      7.9522      2.6728      0.0795     -1.3848    109.5995     21.4292
  1287.1000      7.9513      2.6719      0.0912     -1.3263    109.7831     19.3853
  1287.2000      7.9505      2.6550      0.0824     -0.3040    106.9076     18.6618
  1287.3000      7.9499      2.6251      0.0636      1.5110    102.7329     20.2890
  1287.4000      7.9497      2.6094     -0.0618      2.4578     99.9005     22.1521
  1287.5000      7.9500      2.6208      0.0814      1.7708    100.6670     21.5401
  1287.6000      7.9506      2.6315      0.0946      1.1182    104.7794     18.9457
  1287.7000      7.9517      2.6279      0.0476      1.3405    108.9811     16.0330
  1287.8000      7.9528      2.6237      0.0678      1.5931    110.2343     14.6410
  1287.9000      7.9539      2.6208      0.0856      1.7696    107.5423     15.6206
  1288.0000      7.9547      2.6167      0.0580      2.0208    102.0199     16.9412
  1288.1000      7.9552      2.6190      0.0852      1.8780     97.4492     16.3820
  1288.2000      7.9552      2.6267      0.0761      1.4111     96.0643     16.0989
  1288.3000      7.9548      2.6279      0.1073      1.3408     97.1002     18.1102
  1288.4000      7.9542      2.6186      0.0856      1.9049     98.5278     20.8486
  1288.5000      7.9538      2.6044      0.0575      2.7638     99.5037     20.7533
  1288.6000      7.9537      2.5941      0.0413      3.3879     98.4200     19.6468
  1288.7000      7.9543      2.5970      0.0519      3.2098     93.6330     20.1170
  1288.8000      7.9558      2.6030      0.0807      2.8510     88.2596     20.6408
  1288.9000      7.9583      2.5926      0.0203      3.4791     87.1518     20.3089
  1289.0000      7.9616      2.5753      0.0110      4.5267     90.2367     20.7515
  1289.1000      7.9654      2.5773      0.0417      4.4058     93.0057     21.4996
  1289.2000      7.9693      2.6095      0.0546      2.4521     91.8192     21.8615
  1289.3000      7.9728      2.6524      0.1385     -0.1428     88.4613     22.7896
  1289.4000      7.9755      2.6708      0.1642     -1.2586     87.7112     24.1187
  1289.5000      7.9771      2.6579      0.1338     -0.4767     90.3286     24.1736
  1289.6000      7.9774      2.6368      0.0991      0.8009     94.7149     21.2378
  1289.7000      7.9765      2.6213      0.0825      1.7394    100.4464     17.4334
  1289.8000      7.9746      2.6066      0.0775      2.6275    107.2413     15.8004
  1289.9000      7.9720      2.5911      0.0627      3.5703    112.6219     17.0642
  1290.0000      7.9692      2.5832      0.0668      4.0492    112.3925     20.7584
  1290.1000      7.9664      2.5855      0.0434      3.9113    107.0875     23.9877
  1290.2000      7.9641      2.5899      0.0897      3.6421    102.0699     23.9593
  1290.3000      7.9624      2.5917      0.0502      3.5327    100.9429     21.8056
  1290.4000      7.9615      2.5904      0.0768      3.6097    103.5873     19.8374
  1290.5000      7.9613      2.5839      0.0736      4.0086    106.5258     19.7746
  1290.6000      7.9618      2.5811      0.0113      4.1733    107.7289     21.8234
  1290.7000      7.9627      2.5936      0.0818      3.4158    109.6284     24.7275
  1290.8000      7.9638      2.6132      0.0760      2.2302    110.6829     25.9877
  1290.9000      7.9648      2.6294      0.1202      1.2469    104.9865     24.3074
  1291.0000      7.9658      2.6456      0.0619      0.2685     94.9879     21.2474
  1291.1000      7.9664      2.6644      0.1300     -0.8734     90.1663     19.4763
  1291.2000      7.9666      2.6761      0.0605     -1.5797     92.9417     19.5731
  1291.3000      7.9664      2.6765      0.0703     -1.6040     96.3168     19.8616
  1291.4000      7.9660      2.6715      0.0708     -1.3005     95.5310     19.9222
  1291.5000      7.9652      2.6755      0.0309     -1.5478     92.9238     21.3328
  1291.6000      7.9644      2.7004      0.0797     -3.0543     89.3229     23.9296
  1291.7000      7.9634      2.7209      0.1423     -4.2949     82.4496     26.0633
  1291.8000      7.9625      2.7077      0.0833     -3.4994     74.8372     25.8757
  1291.9000      7.9617      2.6795      0.0394     -1.7871     70.7890     22.2282
