~Version Information
VERS.                      2.0: CWLS Log ASCII Standard - VERSION 2.0
WRAP.                       NO: One line per depth step
~Well Information Block
STRT.FT                10.0000: 
STOP.FT               959.2500: 
STEP.FT                 0.2500: 
NULL.                -999.2500: 
COMP.          XTO Energy Inc.: COMPANY
WELL.          Golden Eagle 20-04: WELL
FLD.           Purgatrorie River: FIELD
LOC.           702' FNL & 487' FWL--: LOCATION
STAT.                       CO: State
CNTY.               Las Animas: COUNTY
CTRY. USA : Country
SECT. 20 : Section
TOWN. 33S : Township
RANG. 67W : Range
SRVC.          Patterson Wireline: SERVICE COMPANY
DATE.          Mon Dec 05 08:42:44 2005: LOG DATE
API.           05 071 08599 00: UNIQUE WELL ID
~Curve Information Block
DEPT.FT            0 000 00 00: Depth
TEMP.degF                     : Downhole Temperature
DTMP.degF                     : Delta Temperature
~Parameter Information Block
~A  Depth       TEMP        DTMP    
# ...
    65.7500     44.2673      0.0452
    66.0000     44.2770      0.0455
    66.2500     44.2901      0.0457
    66.5000     44.3032      0.0459
    66.7500     44.3130      0.0461
    67.0000     44.3263      0.0463
    67.2500     44.3362      0.0465
    67.5000     44.3495      0.0450
    67.7500     44.3595      0.0469
    68.0000     44.3697      0.0471
    68.2500     44.3832      0.0473
    68.5000     44.3932      0.0457
    68.7500     44.4068      0.0476
    69.0000     44.4204      0.0494
    69.2500     44.4307      0.0479
    69.5000     44.4409      0.0482
    69.7500     44.4547      0.0484
    70.0000     44.4685      0.0487
    70.2500     44.4790      0.0488
    70.5000     44.4896      0.0491
    70.7500     44.5036      0.0493
    71.0000     44.5177      0.0478
    71.2500     44.5284      0.0497
    71.5000     44.5391      0.0516
    71.7500     44.5534      0.0501
    72.0000     44.5642      0.0503
    72.2500     44.5785      0.0504
    72.5000     44.5929      0.0523
    72.7500     44.6037      0.0506
    73.0000     44.6183      0.0526
    73.2500     44.6292      0.0509
    73.5000     44.6437      0.0510
    73.7500     44.6546      0.0510
    74.0000     44.6693      0.0511
    74.2500     44.6803      0.0511
    74.5000     44.6948      0.0512
    74.7500     44.7058      0.0512
    75.0000     44.7204      0.0512
    75.2500     44.7314      0.0512
    75.5000     44.7461      0.0513
    75.7500     44.7571      0.0530
    76.0000     44.7717      0.0512
    76.2500     44.7827      0.0530
    76.5000     44.7973      0.0512
    76.7500     44.8118      0.0530
    77.0000     44.8229      0.0529
    77.2500     44.8374      0.0529
    77.5000     44.8485      0.0529
    77.7500     44.8630      0.0529
    78.0000     44.8776      0.0528
    78.2500     44.8885      0.0529
    78.5000     44.9031      0.0529
    78.7500     44.9177      0.0530
    79.0000     44.9286      0.0530
    79.2500     44.9432      0.0532
    79.5000     44.9543      0.0514
    79.7500     44.9690      0.0515
    80.0000     44.9837      0.0535
    80.2500     44.9948      0.0517
    80.5000     45.0058      0.0537
    80.7500     45.0208      0.0519
    81.0000     45.0356      0.0520
    81.2500     45.0466      0.0521
    81.5000     45.0616      0.0540
    81.7500     45.0727      0.0541
    82.0000     45.0877      0.0523
    82.2500     45.0990      0.0544
    82.5000     45.1139      0.0527
    82.7500     45.1291      0.0549
    83.0000     45.1403      0.0550
    83.2500     45.1555      0.0572
    83.5000     45.1670      0.0557
    83.7500     45.1824      0.0562
    84.0000     45.1978      0.0587
    84.2500     45.2135      0.0572
    84.5000     45.2254      0.0599
    84.7500     45.2414      0.0585
    85.0000     45.2576      0.0594
    85.2500     45.2700      0.0601
    85.5000     45.2868      0.0608
    85.7500     45.2995      0.0616
    86.0000     45.3165      0.0602
    86.2500     45.3338      0.0608
    86.5000     45.3471      0.0614
    86.7500     45.3646      0.0643
    87.0000     45.3779      0.0651
    87.2500     45.3916      0.0634
    87.5000     45.4096      0.0662
    87.7500     45.4281      0.0668
    88.0000     45.4467      0.0672
    88.2500     45.4606      0.0700
    88.5000     45.4794      0.0682
    88.7500     45.4983      0.0686
    89.0000     45.5124      0.0691
    89.2500     45.5316      0.0695
    89.5000     45.5460      0.0699
    89.7500     45.5654      0.0679
    90.0000     45.5848      0.0708
    90.2500     45.5996      0.0688
    90.5000     45.6193      0.0717
    90.7500     45.6342      0.0722
    91.0000     45.6541      0.0701
    91.2500     45.6692      0.0730
    91.5000     45.6893      0.0708
    91.7500     45.7098      0.0737
    92.0000     45.7251      0.0715
    92.2500     45.7455      0.0744
    92.5000     45.7609      0.0747
    92.7500     45.7817      0.0723
    93.0000     45.7972      0.0750
    93.2500     45.8180      0.0753
    93.5000     45.8387      0.0753
    93.7500     45.8545      0.0754
    94.0000     45.8752      0.0780
    94.2500     45.8961      0.0753
    94.5000     45.9116      0.0753
    94.7500     45.9324      0.0752
    95.0000     45.9532      0.0751
    95.2500     45.9686      0.0749
    95.5000     45.9893      0.0747
    95.7500     46.0048      0.0746
    96.0000     46.0253      0.0719
    96.2500     46.0458      0.0745
    96.5000     46.0611      0.0720
    96.7500     46.0816      0.0746
    97.0000     46.0971      0.0748
    97.2500     46.1176      0.0725
    97.5000     46.1332      0.0757
    97.7500     46.1540      0.0736
    98.0000     46.1750      0.0769
    98.2500     46.1909      0.0749
    98.5000     46.2125      0.0783
    98.7500     46.2288      0.0790
    99.0000     46.2508      0.0771
    99.2500     46.2674      0.0806
    99.5000     46.2897      0.0784
    99.7500     46.3120      0.0817
   100.0000     46.3292      0.0823
   100.2500     46.3521      0.0826
   100.5000     46.3692      0.0830
   100.7500     46.3923      0.0836
   101.0000     46.4153      0.0837
   101.2500     46.4326      0.0841
   101.5000     46.4558      0.0843
   101.7500     46.4793      0.0848
   102.0000     46.4967      0.0852
   102.2500     46.5204      0.0856
   102.5000     46.5379      0.0862
   102.7500     46.5619      0.0865
   103.0000     46.5857      0.0871
   103.2500     46.6038      0.0877
   103.5000     46.6282      0.0884
   103.7500     46.6523      0.0892
   104.0000     46.6708      0.0904
   104.2500     46.6958      0.0911
   104.5000     46.7148      0.0924
   104.7500     46.7403      0.0904
   105.0000     46.7665      0.0950
   105.2500     46.7861      0.0966
   105.5000     46.8130      0.0978
   105.7500     46.8332      0.0996
   106.0000     46.8609      0.0976
   106.2500     46.8891      0.1027
   106.5000     46.9104      0.1006
   106.7500     46.9395      0.1059
   107.0000     46.9617      0.1074
   107.2500     46.9915      0.1049
   107.5000     47.0142      0.1100
   107.7500     47.0450      0.1111
   108.0000     47.0756      0.1121
   108.2500     47.0989      0.1133
   108.5000     47.1303      0.1184
   108.7500     47.1617      0.1153
   109.0000     47.1858      0.1169
   109.2500     47.2182      0.1179
   109.5000     47.2509      0.1195
   109.7500     47.2756      0.1169
   110.0000     47.3095      0.1225
   110.2500     47.3347      0.1196
   110.5000     47.3693      0.1213
   110.7500     47.3954      0.1272
   111.0000     47.4307      0.1240
   111.2500     47.4574      0.1300
   111.5000     47.4935      0.1270
   111.7500     47.5299      0.1329
   112.0000     47.5575      0.1348
   112.2500     47.5947      0.1362
   112.5000     47.6232      0.1382
   112.7500     47.6613      0.1403
   113.0000     47.7003      0.1474
   113.2500     47.7298      0.1445
   113.5000     47.7698      0.1518
   113.7500     47.8105      0.1491
   114.0000     47.8523      0.1517
   114.2500     47.8837      0.1594
   114.5000     47.9267      0.1564
   114.7500     47.9595      0.1590
   115.0000     48.0037      0.1555
   115.2500     48.0485      0.1635
   115.5000     48.0826      0.1597
   115.7500     48.1285      0.1675
   116.0000     48.1633      0.1637
   116.2500     48.2106      0.1658
   116.5000     48.2462      0.1674
   116.7500     48.2944      0.1692
   117.0000     48.3311      0.1769
   117.2500     48.3801      0.1782
   117.5000     48.4173      0.1793
   117.7500     48.4669      0.1742
   118.0000     48.5171      0.1813
   118.2500     48.5671      0.1823
   118.5000     48.6049      0.1894
   118.7500     48.6428      0.1841
   119.0000     48.6936      0.1849
   119.2500     48.7447      0.1862
   119.5000     48.7960      0.1870
   119.7500     48.8351      0.1943
   120.0000     48.8869      0.1884
   120.2500     48.9394      0.1894
   120.5000     48.9789      0.1903
   120.7500     49.0313      0.1974
   121.0000     49.0705      0.1917
   121.2500     49.1236      0.1920
