~Version Information
VERS.                      2.0: CWLS Log ASCII Standard - VERSION 2.0
WRAP.                       NO: One line per depth step
~Well Information Block
STRT.FT               875.0000: 
STOP.FT              2947.2500: 
STEP.FT                 0.2500: 
NULL.                -999.2500: 
COMP.          Pioneer Natural Resources: COMPANY
WELL.          Hanginstone 21-27: WELL
FLD.           Purgatoire River: FIELD
LOC.           1186' FNL & 1606' FWL--: LOCATION
PROV.                 Colorado: PROVINCE
CNTY.               Las Animas: COUNTRY
SRVC.                Patterson: SERVICE COMPANY
DATE.          Sat Jan 07 09:06:14 2006: LOG DATE
UWI.           05 071 08632 00: UNIQUE WELL ID
~Curve Information Block
DEPT.FT            0 000 00 00: Depth
SN.Ohm-m                      : IEL Short Normal
SP.mV                         : IEL Spontaneous Potential
DIR.Ohm-m                     : IEL Induction Resistivity
GR.GAPI                       : Gamma Ray
~Parameter Information Block
~A  Depth        SN          SP         DIR          GR     
# ...
  2114.5000     10.0761     48.8610      9.0642    124.4681
  2114.7500      9.9872     49.1117      8.9290    131.0862
  2115.0000      9.8668     49.3401      8.7784    139.2907
  2115.2500      9.6846     49.5375      8.6015    142.4750
  2115.5000      9.4415     49.7003      8.3946    144.6682
  2115.7500      9.1655     49.8289      8.1648    145.4987
  2116.0000      8.8968     49.9266      7.9270    146.7374
  2116.2500      8.6683     49.9970      7.7000    147.5001
  2116.5000      8.4952     50.0427      7.5009    148.4411
  2116.7500      8.3781     50.0633      7.3424    149.1877
  2117.0000      8.3112     50.0553      7.2316    151.1847
  2117.2500      8.2885     50.0130      7.1717    153.2866
  2117.5000      8.3051     49.9298      7.1636    156.9715
  2117.7500      8.3578     49.8005      7.2067    158.8129
  2118.0000      8.4442     49.6227      7.2983    158.4809
  2118.2500      8.5589     49.3987      7.4332    155.2334
  2118.5000      8.6919     49.1352      7.6033    145.9401
  2118.7500      8.8329     48.8439      7.8006    138.1069
  2119.0000      8.9791     48.5398      8.0188    126.9449
  2119.2500      9.1393     48.2406      8.2543    120.9877
  2119.5000      9.3299     47.9648      8.5045    114.3902
  2119.7500      9.5595     47.7300      8.7634    111.3183
  2120.0000      9.8129     47.5509      9.0198    108.9371
  2120.2500     10.0504     47.4377      9.2557    109.0549
  2120.5000     10.2240     47.3949      9.4481    111.3431
  2120.7500     10.2978     47.4209      9.5717    113.6694
  2121.0000     10.2588     47.5084      9.6055    117.6998
  2121.2500     10.1175     47.6457      9.5407    120.6834
  2121.5000      9.9024     47.8187      9.3859    125.4159
  2121.7500      9.6517     48.0124      9.1656    128.4430
  2122.0000      9.3987     48.2119      8.9117    132.2996
  2122.2500      9.1612     48.4032      8.6535    134.3065
  2122.5000      8.9425     48.5740      8.4117    136.7582
  2122.7500      8.7427     48.7137      8.1974    138.4867
  2123.0000      8.5669     48.8143      8.0159    141.9032
  2123.2500      8.4225     48.8711      7.8685    144.4948
  2123.5000      8.3131     48.8833      7.7543    147.3255
  2123.7500      8.2348     48.8541      7.6704    147.7504
  2124.0000      8.1803     48.7903      7.6127    146.4962
  2124.2500      8.1424     48.7016      7.5768    145.2856
  2124.5000      8.1175     48.5990      7.5596    143.9884
  2124.7500      8.1053     48.4940      7.5595    143.3580
  2125.0000      8.1077     48.3967      7.5751    142.0504
  2125.2500      8.1284     48.3150      7.6039    140.8024
  2125.5000      8.1701     48.2539      7.6413    138.6916
  2125.7500      8.2275     48.2151      7.6814    137.3737
  2126.0000      8.2850     48.1974      7.7174    136.0635
  2126.2500      8.3238     48.1979      7.7430    136.1443
  2126.5000      8.3325     48.2127      7.7535    138.5033
  2126.7500      8.3111     48.2380      7.7464    141.4841
  2127.0000      8.2687     48.2707      7.7223    146.6672
  2127.2500      8.2171     48.3087      7.6858    149.5718
  2127.5000      8.1675     48.3506      7.6440    152.3001
  2127.7500      8.1268     48.3954      7.6047    153.3143
  2128.0000      8.0958     48.4419      7.5734    154.4208
  2128.2500      8.0705     48.4887      7.5519    154.8737
  2128.5000      8.0469     48.5337      7.5376    154.4024
  2128.7500      8.0238     48.5736      7.5254    153.2706
  2129.0000      8.0003     48.6041      7.5109    151.6261
  2129.2500      7.9748     48.6199      7.4938    151.3484
  2129.5000      7.9479     48.6150      7.4784    151.7970
  2129.7500      7.9276     48.5833      7.4720    151.6297
  2130.0000      7.9275     48.5192      7.4825    149.3454
  2130.2500      7.9591     48.4183      7.5159    146.5888
  2130.5000      8.0234     48.2782      7.5752    141.9943
  2130.7500      8.1101     48.0985      7.6596    139.5249
  2131.0000      8.2051     47.8813      7.7652    137.2883
  2131.2500      8.2996     47.6315      7.8849    136.2342
  2131.5000      8.3941     47.3564      8.0117    133.6165
  2131.7500      8.4947     47.0651      8.1406    130.7085
  2132.0000      8.6074     46.7679      8.2709    125.7126
  2132.2500      8.7345     46.4754      8.4050    123.2330
  2132.5000      8.8730     46.1971      8.5445    122.2854
  2132.7500      9.0147     45.9413      8.6868    123.5358
  2133.0000      9.1482     45.7138      8.8246    127.2525
  2133.2500      9.2626     45.5185      8.9490    130.0986
  2133.5000      9.3527     45.3569      9.0538    133.3271
  2133.7500      9.4193     45.2287      9.1371    134.0196
  2134.0000      9.4677     45.1319      9.2005    132.4153
  2134.2500      9.5056     45.0629      9.2466    130.0363
  2134.5000      9.5412     45.0171      9.2788    126.1298
  2134.7500      9.5793     44.9885      9.3014    124.0803
  2135.0000      9.6188     44.9704      9.3197    121.8455
  2135.2500      9.6547     44.9556      9.3382    120.3940
  2135.5000      9.6859     44.9368      9.3591    118.0467
  2135.7500      9.7197     44.9080      9.3822    116.9554
  2136.0000      9.7686     44.8643      9.4066    117.1313
  2136.2500      9.8409     44.8030      9.4340    118.5218
  2136.5000      9.9329     44.7232      9.4675    121.8622
  2136.7500     10.0280     44.6260      9.5094    124.5259
  2137.0000     10.1047     44.5143      9.5586    128.6384
  2137.2500     10.1500     44.3920      9.6093    131.1390
  2137.5000     10.1684     44.2639      9.6542    134.0789
  2137.7500     10.1772     44.1351      9.6878    135.4525
  2138.0000     10.1916     44.0104      9.7098    136.8176
  2138.2500     10.2146     43.8931      9.7245    137.1904
  2138.5000     10.2397     43.7851      9.7376    136.3485
  2138.7500     10.2607     43.6862      9.7523    134.7337
  2139.0000     10.2774     43.5947      9.7681    131.8056
  2139.2500     10.2932     43.5079      9.7814    130.4971
  2139.5000     10.3109     43.4222      9.7885    130.1864
  2139.7500     10.3339     43.3340      9.7884    130.6631
  2140.0000     10.3700     43.2390      9.7867    131.2862
  2140.2500     10.4323     43.1322      9.7958    131.2291
  2140.5000     10.5353     43.0071      9.8332    130.2879
  2140.7500     10.6900     42.8568      9.9170    129.3319
  2141.0000     10.8988     42.6749     10.0624    128.0658
  2141.2500     11.1529     42.4588     10.2798    127.2724
  2141.5000     11.4322     42.2125     10.5743    124.6546
  2141.7500     11.7171     41.9506     10.9437    120.8795
  2142.0000     12.0114     41.6988     11.3777    111.8734
  2142.2500     12.3577     41.4931     11.8570    104.6298
  2142.5000     12.8233     41.3758     12.3539     94.3337
  2142.7500     13.4525     41.3876     12.8304     88.9753
  2143.0000     14.2154     41.5603     13.2380     84.2881
  2143.2500     14.9958     41.9086     13.5255     83.6950
  2143.5000     15.6405     42.4260     13.6552     86.9050
  2143.7500     16.0382     43.0836     13.6200     91.9300
  2144.0000     16.1710     43.8335     13.4481    103.7397
  2144.2500     16.1032     44.6155     13.1912    113.9496
  2144.5000     15.9310     45.3652     12.9061    130.9183
  2144.7500     15.7355     46.0223     12.6397    141.8443
  2145.0000     15.5641     46.5372     12.4238    154.9001
  2145.2500     15.4406     46.8754     12.2769    160.0294
  2145.5000     15.3852     47.0197     12.2124    161.2060
  2145.7500     15.4254     46.9698     12.2459    157.8129
  2146.0000     15.5966     46.7406     12.3989    147.8559
  2146.2500     15.9418     46.3599     12.6974    139.0235
  2146.5000     16.5093     45.8647     13.1668    124.1311
  2146.7500     17.3370     45.2974     13.8264    114.0741
  2147.0000     18.4237     44.7021     14.6840    100.8003
  2147.2500     19.7058     44.1200     15.7285     94.2557
  2147.5000     21.0693     43.5857     16.9198     88.5562
  2147.7500     22.3900     43.1243     18.1815     87.0182
