~Version Information
VERS.                      2.0: CWLS Log ASCII Standard - VERSION 2.0
WRAP.                       NO: One line per depth step
~Well Information Block
STRT.FT                -0.5000: 
STOP.FT              1417.0000: 
STEP.FT                 0.2500: 
NULL.                -999.2500: 
COMP.          Pioneer Natural Resources: COMPANY
WELL.              Darren 11-7: WELL
FLD.           Purgatoire River: FIELD
LOC.           230' FNL & 596' FWL: LOCATION
CNTY.               Las Animas: COUNTY
SRVC.                Patterson: SERVICE COMPANY
DATE.          Thu Mar 30 10:43:52 2006: LOG DATE
UWI.           05 071 08720 00: UNIQUE WELL ID
STAT.                 Colorado: STATE
~Curve Information Block
DEPT.FT            0 000 00 00: Depth
GR.GAPI                       : Gamma Ray
CCL.                          : Casing Collar Locator
TT3.usec                      : CBL 3' Travel Time
AMP3.mV                       : CBL 3' Amplitude
~Parameter Information Block
~A  Depth        GR         CCL         TT3         AMP3    
# ...
  1205.5000     45.0465      0.0000    731.8358      4.3883
  1205.7500     42.9554      0.0000    731.0676      4.4003
  1206.0000     42.7501      0.0000    725.2800      4.5555
  1206.2500     45.1183      0.0000    714.5317      4.9034
  1206.5000     50.3172      0.0000    700.4677      5.5496
  1206.7500     57.8589      0.0000    685.5674      6.6376
  1207.0000     66.4851      0.0000    671.8520      8.3206
  1207.2500     74.6607      0.0000    659.3279     10.7166
  1207.5000     81.3252      0.0000    644.7578     13.8269
  1207.7500     86.2836      0.0000    621.8517     17.4379
  1208.0000     89.9226      0.0000    584.7968     21.1000
  1208.2500     92.7665      0.0000    534.5253     24.2699
  1208.5000     95.3466      0.0000    481.2610     26.5426
  1208.7500     98.0637      0.0000    437.9464     27.7968
  1209.0000    100.7565      0.0000    410.4246     28.1669
  1209.2500    102.5135      0.0000    395.5193     27.9122
  1209.5000    102.2633      0.0000    387.3334     27.2956
  1209.7500     99.7039      0.0000    382.7413     26.5252
  1210.0000     95.6933      0.0000    381.9820     25.7467
  1210.2500     91.8144      0.0000    387.7828     25.0535
  1210.5000     89.4883      0.0000    404.9761     24.4802
  1210.7500     89.2341      0.0000    438.2299     23.9731
  1211.0000     90.5019      0.0000    486.9574     23.3678
  1211.2500     92.1303      0.0000    542.2208     22.4197
  1211.5000     93.2540      0.0000    590.8755     20.8979
  1211.7500     93.9459      0.0000    624.1116     18.7073
  1212.0000     94.7206      0.0000    641.8340     15.9646
  1212.2500     95.3977      0.0000    649.7535     12.9697
  1212.5000     94.8965      0.0000    653.9518     10.0818
  1212.7500     92.2236      0.0000    657.7860      7.5806
  1213.0000     87.2010      0.0000    661.8302      5.5948
  1213.2500     80.2127      0.0000    665.4330      4.1155
  1213.5000     71.7675      0.0000    668.2756      3.0561
  1213.7500     62.4785      0.0000    670.6748      2.3120
  1214.0000     53.1838      0.0000    672.6650      1.7992
  1214.2500     44.9281      0.0000    673.5119      1.4670
  1214.5000     38.7473      0.0000    672.9003      1.2935
  1214.7500     35.2744      0.0000    672.7043      1.2714
  1215.0000     34.4041      0.0000    676.9211      1.3954
  1215.2500     35.3916      0.0000    689.0223      1.6531
  1215.5000     37.4400      0.0000    708.6699      2.0215
  1215.7500     40.3260      0.0000    730.3459      2.4725
  1216.0000     44.4877      0.0000    745.2420      2.9860
  1216.2500     50.3711      0.0000    746.0159      3.5593
  1216.5000     57.5844      0.0000    731.8559      4.1960
  1216.7500     64.8938      0.0000    709.8296      4.8796
  1217.0000     71.2346      0.0000    690.3146      5.5628
  1217.2500     76.4652      0.0000    679.3157      6.1851
  1217.5000     80.8780      0.0000    673.4305      6.6927
  1217.7500     84.3126      0.0000    661.4475      7.0386
  1218.0000     86.1898      0.0000    632.3332      7.1865
  1218.2500     86.3097      0.0000    584.4851      7.1311
  1218.5000     85.2648      0.0000    528.2531      6.9108
  1218.7500     83.9862      0.0000    478.5938      6.5896
  1219.0000     83.0215      0.0000    444.8679      6.2299
  1219.2500     82.3603      0.0000    427.4210      5.8796
  1219.5000     81.9065      0.0000    422.1682      5.5723
  1219.7500     81.8592      0.0000    426.7454      5.3273
  1220.0000     82.3536      0.0000    442.6373      5.1499
  1220.2500     82.9256      0.0000    471.7977      5.0343
  1220.5000     82.8480      0.0000    510.7422      4.9686
  1220.7500     82.0191      0.0000    548.9573      4.9410
  1221.0000     81.0929      0.0000    575.1414      4.9460
  1221.2500     80.7109      0.0000    584.5595      4.9835
  1221.5000     80.9116      0.0000    579.9067      5.0508
  1221.7500     81.2025      0.0000    568.9846      5.1355
  1222.0000     80.9868      0.0000    563.1994      5.2196
  1222.2500     80.1407      0.0000    572.0524      5.2907
  1222.5000     79.3488      0.0000    594.0566      5.3478
  1222.7500     79.6325      0.0000    615.9803      5.3966
  1223.0000     81.4266      0.0000    624.1709      5.4414
  1223.2500     84.2694      0.0000    615.4531      5.4821
  1223.5000     87.2686      0.0000    597.0231      5.5161
  1223.7500     89.5941      0.0000    578.7036      5.5359
  1224.0000     90.6377      0.0000    566.5874      5.5231
  1224.2500     90.0267      0.0000    561.7021      5.4492
  1224.5000     87.6903      0.0000    561.8439      5.2904
  1224.7500     83.9483      0.0000    563.8457      5.0550
  1225.0000     79.4534      0.0000    565.5688      4.7961
  1225.2500     74.9492      0.0000    566.8112      4.5858
  1225.5000     71.0005      0.0000    568.3733      4.4641
  1225.7500     67.7794      0.0000    571.2142      4.4241
  1226.0000     65.0942      0.0000    577.5201      4.4564
  1226.2500     62.9164      0.0000    590.5781      4.5804
  1226.5000     61.9476      0.0000    610.8954      4.8031
  1226.7500     63.3222      0.0000    633.8949      5.0679
  1227.0000     67.5860      3.0000    653.9908      5.2750
  1227.2500     74.1103      0.0000    669.3479      5.3501
  1227.5000     81.4246      0.0000    680.4012      5.2916
  1227.7500     88.0747      0.0000    686.1856      5.1644
  1228.0000     93.4264      0.0000    685.6841      5.0430
  1228.2500     97.7236      0.0000    681.3038      4.9467
  1228.5000    101.2115      0.0000    677.5443      4.8419
  1228.7500    103.3443      0.0000    676.1861      4.7176
  1229.0000    103.2457      0.0000    675.0728      4.6257
  1229.2500    100.9929      0.0000    671.7861      4.6240
  1229.5000     98.1813      0.0000    666.8939      4.7069
  1229.7500     96.9999      0.0000    663.1778      4.8181
  1230.0000     98.5929      0.0000    663.0464      4.9080
  1230.2500    102.1333      0.0000    667.2520      4.9608
  1230.5000    105.4564      0.0000    674.9467      4.9797
  1230.7500    106.7935      0.0000    684.0877      4.9703
  1231.0000    106.1424      0.0000    692.2253      4.9386
  1231.2500    105.0101      0.0000    697.4723      4.8953
  1231.5000    104.8195      0.0000    698.5455      4.8541
  1231.7500    105.7188      0.0000    693.5939      4.8246
  1232.0000    106.8716      0.0000    679.5110      4.8089
  1232.2500    107.4636      0.0000    654.1219      4.8042
  1232.5000    107.1939      0.0000    620.6166      4.8092
  1232.7500    106.0870      0.0000    589.0071      4.8272
  1233.0000    104.2196      0.0000    570.6303      4.8634
  1233.2500    101.6288      0.0000    570.3458      4.9203
  1233.5000     98.2145      0.0000    584.3877      4.9993
  1233.7500     93.7262      0.0000    604.3243      5.1076
  1234.0000     88.1290      0.0000    621.8066      5.2583
  1234.2500     82.1197      0.0000    631.9904      5.4627
  1234.5000     77.1716      0.0000    635.9856      5.7241
  1234.7500     74.8201      0.0000    640.4771      6.0383
  1235.0000     75.7199      0.0000    652.2636      6.3905
  1235.2500     79.2878      0.0000    670.9553      6.7445
  1235.5000     84.0077      0.0000    688.0003      7.0372
  1235.7500     87.9980      0.0000    694.4954      7.1924
  1236.0000     89.7956      0.0000    689.3678      7.1546
  1236.2500     89.2157      0.0000    679.5891      6.9217
  1236.5000     87.4162      0.0000    674.0479      6.5512
  1236.7500     85.7883      0.0000    677.7753      6.1271
  1237.0000     84.7146      0.0000    689.6983      5.7144
  1237.2500     83.3439      0.0000    703.9539      5.3387
  1237.5000     80.3844      0.0000    714.0560      4.9960
  1237.7500     75.0573      0.0000    717.1559      4.6687
  1238.0000     67.4377      0.0000    714.4920      4.3391
  1238.2500     58.2635      0.0000    708.4608      4.0034
  1238.5000     48.8258      0.0000    700.6321      3.6774
  1238.7500     40.9565      0.0000    692.5038      3.3874
