~Version Information
VERS.                      2.0: CWLS Log ASCII Standard - VERSION 2.0
WRAP.                       NO: One line per depth step
~Well Information Block
STRT.FT               840.0000: 
STOP.FT              1912.0000: 
STEP.FT                 0.1000: 
NULL.                -999.2500: 
COMP.          Petrogulf Corporation: COMPANY
WELL.             Kraft 17-23R: WELL
FLD.           Purgatorie River: FIELD
LOC.           1509' FSL & 1673' FWL: LOCATION
PROV.                 Colorado: PROVINCE
CNTY.               Las Animas: COUNTRY
SRVC.                Patterson: SERVICE COMPANY
DATE.          Wed Oct 12 07:01:14 2005: LOG DATE
UWI.                          : UNIQUE WELL ID
~Curve Information Block
DEPT.FT            0 000 00 00: Depth
DCAL.in                       : CDL Caliper
RHOB.g/cc                     : CDL Bulk Density
RHOC.g/cc                     : CDL Density Correction
DPOR.pu                       : CDL Density Porosity
GR.GAPI                       : Gamma Ray
NPOR.pu                       : Neutron Porosity
~Parameter Information Block
~A  Depth       DCAL        RHOB        RHOC        DPOR         GR         NPOR    
# ...
  1473.6000      7.7950      2.5884     -0.0001      3.7350    119.7183     18.0555
  1473.7000      7.7950      2.6179      0.0484      1.9439    125.3444     18.7903
  1473.8000      7.7894      2.6407      0.1487      0.5649    126.5628     19.3337
  1473.9000      7.7894      2.6429      0.0936      0.4287    121.8220     19.4301
  1474.0000      7.7904      2.6402      0.0739      0.5965    118.9089     19.2304
  1474.1000      7.7904      2.6440      0.1040      0.3655    121.4515     18.8965
  1474.2000      7.7904      2.6451      0.0996      0.2940    123.9012     18.4363
  1474.3000      7.7774      2.6364      0.1129      0.8252    122.7346     18.1125
  1474.4000      7.7774      2.6241      0.0640      1.5708    120.4548     18.3342
  1474.5000      7.8566      2.6197      0.0468      1.8372    120.2800     19.0800
  1474.6000      7.8566      2.6198      0.0644      1.8280    122.8822     19.9059
  1474.7000      7.8566      2.6106      0.0497      2.3886    126.6793     20.3478
  1474.8000      7.8729      2.5923     -0.0135      3.4957    130.6050     20.4844
  1474.9000      7.8729      2.5767      0.0463      4.4413    133.1994     20.7109
  1475.0000      7.8701      2.5681      0.0456      4.9656    133.7675     21.1189
  1475.1000      7.8701      2.5701      0.0232      4.8431    133.6538     21.4857
  1475.2000      7.8701      2.5905      0.0244      3.6073    132.2678     21.4753
  1475.3000      7.8955      2.6218      0.0603      1.7112    127.8296     21.0550
  1475.4000      7.8955      2.6437      0.0838      0.3799    121.4900     20.5162
  1475.5000      7.8915      2.6440      0.0696      0.3655    118.3008     20.1668
  1475.6000      7.8915      2.6281      0.0239      1.3260    117.9032     20.2201
  1475.7000      7.8915      2.6119      0.0493      2.3095    115.6255     20.6850
  1475.8000      7.8641      2.6026      0.0484      2.8702    112.4105     21.0823
  1475.9000      7.8641      2.6014      0.0299      2.9424    112.4250     21.0471
  1476.0000      7.8554      2.6052      0.0543      2.7162    114.9683     20.8838
  1476.1000      7.8554      2.6043      0.0878      2.7691    116.2307     20.9154
  1476.2000      7.8554      2.5974      0.0349      3.1875    118.6592     21.1453
  1476.3000      7.8687      2.5919      0.0536      3.5201    126.4567     21.4462
  1476.4000      7.8687      2.5958      0.0161      3.2827    136.1852     21.6395
  1476.5000      7.8621      2.6096      0.0612      2.4512    141.0667     21.7323
  1476.6000      7.8621      2.6194      0.1044      1.8551    143.0304     22.1306
  1476.7000      7.8621      2.6222      0.0973      1.6863    148.7597     22.9250
  1476.8000      7.8689      2.6288      0.1082      1.2866    158.3409     23.5814
  1476.9000      7.8689      2.6301      0.1433      1.2043    166.8902     23.8508
  1477.0000      7.8987      2.6079      0.0960      2.5534    168.1519     23.9054
  1477.1000      7.8987      2.5753      0.0247      4.5259    162.1393     23.7730
  1477.2000      7.8987      2.5587      0.0326      5.5307    155.5253     23.4157
  1477.3000      7.9054      2.5540      0.0505      5.8167    152.2164     23.0258
  1477.4000      7.9054      2.5397      0.0571      6.6853    153.1263     22.9329
  1477.5000      7.9108      2.5194     -0.0214      7.9150    155.9033     23.2683
  1477.6000      7.9108      2.5178      0.0144      8.0143    156.4404     23.9141
  1477.7000      7.9108      2.5344      0.0591      7.0054    157.0180     24.6251
  1477.8000      7.9108      2.5482      0.0460      6.1706    160.6568     25.3321
  1477.9000      7.9108      2.5596      0.0322      5.4766    162.8654     25.8950
  1478.0000      7.8975      2.5810      0.0562      4.1843    162.1698     25.9470
  1478.1000      7.8975      2.6094      0.0814      2.4600    162.3104     25.3787
  1478.2000      7.8975      2.6346      0.1093      0.9344    160.9653     24.7120
  1478.3000      7.8357      2.6486      0.1341      0.0877    154.7634     24.6766
  1478.4000      7.8357      2.6517      0.1095     -0.1034    147.5612     25.1305
  1478.5000      7.8206      2.6494      0.1649      0.0368    143.7699     25.3530
  1478.6000      7.8206      2.6435      0.1188      0.3936    142.4387     25.1247
  1478.7000      7.8206      2.6387      0.0875      0.6849    142.7159     24.8177
  1478.8000      7.8329      2.6377      0.0886      0.7442    144.9598     24.5713
  1478.9000      7.8329      2.6328      0.1065      1.0447    145.9193     24.1544
  1479.0000      7.8619      2.6206      0.0696      1.7840    143.0521     23.7593
  1479.1000      7.8619      2.6105      0.0468      2.3926    138.8231     23.5514
  1479.2000      7.8619      2.6091      0.0762      2.4777    136.3180     23.3078
  1479.3000      7.8404      2.6145      0.0778      2.1489    136.6331     22.9552
  1479.4000      7.8404      2.6178      0.1070      1.9537    139.0089     22.6868
  1479.5000      7.8342      2.6067      0.0725      2.6258    141.2395     22.4115
  1479.6000      7.8342      2.5867      0.0266      3.8385    141.1295     21.8547
  1479.7000      7.8342      2.5724      0.0263      4.7041    139.2654     21.0721
  1479.8000      7.8572      2.5627      0.0466      5.2911    137.1843     20.3710
  1479.9000      7.8572      2.5477      0.0636      6.2020    134.8080     20.0866
  1480.0000      7.8528      2.5344      0.0050      7.0076    134.3656     20.4165
  1480.1000      7.8528      2.5445      0.0359      6.3938    138.8513     21.0530
  1480.2000      7.8528      2.5714      0.0901      4.7632    145.1103     21.4183
  1480.3000      7.8540      2.5830      0.0824      4.0624    148.0427     21.6078
  1480.4000      7.8540      2.5746      0.0441      4.5674    149.2422     22.0234
  1480.5000      7.8938      2.5702      0.0531      4.8336    151.3950     22.7568
  1480.6000      7.8938      2.5767      0.0991      4.4423    154.3944     23.7387
  1480.7000      7.8938      2.5807      0.0673      4.1972    158.0002     24.6193
  1480.8000      7.8526      2.5802      0.0662      4.2304    160.8045     25.0587
  1480.9000      7.8526      2.5808      0.0740      4.1966    160.5112     25.2712
  1481.0000      7.8316      2.5796      0.1200      4.2678    157.1088     25.5087
  1481.1000      7.8316      2.5770      0.0864      4.4240    155.4053     25.7781
  1481.2000      7.8316      2.5871      0.0559      3.8121    158.1907     26.0736
  1481.3000      7.8324      2.6155      0.0984      2.0935    160.2972     26.1467
  1481.4000      7.8324      2.6416      0.1367      0.5084    159.2221     25.8012
  1481.5000      7.8729      2.6423      0.1309      0.4695    159.8240     25.4893
  1481.6000      7.8729      2.6253      0.0823      1.4978    163.4752     25.6442
  1481.7000      7.8729      2.6195      0.0562      1.8471    166.0676     26.0651
  1481.8000      7.8601      2.6202      0.1697      1.8060    167.1055     26.4476
  1481.9000      7.8601      2.5953      0.0772      3.3126    168.0128     26.5960
  1482.0000      7.8589      2.5619      0.0268      5.3387    167.1315     26.3872
  1482.1000      7.8589      2.5632      0.0399      5.2621    164.6860     25.9071
  1482.2000      7.8589      2.5873      0.1161      3.7978    162.7769     25.3804
  1482.3000      7.8727      2.5935      0.0464      3.4239    161.4568     25.0059
  1482.4000      7.8727      2.5884      0.0238      3.7306    160.7666     24.7943
  1482.5000      7.9089      2.5973      0.0594      3.1967    160.7468     24.6310
  1482.6000      7.9089      2.6035      0.0781      2.8171    161.0134     24.7643
  1482.7000      7.9089      2.5870      0.0485      3.8185    161.8953     25.4676
  1482.8000      7.9258      2.5647      0.0527      5.1701    164.1537     26.3605
  1482.9000      7.9258      2.5515      0.0761      5.9725    166.6475     27.0217
  1483.0000      7.9218      2.5411      0.0300      6.5995    167.4423     27.4652
  1483.1000      7.9218      2.5411      0.0040      6.6020    169.3978     27.7598
