~Version Information
VERS.                      2.0: CWLS Log ASCII Standard - VERSION 2.0
WRAP.                       NO: One line per depth step
~Well Information Block
STRT.FT               580.0000: 
STOP.FT              1029.0000: 
STEP.FT                 0.1000: 
NULL.                -999.2500: 
COMP.          Pioneer Natural Resources: COMPANY
WELL.             Quartz 13-22: WELL
FLD.           Purgatoire River: FIELD
LOC.           1933' FSL & 675' FWL: LOCATION
PROV.                 Colorado: PROVINCE
CNTY.               Las Animas: COUNTRY
SRVC.                Patterson: SERVICE COMPANY
DATE.          Fri Dec 16 10:30:09 2005: LOG DATE
UWI.           05 071 08638 00: UNIQUE WELL ID
~Curve Information Block
DEPT.FT            0 000 00 00: Depth
DCAL.in                       : CDL Caliper
RHOB.g/cc                     : CDL Bulk Density
RHOC.g/cc                     : CDL Density Correction
DPOR.pu                       : CDL Density Porosity
GR.GAPI                       : Gamma Ray
NPOR.pu                       : Neutron Porosity
~Parameter Information Block
~A  Depth       DCAL        RHOB        RHOC        DPOR         GR         NPOR    
# ...
   868.0000      7.9465      2.5026     -0.0076      8.9304     39.5374     19.9686
   868.1000      7.9465      2.5182     -0.0127      7.9862     37.9227     19.9854
   868.2000      7.9465      2.5374      0.0529      6.8249     38.9575     20.1865
   868.3000      7.9539      2.5445      0.0630      6.3931     46.6740     20.4091
   868.4000      7.9539      2.5412      0.0151      6.5947     55.9282     20.6639
   868.5000      7.9647      2.5443      0.0513      6.4086     60.0183     20.7515
   868.6000      7.9647      2.5543      0.0746      5.8011     59.7883     20.4253
   868.7000      7.9647      2.5606      0.0532      5.4180     57.4644     20.1158
   868.8000      7.9514      2.5692      0.0393      4.8979     55.7494     20.1491
   868.9000      7.9514      2.5941      0.0864      3.3902     57.5385     20.4099
   869.0000      7.9418      2.6240      0.1032      1.5766     60.2308     20.6521
   869.1000      7.9418      2.6346      0.0789      0.9322     59.8389     20.4848
   869.2000      7.9418      2.6203      0.0684      1.8017     57.2882     19.9200
   869.3000      7.9396      2.5905      0.0576      3.6037     54.5946     19.4076
   869.4000      7.9396      2.5626     -0.0187      5.2997     51.8879     18.8837
   869.5000      7.9418      2.5530      0.0178      5.8788     49.3595     18.0593
   869.6000      7.9418      2.5555      0.0708      5.7261     49.7788     17.2810
   869.7000      7.9418      2.5517      0.0105      5.9583     55.6991     17.0061
   869.8000      7.9421      2.5405      0.0092      6.6364     62.7438     17.1717
   869.9000      7.9421      2.5308      0.0287      7.2221     63.6900     17.2745
   870.0000      7.9426      2.5228      0.0903      7.7064     59.3728     16.8698
   870.1000      7.9426      2.5128      0.0424      8.3156     56.6067     16.0283
   870.2000      7.9426      2.5027      0.0295      8.9264     58.4495     14.9764
   870.3000      7.9462      2.4925      0.0446      9.5434     61.0492     13.8035
   870.4000      7.9462      2.4663      0.0685     11.1317     59.5113     12.8105
   870.5000      7.9471      2.4048      0.0045     14.8597     56.8011     12.3870
   870.6000      7.9471      2.3147     -0.0123     20.3231     59.2727     12.5119
   870.7000      7.9471      2.2190     -0.0495     26.1182     67.8800     12.9169
   870.8000      7.9372      2.1319     -0.0172     31.3995     77.3265     13.5515
   870.9000      7.9372      2.0552     -0.0486     36.0480     82.2784     14.3956
   871.0000      7.9398      1.9906     -0.0933     39.9660     83.5770     15.3502
   871.1000      7.9398      1.9444     -0.0613     42.7614     84.0103     16.3101
   871.2000      7.9398      1.9339     -0.0715     43.3976     86.3682     17.2907
   871.3000      7.9518      1.9768     -0.0016     40.7984     91.8608     18.4662
   871.4000      7.9518      2.0600      0.1459     35.7592     96.9163     19.9218
   871.5000      7.9518      2.1521      0.1651     30.1766    100.9443     21.7281
   871.6000      7.9518      2.2405      0.1549     24.8198    109.2341     23.6315
   871.7000      7.9518      2.3189      0.1928     20.0656    123.4309     25.0717
   871.8000      7.9815      2.3766      0.1080     16.5706    134.7942     26.0737
   871.9000      7.9815      2.4174      0.1064     14.0989    136.0979     26.7759
   872.0000      7.9852      2.4521      0.0740     11.9956    134.8614     26.8919
   872.1000      7.9852      2.4826      0.0931     10.1455    137.7626     26.6953
   872.2000      7.9852      2.5029      0.0994      8.9163    140.9013     26.8010
   872.3000      7.9568      2.5100      0.0612      8.4877    141.2669     26.9862
   872.4000      7.9568      2.5075      0.0721      8.6392    139.0363     26.7351
   872.5000      7.9445      2.5011      0.0253      9.0243    136.9722     26.1441
   872.6000      7.9445      2.5013      0.0351      9.0134    140.5703     25.5826
   872.7000      7.9445      2.5094      0.0489      8.5230    150.4926     25.2163
   872.8000      7.9406      2.5184      0.0489      7.9739    154.9201     24.9350
   872.9000      7.9406      2.5262      0.0790      7.5047    146.3218     24.6489
   873.0000      7.9216      2.5346      0.0780      6.9915    138.9518     24.6242
   873.1000      7.9216      2.5478      0.1170      6.1927    140.8644     24.8605
   873.2000      7.9216      2.5627      0.1192      5.2892    139.3651     25.1064
   873.3000      7.9245      2.5675      0.1407      4.9997    131.2829     25.2566
   873.4000      7.9245      2.5578      0.0639      5.5887    128.4562     25.3776
   873.5000      7.9102      2.5450      0.0913      6.3660    131.1008     25.5865
   873.6000      7.9102      2.5436      0.0333      6.4463    130.5498     25.5526
   873.7000      7.9102      2.5627      0.0565      5.2934    125.5568     25.0915
   873.8000      7.9046      2.5899      0.1050      3.6435    117.7380     24.9030
   873.9000      7.9046      2.6023      0.1015      2.8885    110.0968     25.1845
   874.0000      7.9124      2.6021      0.0539      2.9034    105.2334     25.3103
   874.1000      7.9124      2.6033      0.0627      2.8330    100.9727     25.2379
   874.2000      7.9124      2.6026      0.0821      2.8717     97.4566     25.4303
   874.3000      7.9161      2.6012      0.0242      2.9561     98.4136     25.8692
   874.4000      7.9161      2.6071      0.0989      2.6026     98.8959     25.9752
   874.5000      7.9325      2.6149      0.0500      2.1263     91.4628     25.4825
   874.6000      7.9325      2.6145      0.1253      2.1507     81.4043     24.6053
   874.7000      7.9325      2.6020      0.0309      2.9091     76.2183     23.6740
   874.8000      7.8905      2.5938      0.0110      3.4058     74.3468     23.0741
   874.9000      7.8905      2.6017      0.0380      2.9268     72.6178     22.9573
   875.0000      7.8813      2.6103      0.0687      2.4041     75.1587     22.9640
   875.1000      7.8813      2.6060      0.0409      2.6691     84.8997     22.5016
   875.2000      7.8813      2.5948      0.0339      3.3480     96.5421     21.5422
   875.3000      7.8907      2.5877     -0.0100      3.7728    104.7166     20.6909
   875.4000      7.8907      2.5824      0.0188      4.0954    111.6047     20.3962
   875.5000      7.8850      2.5616      0.0520      5.3593    121.7036     20.7342
   875.6000      7.8850      2.5258     -0.0231      7.5268    135.1311     21.4417
   875.7000      7.8850      2.4986     -0.0178      9.1759    147.1676     21.6889
   875.8000      7.8787      2.4915     -0.0187      9.6043    148.4478     21.3444
   875.9000      7.8787      2.5002      0.0032      9.0781    137.0520     21.3522
   876.0000      7.8931      2.5154      0.0419      8.1596    122.8643     22.1279
   876.1000      7.8931      2.5233      0.0561      7.6783    114.4481     23.0461
   876.2000      7.8931      2.5153      0.0285      8.1635    114.5292     23.5525
   876.3000      7.9228      2.4990      0.0338      9.1510    123.5043     23.6380
   876.4000      7.9228      2.4860      0.0032      9.9384    138.7713     23.3599
   876.5000      7.9468      2.4802      0.0172     10.2896    150.0121     23.1438
   876.6000      7.9468      2.4864     -0.0229      9.9133    148.0937     23.6204
   876.7000      7.9468      2.5051      0.0477      8.7789    136.9941     24.5762
   876.8000      7.9762      2.5225      0.0246      7.7262    126.7017     25.0612
   876.9000      7.9762      2.5360      0.0029      6.9113    121.9143     24.8498
   877.0000      7.9939      2.5592      0.0042      5.5011    119.1461     24.6603
   877.1000      7.9939      2.5844      0.0424      3.9783    115.2038     24.9504
   877.2000      7.9939      2.5823      0.0478      4.1006    114.1665     25.4072
   877.3000      7.9725      2.5500      0.0187      6.0583    114.9232     25.6527
   877.4000      7.9725      2.5186     -0.0036      7.9644    108.5134     25.6940
   877.5000      7.9431      2.5157     -0.0167      8.1383     98.9582     25.8029
