~Version Information
VERS.                      2.0: CWLS Log ASCII Standard - VERSION 2.0
WRAP.                       NO: One line per depth step
~Well Information Block
STRT.FT               875.0000: 
STOP.FT              2947.2500: 
STEP.FT                 0.2500: 
NULL.                -999.2500: 
COMP.          Pioneer Natural Resources: COMPANY
WELL.          Hanginstone 21-27: WELL
FLD.           Purgatoire River: FIELD
LOC.           1186' FNL & 1606' FWL--: LOCATION
PROV.                 Colorado: PROVINCE
CNTY.               Las Animas: COUNTRY
SRVC.                Patterson: SERVICE COMPANY
DATE.          Sat Jan 07 09:06:14 2006: LOG DATE
UWI.           05 071 08632 00: UNIQUE WELL ID
~Curve Information Block
DEPT.FT            0 000 00 00: Depth
SN.Ohm-m                      : IEL Short Normal
SP.mV                         : IEL Spontaneous Potential
DIR.Ohm-m                     : IEL Induction Resistivity
GR.GAPI                       : Gamma Ray
~Parameter Information Block
~A  Depth        SN          SP         DIR          GR     
# ...
  1143.0000     32.7960   -185.3347     26.6160    150.2125
  1143.2500     33.1017   -184.8123     26.3329    149.8594
  1143.5000     33.5929   -184.4634     26.2621    146.9533
  1143.7500     34.3294   -184.2460     26.4684    144.5685
  1144.0000     35.3286   -184.1298     27.0006    141.6503
  1144.2500     36.5406   -184.0977     27.8687    140.4514
  1144.5000     37.8737   -184.1423     29.0367    139.7074
  1144.7500     39.2402   -184.2612     30.4309    139.6474
  1145.0000     40.5875   -184.4511     31.9583    139.5074
  1145.2500     41.9021   -184.7037     33.5232    138.9319
  1145.5000     43.1973   -185.0039     35.0413    136.6633
  1145.7500     44.4940   -185.3309     36.4538    133.9291
  1146.0000     45.8084   -185.6614     37.7444    127.9516
  1146.2500     47.1556   -185.9733     38.9520    123.1133
  1146.5000     48.5603   -186.2501     40.1662    116.0626
  1146.7500     50.0568   -186.4828     41.4957    112.6353
  1147.0000     51.6697   -186.6716     43.0193    110.8450
  1147.2500     53.3902   -186.8236     44.7407    111.8642
  1147.5000     55.1732   -186.9517     46.5706    115.1482
  1147.7500     56.9578   -187.0709     48.3546    117.3052
  1148.0000     58.6872   -187.1963     49.9551    118.9447
  1148.2500     60.3209   -187.3409     51.3490    118.3908
  1148.5000     61.8523   -187.5153     52.6676    114.5100
  1148.7500     63.3313   -187.7277     54.1361    110.0956
  1149.0000     64.8643   -187.9841     55.9576    102.4324
  1149.2500     66.5657   -188.2894     58.2085     97.8899
  1149.5000     68.4874   -188.6462     60.7800     92.9729
  1149.7500     70.5789   -189.0551     63.3703     90.6692
  1150.0000     72.7098   -189.5133     65.5475     87.5608
  1150.2500     74.7382   -190.0143     66.9037     85.3548
  1150.5000     76.5724   -190.5477     67.2522     82.1862
  1150.7500     78.1880   -191.1012     66.7416     80.7064
  1151.0000     79.6021   -191.6622     65.7844     79.9858
  1151.2500     80.8401   -192.2211     64.8613     80.2238
  1151.5000     81.9257   -192.7733     64.3431     80.3692
  1151.7500     82.8881   -193.3196     64.3994     79.6221
  1152.0000     83.7656   -193.8640     64.9804     77.0048
  1152.2500     84.5975   -194.4087     65.8476     74.7540
  1152.5000     85.4131   -194.9472     66.6738     71.7680
  1152.7500     86.2281   -195.4598     67.2160     70.3719
  1153.0000     87.0479   -195.9115     67.4717     68.8718
  1153.2500     87.8746   -196.2569     67.6770     67.8933
  1153.5000     88.7133   -196.4498     68.1286     66.2357
  1153.7500     89.5683   -196.4553     68.9848     65.2209
  1154.0000     90.4348   -196.2617     70.1825     64.2669
  1154.2500     91.2980   -195.8857     71.4972     63.9762
  1154.5000     92.1383   -195.3718     72.6784     63.5461
  1154.7500     92.9341   -194.7839     73.5642     62.8754
  1155.0000     93.6629   -194.1926     74.1146     60.5143
  1155.2500     94.3085   -193.6627     74.3802     57.6383
  1155.5000     94.8720   -193.2427     74.4577     51.7028
  1155.7500     95.3710   -192.9594     74.4538     47.6867
  1156.0000     95.8275   -192.8169     74.4604     43.6101
  1156.2500     96.2560   -192.8004     74.5537     42.7506
  1156.5000     96.6631   -192.8816     74.8036     43.9954
  1156.7500     97.0543   -193.0258     75.2584     46.0923
  1157.0000     97.4381   -193.1981     75.9054     50.4315
  1157.2500     97.8182   -193.3675     76.6406     53.6912
  1157.5000     98.1816   -193.5104     77.3022     58.1687
  1157.7500     98.4948   -193.6108     77.7462     60.1122
  1158.0000     98.7239   -193.6612     77.9040     60.0200
  1158.2500     98.8703   -193.6622     77.7819     57.4547
  1158.5000     98.9950   -193.6227     77.4288     50.4511
  1158.7500     99.2093   -193.5605     76.9221     44.9572
  1159.0000     99.6289   -193.5020     76.3568     38.3322
  1159.2500    100.3182   -193.4816     75.8054     36.2610
  1159.5000    101.2527   -193.5388     75.2491     37.2038
  1159.7500    102.3211   -193.7146     74.5579     39.8859
  1160.0000    103.3539   -194.0452     73.5788     44.9784
  1160.2500    104.1579   -194.5542     72.2834     47.9114
  1160.5000    104.5409   -195.2438     70.8460     50.3803
  1160.7500    104.3233   -196.0868     69.5646     50.6746
  1161.0000    103.3325   -197.0205     68.6901     49.9374
  1161.2500    101.3829   -197.9467     68.2524     49.3654
  1161.5000     98.2711   -198.7397     67.9472     49.1707
  1161.7500     93.8277   -199.2612     67.1405     49.5501
  1162.0000     88.0302   -199.3826     65.0970     50.8036
  1162.2500     81.1166   -199.0084     61.4171     52.2317
  1162.5000     73.5962   -198.0949     56.3548     55.8046
  1162.7500     66.1053   -196.6609     50.6623     59.5241
  1163.0000     59.1790   -194.7852     45.1292     67.8929
  1163.2500     53.0832   -192.5930     40.2552     75.7270
  1163.5000     47.8036   -190.2342     36.2096     90.6017
  1163.7500     43.1673   -187.8603     32.9393    101.5696
  1164.0000     38.9995   -185.6034     30.2925    116.9613
  1164.2500     35.2244   -183.5633     28.1073    125.3291
  1164.5000     31.8772   -181.8021     26.2586    134.6720
  1164.7500     29.0513   -180.3456     24.6697    139.2857
  1165.0000     26.8232   -179.1892     23.3018    144.6512
  1165.2500     25.1961   -178.3046     22.1382    147.2552
  1165.5000     24.0852   -177.6479     21.1716    149.3113
  1165.7500     23.3435   -177.1656     20.3965    149.2879
  1166.0000     22.8090   -176.8014     19.8021    147.3357
  1166.2500     22.3485   -176.5019     19.3666    145.0629
  1166.5000     21.8835   -176.2224     19.0546    140.8953
  1166.7500     21.3881   -175.9314     18.8208    138.1041
  1167.0000     20.8710   -175.6140     18.6184    134.8089
  1167.2500     20.3600   -175.2729     18.4090    133.6244
  1167.5000     19.8961   -174.9260     18.1718    133.6926
  1167.7500     19.5279   -174.6028     17.9098    134.8795
  1168.0000     19.2980   -174.3386     17.6487    137.4679
  1168.2500     19.2268   -174.1682     17.4277    138.7630
  1168.5000     19.3035   -174.1194     17.2858    138.4676
  1168.7500     19.4926   -174.2088     17.2502    136.4560
  1169.0000     19.7556   -174.4376     17.3335    131.3778
  1169.2500     20.0783   -174.7912     17.5357    127.3153
  1169.5000     20.4820   -175.2402     17.8468    121.0334
  1169.7500     21.0036   -175.7439     18.2466    116.8079
  1170.0000     21.6594   -176.2551     18.7039    110.4367
  1170.2500     22.4189   -176.7271     19.1819    106.5701
  1170.5000     23.2058   -177.1195     19.6470    102.6874
  1170.7500     23.9236   -177.4038     20.0743    101.9396
  1171.0000     24.4865   -177.5661     20.4444    103.1614
  1171.2500     24.8300   -177.6076     20.7370    104.6772
  1171.5000     24.9124   -177.5415     20.9307    106.8594
  1171.7500     24.7286   -177.3881     21.0080    108.2756
  1172.0000     24.3247   -177.1693     20.9547    110.9054
  1172.2500     23.7759   -176.9029     20.7538    112.7777
  1172.5000     23.1306   -176.6009     20.3826    113.8538
  1172.7500     22.3757   -176.2686     19.8251    112.2516
  1173.0000     21.4666   -175.9072     19.0931    106.6313
  1173.2500     20.3993   -175.5176     18.2368    102.4177
  1173.5000     19.2557   -175.1036     17.3335     98.6867
  1173.7500     18.1792   -174.6747     16.4630     98.9177
  1174.0000     17.3013   -174.2458     15.6850    103.2798
  1174.2500     16.6733   -173.8363     15.0262    108.2592
  1174.5000     16.2514   -173.4665     14.4797    117.1591
  1174.7500     15.9376   -173.1550     14.0132    122.7345
  1175.0000     15.6402   -172.9152     13.5848    128.4940
  1175.2500     15.3129   -172.7542     13.1609    130.1947
  1175.5000     14.9596   -172.6715     12.7290    130.6828
  1175.7500     14.6130   -172.6607     12.3002    130.7422
  1176.0000     14.3038   -172.7104     11.9009    131.4167
  1176.2500     14.0381   -172.8068     11.5589    132.0689
