~Version Information
VERS.                      2.0: CWLS Log ASCII Standard - VERSION 2.0
WRAP.                       NO: One line per depth step
~Well Information Block
STRT.FT                -6.0000: 
STOP.FT               783.7500: 
STEP.FT                 0.2500: 
NULL.                -999.2500: 
COMP.          Pioneer Natural Resources: COMPANY
WELL.           Weissach 32-32: WELL
FLD.           Purgatorie River: FIELD
LOC.           --2193' FNL & 2256' FEL--: LOCATION
STAT.                       CO: State
CNTY.               Las Animas: COUNTY
CTRY. USA : Country
SECT. 32 : Section
TOWN. 33S : Township
RANG. 65W : Range
SRVC.          Patterson Wireline: SERVICE COMPANY
DATE.          Thu Sep 29 12:52:09 2005: LOG DATE
API.           05 071 08523 00: UNIQUE WELL ID
~Curve Information Block
DEPT.FT            0 000 00 00: Depth
CCL.                          : Casing Collar Locator
TT3.usec                      : CBL 3' Travel Time
AMP3.mV                       : CBL 3' Amplitude
GR.GAPI                       : Gamma Ray
~Parameter Information Block
~A  Depth       CCL         TT3         AMP3         GR     
# ...
   161.5000      0.0000    684.9879      9.8268     78.2130
   161.7500      0.0000    674.3729      9.2725     80.8830
   162.0000      0.0000    665.6154      8.7234     85.5813
   162.2500      0.0000    664.1528      8.1985     91.0464
   162.5000      0.0000    672.8273      7.7203     96.2944
   162.7500      0.0000    689.5451      7.3668    101.0328
   163.0000      0.0000    709.3552      7.2194    105.1443
   163.2500      0.0000    729.1469      7.2681    108.1098
   163.5000      2.0000    749.4697      7.4154    109.3423
   163.7500     -2.0000    770.6498      7.5779    108.9786
   164.0000      0.0000    787.9118      7.7664    107.7277
   164.2500      0.0000    792.9988      8.0645    105.7862
   164.5000      0.0000    782.1339      8.5303    102.5562
   164.7500      0.0000    760.9836      9.1087     97.8825
   165.0000      0.0000    739.8512      9.6496     93.2425
   165.2500      0.0000    724.8215     10.0309     91.2926
   165.5000      0.0000    715.3271     10.2464     94.0159
   165.7500      0.0000    708.6807     10.3570    101.0176
   166.0000      0.0000    703.8318     10.3871    109.3708
   166.2500      0.0000    700.9110     10.3072    115.3853
   166.5000      0.0000    699.7210     10.1035    117.0388
   166.7500      0.0000    699.5743      9.8278    115.0563
   167.0000      0.0000    699.8531      9.5711    111.7528
   167.2500      0.0000    700.2328      9.4022    108.8319
   167.5000      0.0000    700.5918      9.3376    106.1245
   167.7500      0.0000    700.8722      9.3562    102.3424
   168.0000      0.0000    701.0255      9.4244     96.9256
   168.2500      0.0000    701.0419      9.5050     90.7924
   168.5000      0.0000    700.9645      9.5595     85.2021
   168.7500      0.0000    700.8583      9.5600     80.5644
   169.0000      0.0000    700.7586      9.5050     76.7317
   169.2500      0.0000    700.6589      9.4223     73.6915
   169.5000      0.0000    700.5460      9.3520     71.3812
   169.7500      0.0000    700.4306      9.3236     69.3741
   170.0000      0.0000    700.3421      9.3467     67.2878
   170.2500      0.0000    700.3033      9.4167     65.4138
   170.5000      0.0000    700.3118      9.5241     64.8081
   170.7500      0.0000    700.3423      9.6597     66.6859
   171.0000      0.0000    700.3667      9.8148     71.3253
   171.2500      0.0000    700.3745      9.9770     77.4782
   171.5000      0.0000    700.3715     10.1288     83.2446
   171.7500      0.0000    700.3531     10.2525     87.7754
   172.0000      0.0000    700.2858     10.3416     91.9162
   172.2500      0.0000    700.1311     10.4042     97.0710
   172.5000      0.0000    699.8918     10.4560    103.5555
   172.7500      0.0000    699.6254     10.5098    110.1456
   173.0000      0.0000    699.4066     10.5715    115.1791
   173.2500      0.0000    699.2737     10.6423    117.7927
   173.5000      0.0000    699.2141     10.7214    117.9488
   173.7500      0.0000    699.1968     10.8051    115.8032
   174.0000      0.0000    699.2145     10.8853    111.7099
   174.2500      0.0000    699.2833     10.9517    106.8032
   174.5000      0.0000    699.3981     10.9955    102.8950
   174.7500      0.0000    699.5040     11.0132    101.3020
   175.0000      0.0000    699.5279     11.0113    101.9472
   175.2500      0.0000    699.4471     11.0132    103.8670
   175.5000      0.0000    699.3195     11.0579    106.2545
   175.7500      0.0000    699.2398     11.1881    108.6089
   176.0000      0.0000    699.2727     11.4323    110.1655
   176.2500      0.0000    699.4134     11.7925    109.8410
   176.5000      0.0000    699.5881     12.2437    106.8093
   176.7500      0.0000    699.6238     12.7505    100.9794
   177.0000      0.0000    699.1636     13.2900     93.2639
   177.2500      0.0000    697.5612     13.8592     85.6012
   177.5000      0.0000    694.0911     14.4544     80.2723
   177.7500      0.0000    688.8279     15.0384     78.6554
   178.0000      0.0000    683.5760     15.5265     80.4757
   178.2500      0.0000    681.2224     15.8104     84.3377
   178.5000      0.0000    683.4232     15.8113     89.0340
   178.7500      0.0000    689.3300     15.5184     94.2113
   179.0000      0.0000    697.2662     14.9826     99.8084
   179.2500      0.0000    707.1573     14.2805    105.2678
   179.5000      0.0000    720.3896     13.4864    109.7844
   179.7500      0.0000    737.1514     12.6648    113.2945
   180.0000      0.0000    754.5284     11.8701    116.7178
   180.2500      0.0000    767.9311     11.1429    120.8276
   180.5000      0.0000    774.6094     10.5049    124.9385
   180.7500      0.0000    775.5850      9.9587    126.9623
   181.0000      0.0000    774.2872      9.4934    125.0142
   181.2500      0.0000    773.7028      9.0980    119.2662
   181.5000      0.0000    774.7192      8.7722    112.2748
   181.7500      0.0000    776.4581      8.5259    107.0608
   182.0000      0.0000    777.6494      8.3671    104.4530
   182.2500      0.0000    777.7336      8.2884    102.4483
   182.5000      0.0000    776.9767      8.2679     98.6071
   182.7500      0.0000    775.8172      8.2845     92.9158
   183.0000      0.0000    774.2578      8.3300     87.6391
   183.2500      0.0000    771.9879      8.3992     84.5329
   183.5000      0.0000    769.0699      8.4701     83.3219
   183.7500      0.0000    766.3514      8.5105     83.1261
   184.0000      0.0000    764.9800      8.5086     84.2011
   184.2500      0.0000    765.3922      8.4857     87.5667
   184.5000      0.0000    767.0800      8.4725     93.4393
   184.7500      0.0000    769.5601      8.4830    100.4647
   185.0000      0.0000    772.9782      8.5132    106.2767
   185.2500      0.0000    777.2817      8.5560    108.7643
   185.5000      0.0000    781.1700      8.6131    107.0590
   185.7500      0.0000    782.5807      8.6939    101.6079
   186.0000      0.0000    780.6420      8.7978     93.6303
   186.2500      0.0000    777.1163      8.8929     84.6732
   186.5000      0.0000    775.3507      8.9223     76.4788
   186.7500      0.0000    777.2445      8.8491     70.8126
   187.0000      0.0000    781.3430      8.6969     68.8110
   187.2500      0.0000    783.9624      8.5354     70.1674
   187.5000      0.0000    781.6096      8.4259     73.1087
   187.7500      0.0000    772.6418      8.3852     75.4244
   188.0000      0.0000    758.2693      8.3899     75.6434
   188.2500      0.0000    742.8723      8.4038     73.6914
   188.5000      0.0000    732.2811      8.4053     71.0155
   188.7500      0.0000    730.0224      8.4003     69.9299
   189.0000      0.0000    734.3240      8.4129     71.9348
   189.2500      0.0000    738.9928      8.4599     76.3112
   189.5000      0.0000    738.1504      8.5330     80.8930
   189.7500      0.0000    730.7689      8.6047     84.4690
   190.0000      0.0000    720.5776      8.6475     87.7882
   190.2500      0.0000    711.9996      8.6482     91.8364
   190.5000      0.0000    706.8899      8.6115     95.8510
   190.7500      0.0000    704.6265      8.5554     97.8311
   191.0000      0.0000    703.8746      8.5044     96.6452
   191.2500      0.0000    703.7094      8.4814     92.9084
   191.5000      0.0000    703.7063      8.5034     88.0511
   191.7500      0.0000    703.6894      8.5843     83.2608
   192.0000      0.0000    703.5858      8.7396     79.0480
   192.2500      0.0000    703.3955      8.9888     75.1180
   192.5000      0.0000    703.1608      9.3488     70.7153
   192.7500      0.0000    702.9162      9.8246     65.4644
   193.0000      0.0000    702.6727     10.4007     59.8474
   193.2500      0.0000    702.4274     11.0398     54.9394
   193.5000      0.0000    702.1737     11.6953     51.8586
   193.7500      0.0000    701.9097     12.3308     51.2956
   194.0000      0.0000    701.6451     12.9331     53.1893
   194.2500      0.0000    701.3693     13.5111     56.6190
   194.5000      0.0000    700.9780     14.0831     60.0627
   194.7500      0.0000    699.9473     14.6631     62.1805
