~Version Information
VERS.                      2.0: CWLS Log ASCII Standard - VERSION 2.0
WRAP.                       NO: One line per depth step
~Well Information Block
STRT.FT                10.0000: 
STOP.FT               907.0000: 
STEP.FT                 0.1000: 
NULL.                -999.2500: 
COMP.          Pioneer Natural Resources: COMPANY
WELL.           Hartford 31-18: WELL
FLD.           Purgatorie River: FIELD
LOC.           375' FNL & 1660' FEL: LOCATION
PROV.                 Colorado: PROVINCE
CNTY.               Las Animas: COUNTRY
SRVC.                Patterson: SERVICE COMPANY
DATE.          Mon Nov 21 07:39:41 2005: LOG DATE
UWI.            05-071-08555              : UNIQUE WELL ID
~Curve Information Block
DEPT.FT            0 000 00 00: Depth
DCAL.in                       : CDL Caliper
RHOB.g/cc                     : CDL Bulk Density
RHOC.g/cc                     : CDL Density Correction
DPOR.pu                       : CDL Density Porosity
GR.GAPI                       : Gamma Ray
NPOR.pu                       : Neutron Porosity
~Parameter Information Block
~A  Depth       DCAL        RHOB        RHOC        DPOR         GR         NPOR    
# ...
   422.8000      8.0750      2.4946      0.0228      9.4208     98.4327     18.9601
   422.9000      8.0750      2.4865      0.0251      9.9082     96.3532     19.1967
   423.0000      8.0549      2.4818      0.0296     10.1966     94.3367     19.2518
   423.1000      8.0549      2.4830      0.0183     10.1234     93.1518     19.1347
   423.2000      8.0549      2.4984     -0.0042      9.1851     91.6056     19.1791
   423.3000      8.0573      2.5255      0.0128      7.5438     91.3252     19.5444
   423.4000      8.0573      2.5439      0.0530      6.4302     94.5797     19.9983
   423.5000      8.0679      2.5473      0.0003      6.2246     99.2833     20.4905
   423.6000      8.0679      2.5536      0.0058      5.8443    101.4060     21.0430
   423.7000      8.0679      2.5657      0.0476      5.1106    100.8299     21.4409
   423.8000      8.0648      2.5663      0.0461      5.0718     99.7746     21.5488
   423.9000      8.0648      2.5468      0.0166      6.2562     99.9802     21.5541
   424.0000      8.0576      2.5154     -0.0030      8.1581    102.3478     21.7208
   424.1000      8.0576      2.4952     -0.0631      9.3799    105.2394     22.1011
   424.2000      8.0576      2.5020      0.0048      8.9683    107.5308     22.4191
   424.3000      8.0371      2.5254     -0.0025      7.5510    110.8890     22.4197
   424.4000      8.0371      2.5542      0.0081      5.8087    117.0789     22.4292
   424.5000      8.0326      2.5834      0.0489      4.0357    125.5342     22.7580
   424.6000      8.0326      2.6053      0.0618      2.7074    133.8579     23.1495
   424.7000      8.0326      2.6175      0.0864      1.9674    140.8930     23.4318
   424.8000      8.0215      2.6219      0.0910      1.7007    147.5689     23.6784
   424.9000      8.0215      2.6198      0.1148      1.8306    155.0790     23.9135
   425.0000      8.0358      2.6235      0.0649      1.6083    161.5809     24.1421
   425.1000      8.0358      2.6411      0.0907      0.5399    163.2173     24.6240
   425.2000      8.0358      2.6464      0.1182      0.2169    158.1944     25.4912
   425.3000      8.0393      2.6135      0.0763      2.2109    149.7735     26.1861
   425.4000      8.0393      2.5602      0.0338      5.4441    143.3167     26.3043
   425.5000      8.0372      2.5282     -0.0366      7.3789    140.1023     26.1751
   425.6000      8.0372      2.5363      0.0223      6.8924    137.8902     26.1117
   425.7000      8.0372      2.5668      0.0130      5.0422    135.8162     26.0608
   425.8000      8.0215      2.5973      0.0378      3.1928    134.9309     25.9297
   425.9000      8.0215      2.6153      0.0550      2.1014    135.2960     25.8146
   426.0000      8.0320      2.6188      0.0478      1.8904    136.2578     25.8539
   426.1000      8.0320      2.6164      0.0271      2.0348    137.0671     25.9604
   426.2000      8.0320      2.6124      0.0811      2.2800    138.2683     26.0129
   426.3000      8.0401      2.6034      0.0611      2.8262    139.6446     25.9794
   426.4000      8.0401      2.5899      0.0504      3.6401    139.2256     25.7643
   426.5000      8.0389      2.5708      0.0879      4.7998    139.0618     25.4863
   426.6000      8.0389      2.5474      0.0033      6.2182    143.2703     25.5649
   426.7000      8.0389      2.5337      0.0053      7.0514    151.0366     25.9324
   426.8000      8.0324      2.5377      0.0020      6.8079    156.5580     26.0139
   426.9000      8.0324      2.5495      0.0799      6.0890    157.2230     25.6310
   427.0000      8.0251      2.5610      0.0570      5.3937    156.8008     25.1968
   427.1000      8.0251      2.5840      0.0760      4.0001    159.5367     25.1907
   427.2000      8.0251      2.6258      0.1349      1.4663    164.4180     25.6632
   427.3000      8.0313      2.6660      0.1785     -0.9682    166.7711     26.1142
   427.4000      8.0313      2.6825      0.1851     -1.9695    164.5634     26.2367
   427.5000      8.0093      2.6781      0.1387     -1.7048    158.0533     26.2725
   427.6000      8.0093      2.6682      0.1270     -1.1027    148.1484     26.3557
   427.7000      8.0093      2.6578      0.1207     -0.4732    137.3701     26.3940
   427.8000      8.0172      2.6454      0.1036      0.2768    127.7657     26.4483
   427.9000      8.0172      2.6383      0.0602      0.7119    119.9486     26.5192
   428.0000      8.0038      2.6432      0.0646      0.4128    114.5636     26.4820
   428.1000      8.0038      2.6489      0.1013      0.0697    113.4114     26.2051
   428.2000      8.0038      2.6430      0.0931      0.4255    116.4398     25.5367
   428.3000      7.9991      2.6347      0.0910      0.9274    120.2121     24.8060
   428.4000      7.9991      2.6334      0.0943      1.0063    122.3856     24.4643
   428.5000      8.0053      2.6308      0.0825      1.1625    124.3121     24.4972
   428.6000      8.0053      2.6160      0.0922      2.0628    128.6547     24.6290
   428.7000      8.0053      2.5946      0.0485      3.3604    133.6628     24.5948
   428.8000      7.9896      2.5863      0.0011      3.8595    134.6560     24.3280
   428.9000      7.9896      2.5915      0.0782      3.5431    132.5407     24.1749
   429.0000      8.0028      2.5909      0.0418      3.5808    131.5652     24.4369
   429.1000      8.0028      2.5879      0.0212      3.7609    131.6069     24.7676
   429.2000      8.0028      2.5944      0.0417      3.3691    131.7341     24.8964
   429.3000      8.0331      2.6005      0.0474      3.0020    131.1213     25.0341
   429.4000      8.0331      2.5981      0.0433      3.1476    129.6098     25.2863
   429.5000      8.0447      2.5987      0.0577      3.1094    129.1936     25.3812
   429.6000      8.0447      2.6086      0.0872      2.5083    129.7700     25.0384
   429.7000      8.0447      2.6185      0.0365      1.9078    130.1888     24.4591
   429.8000      8.0760      2.6187      0.0680      1.8951    130.8338     24.0565
   429.9000      8.0760      2.6092      0.0271      2.4748    132.8146     23.9975
   430.0000      8.1596      2.6070      0.0295      2.6059    136.4692     24.0937
   430.1000      8.1596      2.6214      0.0565      1.7311    138.8349     24.1493
   430.2000      8.1596      2.6332      0.0503      1.0193    137.5912     24.2836
   430.3000      8.1235      2.6266      0.0185      1.4203    135.9590     24.5963
   430.4000      8.1235      2.6052      0.0494      2.7134    136.3305     24.8856
   430.5000      8.2027      2.5774     -0.0003      4.4014    137.8289     25.0599
   430.6000      8.2027      2.5496     -0.0123      6.0829    140.2984     25.2354
   430.7000      8.2027      2.5234     -0.0270      7.6755    142.7964     25.4133
   430.8000      8.2735      2.4979      0.0013      9.2172    142.9896     25.4544
   430.9000      8.2735      2.4782     -0.0758     10.4123    141.6797     25.3152
   431.0000      8.1021      2.4723     -0.0651     10.7679    141.3663     25.1752
   431.1000      8.1021      2.4819     -0.0119     10.1889    142.9131     25.2700
   431.2000      8.1021      2.4974      0.0307      9.2494    146.0322     25.5711
   431.3000      8.0603      2.5064      0.0417      8.7023    148.8365     25.8698
   431.4000      8.0603      2.5043      0.0290      8.8325    148.8383     26.0432
   431.5000      8.0510      2.4939      0.0567      9.4627    148.3933     26.0862
   431.6000      8.0510      2.4757      0.0999     10.5643    151.4765     26.0851
   431.7000      8.0510      2.4559      0.0824     11.7655    155.6377     26.0437
   431.8000      8.0022      2.4553      0.0872     11.7973    156.6173     26.0259
   431.9000      8.0022      2.4885      0.1283      9.7858    156.7502     26.0511
   432.0000      7.9410      2.5480      0.1822      6.1790    159.6928     25.9502
   432.1000      7.9410      2.6219      0.1572      1.7036    165.1548     25.7569
   432.2000      7.9410      2.6934      0.2969     -2.6322    170.1357     25.5014
   432.3000      7.9310      2.7420      0.2694     -5.5773    171.4841     25.0189
