~Version Information
VERS.                      2.0: CWLS Log ASCII Standard - VERSION 2.0
WRAP.                       NO: One line per depth step
~Well Information Block
STRT.FT                 0.0000: 
STOP.FT              1981.7500: 
STEP.FT                 0.2500: 
NULL.                -999.2500: 
COMP.          Petrogulf Corporation: COMPANY
WELL.          Collister 17-31R: WELL
FLD.           Purgatorie River: FIELD
LOC.           962' FNL & 1520' FEL: LOCATION
STAT.                 Colorado: State
CNTY.               Las Animas: COUNTY
CTRY. USA : Country
SECT. 17 : Section
TOWN. 33S : Township
RANG. 67W : Range
SRVC.                Patterson: SERVICE COMPANY
DATE.          Fri Jan 06 10:32:29 2006: LOG DATE
API. 05-071-08436                         : UNIQUE WELL ID
~Curve Information Block
DEPT.FT            0 000 00 00: Depth
CCL.                          : Casing Collar Locator
TT3.usec                      : CBL 3' Travel Time
AMP3.mV                       : CBL 3' Amplitude
GR.GAPI                       : Gamma Ray
~Parameter Information Block
~A  Depth       CCL         TT3         AMP3         GR     
# ...
  1809.0000      0.0000    674.5950      2.0443    113.9839
  1809.2500      0.0000    674.3389      2.0918    119.9652
  1809.5000      0.0000    681.1271      2.1867    123.7257
  1809.7500      0.0000    687.8934      2.2781    125.4340
  1810.0000      0.0000    688.5283      2.3800    125.6418
  1810.2500      0.0000    682.7173      2.5294    124.6848
  1810.5000      0.0000    674.4221      2.6999    122.3800
  1810.7500      0.0000    666.9780      2.8531    118.4083
  1811.0000      0.0000    661.4540      3.0038    113.0950
  1811.2500      0.0000    660.1626      3.1604    107.6180
  1811.5000      0.0000    665.1367      3.2731    103.2839
  1811.7500      0.0000    673.5928      3.2999    100.7759
  1812.0000      0.0000    680.8290      3.2582    100.2362
  1812.2500      0.0000    685.1290      3.1678    101.7276
  1812.5000      0.0000    688.2606      3.0247    105.1794
  1812.7500      0.0000    691.7646      2.8466    109.8944
  1813.0000      0.0000    692.3549      2.6760    114.4850
  1813.2500      0.0000    684.7469      2.5362    117.5596
  1813.5000      0.0000    670.0204      2.4261    118.5316
  1813.7500      0.0000    655.8596      2.3519    117.8327
  1814.0000      0.0000    647.6221      2.3111    116.5605
  1814.2500      0.0000    644.5655      2.2674    115.7675
  1814.5000      0.0000    643.9474      2.2059    115.6579
  1814.7500      0.0000    644.0009      2.1606    115.5206
  1815.0000      0.0000    643.4878      2.1421    114.8307
  1815.2500      0.0000    640.9355      2.1110    114.1921
  1815.5000      0.0000    635.7997      2.0557    114.6812
  1815.7500      0.0000    630.4252      2.0306    116.3643
  1816.0000      0.0000    627.6752      2.0743    117.9721
  1816.2500      0.0000    626.2264      2.1458    118.1071
  1816.5000      0.0000    623.1221      2.2037    116.4894
  1816.7500      0.0000    619.4791      2.2757    113.9959
  1817.0000      0.0000    619.3946      2.3875    111.7944
  1817.2500      0.0000    626.4072      2.5126    110.4755
  1817.5000      0.0000    640.8873      2.6518    109.7395
  1817.7500      0.0000    657.8203      2.8656    108.8195
  1818.0000      0.0000    671.3687      3.1729    107.3731
  1818.2500      0.0000    681.1935      3.5084    106.0552
  1818.5000      0.0000    688.3259      3.8022    106.2173
  1818.7500      0.0000    690.5286      4.0229    108.8326
  1819.0000      0.0000    687.5468      4.1520    113.4141
  1819.2500      0.0000    684.5020      4.1873    118.0674
  1819.5000      0.0000    685.7197      4.1520    120.9996
  1819.7500      0.0000    690.3316      4.0512    122.0227
  1820.0000      0.0000    697.0362      3.8644    122.2916
  1820.2500      0.0000    706.5809      3.6100    122.6458
  1820.5000      0.0000    715.4550      3.3440    122.7073
  1820.7500      0.0000    713.9873      3.0953    121.7016
  1821.0000      0.0000    697.9045      2.8691    119.6903
  1821.2500      0.0000    676.7904      2.6748    117.7058
  1821.5000      0.0000    664.2031      2.5060    116.8709
  1821.7500      0.0000    663.7350      2.3649    117.6295
  1822.0000      0.0000    667.4921      2.2830    119.6534
  1822.2500      0.0000    665.8003      2.2584    122.1350
  1822.5000      0.0000    657.6302      2.2510    124.2387
  1822.7500      0.0000    649.2967      2.2491    125.5007
  1823.0000      0.0000    644.9411      2.2684    125.7418
  1823.2500      0.0000    643.6185      2.3258    124.6823
  1823.5000      0.0000    643.2755      2.4471    122.0544
  1823.7500      0.0000    643.1231      2.6488    118.1129
  1824.0000      0.0000    643.2435      2.8947    113.6554
  1824.2500      0.0000    643.9558      3.1252    109.5133
  1824.5000      0.0000    645.8250      3.3447    106.2199
  1824.7500      0.0000    650.1413      3.6096    104.0631
  1825.0000      0.0000    658.0334      3.9249    103.1887
  1825.2500      0.0000    667.9375      4.2290    103.4444
  1825.5000      0.0000    675.6359      4.4497    104.1262
  1825.7500      0.0000    677.3983      4.5276    104.2603
  1826.0000      0.0000    672.4951      4.4529    103.3910
  1826.2500      0.0000    664.6767      4.2848    102.0568
  1826.5000      0.0000    660.4808      4.0949    101.3469
  1826.7500      0.0000    663.2976      3.9270    101.8563
  1827.0000      0.0000    670.2700      3.7979    102.9568
  1827.2500      0.0000    676.2776      3.7031    103.1164
  1827.5000      0.0000    679.0171      3.6301    101.0829
  1827.7500      0.0000    678.7341      3.5670     96.9311
  1828.0000      0.0000    675.4152      3.4963     92.1390
  1828.2500      0.0000    669.3639      3.4002     88.7956
  1828.5000      0.0000    664.1708      3.2829     88.5129
  1828.7500      0.0000    665.3383      3.1679     91.5357
  1829.0000      0.0000    674.7236      3.0608     96.5835
  1829.2500      0.0000    689.6950      2.9490    101.7599
  1829.5000      0.0000    706.0202      2.8891    105.7765
  1829.7500      0.0000    717.4417      2.9832    108.2693
  1830.0000      0.0000    718.0101      3.1851    109.2638
  1830.2500      0.0000    709.2536      3.3252    108.8034
  1830.5000      0.0000    699.1959      3.3473    106.9067
  1830.7500      0.0000    693.0277      3.3242    103.6291
  1831.0000     -2.0000    689.0923      3.3173     99.5301
  1831.2500      2.0000    683.1970      3.3382     96.2909
  1831.5000      0.0000    675.0070      3.3628     96.1337
  1831.7500      0.0000    669.5613      3.3503     99.8965
  1832.0000      0.0000    670.7385      3.3082    105.9894
  1832.2500      0.0000    676.1823      3.3146    111.7880
  1832.5000      0.0000    681.2137      3.3770    115.8451
  1832.7500      0.0000    683.3195      3.3319    118.3782
  1833.0000      0.0000    682.2147      3.0773    119.8972
  1833.2500      0.0000    679.1918      2.7602    120.0464
  1833.5000      0.0000    676.8004      2.5479    118.1178
  1833.7500      0.0000    678.5475      2.4319    114.5006
  1834.0000      0.0000    687.1066      2.3456    111.2296
  1834.2500      0.0000    697.6583      2.2762    110.7962
  1834.5000      0.0000    697.0721      2.2235    114.3183
  1834.7500      0.0000    682.8924      2.1712    120.7959
  1835.0000      0.0000    672.0325      2.1194    127.9584
  1835.2500      0.0000    675.4281      2.0893    133.7390
  1835.5000      0.0000    684.2379      2.0924    137.1913
  1835.7500      0.0000    687.2843      2.1117    138.4716
  1836.0000      0.0000    682.6951      2.1289    138.2455
  1836.2500      0.0000    674.5230      2.1482    136.9828
  1836.5000      0.0000    669.3673      2.1804    134.6601
  1836.7500      0.0000    671.6359      2.2315    131.2329
  1837.0000      0.0000    677.5339      2.2816    127.2491
  1837.2500      0.0000    679.8497      2.2985    123.6193
  1837.5000      0.0000    677.8076      2.2918    120.8465
  1837.7500      0.0000    675.7305      2.2926    118.8673
  1838.0000      0.0000    676.7686      2.3078    117.5774
  1838.2500      0.0000    682.1020      2.3275    117.0423
  1838.5000      0.0000    690.9219      2.3323    117.1590
  1838.7500      0.0000    698.2336      2.3168    117.4908
  1839.0000      0.0000    697.3476      2.3027    117.5188
  1839.2500      0.0000    687.1559      2.2952    116.8415
  1839.5000      0.0000    672.9847      2.2779    115.2079
  1839.7500      0.0000    660.6078      2.2552    112.5769
  1840.0000      0.0000    652.6918      2.2323    109.2851
  1840.2500      0.0000    648.8193      2.1936    106.3509
  1840.5000      0.0000    647.0757      2.1354    105.4755
  1840.7500      0.0000    646.0704      2.0684    108.0160
  1841.0000      0.0000    645.4485      1.9969    113.5519
  1841.2500      0.0000    645.1692      1.9353    119.6454
  1841.5000      0.0000    645.0552      1.9015    123.1728
  1841.7500      0.0000    644.9156      1.8984    122.1033
  1842.0000      0.0000    644.7782      1.9250    116.5798
  1842.2500      0.0000    644.8231      1.9666    108.6980
