~Version Information
VERS.                      2.0: CWLS Log ASCII Standard - VERSION 2.0
WRAP.                       NO: One line per depth step
~Well Information Block
STRT.FT               570.0000: 
STOP.FT              1958.5000: 
STEP.FT                 0.2500: 
NULL.                -999.2500: 
COMP.          Petrogulf Corporation: COMPANY
WELL.            Montoya 7-14R: WELL
FLD.           Purgatorie River: FIELD
LOC.           628' FSL & 454' FWL: LOCATION
PROV.                 Colorado: PROVINCE
CNTY.               Las Animas: COUNTRY
SRVC.                Patterson: SERVICE COMPANY
DATE.          Sat Oct 08 17:13:52 2005: LOG DATE
UWI.                          : UNIQUE WELL ID
~Curve Information Block
DEPT.FT            0 000 00 00: Depth
SP.mV                         : DIL Spontaneous Potential
RILD.Ohm-m                    : DIL Deep Resistivity
RILM.Ohm-m                    : DIL Medium Resistivity
RLL3.Ohm-m                    : DIL Shallow Resistivity
GR.GAPI                       : Gamma Ray
~Parameter Information Block
~A  Depth        SP         RILD        RILM        RLL3         GR     
   570.0000   2000.0000      8.9682 100000.0000   2000.0000     80.4730
   570.2500   2000.0000      8.9263 100000.0000   2000.0000     74.7472
   570.5000   2000.0000      8.8860 100000.0000   2000.0000     65.0135
   570.7500   2000.0000      8.8559 100000.0000   2000.0000     58.2005
   571.0000   2000.0000      8.8440 100000.0000   2000.0000     48.7283
   571.2500   2000.0000      8.8520 100000.0000   2000.0000     43.6798
   571.5000   2000.0000      8.8713 100000.0000   2000.0000     38.9573
   571.7500   2000.0000      8.8830 100000.0000   2000.0000     37.9172
   572.0000   2000.0000      8.8636 100000.0000   2000.0000     39.3978
   572.2500   2000.0000      8.7923 100000.0000   2000.0000     42.1863
   572.5000   2000.0000      8.6608 100000.0000   2000.0000     48.4010
   572.7500   2000.0000      8.4798 100000.0000   2000.0000     53.2980
   573.0000   2000.0000      8.2772 100000.0000   2000.0000     60.6846
   573.2500   2000.0000      8.0886 100000.0000   2000.0000     65.2071
   573.5000   2000.0000      7.9434 100000.0000   2000.0000     71.1505
   573.7500   2000.0000      7.8572 100000.0000   2000.0000     74.6369
   574.0000   2000.0000      7.8297 100000.0000   2000.0000     79.3286
   574.2500   2000.0000      7.8494 100000.0000   2000.0000     81.8949
   574.5000   2000.0000      7.8997 100000.0000   2000.0000     83.7795
   574.7500   2000.0000      7.9643 100000.0000   2000.0000     83.0676
   575.0000   2000.0000      8.0298 100000.0000   2000.0000     79.2603
   575.2500   2000.0000      8.0864 100000.0000   2000.0000     76.0644
   575.5000   2000.0000      8.1277 100000.0000   2000.0000     72.9477
   575.7500   2000.0000      8.1510 100000.0000   2000.0000     72.9586
   576.0000   2000.0000      8.1585 100000.0000   2000.0000     75.9062
   576.2500   2000.0000      8.1565 100000.0000   2000.0000     78.9170
   576.5000   2000.0000      8.1535 100000.0000   2000.0000     83.1591
   576.7500   2000.0000      8.1569 100000.0000   2000.0000     84.9672
   577.0000   2000.0000      8.1700 100000.0000   2000.0000     85.4798
   577.2500   2000.0000      8.1904 100000.0000   2000.0000     84.4801
   577.5000   2000.0000      8.2130 100000.0000   2000.0000     81.9307
   577.7500   2000.0000      8.2381 100000.0000   2000.0000     80.2972
   578.0000   2000.0000      8.2831 100000.0000   2000.0000     78.8856
   578.2500   2000.0000      8.3874 100000.0000   2000.0000     78.6765
   578.5000   2000.0000      8.6038 100000.0000   2000.0000     78.8975
   578.7500   2000.0000      8.9775 100000.0000   2000.0000     79.0890
   579.0000   2000.0000      9.5196 100000.0000   2000.0000     79.2375
   579.2500   2000.0000     10.1806 100000.0000   2000.0000     79.2878
   579.5000   2000.0000     10.8404 100000.0000   2000.0000     79.8087
   579.7500   2000.0000     11.3454 100000.0000   2000.0000     80.8529
   580.0000   2000.0000     11.5967 100000.0000   2000.0000     83.2399
   580.2500   2000.0000     11.6226 100000.0000   2000.0000     84.5053
   580.5000   2000.0000     11.5676 100000.0000   2000.0000     84.5382
   580.7500   2000.0000     11.6251 100000.0000   2000.0000     83.3801
   581.0000   2000.0000     11.9812 100000.0000   2000.0000     80.9135
   581.2500   2000.0000     12.7810 100000.0000   2000.0000     79.0866
   581.5000   2000.0000     14.0661 100000.0000   2000.0000     75.7709
   581.7500   2000.0000     15.6176 100000.0000   2000.0000     73.0722
   582.0000   2000.0000     16.7866 100000.0000   2000.0000     68.9407
   582.2500   2000.0000     16.7934 100000.0000   2000.0000     66.8082
   582.5000   2000.0000     15.5779 100000.0000   2000.0000     65.4636
   582.7500   2000.0000     13.8757 100000.0000   2000.0000     65.8770
   583.0000   2000.0000     12.3782 100000.0000   2000.0000     67.8111
   583.2500   2000.0000     11.3601 100000.0000   2000.0000     69.4421
   583.5000   2000.0000     10.8605 100000.0000   2000.0000     71.5953
   583.7500   2000.0000     10.9043 100000.0000   2000.0000     72.4176
   584.0000   2000.0000     11.6465 100000.0000   2000.0000     72.3708
   584.2500   2000.0000     13.5003 100000.0000   2000.0000     71.8035
   584.5000   2000.0000     17.2929 100000.0000   2000.0000     71.3725
   584.7500   2000.0000     23.9165 100000.0000   2000.0000     71.8219
   585.0000   2000.0000     30.1385 100000.0000   2000.0000     73.2135
   585.2500   2000.0000     25.9957 100000.0000   2000.0000     74.0102
   585.5000   2000.0000     16.7072 100000.0000   2000.0000     74.3720
   585.7500   2000.0000     10.7982 100000.0000   2000.0000     74.2815
   586.0000   2000.0000      7.9392 100000.0000   2000.0000     74.9448
   586.2500   2000.0000      6.7399 100000.0000   2000.0000     76.7494
   586.5000   2000.0000      6.5011 100000.0000   2000.0000     82.0312
   586.7500   2000.0000      6.9203 100000.0000   2000.0000     86.9228
   587.0000   2000.0000      7.7403 100000.0000   2000.0000     95.3763
   587.2500   2000.0000      8.3413 100000.0000   2000.0000    101.5024
   587.5000   2000.0000      7.7763 100000.0000   2000.0000    111.3006
   587.7500   2000.0000      6.1010 100000.0000   2000.0000    117.7503
   588.0000   2000.0000      4.4240 100000.0000   2000.0000    125.4967
   588.2500   2000.0000      3.3127 100000.0000   2000.0000    128.5568
   588.5000   2000.0000      2.7327 100000.0000   2000.0000    130.6194
   588.7500   2000.0000      2.5520 100000.0000   2000.0000    131.6714
   589.0000   2000.0000      2.7164     22.7419   2000.0000    134.5554
   589.2500   2000.0000      3.2811     10.8602   2000.0000    137.1224
   589.5000   2000.0000      4.4593      7.9641   2000.0000    140.1906
   589.7500   2000.0000      6.8028      6.9357   2000.0000    141.1261
   590.0000   2000.0000     12.0091      6.6728   2000.0000    141.3965
   590.2500   2000.0000     28.9166      6.8557   2000.0000    141.4287
   590.5000   2000.0000 100000.0000      7.3705   2000.0000    141.6722
   590.7500   2000.0000 100000.0000      8.1839   2000.0000    141.7392
   591.0000   2000.0000 100000.0000      9.3102   2000.0000    140.7423
   591.2500   2000.0000 100000.0000     10.7997   2000.0000    138.7371
   591.5000   2000.0000 100000.0000     12.7165   2000.0000    133.5052
   591.7500   2000.0000     79.4975     15.0831   2000.0000    129.1985
   592.0000   2000.0000     29.4098     17.7805   2000.0000    123.3955
   592.2500   2000.0000     20.3904     20.4579   2000.0000    120.7866
   592.5000   2000.0000     17.8216     22.6010   2000.0000    119.0035
   592.7500   2000.0000     17.6326     23.8377   2000.0000    118.8896
   593.0000   2000.0000     18.7238     24.1970   2000.0000    119.3845
   593.2500   2000.0000     20.6827     24.0127   2000.0000    119.4906
   593.5000   2000.0000     23.3028     23.6577   2000.0000    118.2721
   593.7500   2000.0000     26.3670     23.3799   2000.0000    116.1180
   594.0000   2000.0000     29.4969     23.3032   2000.0000    110.4079
   594.2500   2000.0000     32.1728     23.4830   2000.0000    105.0167
   594.5000   2000.0000     34.0250     23.9565   2000.0000     95.8183
   594.7500   2000.0000     35.1268     24.7643   2000.0000     90.0784
   595.0000   2000.0000     35.8897     25.9528   2000.0000     83.2016
   595.2500   2000.0000     36.7249     27.5630   2000.0000     79.5529
   595.5000   2000.0000     37.8399     29.6149   2000.0000     74.3072
   595.7500   2000.0000     39.2383     32.0899   2000.0000     70.5652
   596.0000   2000.0000     40.8052     34.9184   2000.0000     65.1626
   596.2500   2000.0000     42.3933     37.9660   2000.0000     62.4928
   596.5000   2000.0000     43.8744     41.0462   2000.0000     60.7750
   596.7500   2000.0000     45.1569     43.9455   2000.0000     60.9476
   597.0000   2000.0000     46.1902     46.4630   2000.0000     61.8720
   597.2500   2000.0000     46.9694     48.4540   2000.0000     62.1711
   597.5000   2000.0000     47.5335     49.8628   2000.0000     61.5869
   597.7500   2000.0000     47.9374     50.7302   2000.0000     60.4862
