~Version Information
VERS.                      2.0: CWLS Log ASCII Standard - VERSION 2.0
WRAP.                       NO: One line per depth step
~Well Information Block
STRT.FT               875.0000: 
STOP.FT              2947.2000: 
STEP.FT                 0.1000: 
NULL.                -999.2500: 
COMP.          Pioneer Natural Resources: COMPANY
WELL.          Hanginstone 21-27: WELL
FLD.           Purgatoire River: FIELD
LOC.           1186' FNL & 1606' FWL--: LOCATION
PROV.                 Colorado: PROVINCE
CNTY.               Las Animas: COUNTRY
SRVC.                Patterson: SERVICE COMPANY
DATE.          Mon Jan 09 07:31:45 2006: LOG DATE
UWI.           05 071 08632 00: UNIQUE WELL ID
~Curve Information Block
DEPT.FT            0 000 00 00: Depth
DCAL.in                       : CDL Caliper
RHOB.g/cc                     : CDL Bulk Density
RHOC.g/cc                     : CDL Density Correction
DPOR.pu                       : CDL Density Porosity
NPOR.pu                       : Neutron Porosity
GR.GAPI                       : Gamma Ray
~Parameter Information Block
~A  Depth       DCAL        RHOB        RHOC        DPOR        NPOR         GR     
# ...
  1143.8000      8.0532      2.6705      0.0454     -1.2441     24.3460    133.0377
  1143.9000      8.0532      2.6879      0.0561     -2.2963     24.5501    144.8910
  1144.0000      8.0507      2.7005      0.1215     -3.0631     24.8594    149.9347
  1144.1000      8.0507      2.6855      0.0990     -2.1528     24.9271    144.9809
  1144.2000      8.0507      2.6586      0.0259     -0.5193     24.9108    138.1821
  1144.3000      8.0490      2.6520      0.0178     -0.1221     25.0413    133.7213
  1144.4000      8.0490      2.6587      0.0965     -0.5268     25.1034    132.6384
  1144.5000      8.0493      2.6501      0.0322     -0.0079     24.9174    134.9309
  1144.6000      8.0493      2.6326     -0.0027      1.0533     24.7469    138.2942
  1144.7000      8.0493      2.6258      0.0290      1.4677     24.7733    141.5724
  1144.8000      8.0510      2.6266      0.0332      1.4174     24.8274    144.5012
  1144.9000      8.0510      2.6319     -0.0091      1.0987     24.6726    144.8557
  1145.0000      8.0506      2.6490      0.0007      0.0628     24.2245    141.0981
  1145.1000      8.0506      2.6680      0.0589     -1.0936     23.6297    137.9226
  1145.2000      8.0506      2.6685      0.0485     -1.1213     22.9890    138.9688
  1145.3000      8.0492      2.6602      0.0360     -0.6152     22.4153    139.3299
  1145.4000      8.0492      2.6786      0.0021     -1.7325     22.0066    138.1555
  1145.5000      8.0500      2.7280      0.0903     -4.7275     21.7827    140.7457
  1145.6000      8.0500      2.7607      0.1455     -6.7098     21.8771    143.2864
  1145.7000      8.0500      2.7468      0.0492     -5.8690     22.3647    140.5434
  1145.8000      8.0511      2.7135      0.0128     -3.8469     22.8809    137.1331
  1145.9000      8.0511      2.6918      0.0531     -2.5350     23.0721    134.7570
  1146.0000      8.0506      2.6805      0.0154     -1.8468     22.9845    128.9353
  1146.1000      8.0506      2.6662      0.0307     -0.9833     22.5222    122.4679
  1146.2000      8.0506      2.6440     -0.0019      0.3625     21.7038    122.3296
  1146.3000      8.0479      2.6199     -0.0243      1.8218     20.8156    124.3759
  1146.4000      8.0479      2.6076     -0.0589      2.5687     20.1383    121.8259
  1146.5000      8.0451      2.6138     -0.0294      2.1956     19.7367    116.0968
  1146.6000      8.0451      2.6292      0.0129      1.2624     19.4941    109.9096
  1146.7000      8.0451      2.6432      0.0020      0.4148     19.5303    102.4834
  1146.8000      8.0468      2.6484      0.0902      0.0987     19.7443     95.6386
  1146.9000      8.0468      2.6383      0.0688      0.7090     19.8022     96.2143
  1147.0000      8.0505      2.6272     -0.0071      1.3795     19.7297    101.9645
  1147.1000      8.0505      2.6306      0.0797      1.1783     19.7308    104.8859
  1147.2000      8.0505      2.6330      0.0590      1.0287     19.8382    107.5354
  1147.3000      8.0512      2.6211      0.0250      1.7509     19.8341    113.3216
  1147.4000      8.0512      2.5994      0.0454      3.0689     19.8911    118.5915
  1147.5000      8.0510      2.5785      0.0150      4.3321     20.1463    120.0089
  1147.6000      8.0510      2.5749      0.0251      4.5512     20.3764    119.8306
  1147.7000      8.0510      2.5885      0.0492      3.7296     20.9858    121.8999
  1147.8000      8.0505      2.6024      0.0440      2.8822     22.0856    122.8266
  1147.9000      8.0505      2.6088      0.0679      2.4992     22.8968    121.4662
  1148.0000      8.0495      2.6118      0.0426      2.3164     23.0969    120.6182
  1148.1000      8.0495      2.6240     -0.0012      1.5765     22.8375    118.9386
  1148.2000      8.0495      2.6450      0.0793      0.3035     22.0821    117.0429
  1148.3000      8.0494      2.6502      0.0854     -0.0122     21.0472    119.3769
  1148.4000      8.0494      2.6277      0.0749      1.3535     20.2836    126.9878
  1148.5000      8.0495      2.6039      0.0460      2.7920     20.0261    133.7931
  1148.6000      8.0495      2.6112      0.0338      2.3522     20.1502    130.7294
  1148.7000      8.0495      2.6371      0.0920      0.7804     20.3685    117.9037
  1148.8000      8.0507      2.6403      0.0858      0.5904     20.3846    103.8223
  1148.9000      8.0507      2.6082      0.0761      2.5347     20.1346     94.8391
  1149.0000      8.0514      2.5619      0.0362      5.3384     19.9268     90.4438
  1149.1000      8.0514      2.5278     -0.0017      7.4061     19.9704     88.9331
  1149.2000      8.0514      2.5176     -0.0348      8.0265     20.1440     91.3451
  1149.3000      8.0500      2.5178      0.0080      8.0139     20.5924     94.3380
  1149.4000      8.0500      2.5124     -0.0006      8.3387     21.4169     93.2436
  1149.5000      8.0485      2.5111     -0.0109      8.4158     22.0034     89.8967
  1149.6000      8.0485      2.5213      0.0343      7.8007     22.0233     89.3522
  1149.7000      8.0485      2.5250      0.0630      7.5761     21.9916     91.7811
  1149.8000      8.0495      2.5142      0.0402      8.2286     21.9761     93.2499
  1149.9000      8.0495      2.5092     -0.0116      8.5361     21.7554     91.3697
  1150.0000      8.0496      2.5267      0.0285      7.4748     21.3701     87.6954
  1150.1000      8.0496      2.5560      0.0621      5.6940     20.9853     86.2788
  1150.2000      8.0496      2.5811      0.0674      4.1769     20.8660     88.3799
  1150.3000      8.0495      2.5972      0.0504      3.1987     20.7756     89.5137
  1150.4000      8.0495      2.6014      0.0657      2.9477     20.4180     86.1621
  1150.5000      8.0509      2.5867      0.0704      3.8346     20.1179     79.2585
  1150.6000      8.0509      2.5568      0.0949      5.6464     19.9497     72.9431
  1150.7000      8.0509      2.5259      0.0295      7.5236     19.7742     70.5384
  1150.8000      8.0514      2.5064      0.0310      8.7010     19.8851     72.3254
  1150.9000      8.0514      2.5067      0.0114      8.6847     20.3816     77.5857
  1151.0000      8.0499      2.5203      0.0511      7.8618     20.7639     81.5897
  1151.1000      8.0499      2.5293      0.0474      7.3148     20.7249     80.4473
  1151.2000      8.0499      2.5337      0.0634      7.0463     20.6043     77.7653
  1151.3000      8.0485      2.5440      0.0756      6.4260     20.6341     78.1494
  1151.4000      8.0485      2.5509      0.1075      6.0050     20.7363     81.5786
  1151.5000      8.0504      2.5375      0.0706      6.8193     20.8918     86.5961
  1151.6000      8.0504      2.5071      0.0710      8.6634     21.0210     90.6817
  1151.7000      8.0504      2.4796      0.0008     10.3262     21.0974     88.8142
  1151.8000      8.0519      2.4691      0.0623     10.9633     21.1683     81.6136
  1151.9000      8.0519      2.4716      0.0333     10.8145     21.2817     77.2039
  1152.0000      8.0505      2.4809      0.0489     10.2477     21.5024     77.5798
  1152.1000      8.0505      2.4914      0.0648      9.6123     21.6847     77.4216
  1152.2000      8.0505      2.4929      0.0683      9.5209     21.5384     74.5304
  1152.3000      8.0484      2.4884      0.0170      9.7965     20.9435     70.9671
  1152.4000      8.0484      2.4883      0.0713      9.8027     20.0425     66.9498
  1152.5000      8.0484      2.4868      0.0775      9.8937     19.3849     64.0298
  1152.6000      8.0484      2.4768      0.0366     10.4954     19.5426     66.2803
  1152.7000      8.0484      2.4606      0.0511     11.4774     20.2406     70.7887
  1152.8000      8.0506      2.4486     -0.0126     12.2041     20.8646     71.3537
  1152.9000      8.0506      2.4556      0.0201     11.7838     21.2818     69.5103
  1153.0000      8.0517      2.4739      0.0597     10.6737     21.4440     69.9353
  1153.1000      8.0517      2.4842      0.0394     10.0512     21.3020     70.9656
  1153.2000      8.0517      2.4835      0.0484     10.0927     21.1687     70.1087
  1153.3000      8.0519      2.4834      0.0158     10.0994     21.0606     69.6728
