~Version Information
VERS.                      2.0: CWLS Log ASCII Standard - VERSION 2.0
WRAP.                       NO: One line per depth step
~Well Information Block
STRT.FT                 0.0000: 
STOP.FT              1877.2500: 
STEP.FT                 0.2500: 
NULL.                -999.2500: 
COMP.          Pioneer Natural Resources: COMPANY
WELL.            Corazon 13-10: WELL
FLD.           Purgatoire River: FIELD
LOC.           2510' FSL & 439' FWL--------: LOCATION
PROV.                 Colorado: PROVINCE
CNTY.               Las Animas: COUNTRY
SRVC.                         : SERVICE COMPANY
DATE.          Mon Dec 19 14:34:49 2005: LOG DATE
UWI.                          : UNIQUE WELL ID
~Curve Information Block
DEPT.FT            0 000 00 00: Depth
CCL.                          : Casing Collar Locator
TT3.usec                      : CBL 3' Travel Time
AMP3.mV                       : CBL 3' Amplitude
AMP5.mV                       : CBL 5' Amplitude
GR.GAPI                       : Gamma Ray
~Parameter Information Block
~A  Depth       CCL         TT3         AMP3        AMP5         GR     
# ...
   616.0000      0.0000    764.4828     19.2563      4.4103    112.3289
   616.2500      0.0000    762.7799     18.6862      4.1991    112.9844
   616.5000      0.0000    756.6043     18.1757      4.0811    115.7076
   616.7500      0.0000    743.0153     17.7888      4.0505    120.5420
   617.0000      0.0000    720.3126     17.5142      4.0108    126.6690
   617.2500      0.0000    691.6861     17.2614      3.8312    132.8059
   617.5000      0.0000    666.3619     16.9038      3.4381    137.9034
   617.7500      0.0000    655.1230     16.3359      2.8761    141.6424
   618.0000      0.0000    662.9201     15.5044      2.2864    144.4834
   618.2500      0.0000    685.4351     14.4116      1.8104    147.0151
   618.5000      0.0000    712.7354     13.1130      1.4933    149.0259
   618.7500      0.0000    736.0057     11.7201      1.2751    149.5343
   619.0000      0.0000    751.6457     10.3796      1.0750    147.6963
   619.2500      0.0000    761.1886      9.2108      0.8793    143.0081
   619.5000      0.0000    769.2189      8.2397      0.7390    134.7844
   619.7500      0.0000    780.8673      7.3893      0.6936    122.6444
   620.0000      0.0000    798.7720      6.5494      0.7189    107.7444
   620.2500      0.0000    820.4489      5.6741      0.7554     92.7485
   620.5000      0.0000    839.4361      4.8189      0.7622     80.4853
   620.7500      0.0000    850.7768      4.0763      0.7328     72.6546
   621.0000      0.0000    854.5882      3.4883      0.6748     69.0602
   621.2500      0.0000    853.1493      3.0398      0.5951     67.6910
   621.5000      0.0000    846.8555      2.7146      0.5045     66.0100
   621.7500      0.0000    835.5518      2.5154      0.4273     62.5617
   622.0000      0.0000    821.7621      2.4372      0.3937     57.6085
   622.2500     -2.0000    809.7675      2.4519      0.4176     52.7399
   622.5000      0.0000    802.2711      2.5251      0.4835     49.9861
   622.7500      0.0000    799.1463      2.6402      0.5609     50.4976
   623.0000      0.0000    798.3598      2.8204      0.6289     53.3088
   623.2500      0.0000    797.2592      3.1335      0.6853     55.6890
   623.5000      0.0000    793.8190      3.6550      0.7393     55.3691
   623.7500      0.0000    787.6325      4.4084      0.8054     52.5381
   624.0000      0.0000    780.0532      5.3479      0.9012     49.5987
   624.2500      0.0000    773.1810      6.4023      1.0327     49.3740
   624.5000      0.0000    768.4550      7.5231      1.1771     53.6966
   624.7500      0.0000    765.9998      8.6876      1.2983     62.9933
   625.0000      0.0000    765.0739      9.8814      1.4006     76.3349
   625.2500      0.0000    764.8578     11.0866      1.5600     91.7922
   625.5000      0.0000    764.7802     12.2824      1.8764    107.0124
   625.7500      0.0000    764.3538     13.4514      2.3868    119.6835
   626.0000      0.0000    762.9788     14.5877      3.0271    127.9799
   626.2500      0.0000    760.0930     15.6956      3.6753    131.1945
   626.5000      0.0000    755.5532     16.7760      4.2336    130.0005
   626.7500      0.0000    749.7949     17.8187      4.6810    125.9943
   627.0000      0.0000    743.6488     18.8107      5.0558    121.1692
   627.2500      0.0000    738.1941     19.7513      5.3939    117.5612
   627.5000      0.0000    734.5698     20.6497      5.6955    116.4941
   627.7500      0.0000    733.3228     21.4986      5.9473    117.7582
   628.0000      0.0000    733.7708     22.2464      6.1508    119.8548
   628.2500      0.0000    734.5333     22.8081      6.3151    121.3430
   628.5000      0.0000    734.9667     23.1162      6.4345    122.0301
   628.7500      0.0000    735.6740     23.1629      6.4902    122.9390
   629.0000      0.0000    737.3080     22.9892      6.4777    125.0021
   629.2500      0.0000    739.3219     22.6442      6.4183    127.7029
   629.5000      0.0000    740.3822     22.1694      6.3397    129.1729
   629.7500      0.0000    739.8869     21.6175      6.2551    127.8430
   630.0000      0.0000    738.8542     21.0643      6.1714    123.8135
   630.2500      0.0000    739.1917     20.5822      6.1000    118.4268
   630.5000      0.0000    741.9618     20.2036      6.0385    112.8120
   630.7500      0.0000    746.4707     19.9111      5.9473    107.3055
   631.0000      0.0000    751.2621     19.6594      5.7708    102.2089
   631.2500      0.0000    755.6412     19.4036      5.4934     98.4322
   631.5000      0.0000    759.7243     19.1121      5.1669     96.9988
   631.7500      0.0000    763.4432     18.7690      4.8732     98.2157
   632.0000      0.0000    766.2701     18.3800      4.6614    101.5952
   632.2500      0.0000    767.8495     17.9817      4.5213    106.1857
   632.5000      0.0000    768.3763     17.6410      4.4120    110.5639
   632.7500      0.0000    768.3477     17.4386      4.3116    112.9114
   633.0000      0.0000    768.1979     17.4363      4.2343    111.8845
   633.2500      0.0000    768.1681     17.6436      4.2002    107.5973
   633.5000      0.0000    768.3328     18.0041      4.1964    101.3685
   633.7500      0.0000    768.6602     18.4193      4.1840     94.5097
   634.0000      0.0000    769.0977     18.7917      4.1375     87.7637
   634.2500      0.0000    769.6846     19.0530      4.0711     81.8029
   634.5000      0.0000    770.6879     19.1691      4.0264     77.6925
   634.7500      0.0000    772.6074     19.1373      4.0333     76.6617
   635.0000      0.0000    775.8856     18.9860      4.0774     79.4438
   635.2500      0.0000    780.5012     18.7734      4.1121     85.5450
   635.5000      0.0000    785.8903     18.5715      4.1087     93.0670
   635.7500      0.0000    791.2430     18.4342      4.0814     99.7762
   636.0000      0.0000    795.6711     18.3691      4.0567    104.6968
   636.2500      0.0000    798.2013     18.3426      4.0418    108.2176
   636.5000      0.0000    798.0883     18.3166      4.0402    110.6088
   636.7500      0.0000    795.3409     18.2789      4.0669    111.3736
   637.0000      0.0000    790.7511     18.2383      4.1278    110.5137
   637.2500      0.0000    785.3666     18.2024      4.2036    109.6578
   637.5000      0.0000    780.0917     18.1700      4.2738    111.2915
   637.7500      0.0000    775.6393     18.1399      4.3413    116.8845
   638.0000      0.0000    772.4516     18.1155      4.4172    125.6340
   638.2500      0.0000    770.5470     18.0998      4.4901    134.7161
   638.5000      0.0000    769.6250     18.0934      4.5298    140.8727
   638.7500      0.0000    769.3784     18.0961      4.5177    142.1239
   639.0000      0.0000    769.7252     18.1074      4.4616    138.4653
   639.2500      0.0000    770.8926     18.1228      4.3788    131.3817
   639.5000      0.0000    773.3596     18.1356      4.2825    122.8307
   639.7500      0.0000    777.4763     18.1419      4.1932    114.5078
   640.0000      0.0000    782.7200     18.1421      4.1468    107.7349
   640.2500      0.0000    787.2921     18.1407      4.1736    103.5107
   640.5000      0.0000    788.8965     18.1441      4.2656    102.2475
   640.7500      0.0000    786.3340     18.1554      4.3756    103.4436
   641.0000      0.0000    780.2842     18.1705      4.4574    105.9834
   641.2500      0.0000    772.4453     18.1857      4.5074    109.0044
   641.5000      0.0000    764.3206     18.2071      4.5524    112.4110
   641.7500      0.0000    757.1989     18.2509      4.5979    116.4163
   642.0000      0.0000    752.6773     18.3325      4.6124    120.5912
   642.2500      0.0000    752.0063     18.4564      4.5714    123.5276
   642.5000      0.0000    754.6289     18.6077      4.4917    123.7694
   642.7500      0.0000    757.9979     18.7540      4.4030    121.2527
   643.0000      0.0000    759.1426     18.8613      4.3072    117.7204
   643.2500      0.0000    756.3823     18.9160      4.1905    115.4587
   643.5000      0.0000    749.9979     18.9305      4.0637    115.5863
   643.7500      0.0000    741.8765     18.9261      3.9648    117.6247
