~Version Information
VERS.                      2.0: CWLS Log ASCII Standard - VERSION 2.0
WRAP.                       NO: One line per depth step
~Well Information Block
STRT.FT               686.2000: 
STOP.FT              1252.7000: 
STEP.FT                 0.1000: 
NULL.                -999.2500: 
COMP.          Pioneer Natural Resources: COMPANY
WELL.          Rock Island 44-24 Tr: WELL
FLD.           Purgatoire River: FIELD
LOC.           814' FSL & 761' FEL--: LOCATION
CNTY.               Las Animas: COUNTY
SRVC.                Patterson: SERVICE COMPANY
DATE.          Thu Apr 20 08:34:45 2006: LOG DATE
UWI.           05 071 08680 00: UNIQUE WELL ID
STAT.                 Colorado: STATE
~Curve Information Block
DEPT.FT            0 000 00 00: Depth
DCAL.in                       : CDL Caliper
RHOB.g/cc                     : CDL Bulk Density
RHOC.g/cc                     : CDL Density Correction
DPOR.pu                       : CDL Density Porosity
GR.GAPI                       : Gamma Ray
~Parameter Information Block
~A  Depth       DCAL        RHOB        RHOC        DPOR         GR     
# ...
  1044.6000      7.9552      2.5324      0.0609      7.1254    133.8251
  1044.7000      7.9552      2.5327      0.0495      7.1115    126.4235
  1044.8000      7.9630      2.5472      0.0628      6.2333    120.1199
  1044.9000      7.9630      2.5707      0.0806      4.8055    119.9787
  1045.0000      7.9661      2.5902      0.1208      3.6215    124.2652
  1045.1000      7.9661      2.5839      0.1113      4.0071    127.6511
  1045.2000      7.9661      2.5463      0.0642      6.2865    128.6060
  1045.3000      7.9658      2.5073     -0.0056      8.6478    129.1302
  1045.4000      7.9658      2.5016     -0.0184      8.9928    128.7756
  1045.5000      7.9636      2.5293      0.0563      7.3177    128.6495
  1045.6000      7.9636      2.5567      0.0998      5.6544    130.3286
  1045.7000      7.9636      2.5608      0.0385      5.4050    129.8989
  1045.8000      7.9639      2.5519      0.0455      5.9448    124.3872
  1045.9000      7.9639      2.5444      0.0162      6.3985    118.9424
  1046.0000      7.9650      2.5394      0.0275      6.7046    117.8270
  1046.1000      7.9650      2.5327      0.0199      7.1082    119.4285
  1046.2000      7.9650      2.5218      0.0385      7.7713    120.7138
  1046.3000      7.9658      2.5111      0.0016      8.4182    119.6305
  1046.4000      7.9658      2.5116      0.0273      8.3901    119.3093
  1046.5000      7.9639      2.5132      0.0839      8.2895    124.2804
  1046.6000      7.9639      2.4920      0.0460      9.5767    130.2703
  1046.7000      7.9639      2.4532      0.0255     11.9300    131.1141
  1046.8000      7.9520      2.4283      0.0022     13.4389    131.2337
  1046.9000      7.9520      2.4339      0.0163     13.0979    136.2960
  1047.0000      7.9292      2.4518      0.0991     12.0117    140.7069
  1047.1000      7.9292      2.4666      0.0199     11.1162    137.7276
  1047.2000      7.9292      2.4937      0.0746      9.4755    132.1598
  1047.3000      7.9067      2.5340      0.1547      7.0292    130.7253
  1047.4000      7.9067      2.5616      0.1694      5.3552    132.0695
  1047.5000      7.8944      2.5690      0.1492      4.9095    133.0937
  1047.6000      7.8944      2.5761      0.1074      4.4801    134.4570
  1047.7000      7.8944      2.5951      0.1195      3.3255    136.5118
  1047.8000      7.9004      2.6098      0.1687      2.4383    134.7597
  1047.9000      7.9004      2.5955      0.1568      3.3054    129.8266
  1048.0000      7.9214      2.5582      0.0952      5.5649    129.7593
  1048.1000      7.9214      2.5335      0.0093      7.0634    134.8988
  1048.2000      7.9214      2.5368      0.0590      6.8620    137.7046
  1048.3000      7.9361      2.5517      0.0592      5.9584    136.4538
  1048.4000      7.9361      2.5682      0.0407      4.9574    134.3186
  1048.5000      7.9441      2.5854      0.0845      3.9141    132.9648
  1048.6000      7.9441      2.6026      0.0852      2.8711    131.9124
  1048.7000      7.9441      2.6373      0.0663      0.7699    127.2848
  1048.8000      7.9590      2.7056      0.1065     -3.3723    117.2884
  1048.9000      7.9590      2.7911      0.1343     -8.5539    107.1692
  1049.0000      7.9758      2.8614      0.1656    -12.8097    102.0108
  1049.1000      7.9758      2.8973      0.1443    -14.9866     97.4929
  1049.2000      7.9758      2.9064      0.0779    -15.5380     88.5386
  1049.3000      7.9775      2.9058      0.1382    -15.5046     80.5857
  1049.4000      7.9775      2.8909      0.0848    -14.5991     78.7696
  1049.5000      7.9697      2.8491     -0.0298    -12.0649     79.0972
  1049.6000      7.9697      2.7903     -0.0549     -8.5035     79.1240
  1049.7000      7.9697      2.7312     -0.0491     -4.9196     80.5502
  1049.8000      7.9635      2.6703     -0.0729     -1.2327     83.1598
  1049.9000      7.9635      2.6110     -0.1076      2.3607     84.6898
  1050.0000      7.9607      2.5742     -0.0929      4.5939     85.7652
  1050.1000      7.9607      2.5653     -0.0476      5.1321     89.5336
  1050.2000      7.9607      2.5624     -0.0132      5.3109     96.4606
  1050.3000      7.9611      2.5516     -0.0226      5.9609    103.0323
  1050.4000      7.9611      2.5427     -0.0026      6.5049    106.5347
  1050.5000      7.9617      2.5380      0.0274      6.7890    108.0849
  1050.6000      7.9617      2.5311      0.0245      7.2062    108.4509
  1050.7000      7.9617      2.5275      0.0139      7.4260    107.5359
  1050.8000      7.9597      2.5347      0.0365      6.9896    108.0096
  1050.9000      7.9597      2.5480      0.0572      6.1826    109.8148
  1051.0000      7.9597      2.5590      0.0396      5.5156    111.1212
  1051.1000      7.9597      2.5626      0.0356      5.2981    113.5995
  1051.2000      7.9597      2.5512      0.0565      5.9865    117.5765
  1051.3000      7.9624      2.5239      0.0177      7.6422    121.4983
  1051.4000      7.9624      2.4977      0.0010      9.2284    125.4593
  1051.5000      7.9632      2.4829      0.0424     10.1273    127.8319
  1051.6000      7.9632      2.4703      0.0515     10.8938    126.6733
  1051.7000      7.9632      2.4579      0.0161     11.6429    122.2725
  1051.8000      7.9593      2.4641     -0.0137     11.2691    116.7960
  1051.9000      7.9593      2.4980      0.0467      9.2101    116.2971
  1052.0000      7.9510      2.5379      0.1043      6.7959    121.3242
  1052.1000      7.9510      2.5597      0.0824      5.4733    124.1302
  1052.2000      7.9510      2.5625      0.0843      5.3032    121.5580
  1052.3000      7.9442      2.5558      0.0756      5.7081    119.9290
  1052.4000      7.9442      2.5477      0.0877      6.2021    123.5682
  1052.5000      7.9438      2.5412      0.0772      6.5965    128.3411
  1052.6000      7.9438      2.5370      0.0674      6.8510    130.4536
  1052.7000      7.9438      2.5371      0.0634      6.8440    129.9776
  1052.8000      7.9494      2.5438      0.0834      6.4343    125.9520
  1052.9000      7.9494      2.5542      0.0751      5.8081    118.4543
  1053.0000      7.9556      2.5580      0.1028      5.5728    111.8717
  1053.1000      7.9556      2.5482      0.0732      6.1686    110.6798
  1053.2000      7.9556      2.5304      0.0408      7.2511    115.1223
  1053.3000      7.9589      2.5193      0.0075      7.9199    123.1497
  1053.4000      7.9589      2.5209      0.0389      7.8261    130.5034
  1053.5000      7.9627      2.5224      0.0714      7.7316    130.7083
  1053.6000      7.9627      2.5217      0.0189      7.7770    125.5575
  1053.7000      7.9627      2.5298      0.0357      7.2860    122.7166
  1053.8000      7.9656      2.5375      0.0570      6.8207    122.3350
  1053.9000      7.9656      2.5269      0.0615      7.4585    120.1563
  1054.0000      7.9656      2.5016      0.0327      8.9954    116.0196
  1054.1000      7.9656      2.4769      0.0136     10.4887    114.4438
  1054.2000      7.9656      2.4581      0.0174     11.6290    118.6199
  1054.3000      7.9661      2.4351     -0.0006     13.0250    126.4407
  1054.4000      7.9661      2.3959     -0.0135     15.3987    132.0388
  1054.5000      7.9728      2.3363     -0.0174     19.0101    132.4215
  1054.6000      7.9728      2.2626     -0.0504     23.4796    130.4136
  1054.7000      7.9728      2.1846     -0.0427     28.2087    130.9465
  1054.8000      7.9782      2.1010     -0.0287     33.2704    137.2451
  1054.9000      7.9782      2.0171     -0.0645     38.3547    143.8960
  1055.0000      7.9675      1.9583     -0.0545     41.9215    142.6973
  1055.1000      7.9675      1.9431     -0.0279     42.8439    134.0280
  1055.2000      7.9675      1.9696      0.0141     41.2368    123.2142
  1055.3000      7.9468      2.0311      0.0800     37.5078    117.2842
  1055.4000      7.9468      2.1207      0.1878     32.0806    118.0522
  1055.5000      7.9404      2.2204      0.2965     26.0364    120.2693
  1055.6000      7.9404      2.3073      0.3484     20.7702    120.4994
  1055.7000      7.9404      2.3725      0.3239     16.8173    118.0105
