~Version Information
VERS.                      2.0: CWLS Log ASCII Standard - VERSION 2.0
WRAP.                       NO: One line per depth step
~Well Information Block
STRT.FT               260.8000: 
STOP.FT              1942.0000: 
STEP.FT                 0.1000: 
NULL.                -999.2500: 
COMP.          XTO Energy Inc.: COMPANY
WELL.          Golden Eagle 19-11: WELL
FLD.           Purgatoire River: FIELD
LOC.           2351' FSL & 1926' FWL--: LOCATION
CNTY.               Las Animas: COUNTY
SRVC.                Patterson: SERVICE COMPANY
DATE.          Thu Mar 09 08:41:38 2006: LOG DATE
UWI.           05 071 08696 00: UNIQUE WELL ID
STAT.                 Colorado: STATE
~Curve Information Block
DEPT.FT            0 000 00 00: Depth
DCAL.in                       : CDL Caliper
RHOB.g/cc                     : CDL Bulk Density
RHOC.g/cc                     : CDL Density Correction
DPOR.pu                       : CDL Density Porosity
NPOR.pu                       : Neutron Porosity
GR.GAPI                       : Gamma Ray
~Parameter Information Block
~A  Depth       DCAL        RHOB        RHOC        DPOR        NPOR         GR     
# ...
   817.6000      8.0126      2.5845      0.0412      3.9712     24.0509    125.9227
   817.7000      8.0126      2.5743     -0.0026      4.5906     24.2216    117.9890
   817.8000      8.0098      2.5799      0.0274      4.2476     24.5339    113.1440
   817.9000      8.0098      2.5889      0.0511      3.7039     24.8495    115.6650
   818.0000      8.0071      2.5886      0.0112      3.7242     24.8311    123.0199
   818.1000      8.0071      2.5909      0.0085      3.5794     24.6919    128.2455
   818.2000      8.0071      2.6086      0.0081      2.5079     24.8043    128.3642
   818.3000      8.0051      2.6295      0.0657      1.2422     24.9663    128.4384
   818.4000      8.0051      2.6273      0.0561      1.3772     24.9774    133.9231
   818.5000      8.0069      2.5968      0.0294      3.2271     25.1946    141.1160
   818.6000      8.0069      2.5652      0.0100      5.1402     25.5914    144.4802
   818.7000      8.0069      2.5588     -0.0045      5.5298     25.7686    144.6381
   818.8000      8.0099      2.5685      0.0590      4.9415     25.7192    142.6386
   818.9000      8.0099      2.5686      0.0273      4.9351     25.5556    138.6975
   819.0000      8.0114      2.5558      0.0177      5.7065     25.0590    138.4627
   819.1000      8.0114      2.5484      0.0244      6.1575     24.2434    145.5726
   819.2000      8.0114      2.5602      0.0388      5.4427     23.5540    153.3070
   819.3000      8.0102      2.5818      0.0690      4.1360     23.1709    154.5404
   819.4000      8.0102      2.5937      0.0863      3.4116     23.0077    151.4271
   819.5000      8.0059      2.5891      0.0539      3.6887     22.8672    147.4238
   819.6000      8.0059      2.5722      0.0322      4.7134     22.5407    141.5625
   819.7000      8.0059      2.5529      0.0016      5.8824     22.0726    134.2938
   819.8000      8.0002      2.5461     -0.0079      6.2952     21.7069    129.3040
   819.9000      8.0002      2.5602      0.0131      5.4449     21.6842    126.6290
   820.0000      7.9924      2.5819      0.0741      4.1272     21.9179    123.1446
   820.1000      7.9924      2.5919      0.0296      3.5199     22.0647    118.7120
   820.2000      7.9924      2.5921      0.0547      3.5066     22.0735    115.5088
   820.3000      7.9851      2.5918      0.0410      3.5298     21.9330    112.3373
   820.4000      7.9851      2.5900      0.0458      3.6350     21.6502    108.3649
   820.5000      7.9814      2.5844      0.0175      3.9732     21.6269    105.3696
   820.6000      7.9814      2.5804      0.0260      4.2152     22.0194    102.8919
   820.7000      7.9814      2.5833     -0.0054      4.0401     22.4660    100.3676
   820.8000      7.9769      2.5849      0.0429      3.9426     22.5671     98.7582
   820.9000      7.9769      2.5826     -0.0255      4.0822     22.3417     98.3974
   821.0000      7.9675      2.5938      0.0438      3.4040     22.0516     97.9875
   821.1000      7.9675      2.6131      0.0825      2.2384     21.8246     97.4189
   821.2000      7.9675      2.6146      0.0794      2.1484     21.7693     95.8288
   821.3000      7.9554      2.5986      0.0199      3.1148     21.9803     91.9943
   821.4000      7.9554      2.5783      0.0543      4.3468     22.3127     88.3255
   821.5000      7.9482      2.5588      0.0576      5.5263     22.4966     86.0085
   821.6000      7.9482      2.5556      0.0362      5.7204     22.6526     84.8200
   821.7000      7.9482      2.5802      0.0532      4.2294     22.8330     86.4895
   821.8000      7.9500      2.6169      0.0424      2.0058     22.6554     89.2547
   821.9000      7.9500      2.6415      0.0745      0.5149     22.1969     90.3982
   822.0000      7.9592      2.6456      0.0582      0.2679     22.0692     89.6323
   822.1000      7.9592      2.6423      0.0345      0.4686     22.5073     87.7366
   822.2000      7.9592      2.6502      0.0194     -0.0145     23.1000     88.5670
   822.3000      7.9652      2.6643      0.1141     -0.8647     23.5105     93.8941
   822.4000      7.9652      2.6605      0.0973     -0.6342     23.7764     99.2673
   822.5000      7.9605      2.6400      0.0392      0.6088     24.1358    100.7738
   822.6000      7.9605      2.6220      0.0517      1.6994     24.6978     98.3610
   822.7000      7.9605      2.6109      0.0607      2.3683     25.2160     94.3761
   822.8000      7.9584      2.6062     -0.0115      2.6555     25.4280     93.5248
   822.9000      7.9584      2.6028      0.0599      2.8619     25.3293     97.0330
   823.0000      7.9644      2.5881      0.0280      3.7518     25.0980    101.8952
   823.1000      7.9644      2.5670      0.0035      5.0293     24.9687    105.7881
   823.2000      7.9644      2.5534      0.0002      5.8543     25.0863    108.8957
   823.3000      7.9725      2.5520     -0.0260      5.9422     25.1910    113.5216
   823.4000      7.9725      2.5629     -0.0057      5.2816     25.0890    118.6201
   823.5000      7.9785      2.5831     -0.0015      4.0543     25.1382    118.8172
   823.6000      7.9785      2.6055      0.0389      2.6965     25.2719    112.9133
   823.7000      7.9785      2.6212      0.0383      1.7432     25.0496    105.7531
   823.8000      7.9836      2.6189      0.0833      1.8875     24.9022     98.8185
   823.9000      7.9836      2.5950      0.0125      3.3341     25.3497     92.5294
   824.0000      7.9856      2.5686     -0.0108      4.9331     25.7678     90.7716
   824.1000      7.9856      2.5567      0.0287      5.6556     25.6272     92.0117
   824.2000      7.9856      2.5591      0.0016      5.5079     25.5110     93.0076
   824.3000      7.9827      2.5711      0.0218      4.7819     25.8649     94.5551
   824.4000      7.9827      2.5862      0.0201      3.8640     26.2350     96.8532
   824.5000      7.9812      2.6025      0.0380      2.8768     26.2138     98.3755
   824.6000      7.9812      2.6147      0.0487      2.1416     25.9434     99.6395
   824.7000      7.9812      2.6032      0.0642      2.8364     25.7412    104.4222
   824.8000      7.9812      2.5620      0.0022      5.3328     25.6628    112.9011
   824.9000      7.9812      2.5183     -0.0427      7.9839     25.3474    118.7883
   825.0000      7.9786      2.5031     -0.0532      8.9034     24.6093    117.6847
   825.1000      7.9786      2.5224      0.0050      7.7331     23.8381    113.2165
   825.2000      7.9786      2.5540      0.0496      5.8168     23.3529    110.9731
   825.3000      7.9739      2.5734      0.0079      4.6396     23.0810    110.3332
   825.4000      7.9739      2.5805      0.0194      4.2143     22.8995    107.9972
   825.5000      7.9672      2.5880      0.0305      3.7546     22.8934    105.2824
   825.6000      7.9672      2.6003      0.0504      3.0125     23.1570    105.8216
   825.7000      7.9672      2.6097      0.0318      2.4434     23.5505    108.3587
   825.8000      7.9601      2.6053      0.0578      2.7072     23.7802    108.9804
   825.9000      7.9601      2.5868      0.0046      3.8275     23.9712    109.2391
   826.0000      7.9559      2.5709      0.0204      4.7920     24.4954    111.6795
   826.1000      7.9559      2.5677     -0.0071      4.9882     25.2110    113.7574
   826.2000      7.9559      2.5699      0.0043      4.8556     25.7769    114.2076
   826.3000      7.9596      2.5744     -0.0198      4.5819     26.0043    113.3970
   826.4000      7.9596      2.5846     -0.0127      3.9614     25.9139    110.6843
   826.5000      7.9701      2.5963      0.0302      3.2545     25.5699    108.1654
   826.6000      7.9701      2.5967      0.0408      3.2322     25.1006    107.0899
   826.7000      7.9701      2.5812      0.0041      4.1718     24.6788    105.1323
   826.8000      7.9778      2.5662     -0.0035      5.0808     24.3470    103.3529
   826.9000      7.9778      2.5716     -0.0385      4.7502     24.0897    104.5023
   827.0000      7.9814      2.5899      0.0781      3.6441     23.8934    108.9977
   827.1000      7.9814      2.5929      0.0492      3.4596     23.8311    115.7790
