~Version Information
VERS.                      2.0: CWLS Log ASCII Standard - VERSION 2.0
WRAP.                       NO: One line per depth step
~Well Information Block
STRT.FT               460.0000: 
STOP.FT              2311.7000: 
STEP.FT                 0.1000: 
NULL.                -999.2500: 
COMP.          Pioneer Natural Resources: COMPANY
WELL.          McDonald 33-31 R: WELL
FLD.           Purgatoire River: FIELD
LOC.           1386' FSL & 1926' FEL: LOCATION
STAT.                 Colorado: State
CNTY.               Las Animas: COUNTY
CTRY.                      USA: Country
SECT.                       31: Section
TOWN.                      32S: Township
RANG.                      66W: Range
SRVC.                Patterson: SERVICE COMPANY
DATE.          Sat Sep 24 09:00:13 2005: LOG DATE
API.           05 071 08533 00: API
~Curve Information Block
DEPT.FT            0 000 00 00: Depth
DCAL.in                       : CDL Caliper
RHOB.g/cc                     : CDL Bulk Density
RHOC.g/cc                     : CDL Density Correction
DPOR.pu                       : CDL Density Porosity
NPOR.pu                       : Neutron Porosity
GR.GAPI                       : Gamma Ray
~Parameter Information Block
~A  Depth       DCAL        RHOB        RHOC        DPOR        NPOR         GR     
# ...
   700.0000      8.0388      2.3735      0.1079     16.7589     17.5251    131.3728
   700.1000      8.0388      2.4355      0.1680     12.9977     17.5585    130.6655
   700.2000      8.0388      2.4848      0.1851     10.0146     17.5835    130.1528
   700.3000      8.0366      2.5003      0.1252      9.0753     17.7217    128.2582
   700.4000      8.0366      2.4960      0.0493      9.3356     18.4129    126.4510
   700.5000      8.0299      2.4964      0.0664      9.3102     19.3971    129.5866
   700.6000      8.0299      2.5140      0.0388      8.2417     19.9831    134.0205
   700.7000      8.0299      2.5440      0.0754      6.4272     20.3420    132.2387
   700.8000      8.0214      2.5610      0.1035      5.3949     21.1130    126.5544
   700.9000      8.0214      2.5513      0.1074      5.9822     22.4532    122.1606
   701.0000      8.0172      2.5340      0.0172      7.0279     23.8000    118.8265
   701.1000      8.0172      2.5303     -0.0083      7.2527     24.4378    117.1792
   701.2000      8.0172      2.5351      0.0071      6.9611     24.7796    118.7336
   701.3000      8.0176      2.5400      0.0085      6.6694     25.4339    119.7769
   701.4000      8.0176      2.5489      0.0720      6.1298     25.7554    117.9849
   701.5000      8.0184      2.5677     -0.0055      4.9891     25.3954    115.9156
   701.6000      8.0184      2.5913      0.0648      3.5603     25.2820    115.6145
   701.7000      8.0184      2.5970      0.0741      3.2144     25.6978    117.2310
   701.8000      8.0183      2.5808      0.0181      4.1945     26.0381    118.5947
   701.9000      8.0183      2.5694      0.0263      4.8832     26.1081    117.3271
   702.0000      8.0182      2.5768      0.0526      4.4344     26.0815    114.5214
   702.1000      8.0182      2.5875      0.0464      3.7849     26.3376    111.8909
   702.2000      8.0182      2.5822      0.0508      4.1062     26.9564    111.1265
   702.3000      8.0175      2.5654     -0.0013      5.1266     27.3064    113.3573
   702.4000      8.0175      2.5580      0.0158      5.5782     26.8165    115.9364
   702.5000      8.0170      2.5585      0.0585      5.5452     25.7752    116.0706
   702.6000      8.0170      2.5512      0.0337      5.9908     25.2502    114.5551
   702.7000      8.0170      2.5443      0.0108      6.4064     25.6578    114.9810
   702.8000      8.0164      2.5487      0.0591      6.1376     26.1406    118.1908
   702.9000      8.0164      2.5542      0.0342      5.8046     26.0447    118.7206
   703.0000      8.0152      2.5559      0.0031      5.7000     25.7549    113.4978
   703.1000      8.0152      2.5557      0.0581      5.7158     25.8209    106.7248
   703.2000      8.0152      2.5507      0.0228      6.0153     26.2037    103.3427
   703.3000      8.0139      2.5439      0.0275      6.4307     26.4545    105.2598
   703.4000      8.0139      2.5443      0.0214      6.4082     26.5720    109.6953
   703.5000      8.0141      2.5591      0.0075      5.5073     26.6583    112.0885
   703.6000      8.0141      2.5791      0.0740      4.2950     26.5128    113.6100
   703.7000      8.0141      2.5856      0.0445      3.9038     26.3150    114.9454
   703.8000      8.0156      2.5760      0.0272      4.4859     26.3728    114.0545
   703.9000      8.0156      2.5574      0.0146      5.6141     26.7047    115.4017
   704.0000      8.0177      2.5366      0.0068      6.8746     26.9976    119.7398
   704.1000      8.0177      2.5288     -0.0194      7.3455     26.8845    119.2877
   704.2000      8.0177      2.5383      0.0394      6.7720     26.4309    114.1747
   704.3000      8.0205      2.5497      0.0193      6.0787     26.1573    112.6320
   704.4000      8.0205      2.5590      0.0191      5.5139     26.3083    117.2502
   704.5000      8.0240      2.5689      0.0446      4.9122     26.5194    124.7118
   704.6000      8.0240      2.5750      0.0106      4.5463     26.4544    131.3293
   704.7000      8.0240      2.5746      0.0382      4.5701     26.4242    132.6927
   704.8000      8.0272      2.5638      0.0377      5.2228     26.7033    128.2281
   704.9000      8.0272      2.5422      0.0304      6.5354     27.1419    124.7517
   705.0000      8.0296      2.5243      0.0065      7.6202     27.2623    123.9930
   705.1000      8.0296      2.5278      0.0240      7.4042     26.7109    120.2208
   705.2000      8.0296      2.5504      0.0518      6.0334     26.1746    114.5178
   705.3000      8.0329      2.5745      0.0382      4.5787     26.3007    113.5229
   705.4000      8.0329      2.5874      0.0773      3.7923     26.8908    115.4556
   705.5000      8.0374      2.5845      0.0632      3.9720     27.6243    116.7437
   705.6000      8.0374      2.5681      0.0479      4.9623     28.0339    119.0474
   705.7000      8.0374      2.5447      0.0387      6.3837     28.0476    122.7680
   705.8000      8.0387      2.5256     -0.0137      7.5410     28.0884    125.7891
   705.9000      8.0387      2.5188      0.0239      7.9506     28.1039    126.6914
   706.0000      8.0370      2.5137      0.0071      8.2578     27.5677    126.2077
   706.1000      8.0370      2.5008      0.0079      9.0412     26.4722    127.1288
   706.2000      8.0370      2.4902      0.0060      9.6874     25.5233    130.2077
   706.3000      8.0356      2.4993      0.0066      9.1359     25.2106    133.0596
   706.4000      8.0356      2.5290      0.0220      7.3338     25.3441    133.7035
   706.5000      8.0323      2.5551      0.0784      5.7514     25.3634    131.7596
   706.6000      8.0323      2.5612      0.0346      5.3823     25.2234    126.2807
   706.7000      8.0323      2.5586      0.0486      5.5397     25.3204    121.9988
   706.8000      8.0260      2.5531      0.0577      5.8698     25.5583    126.0231
   706.9000      8.0260      2.5409      0.0453      6.6100     25.6707    134.4373
   707.0000      8.0203      2.5290      0.0256      7.3319     25.6666    137.7298
   707.1000      8.0203      2.5309     -0.0063      7.2194     25.7806    133.3570
   707.2000      8.0203      2.5422      0.0416      6.5313     25.9904    125.3977
   707.3000      8.0161      2.5404      0.0442      6.6420     26.0155    120.0080
   707.4000      8.0161      2.5230      0.0270      7.6962     25.9397    118.9072
   707.5000      8.0128      2.5114      0.0054      8.4027     26.0183    118.6852
   707.6000      8.0128      2.5130      0.0294      8.3035     26.1900    118.4088
   707.7000      8.0128      2.5138      0.0765      8.2532     26.2868    121.2733
   707.8000      8.0121      2.5078      0.0406      8.6183     26.2679    128.4624
   707.9000      8.0121      2.5053      0.0478      8.7709     26.1487    135.7947
   708.0000      8.0141      2.5069      0.0427      8.6701     26.0637    140.4395
   708.1000      8.0141      2.5125      0.0130      8.3328     26.0987    144.8912
   708.2000      8.0141      2.5321      0.0397      7.1485     26.2669    146.7698
   708.3000      8.0158      2.5594      0.1084      5.4882     26.4680    141.3401
   708.4000      8.0158      2.5776      0.0959      4.3908     26.5635    133.0036
   708.5000      8.0159      2.5846      0.0943      3.9645     26.6469    127.3776
   708.6000      8.0159      2.5820      0.0821      4.1194     26.9631    123.9113
   708.7000      8.0159      2.5711      0.0512      4.7812     27.3056    120.3088
   708.8000      8.0168      2.5657      0.0789      5.1077     27.2780    118.6395
   708.9000      8.0168      2.5725      0.0762      4.6956     27.3413    122.1922
   709.0000      8.0223      2.5760      0.1042      4.4870     27.7390    127.4921
   709.1000      8.0223      2.5646      0.0479      5.1748     27.8277    131.8601
   709.2000      8.0223      2.5541      0.0255      5.8122     27.5772    134.8017
   709.3000      8.0329      2.5568      0.0782      5.6476     27.4163    134.1681
   709.4000      8.0329      2.5632      0.0807      5.2630     27.3039    130.2980
   709.5000      8.0462      2.5664      0.0714      5.0644     26.9691    127.4664
