~Version Information
VERS.                      2.0: CWLS Log ASCII Standard - VERSION 2.0
WRAP.                       NO: One line per depth step
~Well Information Block
STRT.FT               620.0000: 
STOP.FT              3067.2000: 
STEP.FT                 0.1000: 
NULL.                -999.2500: 
COMP.          Pioneer Natural Resources: COMPANY
WELL.          Interceptor 43-13 Kv: WELL
FLD.           Purgatoire River: FIELD
LOC.           2073' FSL & 519' FEL--: LOCATION
PROV.                 Colorado: PROVINCE
CNTY.               Las Animas: COUNTRY
SRVC.                Patterson: SERVICE COMPANY
DATE.          Sat Jan 14 20:27:27 2006: LOG DATE
UWI.           05 071 08655 00: UNIQUE WELL ID
~Curve Information Block
DEPT.FT            0 000 00 00: Depth
DCAL.in                       : CDL Caliper
RHOB.g/cc                     : CDL Bulk Density
RHOC.g/cc                     : CDL Density Correction
DPOR.pu                       : CDL Density Porosity
NPOR.pu                       : Neutron Porosity
GR.GAPI                       : Gamma Ray
~Parameter Information Block
~A  Depth       DCAL        RHOB        RHOC        DPOR        NPOR         GR     
# ...
   946.4000      8.0331      2.5646      0.0309      5.1785     26.6260    141.4901
   946.5000      8.0331      2.5609     -0.0059      5.4017     26.8286    136.4787
   946.6000      8.0331      2.5525      0.0542      5.9116     26.2877    130.8725
   946.7000      8.0331      2.5421      0.0076      6.5407     25.6159    128.1732
   946.8000      8.0337      2.5438     -0.0057      6.4345     25.2592    127.3216
   946.9000      8.0337      2.5606      0.0399      5.4166     25.0828    126.3810
   947.0000      8.0339      2.5721      0.0333      4.7231     25.1923    126.2207
   947.1000      8.0339      2.5644      0.0220      5.1905     25.6321    126.9094
   947.2000      8.0339      2.5522      0.0049      5.9249     25.9318    128.1449
   947.3000      8.0337      2.5548      0.0259      5.7676     25.8507    129.3342
   947.4000      8.0337      2.5638      0.0635      5.2232     25.6215    130.3243
   947.5000      8.0350      2.5564      0.0616      5.6731     25.3498    132.6436
   947.6000      8.0350      2.5393     -0.0364      6.7099     25.0047    134.7628
   947.7000      8.0350      2.5383      0.0057      6.7699     24.6520    131.3345
   947.8000      8.0362      2.5492      0.0144      6.1116     24.3057    120.6688
   947.9000      8.0362      2.5585      0.0006      5.5439     23.9500    109.7880
   948.0000      8.0362      2.5680     -0.0048      4.9689     23.6334    106.8651
   948.1000      8.0362      2.5746      0.0636      4.5716     23.5239    111.8245
   948.2000      8.0362      2.5768      0.0193      4.4338     23.7330    118.2891
   948.3000      8.0352      2.5808      0.0261      4.1929     24.0272    120.7770
   948.4000      8.0352      2.5799      0.0552      4.2456     24.1189    119.4455
   948.5000      8.0341      2.5719     -0.0018      4.7347     23.9964    119.9309
   948.6000      8.0341      2.5706      0.0209      4.8128     23.9016    124.9499
   948.7000      8.0341      2.5756      0.0544      4.5089     24.1359    128.8527
   948.8000      8.0334      2.5807     -0.0004      4.2009     24.6535    125.8859
   948.9000      8.0334      2.5921      0.0443      3.5068     25.1124    121.2958
   949.0000      8.0318      2.6057      0.0413      2.6827     25.2993    120.2502
   949.1000      8.0318      2.6131      0.0359      2.2387     25.3605    118.9671
   949.2000      8.0318      2.6151      0.0628      2.1147     25.5226    114.7041
   949.3000      8.0328      2.6130      0.0473      2.2431     25.8324    110.3270
   949.4000      8.0328      2.6069      0.0801      2.6112     26.2363    109.7325
   949.5000      8.0353      2.5974      0.0149      3.1908     26.4583    113.1492
   949.6000      8.0353      2.5911      0.0457      3.5714     26.4791    117.9057
   949.7000      8.0353      2.5934      0.0390      3.4282     26.8682    121.9179
   949.8000      8.0351      2.5990      0.0339      3.0899     27.6647    124.2248
   949.9000      8.0351      2.5910      0.0567      3.5766     28.0539    125.0684
   950.0000      8.0323      2.5612     -0.0074      5.3836     27.6614    123.5463
   950.1000      8.0323      2.5276      0.0124      7.4154     26.9215    118.6214
   950.2000      8.0323      2.5094     -0.0439      8.5233     26.3368    113.4192
   950.3000      8.0292      2.5102     -0.0336      8.4752     25.9681    113.5527
   950.4000      8.0292      2.5266     -0.0239      7.4797     25.8786    120.0058
   950.5000      8.0286      2.5505      0.0496      6.0298     25.9970    125.2414
   950.6000      8.0286      2.5737      0.0381      4.6247     25.8625    123.5061
   950.7000      8.0286      2.5968      0.0189      3.2228     25.3024    118.7025
   950.8000      8.0300      2.6192      0.0617      1.8657     24.7460    116.0266
   950.9000      8.0300      2.6252      0.1023      1.5039     24.6440    112.3017
   951.0000      8.0313      2.6096      0.0312      2.4484     24.9045    104.5095
   951.1000      8.0313      2.5927      0.0076      3.4733     25.0162     97.0228
   951.2000      8.0313      2.5844      0.0635      3.9749     24.6844     94.9406
   951.3000      8.0318      2.5825      0.0022      4.0927     24.0461     99.4759
   951.4000      8.0318      2.5883      0.0332      3.7377     23.5137    105.9686
   951.5000      8.0336      2.5933      0.0321      3.4390     23.2742    106.1932
   951.6000      8.0336      2.5866      0.0668      3.8441     23.2950     99.3885
   951.7000      8.0336      2.5681      0.0479      4.9623     23.5701     93.2862
   951.8000      8.0345      2.5500      0.0029      6.0599     23.9594     92.2604
   951.9000      8.0345      2.5482     -0.0177      6.1674     24.2219     93.6267
   952.0000      8.0328      2.5617      0.0530      5.3499     24.2006     94.4291
   952.1000      8.0328      2.5759      0.0312      4.4931     24.2020     95.3165
   952.2000      8.0328      2.5898      0.0485      3.6504     24.7955     95.3200
   952.3000      8.0310      2.6037      0.0522      2.8083     25.8218     93.2118
   952.4000      8.0310      2.6028      0.0497      2.8604     26.4785     94.8124
   952.5000      8.0308      2.5835      0.0388      4.0283     26.3546    102.3559
   952.6000      8.0308      2.5675     -0.0151      4.9978     25.8323    107.5134
   952.7000      8.0308      2.5613      0.0235      5.3782     25.3781    104.8182
   952.8000      8.0331      2.5459      0.0090      6.3080     25.1233    100.8422
   952.9000      8.0331      2.5214     -0.0182      7.7917     25.1115    105.2406
   953.0000      8.0346      2.5021     -0.0251      8.9610     25.0495    115.4819
   953.1000      8.0346      2.4932     -0.0149      9.5017     24.6939    121.2711
   953.2000      8.0346      2.5022     -0.0558      8.9567     24.5559    119.8218
   953.3000      8.0338      2.5267      0.0318      7.4738     25.0431    116.2408
   953.4000      8.0338      2.5477      0.0203      6.1988     25.7416    116.4194
   953.5000      8.0310      2.5525      0.0609      5.9097     26.0077    119.4266
   953.6000      8.0310      2.5392      0.0151      6.7162     25.6714    119.3604
   953.7000      8.0310      2.5221     -0.0173      7.7522     25.0322    117.1506
   953.8000      8.0301      2.5164     -0.0129      8.0975     24.4921    115.9360
   953.9000      8.0301      2.5221      0.0035      7.7490     24.3548    114.6824
   954.0000      8.0318      2.5357      0.0045      6.9246     24.6007    114.8513
   954.1000      8.0318      2.5463      0.0575      6.2833     24.9168    118.2379
   954.2000      8.0318      2.5373      0.0035      6.8286     24.9641    120.9248
   954.3000      8.0325      2.5161      0.0104      8.1151     24.8366    119.6243
   954.4000      8.0325      2.5076     -0.0064      8.6305     25.0230    117.5305
   954.5000      8.0320      2.5175      0.0296      8.0281     25.5252    117.7497
   954.6000      8.0320      2.5293      0.0154      7.3175     25.8620    118.7553
   954.7000      8.0320      2.5381      0.0188      6.7838     25.8124    119.0574
   954.8000      8.0317      2.5487      0.0738      6.1417     25.6257    116.0706
   954.9000      8.0317      2.5553      0.0482      5.7367     25.6402    111.8514
   955.0000      8.0330      2.5574      0.0361      5.6146     25.9160    113.6295
   955.1000      8.0330      2.5563      0.0431      5.6793     26.0840    120.7954
   955.2000      8.0330      2.5524      0.0373      5.9121     26.1260    128.4093
   955.3000      8.0353      2.5537      0.0613      5.8358     26.3328    132.5732
   955.4000      8.0353      2.5595      0.0623      5.4838     26.2935    130.9895
   955.5000      8.0366      2.5581      0.0585      5.5702     25.7448    125.6080
   955.6000      8.0366      2.5512      0.0057      5.9901     25.4251    119.9669
   955.7000      8.0366      2.5510      0.0371      6.0017     25.8158    117.3195
   955.8000      8.0368      2.5515      0.0620      5.9690     26.3229    117.3866
   955.9000      8.0368      2.5440      0.0083      6.4213     26.3819    118.3568
