~Version Information
VERS.                      2.0: CWLS Log ASCII Standard - VERSION 2.0
WRAP.                       NO: One line per depth step
~Well Information Block
STRT.FT                -7.2500: 
STOP.FT              1221.7500: 
STEP.FT                 0.2500: 
NULL.                -999.2500: 
COMP.          Pioneer Natural Resources: COMPANY
WELL.           Tennis 7-12 Tr: WELL
FLD.           Purgatorie River: FIELD
LOC.           1794' FNL & 1563' FEL--: LOCATION
PROV.                       CO: PROVINCE
CNTY.               Las Animas: COUNTRY
SRVC.          Patterson Wireline: SERVICE COMPANY
DATE.          Tue Dec 27 14:16:59 2005: LOG DATE
UWI.           05 071 008635 00: UNIQUE WELL ID
~Curve Information Block
DEPT.FT            0 000 00 00: Depth
CCL.                          : Casing Collar Locator
TT3.usec                      : CBL 3' Travel Time
AMP3.mV                       : CBL 3' Amplitude
GR.GAPI                       : Gamma Ray
~Parameter Information Block
~A  Depth       CCL         TT3         AMP3         GR     
# ...
    59.7500      0.0000    753.8526      6.2135     73.3509
    60.0000      0.0000    745.9271      6.1943     73.4899
    60.2500      0.0000    738.6595      6.1831     74.0875
    60.5000      0.0000    732.6724      6.1929     75.2322
    60.7500      0.0000    727.9396      6.2357     76.6297
    61.0000      0.0000    724.7003      6.2984     77.8467
    61.2500      0.0000    723.1888      6.3513     78.9989
    61.5000      0.0000    723.3582      6.3774     80.7871
    61.7500      0.0000    725.0281      6.3896     83.4213
    62.0000      0.0000    727.9528      6.4176     85.7797
    62.2500      0.0000    731.8359      6.4813     86.3086
    62.5000      0.0000    737.0787      6.5724     84.8006
    62.7500      0.0000    745.6576      6.6569     82.7867
    63.0000      0.0000    759.5703      6.6982     82.0827
    63.2500      0.0000    776.5987      6.6846     83.3819
    63.5000      0.0000    788.7109      6.6376     86.2035
    63.7500      0.0000    787.7215      6.5942     89.4852
    64.0000      0.0000    773.1893      6.5810     91.9292
    64.2500      0.0000    752.9385      6.6016     92.3975
    64.5000      0.0000    735.7957      6.6406     90.6986
    64.7500      0.0000    725.4656      6.6755     87.9383
    65.0000      0.0000    720.7918      6.6894     85.4995
    65.2500      0.0000    719.2229      6.6810     83.5972
    65.5000      0.0000    719.1261      6.6640     81.3718
    65.7500      0.0000    720.2778      6.6555     78.5451
    66.0000      0.0000    723.8079      6.6604     76.4499
    66.2500      0.0000    731.8751      6.6702     76.9326
    66.5000      0.0000    746.3185      6.6750     80.1153
    66.7500      0.0000    766.4800      6.6724     83.4713
    67.0000      0.0000    788.4109      6.6647     83.5192
    67.2500      0.0000    807.1334      6.6520     78.6830
    67.5000      0.0000    819.9766      6.6310     70.5334
    67.7500      0.0000    827.6954      6.5991     62.4070
    68.0000      0.0000    832.9695      6.5578     56.9477
    68.2500      0.0000    838.2793      6.5151     54.6468
    68.5000      0.0000    845.0376      6.4816     54.1498
    68.7500      0.0000    854.7855      6.4602     53.6958
    69.0000      0.0000    870.6857      6.4402     52.3649
    69.2500      0.0000    895.2772      6.4056     50.3572
    69.5000      0.0000    924.4797      6.3511     48.6066
    69.7500      0.0000    945.5471      6.2875     48.2289
    70.0000      0.0000    945.1505      6.2335     49.9511
    70.2500      0.0000    920.5838      6.2030     53.7757
    70.5000      0.0000    881.2145      6.1991     59.1377
    70.7500      0.0000    839.5381      6.2151     65.2689
    71.0000      0.0000    803.5109      6.2375     71.3525
    71.2500      0.0000    777.3279      6.2492     76.5879
    71.5000      0.0000    766.3118      6.2332     80.4246
    71.7500      0.0000    777.6859      6.1793     82.8193
    72.0000      0.0000    814.6496      6.0902     84.3317
    72.2500      0.0000    869.7969      5.9833     86.0861
    72.5000      0.0000    925.9601      5.8834     89.4011
    72.7500      0.0000    964.4363      5.8107     94.8364
    73.0000      0.0000    973.2887      5.7709    101.1402
    73.2500      0.0000    951.5048      5.7562    105.4346
    73.5000      0.0000    909.2098      5.7547    105.1202
    73.7500      0.0000    862.8242      5.7580     99.7602
    74.0000      0.0000    826.3371      5.7625     91.0433
    74.2500      0.0000    804.9573      5.7648     81.5062
    74.5000      0.0000    795.4643      5.7623     73.6862
    74.7500      0.0000    791.5894      5.7555     69.6542
    75.0000      0.0000    789.7802      5.7467     70.1149
    75.2500      0.0000    790.7335      5.7329     73.6910
    75.5000      0.0000    796.0123      5.7036     77.7146
    75.7500      0.0000    804.6033      5.6518     80.1248
    76.0000      0.0000    813.6115      5.5865     80.5059
    76.2500      0.0000    820.8815      5.5334     79.4860
    76.5000      0.0000    825.7390      5.5152     77.7505
    76.7500      0.0000    828.1530      5.5292     75.8533
    77.0000      0.0000    828.3904      5.5485     74.4731
    77.2500      0.0000    827.1465      5.5476     74.2364
    77.5000      0.0000    825.0004      5.5243     75.1830
    77.7500      0.0000    821.1095      5.4970     76.7074
    78.0000      0.0000    812.6025      5.4886     78.0902
    78.2500      0.0000    796.4941      5.5122     78.8685
    78.5000      0.0000    773.5500      5.5641     78.7051
    78.7500      0.0000    750.1373      5.6259     77.2948
    79.0000      0.0000    735.4304      5.6763     74.5983
    79.2500      0.0000    735.9858      5.7029     71.1449
    79.5000      0.0000    751.7143      5.7065     68.1271
    79.7500      0.0000    776.0387      5.6945     66.9443
    80.0000      0.0000    800.2701      5.6738     68.3539
    80.2500      0.0000    818.5139      5.6483     72.1087
    80.5000      0.0000    828.9856      5.6200     77.2163
    80.7500      0.0000    832.5797      5.5906     82.1051
    81.0000      0.0000    832.2504      5.5607     84.8367
    81.2500      0.0000    833.4144      5.5281     84.0374
    81.5000      0.0000    842.9782      5.4902     79.8248
    81.7500      0.0000    866.0211      5.4477     73.6809
    82.0000      0.0000    901.2241      5.4058     67.7931
    82.2500      0.0000    938.8082      5.3704     64.6308
    82.5000      0.0000    965.4561      5.3433     66.1112
    82.7500      0.0000    974.6932      5.3220     72.1346
    83.0000      0.0000    973.1251      5.3006     80.0434
    83.2500      0.0000    974.8730      5.2709     86.2994
    83.5000      0.0000    988.3052      5.2257     89.1833
    83.7500      0.0000   1007.6313      5.1628     89.8460
    84.0000      0.0000   1017.5832      5.0888     90.6928
    84.2500      0.0000   1006.4095      5.0152     92.9083
    84.5000      0.0000    974.8695      4.9515     95.7172
    84.7500      0.0000    934.3735      4.8993     97.8179
    85.0000      0.0000    897.8188      4.8531     99.0641
    85.2500      0.0000    871.2832      4.8088    100.3639
    85.5000      0.0000    852.4115      4.7748    102.0636
    85.7500      0.0000    835.6298      4.7687    103.1827
    86.0000      0.0000    818.3901      4.8004    102.5825
    86.2500      0.0000    802.4597      4.8600    100.4248
    86.5000      0.0000    790.4233      4.9269     98.1681
    86.7500      0.0000    782.2492      4.9884     97.3523
    87.0000      0.0000    775.2977      5.0454     98.5448
    87.2500      0.0000    766.8749      5.1045    101.1564
    87.5000      0.0000    756.2131      5.1692    103.8779
    87.7500      0.0000    744.5644      5.2366    105.2897
    88.0000      0.0000    734.1199      5.3020    104.3976
    88.2500      0.0000    726.6262      5.3648    101.0600
    88.5000      0.0000    722.5569      5.4294     96.2284
    88.7500      0.0000    721.4636      5.5005     91.6086
    89.0000      0.0000    722.8809      5.5784     88.7228
    89.2500      0.0000    726.6059      5.6564     88.1031
    89.5000      0.0000    732.2614      5.7239     89.2567
    89.7500      0.0000    739.0270      5.7726     91.0637
    90.0000      0.0000    745.8597      5.8044     92.0598
    90.2500      0.0000    751.6393      5.8310     91.0604
    90.5000      0.0000    755.2299      5.8654     88.3682
    90.7500      0.0000    755.9795      5.9140     85.9478
    91.0000      0.0000    754.2880      5.9761     85.5253
    91.2500      0.0000    751.1578      6.0453     86.8162
    91.5000      0.0000    747.0950      6.1089     88.2656
    91.7500      0.0000    742.0386      6.1492     88.9586
    92.0000      0.0000    736.5181      6.1534     89.0679
    92.2500      0.0000    732.0710      6.1223     88.9200
    92.5000      0.0000    729.9164      6.0710     88.3194
    92.7500      0.0000    729.5656      6.0196     86.7287
    93.0000      0.0000    729.2380      5.9844     83.9562
