~Version Information
VERS.                      2.0: CWLS Log ASCII Standard - VERSION 2.0
WRAP.                       NO: One line per depth step
~Well Information Block
STRT.FT               538.0000: 
STOP.FT              1769.0000: 
STEP.FT                 0.1000: 
NULL.                -999.2500: 
COMP.          Pioneer Natural Resources: COMPANY
WELL.            Dude 43-34 Tr: WELL
FLD.           Purgatoire River: FIELD
LOC.           2083' FSL & 1042' FEL: LOCATION
PROV.                 Colorado: PROVINCE
CNTY.               Las Animas: COUNTRY
SRVC.                Patterson: SERVICE COMPANY
DATE.          Thu Jan 26 07:02:09 2006: LOG DATE
UWI.           05 071 08676 00: UNIQUE WELL ID
~Curve Information Block
DEPT.FT            0 000 00 00: Depth
DCAL.in                       : CDL Caliper
RHOB.g/cc                     : CDL Bulk Density
RHOC.g/cc                     : CDL Density Correction
DPOR.pu                       : CDL Density Porosity
GR.GAPI                       : Gamma Ray
~Parameter Information Block
~A  Depth       DCAL        RHOB        RHOC        DPOR         GR     
# ...
  1602.0000      7.8558      2.7065      0.0597     -3.4247     78.3203
  1602.1000      7.8558      2.6995      0.1003     -3.0015     72.7156
  1602.2000      7.8558      2.6798      0.0920     -1.8056     71.6614
  1602.3000      7.8766      2.6573      0.0946     -0.4423     70.9563
  1602.4000      7.8766      2.6423      0.0640      0.4644     68.1422
  1602.5000      7.8817      2.6342      0.0372      0.9564     66.0850
  1602.6000      7.8817      2.6305      0.0728      1.1828     65.9859
  1602.7000      7.8817      2.6299      0.0418      1.2200     64.8831
  1602.8000      7.8710      2.6272      0.0982      1.3818     62.4690
  1602.9000      7.8710      2.6166      0.1100      2.0259     62.2114
  1603.0000      7.8665      2.6039      0.0358      2.7936     64.0004
  1603.1000      7.8665      2.6010      0.0758      2.9723     64.7264
  1603.2000      7.8665      2.6098      0.0740      2.4336     65.4878
  1603.3000      7.8734      2.6216      0.1394      1.7196     69.9368
  1603.4000      7.8734      2.6142      0.1591      2.1673     75.1570
  1603.5000      7.8529      2.5782      0.1222      4.3504     75.9908
  1603.6000      7.8529      2.5428      0.0352      6.4999     72.2955
  1603.7000      7.8529      2.5456      0.0644      6.3281     66.2167
  1603.8000      7.8360      2.5924      0.0780      3.4935     62.3235
  1603.9000      7.8360      2.6545      0.1925     -0.2735     63.4970
  1604.0000      7.8336      2.7028      0.1924     -3.2007     67.1331
  1604.1000      7.8336      2.7321      0.2233     -4.9777     70.8884
  1604.2000      7.8336      2.7376      0.2604     -5.3089     73.3801
  1604.3000      7.8343      2.7136      0.2075     -3.8521     71.7608
  1604.4000      7.8343      2.6772      0.1555     -1.6456     66.4211
  1604.5000      7.8423      2.6497      0.1388      0.0172     61.8608
  1604.6000      7.8423      2.6354      0.1077      0.8873     61.1455
  1604.7000      7.8423      2.6316      0.0978      1.1132     62.8914
  1604.8000      7.8607      2.6414      0.0768      0.5183     64.8893
  1604.9000      7.8607      2.6589      0.0853     -0.5377     65.9835
  1605.0000      7.8687      2.6662      0.0829     -0.9809     66.6066
  1605.1000      7.8687      2.6587      0.1317     -0.5282     68.6408
  1605.2000      7.8687      2.6482      0.0767      0.1080     71.4098
  1605.3000      7.8470      2.6449      0.1056      0.3085     72.5723
  1605.4000      7.8470      2.6398      0.1186      0.6167     73.2240
  1605.5000      7.8428      2.6152      0.0953      2.1067     76.0153
  1605.6000      7.8428      2.5759      0.0537      4.4894     79.4973
  1605.7000      7.8428      2.5508      0.0118      6.0096     81.1282
  1605.8000      7.8541      2.5561      0.0339      5.6921     81.4097
  1605.9000      7.8541      2.5705      0.0911      4.8209     82.4455
  1606.0000      7.8840      2.5764      0.0481      4.4614     85.7984
  1606.1000      7.8840      2.5927      0.0370      3.4741     90.9902
  1606.2000      7.8840      2.6232      0.1344      1.6250     97.2656
  1606.3000      7.9038      2.6436      0.1351      0.3887    103.2375
  1606.4000      7.9038      2.6497      0.1062      0.0208    106.6226
  1606.5000      7.9011      2.6473      0.1917      0.1637    109.5055
  1606.6000      7.9011      2.6285      0.2338      1.3009    117.0303
  1606.7000      7.9011      2.5939      0.2018      3.4020    128.8509
  1606.8000      7.8975      2.5622      0.1692      5.3189    138.4720
  1606.9000      7.8975      2.5521      0.1436      5.9345    143.0705
  1607.0000      7.8776      2.5620      0.1696      5.3314    149.0194
  1607.1000      7.8776      2.5731      0.1728      4.6635    157.1397
  1607.2000      7.8776      2.5742      0.1427      4.5945    161.0520
  1607.3000      7.8672      2.5701      0.1475      4.8422    161.5708
  1607.4000      7.8672      2.5638      0.1264      5.2272    160.8193
  1607.5000      7.8799      2.5533      0.1308      5.8604    158.0761
  1607.6000      7.8799      2.5403      0.1427      6.6500    152.9888
  1607.7000      7.8799      2.5309      0.1347      7.2155    147.7883
  1607.8000      7.9062      2.5272      0.1485      7.4450    146.8703
  1607.9000      7.9062      2.5267      0.1440      7.4704    151.5633
  1608.0000      7.8852      2.5311      0.1228      7.2056    156.8757
  1608.1000      7.8852      2.5401      0.1186      6.6629    160.9704
  1608.2000      7.8852      2.5505      0.1317      6.0292    165.1866
  1608.3000      7.8856      2.5655      0.1750      5.1184    163.8038
  1608.4000      7.8856      2.5934      0.1622      3.4293    153.3175
  1608.5000      7.8923      2.6354      0.2030      0.8849    142.2949
  1608.6000      7.8923      2.6774      0.2208     -1.6634    137.7958
  1608.7000      7.8923      2.7018      0.2262     -3.1413    138.7162
  1608.8000      7.8989      2.7007      0.2227     -3.0716    144.1279
  1608.9000      7.8989      2.6775      0.1648     -1.6661    152.7676
  1609.0000      7.8683      2.6472      0.1385      0.1669    156.3463
  1609.1000      7.8683      2.6220      0.2161      1.6967    150.0300
  1609.2000      7.8683      2.6007      0.1614      2.9853    141.0300
  1609.3000      7.8771      2.5830      0.2015      4.0588    135.6311
  1609.4000      7.8771      2.5596      0.1999      5.4786    133.8803
  1609.5000      7.8487      2.5242      0.0928      7.6245    133.8631
  1609.6000      7.8487      2.4951      0.1394      9.3900    133.9534
  1609.7000      7.8487      2.4894      0.1742      9.7320    137.8791
  1609.8000      7.8979      2.5064      0.1582      8.7045    145.1931
  1609.9000      7.8979      2.5334      0.2506      7.0673    149.1480
  1610.0000      7.9225      2.5486      0.2802      6.1480    149.0057
  1610.1000      7.9225      2.5402      0.2159      6.6568    149.0097
  1610.2000      7.9225      2.5204      0.1633      7.8536    150.4246
  1610.3000      7.9846      2.5080      0.1809      8.6070    149.6912
  1610.4000      7.9846      2.5159      0.1640      8.1290    147.1256
  1610.5000      7.9812      2.5485      0.1652      6.1500    146.9561
  1610.6000      7.9812      2.5899      0.2220      3.6442    150.5052
  1610.7000      7.9812      2.6077      0.1959      2.5661    155.9543
  1610.8000      7.9951      2.5873      0.1375      3.7977    160.0692
  1610.9000      7.9951      2.5427      0.1209      6.5004    159.6553
  1611.0000      7.9881      2.4989      0.0613      9.1547    157.3805
  1611.1000      7.9881      2.4765      0.1125     10.5151    159.9729
  1611.2000      7.9881      2.4772      0.1284     10.4702    165.7718
  1611.3000      7.9841      2.4879      0.1310      9.8224    166.6690
  1611.4000      7.9841      2.4925      0.1492      9.5450    159.9100
  1611.5000      8.0193      2.4919      0.1069      9.5837    152.1264
  1611.6000      8.0193      2.5075      0.1090      8.6341    151.7346
  1611.7000      8.0193      2.5407      0.2011      6.6254    159.4767
  1611.8000      7.9488      2.5699      0.2195      4.8539    169.0702
  1611.9000      7.9488      2.5972      0.2366      3.2019    173.1314
  1612.0000      7.9510      2.6317      0.2708      1.1061    168.5625
  1612.1000      7.9510      2.6592      0.3021     -0.5597    160.2926
  1612.2000      7.9510      2.6672      0.2365     -1.0413    154.8237
  1612.3000      7.9982      2.6600      0.2475     -0.6050    152.9840
  1612.4000      7.9982      2.6397      0.1952      0.6254    154.0887
  1612.5000      7.9335      2.6101      0.1388      2.4167    156.2763
  1612.6000      7.9335      2.5871      0.1112      3.8105    157.4342
  1612.7000      7.9335      2.5819      0.1180      4.1268    157.8868
  1612.8000      7.9835      2.5807      0.1574      4.2013    154.9198
  1612.9000      7.9835      2.5686      0.1168      4.9328    148.7811
  1613.0000      7.9750      2.5589      0.1026      5.5237    147.0853
  1613.1000      7.9750      2.5609      0.1297      5.4005    151.6977
