~Version Information
VERS.                      2.0: CWLS Log ASCII Standard - VERSION 2.0
WRAP.                       NO: One line per depth step
~Well Information Block
STRT.FT               240.0000: 
STOP.FT              1342.0000: 
STEP.FT                 0.1000: 
NULL.                -999.2500: 
COMP.          Pioneer Natural Resources: COMPANY
WELL.          Lorencito 9-4-34-66: WELL
FLD.           Purgatoire River: FIELD
LOC.           2540' FSL & 438' FEL: LOCATION
STAT.                 Colorado: State
CNTY.               Las Animas: COUNTY
CTRY. USA : Country
SECT. 4 : Section
TOWN. 34S : Township
RANG. 68W : range
SRVC.                Patterson: SERVICE COMPANY
DATE.          Thu Sep 15 13:16:59 2005: LOG DATE
API.           05 071 08498 00: UNIQUE WELL ID
~Curve Information Block
DEPT.FT            0 000 00 00: Depth
DCAL.in                       : CDL Caliper
RHOB.g/cc                     : CDL Bulk Density
RHOC.g/cc                     : CDL Density Correction
DPOR.pu                       : CDL Density Porosity
GR.GAPI                       : Gamma Ray
NPOR.pu                       : Neutron Porosity
~Parameter Information Block
~A  Depth       DCAL        RHOB        RHOC        DPOR         GR         NPOR    
# ...
  1104.0000      7.9616      2.4819      0.0566     10.1887    113.2087     23.6780
  1104.1000      7.9616      2.4561     -0.0112     11.7544    119.2582     21.7876
  1104.2000      7.9616      2.4419      0.0051     12.6112    124.0308     20.6350
  1104.3000      8.0000      2.4429     -0.0338     12.5494    126.4900     20.9868
  1104.4000      8.0000      2.4478      0.0525     12.2541    131.0055     22.2761
  1104.5000      8.0096      2.4421      0.0495     12.6013    139.7254     23.7597
  1104.6000      8.0096      2.4358      0.0796     12.9800    143.2595     24.6778
  1104.7000      8.0096      2.4334      0.0813     13.1288    137.3616     24.5768
  1104.8000      8.0364      2.4264      0.0154     13.5545    131.2536     23.9928
  1104.9000      8.0364      2.4249      0.0126     13.6423    128.0575     23.5096
  1105.0000      8.0740      2.4308      0.0994     13.2850    123.4864     23.2386
  1105.1000      8.0740      2.4243      0.0564     13.6801    117.4272     23.0674
  1105.2000      8.0740      2.4080      0.0798     14.6681    114.5217     22.6029
  1105.3000      8.0656      2.4056      0.0383     14.8111    116.9912     21.8793
  1105.4000      8.0656      2.4228      0.0788     13.7675    123.3312     21.8503
  1105.5000      8.0672      2.4458      0.0510     12.3775    127.8650     22.9390
  1105.6000      8.0672      2.4675      0.0996     11.0595    127.7924     24.1520
  1105.7000      8.0672      2.4856      0.0931      9.9654    125.1168     24.4780
  1105.8000      8.0541      2.4941      0.1019      9.4513    124.3829     23.9873
  1105.9000      8.0541      2.4949      0.1041      9.4021    131.1122     23.4414
  1106.0000      8.0643      2.4951      0.1281      9.3877    138.6495     23.4007
  1106.1000      8.0643      2.4889      0.1583      9.7634    133.8748     23.4871
  1106.2000      8.0643      2.4698      0.1000     10.9232    121.8225     23.5342
  1106.3000      8.0174      2.4472      0.0896     12.2905    118.5577     23.9320
  1106.4000      8.0174      2.4291      0.0590     13.3879    124.3589     24.4337
  1106.5000      8.0119      2.4177      0.0428     14.0764    129.0205     24.4835
  1106.6000      8.0119      2.4189      0.0160     14.0053    130.3523     24.3342
  1106.7000      8.0119      2.4357      0.0257     12.9850    133.4171     24.6575
  1106.8000      7.9918      2.4549      0.1070     11.8259    140.6098     25.2381
  1106.9000      7.9918      2.4628      0.0617     11.3469    145.9925     25.2843
  1107.0000      8.0464      2.4712      0.0430     10.8337    142.9991     24.5459
  1107.1000      8.0464      2.4907      0.0624      9.6574    133.6566     23.8292
  1107.2000      8.0464      2.5056      0.1078      8.7525    127.0499     23.6994
  1107.3000      8.0563      2.4993      0.0618      9.1326    127.5497     23.6317
  1107.4000      8.0563      2.4795      0.0558     10.3328    130.6589     23.0616
  1107.5000      8.0572      2.4694      0.0550     10.9456    132.5339     21.8304
  1107.6000      8.0572      2.4776      0.0723     10.4474    132.7349     20.4416
  1107.7000      8.0572      2.4913      0.0971      9.6190    134.1839     19.3419
  1107.8000      8.0568      2.4955      0.1265      9.3641    137.6207     18.1960
  1107.9000      8.0568      2.4798      0.1452     10.3146    136.2668     16.7169
  1108.0000      8.0649      2.4441      0.0869     12.4785    130.0123     15.3275
  1108.1000      8.0649      2.4020      0.0482     15.0281    125.6808     14.5767
  1108.2000      8.0649      2.3636      0.0386     17.3601    123.3727     14.4397
  1108.3000      8.0548      2.3307      0.0418     19.3544    118.2302     14.4664
  1108.4000      8.0548      2.3025      0.0582     21.0599    107.6200     14.3410
  1108.5000      8.0555      2.2669      0.1195     23.2152     95.9263     14.0484
  1108.6000      8.0555      2.2153      0.0802     26.3474     90.7843     13.6150
  1108.7000      8.0555      2.1631      0.0643     29.5118     92.5640     13.1884
  1108.8000      8.0850      2.1233      0.0950     31.9228     96.4207     12.9126
  1108.9000      8.0850      2.0815      0.1430     34.4567     97.7378     12.5797
  1109.0000      8.1134      2.0250      0.1210     37.8809     92.3559     12.1357
  1109.1000      8.1134      1.9635      0.0869     41.6082     84.1244     11.9829
  1109.2000      8.1134      1.9080      0.0656     44.9691     81.6694     12.3210
  1109.3000      8.1611      1.8666      0.0274     47.4772     84.8308     12.9448
  1109.4000      8.1611      1.8467      0.0317     48.6838     88.1017     13.6053
  1109.5000      8.1437      1.8413      0.0372     49.0134     88.9380     14.1700
  1109.6000      8.1437      1.8372      0.0560     49.2578     88.6769     14.9875
  1109.7000      8.1437      1.8354      0.0473     49.3687     91.1260     16.3686
  1109.8000      8.0944      1.8502      0.0230     48.4702     94.3751     17.9638
  1109.9000      8.0944      1.8921      0.1067     45.9314     92.4722     19.2762
  1110.0000      8.1430      1.9553      0.1329     42.1036     88.1644     20.0373
  1110.1000      8.1430      2.0348      0.1246     37.2874     89.1182     20.6398
  1110.2000      8.1430      2.1303      0.1904     31.4952     95.4816     21.7120
  1110.3000      8.1366      2.2289      0.2385     25.5212     98.6410     23.0968
  1110.4000      8.1366      2.3150      0.2415     20.3033     96.3468     23.8356
  1110.5000      8.1159      2.3895      0.2126     15.7882     94.1629     23.4659
  1110.6000      8.1159      2.4540      0.2717     11.8782     93.4569     22.7731
  1110.7000      8.1159      2.4995      0.2471      9.1191     93.5558     22.4779
  1110.8000      8.1049      2.5289      0.2031      7.3386     96.3507     22.5114
  1110.9000      8.1049      2.5505      0.2374      6.0333    101.1796     22.6991
  1111.0000      8.0509      2.5562      0.2232      5.6822    105.8579     22.7617
  1111.1000      8.0509      2.5449      0.2177      6.3711    111.5178     22.5617
  1111.2000      8.0509      2.5377      0.1534      6.8074    118.6310     22.2307
  1111.3000      7.9815      2.5478      0.1420      6.1963    124.8824     22.0903
  1111.4000      7.9815      2.5565      0.1954      5.6642    130.5280     22.4290
  1111.5000      7.9762      2.5432      0.1444      6.4733    132.6038     22.9893
  1111.6000      7.9762      2.5099      0.1350      8.4925    126.9032     23.2013
  1111.7000      7.9762      2.4710      0.0790     10.8489    120.0314     23.2179
  1111.8000      8.0117      2.4429      0.0721     12.5522    120.6207     23.7185
  1111.9000      8.0117      2.4384      0.0796     12.8219    126.1476     24.8216
  1112.0000      8.0728      2.4586      0.1151     11.5996    127.9049     25.8405
  1112.1000      8.0728      2.4897      0.1462      9.7127    125.9137     26.1243
  1112.2000      8.0728      2.5197      0.1352      7.8985    126.1942     25.6807
  1112.3000      8.1007      2.5447      0.1924      6.3826    125.9364     24.9613
  1112.4000      8.1007      2.5591      0.1300      5.5063    120.1367     24.5890
  1112.5000      8.0985      2.5627      0.1288      5.2885    114.4477     24.7071
  1112.6000      8.0985      2.5632      0.0718      5.2624    111.2316     24.5838
  1112.7000      8.0985      2.5658      0.1347      5.1051    105.5602     23.9626
  1112.8000      8.0763      2.5712      0.1001      4.7752     99.7041     23.2601
  1112.9000      8.0763      2.5805      0.1108      4.2140     98.3994     22.8555
  1113.0000      7.9889      2.5848      0.1445      3.9537    101.3730     22.9343
  1113.1000      7.9889      2.5770      0.1131      4.4243    104.0471     23.1211
  1113.2000      7.9889      2.5685      0.0879      4.9377    103.6607     22.9883
  1113.3000      7.9916      2.5594      0.1374      5.4901    103.8929     22.5318
  1113.4000      7.9916      2.5355      0.1067      6.9366    105.1733     21.9907
  1113.5000      8.0108      2.5077      0.0472      8.6217    105.3791     21.7622
