~Version Information
VERS.                      2.0: CWLS Log ASCII Standard - VERSION 2.0
WRAP.                       NO: One line per depth step
~Well Information Block
STRT.FT               260.0000: 
STOP.FT              1229.5000: 
STEP.FT                 0.1000: 
NULL.                -999.2500: 
COMP.          Pioneer Natural Resources: COMPANY
WELL.             Mahalo 12-20: WELL
FLD.           Purgatoire River: FIELD
LOC.           1689' FNL & 479' FWL: LOCATION
CNTY.               Las Animas: COUNTY
SRVC.                Patterson: SERVICE COMPANY
DATE.          Mon Feb 27 07:00:19 2006: LOG DATE
UWI.           05 071 08700 00: UNIQUE WELL ID
STAT.                 Colorado: STATE
~Curve Information Block
DEPT.FT            0 000 00 00: Depth
DCAL.in                       : CDL Caliper
RHOB.g/cc                     : CDL Bulk Density
RHOC.g/cc                     : CDL Density Correction
DPOR.pu                       : CDL Density Porosity
GR.GAPI                       : Gamma Ray
NPOR.pu                       : Neutron Porosity
~Parameter Information Block
~A  Depth       DCAL        RHOB        RHOC        DPOR         GR         NPOR    
# ...
   903.2000      7.8520      2.5247      0.0671      7.5913    128.6833     31.7416
   903.3000      7.8527      2.5412      0.0736      6.5941    127.8644     30.8605
   903.4000      7.8527      2.5515      0.1322      5.9697    129.2182     30.1733
   903.5000      7.8529      2.5508      0.0986      6.0147    131.1134     29.9204
   903.6000      7.8529      2.5423      0.1104      6.5245    129.5897     29.5942
   903.7000      7.8529      2.5237      0.0747      7.6552    125.7402     29.2479
   903.8000      7.8540      2.4941      0.0892      9.4488    124.6332     29.1070
   903.9000      7.8540      2.4640      0.0081     11.2723    126.0814     29.2412
   904.0000      7.8547      2.4464      0.0208     12.3388    125.1067     29.7535
   904.1000      7.8547      2.4390      0.0016     12.7868    120.3015     30.2836
   904.2000      7.8547      2.4331      0.0132     13.1467    114.1165     30.0678
   904.3000      7.8545      2.4350     -0.0104     13.0312    109.1547     29.1070
   904.4000      7.8545      2.4536      0.0182     11.9021    108.1982     28.4049
   904.5000      7.8543      2.4755      0.0500     10.5764    110.3908     28.4991
   904.6000      7.8543      2.4852      0.0442      9.9893    110.4886     28.8200
   904.7000      7.8543      2.4886      0.0539      9.7840    109.4578     28.8398
   904.8000      7.8535      2.4897      0.0921      9.7121    111.6882     28.4531
   904.9000      7.8535      2.4799      0.0909     10.3065    117.1927     27.9764
   905.0000      7.8549      2.4650      0.0397     11.2103    123.1323     27.9885
   905.1000      7.8549      2.4635      0.0482     11.3060    123.1667     28.3076
   905.2000      7.8549      2.4744      0.0783     10.6417    118.0980     28.3378
   905.3000      7.8561      2.4854      0.0807      9.9775    117.0184     28.3438
   905.4000      7.8561      2.4928      0.0690      9.5265    119.0605     28.4483
   905.5000      7.8504      2.4933      0.0771      9.4976    117.3980     28.2090
   905.6000      7.8504      2.4836      0.0332     10.0860    113.2232     27.8668
   905.7000      7.8504      2.4757      0.0151     10.5617    109.4176     28.0861
   905.8000      7.8527      2.4850      0.0302      9.9972    102.9834     28.8875
   905.9000      7.8527      2.5068      0.0278      8.6759     96.2887     28.9964
   906.0000      7.8550      2.5262      0.0439      7.5032     93.3165     27.6483
   906.1000      7.8550      2.5404      0.0451      6.6432     89.1398     26.2448
   906.2000      7.8550      2.5578      0.0861      5.5890     80.7434     25.5678
   906.3000      7.8534      2.5827      0.0800      4.0775     72.9817     24.9578
   906.4000      7.8534      2.6071      0.1156      2.6028     70.8948     24.5627
   906.5000      7.8548      2.6162      0.0936      2.0481     74.4199     24.5911
   906.6000      7.8548      2.6038      0.1012      2.8026     77.4314     24.8792
   906.7000      7.8548      2.5814      0.0223      4.1570     76.8060     25.5876
   906.8000      7.8542      2.5701      0.0148      4.8413     75.5579     26.2626
   906.9000      7.8542      2.5740      0.0412      4.6077     73.1843     26.0034
   907.0000      7.8542      2.5850      0.0402      3.9406     68.5784     25.3144
   907.1000      7.8542      2.5961      0.0749      3.2663     62.9217     25.1622
   907.2000      7.8542      2.5978      0.0398      3.1631     56.4402     24.9006
   907.3000      7.8531      2.5893      0.0487      3.6779     51.4944     23.9385
   907.4000      7.8531      2.5784      0.0218      4.3414     50.7129     23.1590
   907.5000      7.8542      2.5660      0.0131      5.0921     52.8100     23.3911
   907.6000      7.8542      2.5470      0.0073      6.2411     56.8700     24.0786
   907.7000      7.8542      2.5267     -0.0144      7.4705     63.6266     24.1698
   907.8000      7.8540      2.5227     -0.0193      7.7173     70.7720     23.7090
   907.9000      7.8540      2.5406     -0.0235      6.6291     72.8387     23.2985
   908.0000      7.8533      2.5594      0.0503      5.4919     68.3036     23.2044
   908.1000      7.8533      2.5586     -0.0023      5.5378     63.1348     23.1913
   908.2000      7.8533      2.5469     -0.0331      6.2493     60.2758     22.8664
   908.3000      7.8537      2.5389     -0.0113      6.7326     57.5843     22.1052
   908.4000      7.8537      2.5364      0.0439      6.8863     54.7947     21.1730
   908.5000      7.8571      2.5391      0.0041      6.7238     52.5827     20.6572
   908.6000      7.8571      2.5547     -0.0190      5.7742     51.8087     21.1489
   908.7000      7.8571      2.5753      0.0453      4.5291     52.6299     22.6506
   908.8000      7.8544      2.5755      0.0461      4.5143     52.9838     23.6835
   908.9000      7.8544      2.5547      0.0348      5.7775     49.7731     23.2824
   909.0000      7.8543      2.5403      0.0118      6.6464     43.9001     22.6876
   909.1000      7.8543      2.5496      0.0373      6.0873     43.5994     22.5822
   909.2000      7.8543      2.5615      0.1152      5.3646     53.0865     22.6722
   909.3000      7.8566      2.5513      0.0645      5.9843     65.2821     22.8211
   909.4000      7.8566      2.5341     -0.0187      7.0236     71.2461     22.9547
   909.5000      7.8570      2.5345      0.0411      6.9996     68.4876     23.2986
   909.6000      7.8570      2.5479      0.0520      6.1876     62.3045     24.1102
   909.7000      7.8570      2.5636      0.0612      5.2361     59.1402     24.7533
   909.8000      7.8529      2.5813      0.0724      4.1650     59.7712     24.3263
   909.9000      7.8529      2.6014      0.1107      2.9463     61.8432     23.2518
   910.0000      7.8519      2.6159      0.1087      2.0693     63.2716     22.5948
   910.1000      7.8519      2.6154      0.0834      2.0995     62.3162     22.8353
   910.2000      7.8519      2.6050      0.0759      2.7275     60.7323     23.6307
   910.3000      7.8534      2.5918      0.0979      3.5277     60.8178     23.8620
   910.4000      7.8534      2.5712      0.0899      4.7759     61.0207     23.3041
   910.5000      7.8537      2.5485      0.0110      6.1516     60.4295     23.1593
   910.6000      7.8537      2.5383      0.0381      6.7718     58.2701     24.2296
   910.7000      7.8537      2.5413      0.0202      6.5886     52.9432     25.4467
   910.8000      7.8534      2.5490      0.0279      6.1238     47.6124     25.0461
   910.9000      7.8534      2.5554      0.0372      5.7332     47.9994     23.4805
   911.0000      7.8495      2.5653      0.0448      5.1350     54.4806     22.3431
   911.1000      7.8495      2.5805      0.0543      4.2137     62.8388     21.9453
   911.2000      7.8495      2.5845      0.0800      3.9716     67.7866     21.7982
   911.3000      7.8528      2.5746      0.0351      4.5680     67.8065     21.6182
   911.4000      7.8528      2.5763      0.0300      4.4668     67.2227     21.2990
   911.5000      7.8540      2.5938      0.0707      3.4055     66.8935     20.9624
   911.6000      7.8540      2.5984      0.0952      3.1269     63.9315     21.0224
   911.7000      7.8540      2.5785      0.0659      4.3339     58.9625     21.4899
   911.8000      7.8542      2.5604      0.0302      5.4280     54.2859     21.9668
   911.9000      7.8542      2.5630      0.0732      5.2701     52.2366     22.6113
   912.0000      7.8533      2.5705      0.0477      4.8194     53.0080     23.4749
   912.1000      7.8533      2.5727      0.0407      4.6833     55.4324     23.7447
   912.2000      7.8533      2.5748      0.0771      4.5558     58.4162     23.4557
   912.3000      7.8520      2.5735      0.0403      4.6334     60.1214     23.3886
   912.4000      7.8520      2.5659      0.0915      5.0966     60.4401     23.1206
   912.5000      7.8491      2.5582      0.0509      5.5635     62.7008     22.2228
   912.6000      7.8491      2.5597      0.0030      5.4727     70.7486     21.2149
   912.7000      7.8491      2.5660      0.0296      5.0926     80.1624     20.6279
