~Version Information
VERS.                      2.0: CWLS Log ASCII Standard - VERSION 2.0
WRAP.                       NO: One line per depth step
~Well Information Block
STRT.FT                 0.0000: 
STOP.FT               878.7500: 
STEP.FT                 0.2500: 
NULL.                -999.2500: 
COMP.          Pioneer Natural Resources: COMPANY
WELL.          Screamin 12-29 Tr: WELL
FLD.           Purgatoire River: FIELD
LOC.           1979' FNL & 532' FWL--: LOCATION
CNTY.               Las Animas: COUNTY
SRVC.                Patterson: SERVICE COMPANY
DATE.          Thu Apr 13 22:21:38 2006: LOG DATE
UWI.           05 071 08660 00: UNIQUE WELL ID
STAT.                 Colorado: STATE
~Curve Information Block
DEPT.FT            0 000 00 00: Depth
GR.GAPI                       : Gamma Ray
CCL.                          : Casing Collar Locator
TT3.usec                      : CBL 3' Travel Time
AMP3.mV                       : CBL 3' Amplitude
~Parameter Information Block
~A  Depth        GR         CCL         TT3         AMP3    
# ...
   837.5000    107.7796      0.0000    923.7032      4.1968
   837.7500     97.8033      1.3489    971.9478      4.2179
   838.0000     84.1555      2.0000   1016.8495      4.3072
   838.2500     77.0979      0.0000   1024.5718      4.3624
   838.5000     70.7548      0.0000   1015.1644      4.3868
   838.7500     69.8191      0.0000   1001.5027      4.3607
   839.0000     73.9073      0.0000    969.8050      4.2973
   839.2500     80.2855      0.0000    941.4971      4.2705
   839.5000     94.1667      0.0000    898.9959      4.2840
   839.7500    104.7964      0.0000    876.9818      4.3275
   840.0000    119.3138      0.0000    852.4772      4.4290
   840.2500    125.9912      0.0000    837.2338      4.5144
   840.5000    129.2721      0.0000    813.0206      4.6618
   840.7500    127.1458      0.0000    797.7178      4.7652
   841.0000    120.2734      0.0000    777.4415      4.9067
   841.2500    115.1743      0.0000    764.0463      4.9780
   841.5000    108.6519      0.0000    741.5074      5.0374
   841.7500    105.4491      0.0000    725.3582      5.0492
   842.0000    102.9114      0.0000    701.6749      5.0500
   842.2500    102.8670      0.0000    686.7444      5.0552
   842.5000    104.3658      0.0000    665.9282      5.0783
   842.7500    105.5488      0.0000    653.8907      5.0955
   843.0000    107.3010      0.0000    640.4452      5.1045
   843.2500    109.2265      0.0000    635.3801      5.0962
   843.5000    114.8413      0.0000    635.0262      5.0735
   843.7500    120.6307      0.0000    640.2892      5.0595
   844.0000    130.9220      0.0000    654.4641      5.0447
   844.2500    137.1371      0.0000    664.0497      5.0359
   844.5000    142.5793      0.0000    670.3447      5.0162
   844.7500    142.9772      0.0000    667.1329      4.9974
   845.0000    140.0877      0.0000    654.6376      4.9707
   845.2500    137.5298      0.0000    644.8394      4.9619
   845.5000    135.6223      0.0000    632.2249      4.9664
   845.7500    136.7182      0.0000    626.2455      4.9768
   846.0000    142.0480      0.0000    622.2843      4.9970
   846.2500    146.9123      0.0000    624.0534      5.0124
   846.5000    152.6102      0.0000    634.5814      5.0313
   846.7500    153.4732      0.0000    646.2505      5.0300
   847.0000    149.7551      0.0000    666.1729      4.9914
   847.2500    145.1984      0.0000    677.0921      4.9442
   847.5000    137.9910      0.0000    685.8034      4.8690
   847.7500    133.5039      0.0000    687.9387      4.8350
   848.0000    125.9437      0.0000    691.9357      4.8273
   848.2500    119.3745      0.0000    697.1141      4.8510
   848.5000    107.8408      0.0000    706.7593      4.9193
   848.7500    101.0627      0.0000    712.6931      4.9792
   849.0000     96.6136      0.0000    719.9700      5.0765
   849.2500     98.8717      0.0000    723.0056      5.1345
   849.5000    108.9502      0.0000    720.5676      5.1862
   849.7500    117.8828      0.0000    711.8465      5.1883
   850.0000    130.6602      0.0000    689.3822      5.1504
   850.2500    137.4329      0.0000    672.1688      5.1093
   850.5000    144.3447      0.0000    650.4332      5.0390
   850.7500    146.8795      0.0000    640.9075      4.9913
   851.0000    147.9613      0.0000    633.9978      4.9291
   851.2500    147.2010      0.0000    633.2521      4.9002
   851.5000    144.8738      0.0000    636.4579      4.8769
   851.7500    143.5619      0.0000    641.0182      4.8692
   852.0000    143.9424      0.0000    649.9517      4.8576
   852.2500    146.2272      0.0000    655.1733      4.8437
   852.5000    151.1621      0.0000    657.5011      4.8063
   852.7500    153.5579      0.0000    654.4924      4.7713
   853.0000    152.6862      0.0000    646.5573      4.7193
   853.2500    148.1600      0.0000    642.6705      4.6983
   853.5000    135.6310      0.0000    645.0090      4.7061
   853.7500    124.5249      0.0000    654.6064      4.7404
   854.0000    106.7159      0.0000    682.1879      4.8220
   854.2500     96.0250      0.0000    706.4316      4.8807
   854.5000     84.5842      0.0000    739.9896      4.9495
   854.7500     81.0260      0.0000    752.8531      4.9752
   855.0000     82.1923      0.0000    750.8026      4.9818
   855.2500     86.8789      0.0000    736.3697      4.9672
   855.5000     98.1536      0.0000    703.8629      4.9269
   855.7500    106.8778      0.0000    681.3047      4.8987
   856.0000    117.7921      0.0000    654.3427      4.8730
   856.2500    121.4411      0.0000    642.5681      4.8706
   856.5000    120.4725      0.0000    631.8184      4.8833
   856.7500    117.0271      0.0000    626.6786      4.8968
   857.0000    111.9969      0.0000    619.5562      4.9181
   857.2500    110.7123      0.0000    615.8375      4.9315
   857.5000    112.6094      0.0000    614.3727      4.9526
   857.7500    115.6473      0.0000    616.4689      4.9726
   858.0000    121.7108      0.0000    621.6027      5.0227
   858.2500    126.8849      0.0000    624.4151      5.0713
   858.5000    136.5786      0.0000    626.8297      5.1559
   858.7500    143.1096      0.0000    628.3051      5.2069
   859.0000    148.4703      0.0000    632.6746      5.2513
   859.2500    146.7800      0.0000    637.3110      5.2513
   859.5000    136.2325      0.0000    643.7740      5.2108
   859.7500    125.9005      0.0000    644.0096      5.1672
   860.0000    109.5856      0.0000    631.6500      5.0968
   860.2500     99.8216      0.0000    614.0334      5.0564
   860.5000     88.6217      0.0000    581.6431      5.0239
   860.7500     84.3064      0.0000    565.3611      5.0310
   861.0000     83.5325      0.0000    562.0131      5.0862
   861.2500     86.6194      0.0000    573.6364      5.1390
   861.5000     94.5278      0.0000    597.2061      5.1989
   861.7500    100.1259      0.0000    605.2205      5.1986
   862.0000    106.5573      0.0000    587.3918      5.0971
   862.2500    109.2624      0.0000    547.0596      4.9443
   862.5000    111.9892      0.0000    438.5000      4.5812
   862.7500    113.4499      0.0000    342.1901      4.2756
   863.0000    114.7396      0.0000    195.2703      3.8182
   863.2500    114.4008      0.0000    116.3137      3.5735
   863.5000    111.7803      0.0000     42.0881      3.3428
   863.7500    109.0724      0.0000     18.0400      3.2675
   864.0000    104.8839      0.0000      3.8738      3.2229
   864.2500    102.7262      0.0000      1.1506      3.2142
   864.5000    100.9982      0.0000      0.1315      3.2110
   864.7500    100.6195      0.0000      0.0170      3.2106
   865.0000    100.3657      0.0000   -999.2500   -999.2500
   865.2500     99.9999      0.0000   -999.2500   -999.2500
   865.5000     98.8186      0.0000   -999.2500   -999.2500
   865.7500     97.7219      0.0000   -999.2500   -999.2500
   866.0000     96.5094      0.0000   -999.2500   -999.2500
   866.2500     96.4892      0.0000   -999.2500   -999.2500
   866.5000     97.3709      0.0000   -999.2500   -999.2500
   866.7500     97.8659      0.0000   -999.2500   -999.2500
   867.0000     97.6098      0.0000   -999.2500   -999.2500
   867.2500     96.9438      0.0000   -999.2500   -999.2500
   867.5000     96.6956      0.0000   -999.2500   -999.2500
   867.7500     98.2518   -999.2500   -999.2500   -999.2500
   868.0000    104.3431   -999.2500   -999.2500   -999.2500
   868.2500    110.2489   -999.2500   -999.2500   -999.2500
   868.5000    118.7967   -999.2500   -999.2500   -999.2500
   868.7500    122.7295   -999.2500   -999.2500   -999.2500
   869.0000    125.9692   -999.2500   -999.2500   -999.2500
   869.2500    127.7404   -999.2500   -999.2500   -999.2500
   869.5000    132.2539   -999.2500   -999.2500   -999.2500
   869.7500    136.7063   -999.2500   -999.2500   -999.2500
   870.0000    142.8118   -999.2500   -999.2500   -999.2500
   870.2500    143.3538   -999.2500   -999.2500   -999.2500
   870.5000    132.9920   -999.2500   -999.2500   -999.2500
   870.7500    116.9293   -999.2500   -999.2500   -999.2500
