~Version Information
VERS.                      2.0: CWLS Log ASCII Standard - VERSION 2.0
WRAP.                       NO: One line per depth step
~Well Information Block
STRT.FT               830.0000: 
STOP.FT              2368.5000: 
STEP.FT                 0.1000: 
NULL.                -999.2500: 
COMP.          Pioneer Natural Resources: COMPANY
WELL.              Rolls 14-14: WELL
FLD.           Purgatoire River: FIELD
LOC.           572' FSL & 856' FWL: LOCATION
PROV.                 Colorado: PROVINCE
CNTY.               Las Animas: COUNTRY
SRVC.                Patterson: SERVICE COMPANY
DATE.          Mon Aug 01 05:48:31 2005: LOG DATE
UWI.           05 071 08455 00: UNIQUE WELL ID
~Curve Information Block
DEPT.FT            0 000 00 00: Depth
DCAL.in                       : CDL Caliper
RHOB.g/cc                     : CDL Bulk Density
RHOC.g/cc                     : CDL Density Correction
DPOR.pu                       : CDL Density Porosity
GR.GAPI                       : Gamma Ray
NPOR.pu                       : Neutron Porosity
~Parameter Information Block
~A  Depth       DCAL        RHOB        RHOC        DPOR         GR         NPOR    
# ...
  1847.6000      8.2215      2.5880      0.0394      3.7570    137.0638     23.5710
  1847.7000      8.2215      2.6020      0.0293      2.9061    142.7641     23.2626
  1847.8000      8.2341      2.6179      0.0547      1.9438    143.3538     22.6808
  1847.9000      8.2341      2.6201      0.0617      1.8145    141.2379     22.0022
  1848.0000      8.2115      2.5996      0.0506      3.0531    137.8463     21.4940
  1848.1000      8.2115      2.5561      0.0633      5.6921    135.6063     21.4451
  1848.2000      8.2115      2.5160     -0.0483      8.1203    139.3436     21.8882
  1848.3000      8.1986      2.5089      0.0304      8.5493    145.0116     22.5501
  1848.4000      8.1986      2.5221      0.0476      7.7539    145.2832     23.1113
  1848.5000      8.1774      2.5351      0.0257      6.9615    142.7301     23.1217
  1848.6000      8.1774      2.5502      0.0760      6.0514    140.4179     22.5412
  1848.7000      8.1774      2.5617      0.1300      5.3512    137.6066     21.9167
  1848.8000      8.1939      2.5532      0.0811      5.8651    134.4073     21.6835
  1848.9000      8.1939      2.5215      0.0959      7.7856    130.3557     21.8915
  1849.0000      8.1903      2.4904     -0.0035      9.6742    126.4410     22.2391
  1849.1000      8.1903      2.4900      0.0499      9.6956    127.1822     22.2126
  1849.2000      8.1903      2.5133      0.0616      8.2873    132.4997     21.5880
  1849.3000      8.1765      2.5264      0.0647      7.4896    136.3622     20.6764
  1849.4000      8.1765      2.5140      0.0582      8.2413    135.0781     19.6566
  1849.5000      8.2164      2.4925      0.0304      9.5431    131.7097     18.7511
  1849.6000      8.2164      2.4825      0.0419     10.1545    130.1261     18.3120
  1849.7000      8.2164      2.4672      0.0922     11.0786    129.2759     18.3200
  1849.8000      8.2078      2.4090      0.0188     14.6053    129.5131     18.3567
  1849.9000      8.2078      2.3110     -0.0051     20.5441    131.8635     17.9938
  1850.0000      8.1595      2.2153     -0.0267     26.3468    134.0435     17.2951
  1850.1000      8.1595      2.1468     -0.0465     30.4986    133.4480     16.8073
  1850.2000      8.1595      2.1031     -0.0557     33.1433    128.3523     17.0515
  1850.3000      8.1312      2.0852     -0.0843     34.2325    122.3588     17.9587
  1850.4000      8.1312      2.0974     -0.0223     33.4930    120.2051     18.9954
  1850.5000      8.1340      2.1250      0.0638     31.8164    120.9302     20.0085
  1850.6000      8.1340      2.1485      0.0476     30.3966    121.9603     21.0609
  1850.7000      8.1340      2.1743      0.0825     28.8306    121.5986     21.8639
  1850.8000      8.1400      2.2228      0.1254     25.8898    119.6431     22.3213
  1850.9000      8.1400      2.2994      0.0696     21.2490    119.6157     22.7362
  1851.0000      8.1389      2.3826      0.1238     16.2035    122.2625     23.3344
  1851.1000      8.1389      2.4398      0.1615     12.7413    122.3090     24.0736
  1851.2000      8.1389      2.4644      0.1512     11.2498    117.3480     24.5274
  1851.3000      8.1459      2.4756      0.1230     10.5715    112.7842     24.2607
  1851.4000      8.1459      2.4918      0.0652      9.5874    113.1031     23.5122
  1851.5000      8.1458      2.5211      0.0194      7.8096    116.4396     22.9728
  1851.6000      8.1458      2.5549      0.0521      5.7613    118.5796     23.0232
  1851.7000      8.1458      2.5693      0.1161      4.8898    119.0346     23.5681
  1851.8000      8.1472      2.5648      0.0309      5.1632    121.4006     23.9929
  1851.9000      8.1472      2.5696      0.0579      4.8728    126.6190     23.8236
  1852.0000      8.1423      2.5862      0.0940      3.8668    134.3324     23.5178
  1852.1000      8.1423      2.5931      0.1038      3.4482    142.2337     23.5424
  1852.2000      8.1423      2.5800      0.1044      4.2444    144.1957     23.7347
  1852.3000      8.1445      2.5637      0.0359      5.2298    140.7379     23.6064
  1852.4000      8.1445      2.5676      0.0582      4.9914    139.3940     23.0085
  1852.5000      8.1462      2.5757      0.1318      4.5055    141.1115     22.4271
  1852.6000      8.1462      2.5569      0.0232      5.6420    139.4275     22.2113
  1852.7000      8.1462      2.5220      0.0145      7.7596    134.9444     22.2427
  1852.8000      8.1455      2.5013      0.0510      9.0121    134.9438     22.5247
  1852.9000      8.1455      2.5052      0.0340      8.7757    138.1357     23.1144
  1853.0000      8.1434      2.5230      0.0531      7.6941    139.0089     23.5017
  1853.1000      8.1434      2.5387      0.0953      6.7466    136.7813     23.1127
  1853.2000      8.1434      2.5403      0.0647      6.6513    135.2108     22.3078
  1853.3000      8.1591      2.5306      0.0165      7.2337    137.1684     22.0074
  1853.4000      8.1591      2.5245     -0.0123      7.6037    139.4996     22.4714
  1853.5000      8.2025      2.5265      0.0046      7.4874    137.8965     23.2260
  1853.6000      8.2025      2.5287      0.0220      7.3524    134.1207     23.8246
  1853.7000      8.2025      2.5306      0.0206      7.2347    133.5814     24.0892
  1853.8000      8.1520      2.5433     -0.0052      6.4642    137.8497     23.9474
  1853.9000      8.1520      2.5639      0.0840      5.2178    144.8411     23.6694
  1854.0000      8.1340      2.5728     -0.0008      4.6782    150.0941     23.6250
  1854.1000      8.1340      2.5701      0.0094      4.8446    149.9632     23.7501
  1854.2000      8.1340      2.5700      0.0227      4.8484    146.7147     23.7811
  1854.3000      8.1348      2.5738      0.0214      4.6153    146.8718     23.6414
  1854.4000      8.1348      2.5666      0.0309      5.0519    151.0169     23.5091
  1854.5000      8.1308      2.5402     -0.0038      6.6536    150.7658     23.4807
  1854.6000      8.1308      2.5114      0.0242      8.4026    140.4995     23.5702
  1854.7000      8.1308      2.5000     -0.0295      9.0899    127.2184     23.8157
  1854.8000      8.1291      2.5118     -0.0776      8.3764    121.9842     24.0367
  1854.9000      8.1291      2.5293      0.0451      7.3147    124.7898     24.0558
  1855.0000      8.1282      2.5243      0.0286      7.6207    126.9605     23.8089
  1855.1000      8.1282      2.5002     -0.0526      9.0805    125.2405     23.2701
  1855.2000      8.1282      2.4828     -0.0083     10.1306    124.3609     22.5560
  1855.3000      8.1352      2.4776     -0.0158     10.4468    128.7991     22.1676
  1855.4000      8.1352      2.4722     -0.0039     10.7755    134.8690     22.3412
  1855.5000      8.1621      2.4565     -0.0267     11.7250    140.0132     22.3528
  1855.6000      8.1621      2.4309     -0.0375     13.2798    147.1309     21.6544
  1855.7000      8.1621      2.4020     -0.0468     15.0284    153.8779     20.6410
  1855.8000      8.1933      2.3743     -0.0409     16.7079    154.1113     19.7078
  1855.9000      8.1933      2.3520     -0.0674     18.0623    146.0070     18.9080
  1856.0000      8.1729      2.3347      0.0305     19.1079    135.2617     18.0288
  1856.1000      8.1729      2.3155     -0.0177     20.2711    130.4274     16.8412
  1856.2000      8.1729      2.2893      0.0145     21.8595    130.4557     15.6314
  1856.3000      8.1883      2.2422      0.0050     24.7138    128.7607     14.9009
  1856.4000      8.1883      2.1615     -0.0102     29.6033    125.8317     14.9114
  1856.5000      8.1984      2.0691     -0.0133     35.2060    123.9154     15.4851
  1856.6000      8.1984      2.0061      0.0362     39.0252    120.7921     16.2203
  1856.7000      8.1984      1.9831      0.1025     40.4208    115.0820     17.2108
  1856.8000      8.2074      1.9856      0.1134     40.2694    110.2141     18.5325
  1856.9000      8.2074      2.0118      0.1024     38.6777    110.5764     19.7128
  1857.0000      8.3648      2.0656      0.1338     35.4201    114.8327     20.5395
  1857.1000      8.3648      2.1382      0.2237     31.0196    116.4506     21.2380
