~Version Information
VERS.                      2.0: CWLS Log ASCII Standard - VERSION 2.0
WRAP.                       NO: One line per depth step
~Well Information Block
STRT.FT                 0.0000: 
STOP.FT               816.5000: 
STEP.FT                 0.1000: 
NULL.                -999.2500: 
COMP.          Pioneer Natural Resources: COMPANY
WELL.           Weissach 32-32: WELL
FLD.           Purgatorie River: FIELD
LOC.           2193' FNL & 2256' FEL: LOCATION
STAT.                 Colorado: State
CNTY.               Las Animas: COUNTY
CTRY. USA : Country
SECT. 32 : Section
TOWN. 33S : Township
RANG. 66W : Range
SRVC.                Patterson: SERVICE COMPANY
DATE.          Mon Sep 26 09:15:29 2005: LOG DATE
API. 05-071-08523                         : UNIQUE WELL ID
~Curve Information Block
DEPT.FT            0 000 00 00: Depth
DCAL.in                       : CDL Caliper
RHOB.g/cc                     : CDL Bulk Density
RHOC.g/cc                     : CDL Density Correction
DPOR.pu                       : CDL Density Porosity
GR.GAPI                       : Gamma Ray
NPOR.pu                       : Neutron Porosity
~Parameter Information Block
~A  Depth       DCAL        RHOB        RHOC        DPOR         GR         NPOR    
# ...
   374.4000      7.9132      2.6006      0.1152      2.9912    105.7148     26.6310
   374.5000      7.9231      2.6034      0.0928      2.8214    107.0692     26.6671
   374.6000      7.9231      2.6049      0.0815      2.7342    111.2685     26.7113
   374.7000      7.9231      2.6053      0.0734      2.7102    113.3232     26.6952
   374.8000      7.9231      2.5967      0.0726      3.2327    112.4839     26.5563
   374.9000      7.9231      2.5730      0.0597      4.6661    113.0798     26.4132
   375.0000      7.9139      2.5398      0.0018      6.6791    116.1967     26.3940
   375.1000      7.9139      2.5151      0.0515      8.1768    117.9100     26.4388
   375.2000      7.9139      2.5136      0.0112      8.2659    117.4769     26.4882
   375.3000      7.9276      2.5319      0.0987      7.1587    117.9972     26.5599
   375.4000      7.9276      2.5504      0.0765      6.0338    120.6518     26.6133
   375.5000      7.9284      2.5640      0.0757      5.2119    124.0054     26.5626
   375.6000      7.9284      2.5804      0.0989      4.2163    127.7357     26.4487
   375.7000      7.9284      2.5922      0.1305      3.5023    133.1186     26.5374
   375.8000      7.9334      2.5875      0.1050      3.7901    138.3993     27.0319
   375.9000      7.9334      2.5741      0.0880      4.5988    140.7244     27.9755
   376.0000      7.9259      2.5642      0.1199      5.1999    140.3068     29.1200
   376.1000      7.9259      2.5587      0.0894      5.5312    137.4390     29.9417
   376.2000      7.9259      2.5646      0.0725      5.1732    131.8673     30.2180
   376.3000      7.9180      2.5903      0.1007      3.6161    125.0038     30.2518
   376.4000      7.9180      2.6217      0.1376      1.7165    120.7166     30.3880
   376.5000      7.9269      2.6316      0.1718      1.1173    122.1633     30.6199
   376.6000      7.9269      2.6156      0.1335      2.0843    127.5505     30.7890
   376.7000      7.9269      2.5976      0.0742      3.1770    133.8262     30.9268
   376.8000      7.9267      2.5903      0.0986      3.6198    139.8765     31.0698
   376.9000      7.9267      2.5862      0.0908      3.8665    143.0627     31.2533
   377.0000      7.9295      2.5819      0.0847      4.1273    140.5840     31.4963
   377.1000      7.9295      2.5732      0.1014      4.6527    135.5962     31.6005
   377.2000      7.9295      2.5563      0.0805      5.6776    134.0686     31.5029
   377.3000      7.9298      2.5392      0.1036      6.7156    137.1615     31.1816
   377.4000      7.9298      2.5272      0.0854      7.4439    141.8132     30.4909
   377.5000      7.9281      2.5193      0.0762      7.9238    145.5561     29.7745
   377.6000      7.9281      2.5153      0.0790      8.1660    147.8307     29.5755
   377.7000      7.9281      2.5187      0.0345      7.9593    148.0227     29.4843
   377.8000      7.9223      2.5314      0.1087      7.1852    147.2712     28.9202
   377.9000      7.9223      2.5503      0.1110      6.0410    148.4650     28.2646
   378.0000      7.9185      2.5763      0.1472      4.4655    150.7461     28.0942
   378.1000      7.9185      2.6068      0.1839      2.6199    150.2511     28.3668
   378.2000      7.9185      2.6284      0.1828      1.3096    146.5872     28.6456
   378.3000      7.9188      2.6296      0.1548      1.2363    142.4951     28.6805
   378.4000      7.9188      2.6072      0.1564      2.5963    136.6814     28.5242
   378.5000      7.9227      2.5751      0.0568      4.5381    127.7639     28.3129
   378.6000      7.9227      2.5651      0.0394      5.1477    118.7358     28.0693
   378.7000      7.9227      2.5769      0.1146      4.4274    113.1091     27.7792
   378.8000      7.9162      2.5786      0.0941      4.3267    112.3322     27.4224
   378.9000      7.9162      2.5716      0.0252      4.7511    114.4407     27.0464
   379.0000      7.9303      2.5783      0.0825      4.3457    114.7652     26.8030
   379.1000      7.9303      2.5892      0.0697      3.6878    111.0129     26.5429
   379.2000      7.9303      2.5855      0.0562      3.9062    106.4859     25.9695
   379.3000      7.9322      2.5687      0.0587      4.9250    106.0504     25.3067
   379.4000      7.9322      2.5467      0.0283      6.2596    108.6865     25.0054
   379.5000      7.9363      2.5266      0.0049      7.4800    109.2664     24.8800
   379.6000      7.9363      2.5121      0.0013      8.3578    106.5736     24.5784
   379.7000      7.9363      2.5043     -0.0082      8.8280    103.0346     24.3413
   379.8000      7.9207      2.5060      0.0743      8.7258     99.9808     24.2950
   379.9000      7.9207      2.5183      0.0524      7.9807     97.3087     24.1208
   380.0000      7.9051      2.5378      0.0592      6.7971     95.0203     23.7266
   380.1000      7.9051      2.5556      0.0661      5.7200     94.1030     23.4679
   380.2000      7.9051      2.5662      0.0572      5.0772     94.8695     23.5530
   380.3000      7.9097      2.5686      0.1131      4.9316     96.2570     23.8029
   380.4000      7.9097      2.5549      0.0812      5.7607     96.8325     23.9832
   380.5000      7.9114      2.5284      0.0215      7.3678     96.6386     24.0452
   380.6000      7.9114      2.5119      0.0298      8.3671     98.8072     24.1990
   380.7000      7.9114      2.5172      0.0464      8.0495    103.6424     24.5123
   380.8000      7.9048      2.5383      0.0367      6.7674    106.6565     24.7222
   380.9000      7.9048      2.5615      0.0802      5.3619    106.1704     24.6002
   381.0000      7.9148      2.5671      0.0827      5.0272    103.3303     24.1285
   381.1000      7.9148      2.5460      0.0786      6.3054     99.2880     23.4795
   381.2000      7.9148      2.5194      0.0236      7.9147     95.4490     22.9647
   381.3000      7.9197      2.5124      0.0298      8.3415     92.3153     22.6492
   381.4000      7.9197      2.5186      0.0608      7.9629     90.1228     22.3874
   381.5000      7.9070      2.5230      0.0913      7.6999     89.0513     22.0666
   381.6000      7.9070      2.5257      0.0677      7.5312     88.6588     21.3696
   381.7000      7.9070      2.5231      0.1034      7.6917     88.5362     20.1034
   381.8000      7.8999      2.5039      0.0459      8.8553     89.0090     18.7001
   381.9000      7.8999      2.4758      0.0389     10.5573     88.8026     17.7380
   382.0000      7.9123      2.4543      0.0071     11.8590     86.1402     17.4021
   382.1000      7.9123      2.4412     -0.0018     12.6566     83.3833     17.7202
   382.2000      7.9123      2.4342      0.0096     13.0769     91.7868     19.1286
   382.3000      7.9122      2.4380      0.0126     12.8479     92.4745     22.4186
   382.4000      7.9122      2.4558      0.0270     11.7668     91.9653     26.9122
   382.5000      7.9021      2.4787      0.0701     10.3815     91.7071      8.3130
   382.6000      7.9021      2.4879      0.1048      9.8264     92.4346      7.8353
   382.7000      7.9021      2.4806      0.0840     10.2638     92.9000      6.3071
   382.8000      7.9288      2.4766      0.0893     10.5063     93.3671      7.1218
   382.9000      7.9288      2.4871      0.1492      9.8757     92.8969     10.0491
   383.0000      7.9080      2.5106      0.1348      8.4506     90.9689     12.4139
   383.1000      7.9080      2.5440      0.1932      6.4220     89.8767     13.8709
   383.2000      7.9080      2.5720      0.1850      4.7291     99.1438     14.7254
   383.3000      7.9039      2.5812      0.1731      4.1685    100.3021     14.5528
   383.4000      7.9039      2.5799      0.1158      4.2475    101.2552     13.1614
   383.5000      7.9137      2.5799      0.1715      4.2470     99.5874     11.9199
   383.6000      7.9137      2.5827      0.1574      4.0776     93.9511     12.3170
   383.7000      7.9137      2.5856      0.1318      3.9042     87.1736     13.9393
   383.8000      7.9222      2.5779      0.1236      4.3675     82.1531     14.8891
   383.9000      7.9222      2.5502      0.0889      6.0513     80.1175     14.0327
