~Version Information
VERS.                      2.0: CWLS Log ASCII Standard - VERSION 2.0
WRAP.                       NO: One line per depth step
~Well Information Block
STRT.FT               -12.0000: 
STOP.FT              1728.0000: 
STEP.FT                 0.2500: 
NULL.                -999.2500: 
COMP.          XTO Energy Inc.: COMPANY
WELL.          Apache Canyon 35-06: WELL
FLD.              Vermejo Coal: FIELD
LOC.           2422' FNL & 1889' FWL--: LOCATION
STAT.                       CO: State
CNTY.               Las Animas: COUNTY
CTRY. USA : Country
SECT.  : Section
TOWN.  : Township
RANG.  : Range
SRVC.          Patterson Wireline: SERVICE COMPANY
DATE.          Fri Jan 06 08:11:44 2006: LOG DATE
API.              05 071 08540: UNIQUE WELL ID
~Curve Information Block
DEPT.FT            0 000 00 00: Depth
CCL.                          : Casing Collar Locator
TT3.usec                      : CBL 3' Travel Time
AMP3.mV                       : CBL 3' Amplitude
GR.GAPI                       : Gamma Ray
~Parameter Information Block
~A  Depth       CCL         TT3         AMP3         GR     
# ...
  1462.0000      0.0000    429.9304      5.3836     83.4878
  1462.2500      0.0000    416.9755      5.3414     80.5246
  1462.5000      0.0000    413.6072      5.3117     77.5224
  1462.7500      0.0000    415.9076      5.2901     74.5776
  1463.0000      0.0000    422.9411      5.2769     72.1069
  1463.2500      0.0000    437.3211      5.2751     70.4577
  1463.5000      0.0000    464.4339      5.2866     69.5167
  1463.7500      0.0000    508.5478      5.3073     68.7698
  1464.0000      0.0000    567.0652      5.3286     67.6889
  1464.2500      0.0000    628.9937      5.3432     65.9860
  1464.5000      0.0000    681.0056      5.3490     63.6690
  1464.7500      0.0000    715.6695      5.3456     61.1059
  1465.0000      0.0000    734.0242      5.3321     58.9790
  1465.2500      0.0000    741.7831      5.3084     57.8493
  1465.5000      0.0000    744.4733      5.2772     57.6800
  1465.7500      0.0000    745.3431      5.2431     57.9020
  1466.0000      0.0000    745.7035      5.2112     57.9560
  1466.2500      0.0000    745.9138      5.1868     57.6928
  1466.5000      0.0000    746.0485      5.1719     57.2938
  1466.7500      0.0000    746.1968      5.1610     56.8762
  1467.0000      0.0000    746.5603      5.1437     56.2652
  1467.2500      0.0000    747.4623      5.1125     55.2376
  1467.5000      0.0000    749.1971      5.0712     53.8937
  1467.7500      0.0000    751.6239      5.0322     52.5851
  1468.0000      0.0000    753.7868      5.0082     51.5063
  1468.2500      0.0000    754.2163      5.0041     50.6435
  1468.5000      0.0000    752.0051      5.0147     50.1988
  1468.7500      0.0000    747.6406      5.0287     50.6944
  1469.0000      0.0000    742.6419      5.0356     52.3245
  1469.2500      0.0000    738.3559      5.0300     54.3800
  1469.5000      0.0000    735.1876      5.0105     55.6739
  1469.7500      0.0000    733.0646      4.9781     55.6389
  1470.0000      0.0000    732.3755      4.9377     54.9040
  1470.2500      0.0000    733.8301      4.8976     54.6629
  1470.5000      0.0000    737.3082      4.8674     55.4318
  1470.7500      0.0000    741.4943      4.8552     56.5243
  1471.0000      0.0000    744.9175      4.8660     56.7627
  1471.2500      0.0000    746.9985      4.9017     55.5299
  1471.5000      0.0000    748.0176      4.9607     53.1525
  1471.7500      0.0000    748.4587      5.0376     50.5743
  1472.0000      0.0000    748.5333      5.1232     48.7636
  1472.2500      0.0000    748.0543      5.2056     48.1961
  1472.5000      0.0000    746.5827      5.2717     48.6510
  1472.7500      0.0000    743.8348      5.3100     49.3606
  1473.0000      0.0000    739.9437      5.3147     49.3729
  1473.2500      0.0000    735.0061      5.2856     48.0414
  1473.5000      0.0000    727.9279      5.2221     45.5157
  1473.7500      0.0000    716.2783      5.1182     42.8904
  1474.0000      0.0000    699.0006      4.9637     41.6908
  1474.2500      0.0000    680.1399      4.7532     42.8877
  1474.5000      0.0000    667.9221      4.4928     46.1869
  1474.7500      0.0000    667.7367      4.1988     50.2022
  1475.0000      0.0000    676.9983      3.8902     53.3419
  1475.2500      0.0000    688.7538      3.5857     54.6677
  1475.5000      0.0000    699.1819      3.3086     54.1397
  1475.7500      0.0000    709.8561      3.0829     52.4208
  1476.0000      0.0000    723.2100      2.9193     50.6430
  1476.2500      0.0000    736.8792      2.8068     49.9918
  1476.5000      0.0000    743.8058      2.7226     51.0969
  1476.7500      0.0000    739.4882      2.6503     53.7717
  1477.0000      0.0000    729.0667      2.5892     57.2989
  1477.2500      0.0000    724.8249      2.5508     60.8505
  1477.5000      0.0000    734.6176      2.5488     63.8662
  1477.7500      0.0000    752.8787      2.5912     66.3335
  1478.0000      0.0000    764.7484      2.6780     68.6742
  1478.2500      0.0000    760.3162      2.8044     71.2280
  1478.5000      0.0000    743.5416      2.9651     73.9209
  1478.7500      0.0000    726.7201      3.1569     76.5149
  1479.0000      0.0000    719.2790      3.3793     79.0424
  1479.2500      0.0000    723.0654      3.6357     81.8127
  1479.5000      0.0000    734.3865      3.9296     84.9729
  1479.7500      0.0000    746.9557      4.2526     88.1597
  1480.0000      0.0000    754.0760      4.5725     90.8101
  1480.2500      0.0000    750.7222      4.8380     92.9880
  1480.5000      0.0000    734.6971      5.0030     95.5120
  1480.7500      0.0000    706.4426      5.0555     98.6803
  1481.0000      0.0000    669.1606      5.0259    101.0673
  1481.2500      0.0000    629.1907      4.9677    100.2816
  1481.5000      0.0000    594.2125      4.9249     95.1851
  1481.7500      0.0000    569.1973      4.9143     87.1933
  1482.0000      0.0000    554.1266      4.9335     79.2253
  1482.2500      0.0000    545.7302      4.9753     73.4213
  1482.5000      0.0000    540.7300      5.0320     69.9941
  1482.7500      0.0000    537.7118      5.0923     68.0207
  1483.0000      0.0000    537.5598      5.1450     66.7167
  1483.2500      0.0000    543.5883      5.1849     65.7841
  1483.5000      0.0000    560.9470      5.2133     65.1937
  1483.7500      0.0000    593.6385      5.2335     65.1480
  1484.0000      0.0000    639.7168      5.2463     65.8559
  1484.2500      0.0000    689.3395      5.2487     66.9619
  1484.5000      0.0000    729.6974      5.2385     67.5508
  1484.7500      0.0000    753.2938      5.2180     66.9556
  1485.0000      0.0000    761.5095      5.1932     65.2415
  1485.2500      0.0000    760.9197      5.1693     62.8882
  1485.5000      0.0000    757.4733      5.1491     60.5287
  1485.7500      0.0000    753.8863      5.1344     59.0890
  1486.0000      0.0000    750.7355      5.1245     59.4780
  1486.2500      0.0000    748.5591      5.1145     61.6770
  1486.5000      0.0000    748.6256      5.0974     64.4164
  1486.7500      0.0000    752.0797      5.0702     66.1696
  1487.0000      0.0000    758.7361      5.0365     66.4286
  1487.2500      0.0000    766.8406      5.0040     65.7294
  1487.5000      0.0000    773.9491      4.9810     64.5643
  1487.7500      0.0000    778.3497      4.9739     62.7804
  1488.0000      0.0000    779.9600      4.9856     60.2361
  1488.2500      0.0000    779.8945      5.0143     57.5924
  1488.5000      0.0000    779.2021      5.0528     55.9076
  1488.7500      0.0000    778.0729      5.0912     55.5591
  1489.0000      0.0000    776.0200      5.1182     56.0329
  1489.2500      0.0000    772.6064      5.1256     56.6699
  1489.5000      0.0000    768.0821      5.1129     57.1360
  1489.7500      0.0000    763.4158      5.0870     57.2929
  1490.0000      0.0000    759.6504      5.0569     57.1572
  1490.2500      0.0000    757.2379      5.0282     57.0441
  1490.5000      0.0000    755.9937      5.0023     57.5063
  1490.7500      0.0000    755.4875      4.9786     59.0341
  1491.0000      0.0000    755.3362      4.9578     61.6362
  1491.2500      0.0000    755.2864      4.9440     64.6749
  1491.5000      0.0000    755.2222      4.9433     67.3045
  1491.7500      0.0000    755.1726      4.9586     68.9503
  1492.0000      0.0000    755.3101      4.9841     69.2295
  1492.2500      0.0000    755.9779      5.0073     67.9259
  1492.5000      0.0000    757.7233      5.0168     65.4560
  1492.7500      0.0000    761.0764      5.0091     62.9247
  1493.0000      0.0000    765.8219      4.9907     61.2729
  1493.2500      0.0000    770.3318      4.9719     60.5317
  1493.5000      0.0000    772.2491      4.9582     59.9926
  1493.7500      0.0000    770.5640      4.9466     58.9012
  1494.0000      0.0000    766.8459      4.9305     57.1149
  1494.2500      0.0000    764.1269      4.9088     55.3850
  1494.5000      0.0000    764.8610      4.8889     54.7720
  1494.7500      0.0000    769.9176      4.8830     55.3964
  1495.0000      0.0000    778.7136      4.9003     56.0324
  1495.2500      0.0000    789.8742      4.9413     55.4099
