~Version Information
 VERS.                                  2.0 : CWLS LAS VERSION
 WRAP.                                   NO : WRAPING MODE
 SWARE .                 MController 2.5.0N : SOFTWARE VERSION
~Well Information
 WELL.                    Hellzonfire 32-31 : WELL
 COMP.    Pioneer Natural Resources USA Inc : COMPANY
 FLD.                      Purgatoire River : FIELD
 LOC.                 SW/NE SEC31 T32S R66W : LOCATION
 DATE.                             09/01/05 : DATE(S) LOGGED
 SRVC.       Blanco Geological Services LLC : SERVICE COMPANY
 STAT.                             Colorado : STATE
 CNTY.                           Las Animas : COUNTY
 CTRY.                                  USA : COUNTRY
 API.                       05-071-08483-00 : API NUMBER
 STRT.FT                             356.00 : START DEPTH
 STOP.FT                            2480.00 : STOP DEPTH
 STEP.FT                               1.00 : DEPTH INCREMENT
 NULL.                                -9999 : NULL VALUE
~Curve information
 DEPTH.FT                                   :
 ROP.MIN/FT                                 :
 GAS.UNITS                                  :
~ASCII Log data
# ...
      1156.0         0.23         75.2 
      1157.0         0.17         75.7 
      1158.0         0.13         77.7 
      1159.0         0.20         74.7 
      1160.0         0.20         74.7 
      1161.0         0.67         78.0 
      1162.0         0.30         77.3 
      1163.0         0.17         73.8 
      1164.0         0.17         68.2 
      1165.0         0.13         60.5 
      1166.0         1.85        195.1 
      1167.0         0.60        203.9 
      1168.0         0.27        168.0 
      1169.0         0.23        142.1 
      1170.0         0.30        117.5 
      1171.0         0.27        105.4 
      1172.0         0.27         97.3 
      1173.0         0.27         94.4 
      1174.0         0.22         93.7 
      1175.0         0.20         85.1 
      1176.0         0.20         84.5 
      1177.0         0.27         75.7 
      1178.0         0.17         70.3 
      1179.0         0.17         70.2 
      1180.0         0.17         71.2 
      1181.0         0.13         71.2 
      1182.0         0.20         72.8 
      1183.0         0.20         73.0 
      1184.0         0.27         72.8 
      1185.0         0.17         73.2 
      1186.0         0.20         75.0 
      1187.0         0.20         75.0 
      1188.0         0.20         72.5 
      1189.0         0.27         68.9 
      1190.0         0.28         68.0 
      1191.0         0.17         66.3 
      1192.0         0.20         65.6 
      1193.0         0.23         60.5 
      1194.0         0.17         57.2 
      1195.0         0.27         52.6 
      1196.0         2.03        192.5 
      1197.0         0.38        175.0 
      1198.0         0.27        164.4 
      1199.0         0.33        133.1 
      1200.0         0.27        107.1 
      1201.0         0.27         96.5 
      1202.0         0.27         86.6 
      1203.0         0.23         82.3 
      1204.0         0.23         78.8 
      1205.0         0.23         77.6 
      1206.0         0.23         73.2 
      1207.0         0.23         71.4 
      1208.0         0.23         69.5 
      1209.0         0.20         68.7 
      1210.0         0.18         65.3 
      1211.0         0.23         65.0 
      1212.0         0.27         65.3 
      1213.0         0.23         65.4 
      1214.0         0.20         65.3 
      1215.0         0.20         66.5 
      1216.0         0.23         70.5 
      1217.0         0.23         68.4 
      1218.0         0.20         66.2 
      1219.0         0.23         65.7 
      1220.0         0.23         65.7 
      1221.0         0.20         65.5 
      1222.0         0.17         61.8 
      1223.0         0.20         57.0 
      1224.0         0.20         51.9 
      1225.0         0.20         45.2 
      1226.0         1.92        195.2 
      1227.0         0.17        207.6 
      1228.0         0.17        213.3 
      1229.0         0.27        210.2 
      1230.0         0.27        196.4 
      1231.0         0.50        156.1 
      1232.0         0.28        136.8 
      1233.0         0.23        133.0 
      1234.0         0.23        121.5 
      1235.0         0.20        108.4 
      1236.0         0.20        102.0 
      1237.0         0.17         90.6 
      1238.0         0.23         86.1 
      1239.0         0.17         81.5 
      1240.0         0.17         77.4 
      1241.0         0.20         76.6 
      1242.0         0.17         79.1 
      1243.0         0.13         79.1 
      1244.0         0.17         83.6 
      1245.0         0.17         83.6 
      1246.0         0.13         85.2 
      1247.0         0.17         87.3 
      1248.0         0.17         87.3 
      1249.0         0.23         87.0 
      1250.0         0.32         86.5 
      1251.0         0.30         75.6 
      1252.0         0.37         63.7 
      1253.0         0.10         58.0 
      1254.0         1.23        163.6 
      1255.0         0.10        194.2 
      1256.0         0.53        222.3 
      1257.0         0.27        198.3 
      1258.0         0.42        194.1 
      1259.0         0.33        157.2 
      1260.0         0.20        111.9 
      1261.0         0.17        106.7 
      1262.0         0.17        100.4 
      1263.0         0.13        100.4 
      1264.0         0.27        100.1 
      1265.0         0.30         98.6 
      1266.0         0.27         95.3 
      1267.0         0.27         85.6 
      1268.0         0.27         80.6 
      1269.0         0.23         76.8 
      1270.0         0.23         73.3 
      1271.0         0.25         72.8 
      1272.0         0.20         69.0 
      1273.0         0.20         64.6 
      1274.0         0.13         63.7 
      1275.0         0.13         62.1 
      1276.0         0.13         63.0 
      1277.0         0.13         63.0 
      1278.0         0.10         66.6 
      1279.0         0.20         66.6 
      1280.0         0.47         77.4 
      1281.0         0.57         91.4 
      1282.0         0.60         93.7 
      1283.0         0.68         93.8 
      1284.0         0.50         86.8 
      1285.0         0.50         73.9 
      1286.0         1.17        229.1 
      1287.0         0.27        254.6 
      1288.0         0.27        283.3 
      1289.0         0.27        288.6 
      1290.0         0.25        289.0 
      1291.0         0.37        269.2 
      1292.0         0.37        218.9 
      1293.0         0.37        175.5 
      1294.0         0.57        147.1 
      1295.0         0.33        125.3 
      1296.0         0.20        120.4 
      1297.0         0.30        119.1 
      1298.0         0.23        110.1 
      1299.0         0.17        107.0 
      1300.0         0.27        104.2 
      1301.0         0.28        102.0 
      1302.0         0.27         99.9 
      1303.0         0.23         97.2 
      1304.0         0.23         96.1 
      1305.0         0.23         91.2 
      1306.0         0.27         89.4 
      1307.0         0.30         88.0 
      1308.0         0.20         87.3 
      1309.0         0.20         88.6 
      1310.0         0.20         90.9 
      1311.0         0.23         88.2 
      1312.0         0.27         86.2 
      1313.0         0.27         83.4 
      1314.0         0.28         83.0 
      1315.0         0.27         81.5 
      1316.0         1.90        204.6 
      1317.0         0.53        258.4 
      1318.0         0.33        264.1 
      1319.0         0.32        253.8 
      1320.0         0.47        227.8 
      1321.0         0.33        166.6 
      1322.0         0.30        141.7 
      1323.0         0.40        157.8 
      1324.0         0.40        242.6 
      1325.0         0.33        282.2 
      1326.0         0.23        302.6 
      1327.0         0.27        328.1 
      1328.0         0.20        343.9 
      1329.0         0.27        351.7 
      1330.0         0.22        351.7 
      1331.0         0.23        351.2 
      1332.0         0.27        348.4 
      1333.0         0.17        343.5 
      1334.0         0.27        342.5 
      1335.0         0.17        342.5 
      1336.0         0.17        342.3 
      1337.0         0.17        340.1 
      1338.0         0.33        342.6 
      1339.0         0.30        357.3 
      1340.0         0.23        344.1 
      1341.0         0.43        326.4 
      1342.0         0.40        312.0 
      1343.0         0.32        303.5 
      1344.0         0.17        277.5 
      1345.0         0.33        268.4 
      1346.0         1.40       1226.1 
      1347.0         0.70       1344.3 
      1348.0         0.43       1340.8 
      1349.0         0.38       1262.5 
      1350.0         0.13       1172.6 
      1351.0         0.27       1144.2 
      1352.0         0.30       1027.5 
      1353.0         0.37        969.2 
      1354.0         0.40        931.5 
      1355.0         0.37        901.2 
