~Version Information
VERS.                      2.0: CWLS Log ASCII Standard - VERSION 2.0
WRAP.                       NO: One line per depth step
~Well Information Block
STRT.FT               -11.5000: 
STOP.FT              1961.7500: 
STEP.FT                 0.2500: 
NULL.                -999.2500: 
COMP.          Petrogulf Corporation: COMPANY
WELL.           State 16-23R-X: WELL
FLD.           Purgatorie River: FIELD
LOC.           2381' FSL & 2072' FWL--: LOCATION
PROV.                       CO: PROVINCE
CNTY.               Las Animas: COUNTRY
SRVC.          Patterson Wireline: SERVICE COMPANY
DATE.          Fri Sep 09 14:32:42 2005: LOG DATE
UWI.           05 071 08324 00: UNIQUE WELL ID
~Curve Information Block
DEPT.FT            0 000 00 00: Depth
CCL.                          : Casing Collar Locator
TT3.usec                      : CBL 3' Travel Time
AMP3.mV                       : CBL 3' Amplitude
GR.GAPI                       : Gamma Ray
~Parameter Information Block
~A  Depth       CCL         TT3         AMP3         GR     
   -11.5000   -999.2500   -999.2500   -999.2500     81.5544
   -11.2500   -999.2500   -999.2500   -999.2500     85.6616
   -11.0000   -999.2500   -999.2500   -999.2500     89.9017
   -10.7500   -999.2500   -999.2500   -999.2500     91.8694
   -10.5000   -999.2500   -999.2500   -999.2500     90.7213
   -10.2500   -999.2500   -999.2500   -999.2500     87.3513
   -10.0000   -999.2500   -999.2500   -999.2500     83.4889
    -9.7500   -999.2500   -999.2500   -999.2500     80.7671
    -9.5000   -999.2500   -999.2500   -999.2500     80.2583
    -9.2500   -999.2500   -999.2500   -999.2500     82.1405
    -9.0000   -999.2500   -999.2500   -999.2500     85.4370
    -8.7500   -999.2500   -999.2500   -999.2500     88.4073
    -8.5000   -999.2500   -999.2500   -999.2500     89.6189
    -8.2500   -999.2500   -999.2500   -999.2500     88.7722
    -8.0000   -999.2500   -999.2500   -999.2500     86.6371
    -7.7500   -999.2500   -999.2500   -999.2500     84.3116
    -7.5000   -999.2500   -999.2500   -999.2500     82.3625
    -7.2500   -999.2500   -999.2500   -999.2500     80.4696
    -7.0000   -999.2500   -999.2500   -999.2500     77.9669
    -6.7500   -999.2500   1149.0000      1.9633     74.8275
    -6.5000   -999.2500   1149.0000      1.9569     71.9637
    -6.2500   -999.2500   1149.0000      1.9430     70.5486
    -6.0000   -999.2500   1149.0000      1.9301     71.2936
    -5.7500   -999.2500   1149.0000      1.9247     74.1574
    -5.5000   -999.2500   1149.0000      1.9276     78.1841
    -5.2500   -999.2500   1149.0000      1.9356     81.6070
    -5.0000   -999.2500   1149.0000      1.9445     82.4868
    -4.7500   -999.2500   1149.0000      1.9507     79.5964
    -4.5000   -999.2500   1149.0000      1.9523     73.2761
    -4.2500   -999.2500   1149.0000      1.9503     65.6310
    -4.0000   -999.2500   1149.0000      1.9475     59.1732
    -3.7500   -999.2500   1149.0000      1.9467     54.7652
    -3.5000   -999.2500   1149.0000      1.9494     51.2222
    -3.2500   -999.2500   1149.0000      1.9551     47.0425
    -3.0000   -999.2500   1149.0000      1.9613     41.9742
    -2.7500   -999.2500   1149.0000      1.9640     36.8674
    -2.5000   -999.2500   1149.0000      1.9613     32.8311
    -2.2500   -999.2500   1149.0000      1.9551     30.8721
    -2.0000   -999.2500   1149.0000      1.9494     31.5664
    -1.7500   -999.2500   1149.0000      1.9467     34.5012
    -1.5000   -999.2500   1149.0000      1.9475     38.4891
    -1.2500   -999.2500   1149.0000      1.9505     42.7258
    -1.0000      0.0000   1149.0000      1.9532     47.2521
    -0.7500      0.0000   1149.0000      1.9537     51.9306
    -0.5000      0.0000   1149.0000      1.9522     55.7278
    -0.2500      0.0000   1149.0000      1.9512     57.7017
     0.0000      0.0000   1149.0000      1.9516     58.1874
     0.2500      0.0000   1149.0000      1.9486     58.7780
     0.5000      0.0000   1149.0000      1.9427     59.1233
     0.7500      0.0000   1149.0000      1.9377     58.5868
     1.0000      0.0000   1149.0000      1.9376     56.7850
     1.2500      0.0000   1149.0000      1.9425     54.1311
     1.5000      0.0000   1149.0000      1.9479     51.6818
     1.7500      0.0000   1149.0000      1.9493     50.4866
     2.0000      0.0000   1149.0000      1.9458     50.8460
     2.2500      0.0000   1149.0000      1.9397     52.1071
     2.5000      0.0000   1149.0000      1.9341     53.1291
     2.7500      0.0000   1149.0000      1.9301     53.0067
     3.0000      0.0000   1148.9775      1.9271     51.5638
     3.2500      0.0000   1148.7942      1.9271     49.4029
     3.5000      0.0000   1147.8097      1.9457     47.5201
     3.7500      0.0000   1143.6439      2.0576     46.7156
     4.0000      0.0000   1129.7385      2.5132     47.1650
     4.2500     -2.0000   1093.0729      3.9268     48.4290
     4.5000      0.0000   1016.6367      7.3488     49.7462
     4.7500      0.0000    890.5992     13.8413     50.3574
     5.0000      0.0000    726.2153     23.5058     49.8315
     5.2500      0.0000    556.7162     34.7968     48.3364
     5.5000      0.0000    418.6666     45.1532     46.5945
     5.7500      0.0000    329.9641     52.6105     45.4167
     6.0000      0.0000    285.0638     56.8214     45.1399
     6.2500      0.0000    267.1879     58.6782     45.5385
     6.5000      0.0000    261.6045     59.3033     46.3245
     6.7500      0.0000    260.2489     59.4355     47.5892
     7.0000      0.0000    260.0099     59.4024     49.6021
     7.2500      0.0000    260.0031     59.3181     52.2409
     7.5000      0.0000    260.0325     59.2222     54.7574
     7.7500      0.0000    260.0560     59.1285     56.1660
     8.0000      0.0000    260.0733     59.0426     55.9093
     8.2500      0.0000    260.0869     58.9747     54.1919
     8.5000      0.0000    260.0966     58.9343     51.7261
     8.7500      0.0000    260.1000     58.9201     49.2258
     9.0000      0.0000    260.0949     58.9211     47.0817
     9.2500      0.0000    260.0825     58.9230     45.3314
     9.5000      0.0000    260.0670     58.9184     43.7993
     9.7500      0.0000    260.0543     58.9160     42.3678
    10.0000      0.0000    260.0492     58.9324     41.3178
    10.2500      0.0000    260.0516     58.9655     41.3491
    10.5000      0.0000    260.0594     58.9886     42.9626
    10.7500      0.0000    260.0725     58.9810     45.8161
    11.0000      0.0000    260.0913     58.9532     48.8612
    11.2500      0.0000    260.1118     58.9344     51.0415
    11.5000      0.0000    260.1255     58.9439     51.8649
    11.7500      0.0000    260.1266     58.9787     51.6049
    12.0000      0.0000    260.1152     59.0232     51.1539
    12.2500      0.0000    260.0957     59.0701     51.3844
    12.5000      0.0000    260.0738     59.1359     52.2859
    12.7500      0.0000    260.0556     59.2503     52.8386
    13.0000      0.0000    260.0461     59.4270     52.1235
    13.2500      0.0000    260.0471     59.6484     50.5343
    13.5000      0.0000    260.0570     59.8786     49.5659
    13.7500      0.0000    260.0721     60.0794     50.3332
    14.0000      0.0000    260.0887     60.2141     52.4185
    14.2500      0.0000    260.1046     60.2499     54.1109
    14.5000      0.0000    260.1202     60.1754     53.7182
    14.7500      0.0000    260.1362     60.0215     51.0216
    15.0000      0.0000    260.1521     59.8516     47.6568
    15.2500      0.0000    260.1676     59.7169     45.6959
    15.5000      0.0000    260.1844     59.6316     45.6706
    15.7500      0.0000    260.2039     59.5895     46.2400
    16.0000      0.0000    260.2239     59.5830     45.7250
    16.2500      0.0000    260.2403     59.5990     43.5553
    16.5000      0.0000    260.2502     59.6219     40.3605
    16.7500      0.0000    260.2530     59.6536     37.3229
    17.0000      0.0000    260.2492     59.7094     35.7649
    17.2500      0.0000    260.2427     59.7795     36.9136
    17.5000      0.0000    260.2403     59.8181     41.3421
    17.7500      0.0000    260.2476     59.7837     48.3216
    18.0000      0.0000    260.2642     59.6680     56.0612
    18.2500      0.0000    260.2871     59.4639     63.0203
    18.5000      0.0000    260.3184     59.1253     68.8917
    18.7500      0.0000    260.3640     58.6026     74.0767
    19.0000      0.0000    260.4241     57.9301     78.6457
    19.2500      0.0000    260.4866     57.2493     82.4673
    19.5000      0.0000    260.5347     56.7276     85.9642
    19.7500      0.0000    260.5601     56.4600     89.7834
    20.0000      0.0000    260.5663     56.4366     93.6588
    20.2500      0.0000    260.5620     56.5715     96.2895
    20.5000      0.0000    260.5539     56.7504     96.6318
    20.7500      0.0000    260.5470     56.8751     95.0011
    21.0000      0.0000    260.5468     56.8832     92.6221
    21.2500      0.0000    260.5601     56.7266     90.3715
    21.5000      0.0000    260.5933     56.3556     88.4016
    21.7500      0.0000    260.6476     55.7648     86.6431
