~Version Information
VERS.                      2.0: CWLS Log ASCII Standard - VERSION 2.0
WRAP.                       NO: One line per depth step
~Well Information Block
STRT.FT               830.0000: 
STOP.FT              2368.5000: 
STEP.FT                 0.1000: 
NULL.                -999.2500: 
COMP.          Pioneer Natural Resources: COMPANY
WELL.              Rolls 14-14: WELL
FLD.           Purgatoire River: FIELD
LOC.           572' FSL & 856' FWL: LOCATION
PROV.                 Colorado: PROVINCE
CNTY.               Las Animas: COUNTRY
SRVC.                Patterson: SERVICE COMPANY
DATE.          Mon Aug 01 05:48:31 2005: LOG DATE
UWI.           05 071 08455 00: UNIQUE WELL ID
~Curve Information Block
DEPT.FT            0 000 00 00: Depth
DCAL.in                       : CDL Caliper
RHOB.g/cc                     : CDL Bulk Density
RHOC.g/cc                     : CDL Density Correction
DPOR.pu                       : CDL Density Porosity
GR.GAPI                       : Gamma Ray
NPOR.pu                       : Neutron Porosity
~Parameter Information Block
~A  Depth       DCAL        RHOB        RHOC        DPOR         GR         NPOR    
# ...
  1233.2000      8.0048      2.7295      0.0054     -4.8154     67.0369     25.2449
  1233.3000      8.0135      2.7441     -0.0490     -5.7049     70.1349     23.7652
  1233.4000      8.0135      2.7528     -0.0285     -6.2311     70.2419     22.0799
  1233.5000      8.0325      2.7523      0.0279     -6.2022     67.0253     20.5103
  1233.6000      8.0325      2.7314     -0.0009     -4.9343     64.7519     19.2551
  1233.7000      8.0325      2.6843      0.0035     -2.0770     66.4604     18.7630
  1233.8000      8.0376      2.6168     -0.0044      2.0142     70.7236     18.9667
  1233.9000      8.0376      2.5477     -0.0492      6.2023     76.1360     19.4120
  1234.0000      8.0028      2.4951     -0.0177      9.3861     81.0888     20.0353
  1234.1000      8.0028      2.4648      0.0117     11.2230     84.8815     20.7484
  1234.2000      8.0028      2.4596     -0.0252     11.5379     86.5983     21.6488
  1234.3000      7.9896      2.4874      0.0524      9.8557     86.0117     22.9267
  1234.4000      7.9896      2.5438      0.1032      6.4352     86.9790     24.3600
  1234.5000      7.9804      2.6077      0.1941      2.5613     89.1294     25.8671
  1234.6000      7.9804      2.6605      0.2258     -0.6346     88.3915     27.2646
  1234.7000      7.9804      2.6996      0.2398     -3.0078     84.1169     28.0021
  1234.8000      7.9717      2.7337      0.2027     -5.0706     76.9188     28.1116
  1234.9000      7.9717      2.7671      0.1903     -7.0976     68.1841     28.3487
  1235.0000      7.9555      2.7837      0.2034     -8.1039     61.4608     29.0540
  1235.1000      7.9555      2.7721      0.0801     -7.3988     57.1474     29.3716
  1235.2000      7.9555      2.7511      0.0943     -6.1286     53.1972     28.6325
  1235.3000      7.9790      2.7417     -0.0207     -5.5596     51.7770     27.4637
  1235.4000      7.9790      2.7458      0.0479     -5.8052     54.5950     26.6524
  1235.5000      7.9967      2.7437      0.0505     -5.6786     59.8993     26.2362
  1235.6000      7.9967      2.7268      0.0215     -4.6527     67.3368     25.7020
  1235.7000      7.9967      2.7064     -0.0226     -3.4187     75.2505     24.7503
  1235.8000      8.0194      2.6849     -0.0053     -2.1143     78.9903     23.6527
  1235.9000      8.0194      2.6524      0.0040     -0.1458     78.9965     22.7277
  1236.0000      8.0316      2.6108     -0.0213      2.3778     81.5400     21.7423
  1236.1000      8.0316      2.5792     -0.0390      4.2896     88.4231     20.4671
  1236.2000      8.0316      2.5689     -0.0266      4.9140     96.3848     19.6211
  1236.3000      8.0481      2.5672     -0.0121      5.0209    105.8413     19.6357
  1236.4000      8.0481      2.5631     -0.0282      5.2666    118.9147     19.8682
  1236.5000      8.0333      2.5581      0.0581      5.5672    131.4981     19.9527
  1236.6000      8.0333      2.5512      0.1102      5.9894    138.5718     20.2849
  1236.7000      8.0333      2.5464      0.1006      6.2791    141.2195     20.9607
  1236.8000      8.0347      2.5524      0.1248      5.9157    142.8679     21.5603
  1236.9000      8.0347      2.5690      0.1868      4.9103    145.2586     21.9287
  1237.0000      8.0524      2.5857      0.1884      3.8962    146.3790     22.1487
  1237.1000      8.0524      2.5874      0.2121      3.7933    143.6300     22.2239
  1237.2000      8.0524      2.5715      0.1914      4.7568    139.1589     22.1004
  1237.3000      8.0587      2.5563      0.1423      5.6809    137.4300     21.8020
  1237.4000      8.0587      2.5496      0.1760      6.0843    139.9129     21.6951
  1237.5000      8.0842      2.5335      0.1496      7.0599    142.9425     22.1169
  1237.6000      8.0842      2.5018      0.1057      8.9823    141.6971     22.6275
  1237.7000      8.0842      2.4756      0.0859     10.5698    137.3109     22.6233
  1237.8000      8.1128      2.4641      0.1347     11.2641    135.1981     22.2167
  1237.9000      8.1128      2.4545      0.0787     11.8476    138.2415     21.8896
  1238.0000      8.1214      2.4503      0.0517     12.1059    145.2175     21.6999
  1238.1000      8.1214      2.4673      0.0948     11.0742    151.3539     21.2323
  1238.2000      8.1214      2.4975      0.1499      9.2439    154.0114     20.5268
  1238.3000      8.1222      2.5210      0.1843      7.8169    155.2149     20.1143
  1238.4000      8.1222      2.5345      0.2424      6.9995    153.1482     20.1776
  1238.5000      8.1180      2.5457      0.2660      6.3234    147.6474     20.4416
  1238.6000      8.1180      2.5566      0.3022      5.6618    145.9337     20.6362
  1238.7000      8.1180      2.5600      0.2422      5.4568    149.4493     20.7504
  1238.8000      8.1052      2.5573      0.2199      5.6195    152.9090     21.2401
  1238.9000      8.1052      2.5627      0.2191      5.2892    153.2554     22.2463
  1239.0000      8.0958      2.5814      0.2264      4.1604    152.3701     23.0446
  1239.1000      8.0958      2.5971      0.2325      3.2050    153.5545     23.3119
  1239.2000      8.0958      2.5949      0.2361      3.3423    153.2281     23.6064
  1239.3000      8.1478      2.5772      0.1672      4.4145    148.6759     24.3040
  1239.4000      8.1478      2.5493      0.1301      6.1043    144.2704     25.1120
  1239.5000      8.1444      2.5192      0.0359      7.9285    141.9356     25.5444
  1239.6000      8.1444      2.5108     -0.0081      8.4367    139.2602     25.8083
  1239.7000      8.1444      2.5347      0.0245      6.9880    135.1873     26.2616
  1239.8000      8.1082      2.5703      0.0694      4.8313    131.0296     26.6733
  1239.9000      8.1082      2.5948      0.0959      3.3460    130.9759     26.8782
  1240.0000      8.1257      2.5987      0.0979      3.1086    136.0146     26.8438
  1240.1000      8.1257      2.5791      0.0201      4.2948    141.7612     26.2758
  1240.2000      8.1257      2.5463     -0.0023      6.2844    144.6444     25.1953
  1240.3000      8.1321      2.5281     -0.0184      7.3863    143.3941     24.3451
  1240.4000      8.1321      2.5405      0.0272      6.6362    139.6331     24.2219
  1240.5000      8.1466      2.5637      0.0016      5.2310    137.3245     24.4388
  1240.6000      8.1466      2.5698      0.0541      4.8605    141.2713     24.4083
  1240.7000      8.1466      2.5539      0.0100      5.8264    150.3385     24.2341
  1240.8000      8.1500      2.5380     -0.0098      6.7853    153.9789     24.6050
  1240.9000      8.1500      2.5407     -0.0044      6.6234    145.4783     25.4460
  1241.0000      8.1474      2.5560     -0.0030      5.6988    132.0813     25.8703
  1241.1000      8.1474      2.5727      0.0134      4.6832    125.1121     25.7080
  1241.2000      8.1474      2.5889     -0.0052      3.7018    125.1621     25.5556
  1241.3000      8.1482      2.6010      0.0482      2.9719    125.3566     25.8310
  1241.4000      8.1482      2.5973      0.0386      3.1966    123.0962     26.3774
  1241.5000      8.1605      2.5780      0.0171      4.3628    122.7722     26.6294
  1241.6000      8.1605      2.5589      0.0236      5.5229    125.5023     26.4013
  1241.7000      8.1605      2.5503     -0.0026      6.0447    128.7114     26.1790
  1241.8000      8.1608      2.5545     -0.0333      5.7891    131.7472     26.2427
  1241.9000      8.1608      2.5682      0.0231      4.9604    134.7602     26.2708
  1242.0000      8.1394      2.5867     -0.0102      3.8382    138.4366     26.1074
  1242.1000      8.1394      2.5989      0.0425      3.0996    142.2619     25.9919
  1242.2000      8.1394      2.5883      0.0386      3.7384    142.1757     26.2957
  1242.3000      8.1277      2.5648     -0.0316      5.1647    136.3310     26.9608
  1242.4000      8.1277      2.5543     -0.0024      5.8001    131.5504     27.4032
  1242.5000      8.1386      2.5585      0.0069      5.5447    134.0846     27.3543
  1242.6000      8.1386      2.5623      0.0294      5.3166    138.5770     27.0785
  1242.7000      8.1386      2.5578      0.0027      5.5870    137.3169     26.8096
