~Version Information
VERS.                      2.0: CWLS Log ASCII Standard - VERSION 2.0
WRAP.                       NO: One line per depth step
~Well Information Block
STRT.FT               310.0000: 
STOP.FT               815.0000: 
STEP.FT                 0.2500: 
NULL.                -999.2500: 
COMP.          Pioneer Natural Resources: COMPANY
WELL.           Weissach 32-32: WELL
FLD.           Purgatorie River: FIELD
LOC.           2193' FNL & 2256' FEL: LOCATION
STAT.                 Colorado: State
CNTY.               Las Animas: COUNTY
CTRY. USA : Country
SECT. 32 : Section
TOWN. 33S : Township
RANG. 65W : Range
SRVC.                Patterson: SERVICE COMPANY
DATE.          Mon Sep 26 09:20:51 2005: LOG DATE
API. 05-071-08523                         : UNIQUE WELL ID
~Curve Information Block
DEPT.FT            0 000 00 00: Depth
SN.Ohm-m                      : IEL Short Normal
SP.mV                         : IEL Spontaneous Potential
DIR.Ohm-m                     : IEL Induction Resistivity
GR.GAPI                       : Gamma Ray
~Parameter Information Block
~A  Depth        SN          SP         DIR          GR     
# ...
   377.0000   2000.0000   2000.0000     18.8270    120.4241
   377.2500   2000.0000   2000.0000     19.1961    133.3060
   377.5000   2000.0000   2000.0000     18.8539    133.5295
   377.7500   2000.0000   2000.0000     19.6505    133.2386
   378.0000   2000.0000   2000.0000     21.8638    113.8930
   378.2500   2000.0000   2000.0000     20.3867    112.5859
   378.5000   2000.0000   2000.0000     22.3043    109.8047
   378.7500   2000.0000   2000.0000     21.8759    110.6398
   379.0000   2000.0000   2000.0000     27.9984     94.1335
   379.2500   2000.0000   2000.0000     29.0189     84.1752
   379.5000   2000.0000   2000.0000     26.3245     88.1571
   379.7500   2000.0000   2000.0000     23.6904     90.5817
   380.0000   2000.0000   2000.0000     24.0001     76.3842
   380.2500   2000.0000   2000.0000     24.7663     76.4977
   380.5000   2000.0000   2000.0000     24.6532     79.8493
   380.7500   2000.0000   2000.0000     23.9287     73.9764
   381.0000   2000.0000   2000.0000     23.8658     74.1622
   381.2500   2000.0000   2000.0000     25.6341     79.8730
   381.5000   2000.0000   2000.0000     26.3199     66.6901
   381.7500   2000.0000   2000.0000     26.3767     56.3644
   382.0000   2000.0000   2000.0000     25.8568     62.6923
   382.2500   2000.0000   2000.0000     28.4001     71.4260
   382.5000   2000.0000   2000.0000     27.3965     64.9590
   382.7500   2000.0000   2000.0000     27.4116     73.0964
   383.0000   2000.0000   2000.0000     26.5240     77.4658
   383.2500   2000.0000   2000.0000     26.2227     64.7072
   383.5000   2000.0000   2000.0000     25.8708     55.6396
   383.7500   2000.0000   2000.0000     21.6212     72.9888
   384.0000   2000.0000   2000.0000     27.3090     54.1926
   384.2500   2000.0000   2000.0000     28.8146     56.5943
   384.5000   2000.0000   2000.0000     27.4013     58.0277
   384.7500   2000.0000   2000.0000     28.6009     59.3473
   385.0000   2000.0000   2000.0000     30.7873     54.2697
   385.2500   2000.0000   2000.0000     39.0969     41.7226
   385.5000   2000.0000   2000.0000     29.8239     65.3091
   385.7500   2000.0000   2000.0000     27.4931     61.9264
   386.0000   2000.0000   2000.0000     28.3080     65.6094
   386.2500   2000.0000   2000.0000     29.9845     67.9230
   386.5000   2000.0000   2000.0000     38.3614     72.4289
   386.7500   2000.0000   2000.0000     29.2835     75.4050
   387.0000   2000.0000   2000.0000     31.4802     57.4377
   387.2500   2000.0000   2000.0000     47.1084     56.1319
   387.5000   2000.0000   2000.0000     31.6592     55.3735
   387.7500   2000.0000   2000.0000     27.3978     61.7797
   388.0000   2000.0000   2000.0000     28.0586     71.2467
   388.2500   2000.0000   2000.0000     30.7808     55.7119
   388.5000   2000.0000   2000.0000     38.7225     49.5437
   388.7500   2000.0000   2000.0000     29.0559     51.1748
   389.0000   2000.0000   2000.0000     34.4546     46.5790
   389.2500   2000.0000   2000.0000     25.6090     48.7898
   389.5000   2000.0000   2000.0000     23.8808     47.7145
   389.7500   2000.0000   2000.0000     22.7660     48.7470
   390.0000   2000.0000   2000.0000     22.4428     51.3873
   390.2500   2000.0000   2000.0000     21.2172     54.2472
   390.5000   2000.0000   2000.0000     19.0791     53.6101
   390.7500   2000.0000   2000.0000     18.6078     46.6951
   391.0000   2000.0000   2000.0000     19.7782     39.5768
   391.2500   2000.0000   2000.0000     23.4743     53.4932
   391.5000   2000.0000   2000.0000     18.1017     53.6161
   391.7500   2000.0000   2000.0000     16.6223     57.6618
   392.0000   2000.0000   2000.0000     16.1049     61.8853
   392.2500   2000.0000   2000.0000     15.7615     79.5785
   392.5000   2000.0000   2000.0000     15.3340     94.1604
   392.7500   2000.0000   2000.0000     14.5969     98.6417
   393.0000   2000.0000   2000.0000     14.1223    114.5715
   393.2500   2000.0000   2000.0000     13.2038    133.8935
   393.5000   2000.0000   2000.0000     12.1292    129.2441
   393.7500   2000.0000   2000.0000     12.8134    141.2223
   394.0000   2000.0000   2000.0000     13.3904    139.9235
   394.2500   2000.0000   2000.0000     13.2380    131.5751
   394.5000   2000.0000   2000.0000     12.8639    131.5621
   394.7500   2000.0000   2000.0000     12.8736    125.0497
   395.0000   2000.0000   2000.0000     13.2018    122.3088
   395.2500   2000.0000   2000.0000     14.5879    126.8850
   395.5000   2000.0000   2000.0000     16.0354    134.2015
   395.7500   2000.0000   2000.0000     14.2082    124.4233
   396.0000   2000.0000   2000.0000     14.5055    131.0658
   396.2500   2000.0000   2000.0000     14.9592    149.4970
   396.5000   2000.0000   2000.0000     15.4183    168.3828
   396.7500   2000.0000   2000.0000     16.9646    147.8543
   397.0000   2000.0000   2000.0000     24.5031    118.1084
   397.2500   2000.0000   2000.0000     18.3350    105.3794
   397.5000   2000.0000   2000.0000     16.6176    124.5822
   397.7500   2000.0000   2000.0000     16.4484    129.8530
   398.0000   2000.0000   2000.0000     16.3115    111.3798
   398.2500   2000.0000   2000.0000     16.5039    109.1129
   398.5000   2000.0000   2000.0000     17.0645    117.0143
   398.7500   2000.0000   2000.0000     15.6339    111.2760
   399.0000   2000.0000   2000.0000     14.9071    108.4311
   399.2500   2000.0000   2000.0000     14.0134    106.1774
   399.5000   2000.0000   2000.0000     14.4110     91.6351
   399.7500   2000.0000   2000.0000     13.6563     92.4335
   400.0000   2000.0000   2000.0000     14.0057     68.2756
   400.2500   2000.0000   2000.0000     13.2813     79.9888
   400.5000   2000.0000   2000.0000     12.8063     92.2763
   400.7500   2000.0000   2000.0000     12.4985     92.6623
   401.0000   2000.0000   2000.0000     12.2101    105.0441
   401.2500   2000.0000   2000.0000     11.8378     94.3481
   401.5000   2000.0000   2000.0000     11.6142    109.9872
   401.7500   2000.0000   2000.0000     11.3860    119.6277
   402.0000   2000.0000   2000.0000     12.0250    147.4085
   402.2500   2000.0000   2000.0000     11.3607    125.6978
   402.5000   2000.0000   2000.0000     11.3901    119.8132
   402.7500   2000.0000   2000.0000     12.1094    129.0782
   403.0000   2000.0000   2000.0000     14.3120     95.3326
   403.2500   2000.0000   2000.0000     12.7902     82.9973
   403.5000   2000.0000   2000.0000     14.0172     95.9982
   403.7500   2000.0000   2000.0000     17.2531     93.5172
   404.0000   2000.0000   2000.0000     13.7846     81.6752
   404.2500   2000.0000   2000.0000     14.2089     75.6034
   404.5000   2000.0000   2000.0000     15.8367     80.1351
   404.7500   2000.0000   2000.0000     15.4551     86.6808
   405.0000   2000.0000   2000.0000     16.6428    104.5324
   405.2500   2000.0000   2000.0000     16.4478    110.4864
   405.5000   2000.0000   2000.0000     16.5760    100.5154
   405.7500   2000.0000   2000.0000     18.1994     99.7719
   406.0000   2000.0000   2000.0000     19.1713    100.9111
   406.2500   2000.0000   2000.0000     23.6462     99.0715
   406.5000   2000.0000   2000.0000     18.8025    100.5955
   406.7500   2000.0000   2000.0000     18.9667    102.8407
   407.0000   2000.0000   2000.0000     22.6738     88.0089
   407.2500   2000.0000   2000.0000     19.5791     74.8515
   407.5000   2000.0000   2000.0000     16.9684     62.4838
   407.7500   2000.0000   2000.0000     16.2043     78.8668
   408.0000   2000.0000   2000.0000     17.2851     77.2248
   408.2500   2000.0000   2000.0000     22.2078     72.8264
   408.5000   2000.0000   2000.0000     14.6403     67.8446
   408.7500   2000.0000   2000.0000     13.7828     84.2769
   409.0000   2000.0000   2000.0000     13.8472     75.5854
   409.2500   2000.0000   2000.0000     15.5503     77.3984
   409.5000     14.3052   2000.0000     12.0543    103.1787
   409.7500     14.0979   2000.0000     11.3225    123.5814
   410.0000     12.9450     66.6551     10.9731    117.8308
   410.2500     11.6383     66.8161     10.9153    114.2955
