~Version Information
VERS.                      2.0: CWLS Log ASCII Standard - VERSION 2.0
WRAP.                       NO: One line per depth step
~Well Information Block
STRT.FT                10.0000: 
STOP.FT              1458.0000: 
STEP.FT                 0.1000: 
NULL.                -999.2500: 
COMP.          Pioneer Natural Resources: COMPANY
WELL.            Bordeaux 42-2: WELL
FLD.           Purgatorie River: FIELD
LOC.           1963' FNL & 1148' FEL: LOCATION
PROV.                 Colorado: PROVINCE
CNTY.               Las Animas: COUNTRY
SRVC.                Patterson: SERVICE COMPANY
DATE.          Tue Nov 29 07:11:03 2005: LOG DATE
UWI.                          : UNIQUE WELL ID
~Curve Information Block
DEPT.FT            0 000 00 00: Depth
DCAL.in                       : CDL Caliper
RHOB.g/cc                     : CDL Bulk Density
RHOC.g/cc                     : CDL Density Correction
DPOR.pu                       : CDL Density Porosity
GR.GAPI                       : Gamma Ray
NPOR.pu                       : Neutron Porosity
~Parameter Information Block
~A  Depth       DCAL        RHOB        RHOC        DPOR         GR         NPOR    
# ...
  1440.4000      7.7904      2.4798      0.0081     10.3150     85.6159   -999.2500
  1440.5000      7.8204      2.5064      0.0647      8.7015     84.7030   -999.2500
  1440.6000      7.8204      2.5332      0.0529      7.0811     87.5960   -999.2500
  1440.7000      7.8204      2.5564      0.1148      5.6720     89.8817   -999.2500
  1440.8000      7.8160      2.5717      0.1136      4.7465     89.0256   -999.2500
  1440.9000      7.8160      2.5807      0.1198      4.1992     88.3899   -999.2500
  1441.0000      7.7498      2.5850      0.1297      3.9399     90.5293   -999.2500
  1441.1000      7.7498      2.5827      0.1101      4.0786     95.4632   -999.2500
  1441.2000      7.7498      2.5775      0.1047      4.3911    101.4020   -999.2500
  1441.3000      7.7284      2.5732      0.1212      4.6526    105.2776   -999.2500
  1441.4000      7.7284      2.5650      0.1039      5.1529    104.6296   -999.2500
  1441.5000      7.7515      2.5516      0.0886      5.9619    101.5540   -999.2500
  1441.6000      7.7515      2.5476      0.0412      6.2047    102.2614   -999.2500
  1441.7000      7.7515      2.5620      0.0708      5.3323    106.7106   -999.2500
  1441.8000      7.7914      2.5768      0.1174      4.4385    107.8008   -999.2500
  1441.9000      7.7914      2.5789      0.0431      4.3071    104.3526   -999.2500
  1442.0000      7.8241      2.5814      0.0403      4.1556    102.4652   -999.2500
  1442.1000      7.8241      2.5818      0.1464      4.1314    105.3698   -999.2500
  1442.2000      7.8241      2.5656      0.0937      5.1159    110.4260   -999.2500
  1442.3000      7.8120      2.5479      0.0418      6.1895    114.9202   -999.2500
  1442.4000      7.8120      2.5461      0.0836      6.2968    116.1641   -999.2500
  1442.5000      7.7918      2.5452      0.0979      6.3515    112.0370   -999.2500
  1442.6000      7.7918      2.5352      0.0470      6.9599    105.2482   -999.2500
  1442.7000      7.7918      2.5299      0.0338      7.2807    100.1259   -999.2500
  1442.8000      7.7992      2.5340      0.0413      7.0322     98.8392   -999.2500
  1442.9000      7.7992      2.5389      0.0865      6.7336    100.9901   -999.2500
  1443.0000      7.8048      2.5415      0.0518      6.5760    104.3621   -999.2500
  1443.1000      7.8048      2.5427      0.0771      6.5036    105.8594   -999.2500
  1443.2000      7.8048      2.5472      0.0387      6.2311    104.8673   -999.2500
  1443.3000      7.8010      2.5631      0.0760      5.2657    104.8575   -999.2500
  1443.4000      7.8010      2.5836      0.0737      4.0232    107.3710   -999.2500
  1443.5000      7.8137      2.5912      0.0798      3.5611    108.1490   -999.2500
  1443.6000      7.8137      2.5763      0.0843      4.4681    104.1252   -999.2500
  1443.7000      7.8137      2.5484      0.0099      6.1568     99.3362   -999.2500
  1443.8000      7.8254      2.5277      0.0039      7.4131     99.3338   -999.2500
  1443.9000      7.8254      2.5199     -0.0055      7.8849    103.2875   -999.2500
  1444.0000      7.8378      2.5262     -0.0392      7.5021    106.8447   -999.2500
  1444.1000      7.8378      2.5467      0.0165      6.2626    108.5969   -999.2500
  1444.2000      7.8378      2.5609      0.0774      5.4009    108.0044   -999.2500
  1444.3000      7.8222      2.5562      0.0459      5.6867    105.4011   -999.2500
  1444.4000      7.8222      2.5512      0.0514      5.9881    102.2842   -999.2500
  1444.5000      7.8122      2.5564      0.0990      5.6709     93.1115   -999.2500
  1444.6000      7.8122      2.5576      0.1061      5.5990     68.7176   -999.2500
  1444.7000      7.8122      2.5486      0.0256      6.1472     35.2051   -999.2500
  1444.8000      7.8026      2.5359      0.0632      6.9136     11.1577   -999.2500
  1444.9000      7.8026      2.5221      0.0636      7.7537      2.0362   -999.2500
  1445.0000      7.8184      2.5122      0.0504      8.3516      0.2052   -999.2500
  1445.1000      7.8184      2.5155      0.0199      8.1506      0.0109   -999.2500
  1445.2000      7.8184      2.5281      0.0703      7.3890      0.0000   -999.2500
  1445.3000      7.8041      2.5347      0.0518      6.9876   -999.2500   -999.2500
  1445.4000      7.8041      2.5222      0.1160      7.7441   -999.2500   -999.2500
  1445.5000      7.8081      2.4960      0.0202      9.3328   -999.2500   -999.2500
  1445.6000      7.8081      2.4883      0.0163      9.8004   -999.2500   -999.2500
  1445.7000      7.8081      2.5125      0.0863      8.3338   -999.2500   -999.2500
  1445.8000      7.8159      2.5405      0.1194      6.6364   -999.2500   -999.2500
  1445.9000      7.8159      2.5433      0.1227      6.4684   -999.2500   -999.2500
  1446.0000      7.8107      2.5268      0.0537      7.4658   -999.2500   -999.2500
  1446.1000      7.8107      2.5216      0.0343      7.7798   -999.2500   -999.2500
  1446.2000      7.8107      2.5376      0.0794      6.8150   -999.2500   -999.2500
  1446.3000      7.8218      2.5511      0.1022      5.9923   -999.2500   -999.2500
  1446.4000      7.8218      2.5410      0.0871      6.6084   -999.2500   -999.2500
  1446.5000      7.8098      2.5152      0.0198      8.1677   -999.2500   -999.2500
  1446.6000      7.8098      2.4985      0.0079      9.1792   -999.2500   -999.2500
  1446.7000      7.8098      2.5029      0.0201      8.9143   -999.2500   -999.2500
  1446.8000      7.8267      2.5213      0.0536      7.7972   -999.2500   -999.2500
  1446.9000      7.8267      2.5395      0.0736      6.6997   -999.2500   -999.2500
  1447.0000      7.8320      2.5483      0.0622      6.1613   -999.2500   -999.2500
  1447.1000      7.8320      2.5476      0.0627      6.2043   -999.2500   -999.2500
  1447.2000      7.8320      2.5427      0.0481      6.5036   -999.2500   -999.2500
  1447.3000      7.8209      2.5406      0.0475      6.6277   -999.2500   -999.2500
  1447.4000      7.8209      2.5389      0.0617      6.7346   -999.2500   -999.2500
  1447.5000      7.8118      2.5316      0.0275      7.1736   -999.2500   -999.2500
  1447.6000      7.8118      2.5291      0.0015      7.3294   -999.2500   -999.2500
  1447.7000      7.8118      2.5443      0.0110      6.4081   -999.2500   -999.2500
  1447.8000      7.8206      2.5724      0.0853      4.7039   -999.2500   -999.2500
  1447.9000      7.8206      2.5963      0.0771      3.2566   -999.2500   -999.2500
  1448.0000      7.8102      2.6038      0.0799      2.8006   -999.2500   -999.2500
  1448.1000      7.8102      2.6016      0.0697      2.9352   -999.2500   -999.2500
  1448.2000      7.8102      2.6028      0.1098      2.8595   -999.2500   -999.2500
  1448.3000      7.7879      2.6038      0.1144      2.8030   -999.2500   -999.2500
  1448.4000      7.7879      2.5976      0.0766      3.1731   -999.2500   -999.2500
  1448.5000      7.7782      2.5893      0.0781      3.6758   -999.2500   -999.2500
  1448.6000      7.7782      2.5849      0.0424      3.9434   -999.2500   -999.2500
  1448.7000      7.7782      2.5854      0.0364      3.9179   -999.2500   -999.2500
  1448.8000      7.8012      2.5873      0.0532      3.8011   -999.2500   -999.2500
  1448.9000      7.8012      2.5895      0.0763      3.6652   -999.2500   -999.2500
  1449.0000      7.8012      2.5937      0.1101      3.4139   -999.2500   -999.2500
  1449.1000      7.8012      2.6023      0.0644      2.8879   -999.2500   -999.2500
  1449.2000      7.8012      2.6086      0.1167      2.5092   -999.2500   -999.2500
  1449.3000      7.8010      2.5981      0.0990      3.1432   -999.2500   -999.2500
  1449.4000      7.8010      2.5789      0.0749      4.3098   -999.2500   -999.2500
  1449.5000      7.8165      2.5639      0.1088      5.2186   -999.2500   -999.2500
  1449.6000      7.8165      2.5494      0.0735      6.0961   -999.2500   -999.2500
  1449.7000      7.8165      2.5347      0.0609      6.9900   -999.2500   -999.2500
  1449.8000      7.8130      2.5246      0.0580      7.5980   -999.2500   -999.2500
  1449.9000      7.8130      2.5229      0.0963      7.7042   -999.2500   -999.2500
