~Version Information
VERS.                      2.0: CWLS Log ASCII Standard - VERSION 2.0
WRAP.                       NO: One line per depth step
~Well Information Block
STRT.FT                -8.0000: 
STOP.FT               918.7500: 
STEP.FT                 0.2500: 
NULL.                -999.2500: 
COMP.          Pioneer Natural Resources: COMPANY
WELL.          Sculpin 32-30 Tr: WELL
FLD.           Purgatorie River: FIELD
LOC.           1600' FNL & 1857' FEL--: LOCATION
CNTY.               Las Animas: COUNTY
SRVC.          Patterson Wireline: SERVICE COMPANY
DATE.          Thu Aug 03 08:40:45 2006: LOG DATE
UWI.           05 071 08706 00: UNIQUE WELL ID
STAT.                       CO: STATE
~Curve Information Block
DEPT.FT            0 000 00 00: Depth
CCL.                          : Casing Collar Locator
TT3.usec                      : CBL 3' Travel Time
AMP3.mV                       : CBL 3' Amplitude
GR.GAPI                       : Gamma Ray
~Parameter Information Block
~A  Depth       CCL         TT3         AMP3         GR     
    -8.0000   -999.2500   -999.2500   -999.2500    102.7685
    -7.7500   -999.2500   -999.2500   -999.2500    103.7391
    -7.5000   -999.2500   -999.2500   -999.2500    102.9612
    -7.2500   -999.2500   -999.2500   -999.2500    100.9077
    -7.0000   -999.2500   -999.2500   -999.2500     99.0731
    -6.7500   -999.2500   -999.2500   -999.2500     98.5737
    -6.5000   -999.2500   -999.2500   -999.2500     99.3749
    -6.2500   -999.2500   -999.2500   -999.2500    100.6859
    -6.0000   -999.2500   -999.2500   -999.2500    101.7105
    -5.7500   -999.2500   -999.2500   -999.2500    102.1106
    -5.5000   -999.2500   -999.2500   -999.2500    102.1419
    -5.2500   -999.2500   -999.2500   -999.2500    102.4772
    -5.0000   -999.2500   -999.2500   -999.2500    103.6841
    -4.7500   -999.2500   -999.2500   -999.2500    105.6474
    -4.5000   -999.2500   -999.2500   -999.2500    107.4790
    -4.2500   -999.2500   -999.2500   -999.2500    108.0196
    -4.0000   -999.2500   -999.2500   -999.2500    106.5685
    -3.7500   -999.2500   -999.2500   -999.2500    103.4515
    -3.5000   -999.2500   -999.2500   -999.2500     99.9406
    -3.2500   -999.2500   1134.0000      1.8658     97.2882
    -3.0000   -999.2500   1134.0000      1.8677     95.6424
    -2.7500   -999.2500   1134.0000      1.8701     94.0873
    -2.5000   -999.2500   1134.0000      1.8722     91.7711
    -2.2500   -999.2500   1134.0000      1.8727     88.7223
    -2.0000   -999.2500   1134.0000      1.8705     85.4972
    -1.7500   -999.2500   1134.0000      1.8661     82.3843
    -1.5000   -999.2500   1134.0000      1.8617     79.1636
    -1.2500   -999.2500   1134.0000      1.8611     75.4889
    -1.0000   -999.2500   1134.0000      1.8664     71.3065
    -0.7500   -999.2500   1134.0000      1.8748     66.9510
    -0.5000   -999.2500   1134.0000      1.8788     62.8223
    -0.2500   -999.2500   1134.0000      1.8735     58.8902
     0.0000   -999.2500   1134.0000      1.8620     54.7107
     0.2500   -999.2500   1134.0000      1.8524     45.3639
     0.5000   -999.2500   1134.0000      1.8595     40.9668
     0.7500   -999.2500   1134.0000      1.8696     36.8076
     1.0000   -999.2500   1134.0000      1.8803     32.6337
     1.2500   -999.2500   1134.0000      1.8920     28.7245
     1.5000   -999.2500   1134.0000      1.9049     25.9092
     1.7500   -999.2500   1134.0000      1.9160     24.8699
     2.0000   -999.2500   1134.0000      1.9209     25.7999
     2.2500      0.0000   1134.0000      1.9180     28.8133
     2.5000      0.0000   1134.0000      1.9103     34.2316
     2.7500      0.0000   1134.0000      1.9030     42.0881
     3.0000      0.0000   1134.0000      1.8985     51.5324
     3.2500      0.0000   1134.0000      1.8955     60.9323
     3.5000      0.0000   1134.0000      1.8920     68.4505
     3.7500      0.0000   1134.0000      1.8880     72.6482
     4.0000      0.0000   1134.0000      1.8856     73.1198
     4.2500      0.0000   1134.0000      1.8861     70.8187
     4.5000      0.0000   1134.0000      1.8894     67.4690
     4.7500      0.0000   1133.9690      1.8948     64.4611
     5.0000      0.0000   1133.7455      1.9018     62.4965
     5.2500      0.0000   1132.5791      1.9085     62.0741
     5.5000      0.0000   1127.8064      1.9150     63.5271
     5.7500      0.0000   1112.4760      1.9329     66.3495
     6.0000      0.0000   1073.7612      2.0022     69.1877
     6.2500      0.0000    996.7809      2.1957     71.0120
     6.5000      0.0000    876.0848      2.5895     71.9494
     6.7500      0.0000    726.6732      3.1965     72.6289
     7.0000      0.0000    580.4919      3.9214     73.2300
     7.2500      0.0000    467.3914      4.6011     73.7811
     7.5000      0.0000    398.2033      5.1087     74.9444
     7.7500      0.0000    364.8098      5.4172     77.6209
     8.0000      0.0000    352.2382      5.5746     81.7635
     8.2500      0.0000    348.8094      5.6415     86.0980
     8.5000      0.0000    348.5714      5.6582     89.0582
     8.7500      0.0000    349.3186      5.6484     89.8535
     9.0000      0.0000    350.3977      5.6305     88.9876
     9.2500      0.0000    351.6138      5.6178     88.0327
     9.5000      0.0000    352.9038      5.6135     88.5397
     9.7500      0.0000    354.2415      5.6101     90.7068
    10.0000      0.0000    355.5767      5.5985     93.1873
    10.2500      0.0000    356.8445      5.5793     94.5068
    10.5000      0.0000    358.0982      5.5664     94.6504
    10.7500      0.0000    359.7375      5.5774     94.9761
    11.0000      0.0000    362.5859      5.6187     96.6142
    11.2500      0.0000    367.4838      5.6839     99.1445
    11.5000      0.0000    374.4810      5.7614    100.7280
    11.7500      0.0000    382.3955      5.8419     99.4013
    12.0000      0.0000    389.4230      5.9177     94.5449
    12.2500      0.0000    394.3468      5.9814     87.4679
    12.5000      0.0000    397.1448      6.0268     80.6458
    12.7500      0.0000    398.7403      6.0506     76.0911
    13.0000      0.0000    400.5963      6.0508     74.1172
    13.2500      0.0000    404.6333      6.0241     73.5587
    13.5000      0.0000    412.6089      5.9710     73.1036
    13.7500      0.0000    424.0740      5.9107     72.2565
    14.0000      0.0000    434.5947      5.8815     71.2489
    14.2500      0.0000    437.8954      5.9066     70.5047
    14.5000      0.0000    431.4364      5.9610     70.2262
    14.7500      0.0000    418.8716      5.9948     70.1188
    15.0000      0.0000    406.0252      5.9857     69.4581
    15.2500      0.0000    396.0126      5.9490     67.6323
    15.5000      0.0000    389.1539      5.9067     64.6838
    15.7500     -2.0000    385.5098      5.8672     61.2615
    16.0000      0.0000    385.4588      5.8326     58.2387
    16.2500      0.0000    388.2574      5.8122     56.5034
    16.5000      0.0000    391.5391      5.8228     56.7580
    16.7500      0.0000    392.8054      5.8677     59.0284
    17.0000      0.0000    391.1547      5.9092     62.4124
    17.2500      0.0000    387.6535      5.8851     65.5298
    17.5000      0.0000    384.4026      5.7740     67.2106
    17.7500      0.0000    383.3512      5.6249     66.8972
    18.0000      0.0000    385.3525      5.5085     64.8347
    18.2500      0.0000    389.6842      5.4569     61.9712
    18.5000      0.0000    394.5287      5.4587     59.3758
    18.7500      0.0000    398.2607      5.4886     57.6099
    19.0000      0.0000    400.3484      5.5267     56.5915
    19.2500      0.0000    401.1635      5.5624     55.8228
    19.5000      0.0000    401.2593      5.5918     54.7763
    19.7500      0.0000    400.8739      5.6137     53.3768
    20.0000      0.0000    399.7763      5.6266     52.2348
    20.2500      0.0000    397.3230      5.6298     52.2124
    20.5000      0.0000    392.8408      5.6250     53.6314
    20.7500      0.0000    386.3279      5.6164     55.9739
    21.0000      0.0000    378.8914      5.6080     58.5263
    21.2500      0.0000    372.2469      5.5990     61.3475
    21.5000      0.0000    367.6022      5.5814     65.3099
    21.7500      0.0000    365.0495      5.5458     70.8523
    22.0000      0.0000    363.9257      5.4942     76.8774
    22.2500      0.0000    363.5064      5.4448     81.4560
    22.5000      0.0000    363.3539      5.4201     83.7079
    22.7500      0.0000    363.2816      5.4310     84.4810
    23.0000      0.0000    363.2166      5.4721     85.0600
    23.2500      0.0000    363.1279      5.5297     85.9234
    23.5000      0.0000    363.0219      5.5910     87.1936
    23.7500      0.0000    362.9854      5.6494     89.4442
    24.0000      0.0000    363.2687      5.7046     92.9962
    24.2500      0.0000    364.3862      5.7577     96.6747
    24.5000      0.0000    367.0545      5.8053     98.3513
    24.7500      0.0000    371.7184      5.8374     97.0665
    25.0000      0.0000    377.7542      5.8446     94.0660
    25.2500      0.0000    383.1342      5.8258     91.3793
