~Version Information
VERS.                      2.0: CWLS Log ASCII Standard - VERSION 2.0
WRAP.                       NO: One line per depth step
~Well Information Block
STRT.FT               -12.2500: 
STOP.FT              1442.2500: 
STEP.FT                 0.2500: 
NULL.                -999.2500: 
COMP.          Pioneer Natural Resources: COMPANY
WELL.              Lucky 21-36: WELL
FLD.           Purgatorie River: FIELD
LOC.           799' FNL & 1578' FWL--: LOCATION
CDN. :
PROV. :
UWI. :
STAT. :
CNTY. :
CTRY. :
API. :
COMP. :
WELL. :
FLD. :
LOC. :
DATE. :
SRVC. :
CNTY.               Las Animas: COUNTY
SRVC.          Superior Well Services: SERVICE COMPANY
DATE.          Mon Jul 21 12-16-21 2008: LOG DATE
UWI.           05 071 08456 00: UNIQUE WELL ID
STAT.                       CO: STATE
~Curve Information Block
DEPT.FT            0 000 00 00: Depth
CCL.                          : Casing Collar Locator
TT3.usec                      : CBL 3' Travel Time
AMP3.mV                       : CBL 3' Amplitude
GR.GAPI                       : Gamma Ray
~Parameter Information Block
~A  Depth       CCL         TT3         AMP3         GR     
# ...
   825.2500      0.0000    692.3097      5.1485     58.4802
   825.5000      0.0000    696.5705      5.5343     56.3424
   825.7500      0.0000    702.8538      5.9946     56.3497
   826.0000      0.0000    709.4410      6.5040     58.6284
   826.2500      0.0000    714.2874      7.0262     61.6764
   826.5000      0.0000    717.1219      7.5177     63.5361
   826.7500      0.0000    719.9661      7.9391     63.4288
   827.0000      0.0000    724.8916      8.2700     62.3067
   827.2500      0.0000    731.4974      8.5162     61.9456
   827.5000      0.0000    737.2222      8.7010     63.5480
   827.7500      0.0000    739.7039      8.8438     67.0172
   828.0000      0.0000    738.1276      8.9409     71.2172
   828.2500      0.0000    733.0966      8.9673     74.7097
   828.5000      0.0000    726.6472      8.8992     76.4214
   828.7500      0.0000    722.3050      8.7375     76.0204
   829.0000      0.0000    723.6642      8.5144     73.9695
   829.2500      0.0000    731.7187      8.2804     71.3174
   829.5000      0.0000    743.2687      8.0831     69.2376
   829.7500      0.0000    752.5695      7.9443     68.4666
   830.0000      0.0000    755.4211      7.8339     69.1548
   830.2500      0.0000    751.8941      7.6632     71.4795
   830.5000      0.0000    744.9989      7.3319     76.1892
   830.7500      0.0000    737.5562      6.8100     83.8242
   831.0000      0.0000    731.0530      6.1733     93.3392
   831.2500      0.0000    726.0975      5.5505    102.2527
   831.5000      0.0000    722.5298      5.0437    108.4018
   831.7500     -2.0000    720.2697      4.6909    111.1287
   832.0000     -2.0000    721.3500      4.4779    111.0046
   832.2500      2.0000    729.6544      4.3720    109.2513
   832.5000      0.0000    746.7365      4.3493    107.5405
   832.7500      0.0000    768.3383      4.3984    107.6418
   833.0000      0.0000    786.8089      4.5059    110.9388
   833.2500      0.0000    797.3954      4.6643    118.1775
   833.5000      0.0000    801.0147      4.9044    129.1327
   833.7500      0.0000    800.8644      5.2965    142.1416
   834.0000      0.0000    798.2347      5.9002    154.5022
   834.2500      0.0000    792.6406      6.7248    163.9896
   834.5000      0.0000    784.4759      7.7407    170.0134
   834.7500      0.0000    775.9100      8.8918    173.3461
   835.0000      0.0000    769.3525     10.0740    175.2466
   835.2500      0.0000    765.7978     11.1345    176.8539
   835.5000      0.0000    764.6823     11.9362    178.6524
   835.7500      0.0000    764.9194     12.4373    180.0975
   836.0000      0.0000    765.9219     12.7025    180.1562
   836.2500      0.0000    767.7988     12.8460    178.4835
   836.5000      0.0000    770.7612     12.9674    175.8159
   836.7500      0.0000    774.3657     13.1227    173.2195
   837.0000      0.0000    777.3693     13.3230    171.2379
   837.2500      0.0000    778.4282     13.5439    169.5780
   837.5000      0.0000    777.0483     13.7417    167.5242
   837.7500      0.0000    773.9296     13.8734    165.0564
   838.0000      0.0000    770.4120     13.9113    163.6543
   838.2500      0.0000    767.5403     13.8465    165.4601
   838.5000      0.0000    765.5911     13.6839    171.2690
   838.7500      0.0000    764.3245     13.4359    179.4819
   839.0000      0.0000    763.3687     13.1207    187.1126
   839.2500      0.0000    762.2249     12.7636    191.5297
   839.5000      0.0000    760.0278     12.4000    191.4394
   839.7500      0.0000    755.6214     12.0729    187.1850
   840.0000      0.0000    748.4294     11.8225    180.5880
   840.2500      0.0000    739.3066     11.6798    174.0045
   840.5000      0.0000    729.4160     11.6710    169.0017
   840.7500      0.0000    716.6739     11.8279    165.6741
   841.0000      0.0000    693.6490     12.1866    162.8791
   841.2500      0.0000    651.6825     12.7626    158.9429
   841.5000      0.0000    589.4714     13.5225    152.5128
   841.7500      0.0000    517.3148     14.3860    143.4874
   842.0000      0.0000    451.1790     15.2679    133.4284
   842.2500      0.0000    402.1110     16.1257    124.5404
   842.5000      0.0000    371.4349     16.9652    117.8270
   842.7500      0.0000    354.0323     17.7962    112.5521
   843.0000      0.0000    343.6440     18.5905    107.6499
   843.2500      0.0000    335.6887     19.2884    103.1193
   843.5000      0.0000    327.9935     19.8350     99.7873
   843.7500      0.0000    320.6840     20.1952     98.1004
   844.0000      0.0000    315.3464     20.3372     97.4604
   844.2500      0.0000    313.6918     20.2238     96.7308
   844.5000      0.0000    316.8387     19.8380     95.3434
   844.7500      0.0000    325.6034     19.2167     93.9431
   845.0000      0.0000    341.4615     18.4535     93.8802
   845.2500      0.0000    366.3679     17.6594     95.7626
   845.5000      0.0000    399.3655     16.9158     98.4334
   845.7500      0.0000    432.2645     16.2591     99.8258
   846.0000      0.0000    452.3097     15.6947     99.0217
   846.2500      0.0000    453.7727     15.2131     97.2884
   846.5000      0.0000    446.5896     14.7920     97.2053
   846.7500      0.0000    450.7275     14.3955    100.9596
   847.0000      0.0000    481.1306     13.9898    108.9083
   847.2500      0.0000    536.3077     13.5691    119.0620
   847.5000      0.0000    598.2406     13.1655    128.1567
   847.7500      0.0000    643.5864     12.8267    133.7760
   848.0000      0.0000    658.5914     12.5785    135.5963
   848.2500      0.0000    646.8860     12.4071    134.8442
   848.5000      0.0000    625.5373     12.2797    133.0769
   848.7500      0.0000    613.2894     12.1811    131.2930
   849.0000      0.0000    619.2692     12.1195    129.4687
   849.2500      0.0000    639.8377     12.0932    126.8686
   849.5000      0.0000    665.0828     12.0698    123.2593
   849.7500      0.0000    687.5696     12.0106    119.8345
   850.0000      0.0000    705.4468     11.9040    118.7781
   850.2500      0.0000    719.9309     11.7649    121.7794
   850.5000      0.0000    732.1910     11.6135    128.5763
   850.7500      0.0000    741.9673     11.4630    136.8007
   851.0000      0.0000    747.4685     11.3230    143.5042
   851.2500      0.0000    745.7617     11.2106    146.9380
   851.5000      0.0000    734.1671     11.1589    146.8780
   851.7500      0.0000    713.5861     11.2062    143.8837
   852.0000      0.0000    691.5786     11.3662    138.8248
   852.2500      0.0000    679.5245     11.6113    132.7475
   852.5000      0.0000    683.4331     11.8994    126.5612
   852.7500      0.0000    698.3674     12.2147    120.8103
   853.0000      0.0000    713.8210     12.5762    115.9018
   853.2500      0.0000    722.8726     13.0152    112.5023
   853.5000      0.0000    724.2603     13.5515    111.2814
   853.7500      0.0000    717.1193     14.1843    111.8725
   854.0000      0.0000    696.3167     14.8937    112.4336
   854.2500      0.0000    654.6039     15.6516    110.8717
   854.5000      0.0000    590.5014     16.4299    106.5102
   854.7500      0.0000    513.6448     17.1969    100.4074
   855.0000      0.0000    440.5365     17.9036     94.3122
   855.2500      0.0000    384.4481     18.4810     89.4945
   855.5000      0.0000    349.7923     18.8652     86.1180
   855.7500      0.0000    334.0549     19.0326     83.3730
   856.0000      0.0000    332.0336     19.0186     80.4635
   856.2500      0.0000    338.4359     18.9003     77.6578
   856.5000      0.0000    349.7228     18.7567     76.0703
   856.7500      0.0000    366.5594     18.6349     76.4260
   857.0000      0.0000    394.8717     18.5398     78.3737
   857.2500      0.0000    441.8099     18.4464     80.9183
   857.5000      0.0000    507.1727     18.3258     83.0919
   857.7500      0.0000    578.3521     18.1708     84.1725
   858.0000      0.0000    636.0022     18.0012     83.5722
   858.2500      0.0000    666.4846     17.8494     80.8820
   858.5000      0.0000    670.1193     17.7369     76.2770
