~Version Information
VERS.                      2.0: CWLS Log ASCII Standard - VERSION 2.0
WRAP.                       NO: One line per depth step
~Well Information Block
STRT.FT                 0.0000: 
STOP.FT              1201.0000: 
STEP.FT                 0.2500: 
NULL.                -999.2500: 
COMP.          Pioneer Natural Resources: COMPANY
WELL.             Margaux 11-1: WELL
FLD.           Purgatoire River: FIELD
LOC.           1154' FNL & 472' FWL --------: LOCATION
PROV.                 Colorado: PROVINCE
CNTY.               Las Animas: COUNTRY
SRVC.                         : SERVICE COMPANY
DATE.          Thu Jan 05 11:16:55 2006: LOG DATE
UWI.                          : UNIQUE WELL ID
~Curve Information Block
DEPT.FT            0 000 00 00: Depth
CCL.                          : Casing Collar Locator
TT3.usec                      : CBL 3' Travel Time
AMP3.mV                       : CBL 3' Amplitude
AMP5.mV                       : CBL 5' Amplitude
GR.GAPI                       : Gamma Ray
~Parameter Information Block
~A  Depth       CCL         TT3         AMP3        AMP5         GR     
# ...
   952.0000      0.0000    368.7867      8.1729      1.3741     66.9654
   952.2500      0.0000    368.6356      8.1538      1.2976     69.6538
   952.5000      0.0000    369.2199      8.1315      1.1850     71.2349
   952.7500      0.0000    371.3241      8.0724      1.0900     71.4711
   953.0000      0.0000    376.0758      7.9302      1.0422     70.5564
   953.2500      0.0000    384.9545      7.6770      1.0494     68.7785
   953.5000      0.0000    400.3643      7.3341      1.1108     66.2519
   953.7500      0.0000    426.0965      6.9566      1.2121     63.1057
   954.0000      0.0000    464.9746      6.5712      1.3138     59.7683
   954.2500      0.0000    512.6465      6.1437      1.3623     56.8109
   954.5000      0.0000    553.6580      5.6515      1.3249     54.5015
   954.7500      0.0000    568.3930      5.1853      1.2085     52.6921
   955.0000      0.0000    548.6484      4.9175      1.0463     51.1633
   955.2500      0.0000    507.1525      4.9390      0.8761     49.9534
   955.5000      0.0000    470.7813      5.1662      0.7365     49.3559
   955.7500      0.0000    463.7284      5.4227      0.6697     49.7373
   956.0000     -2.0000    494.2015      5.5797      0.7091     51.3308
   956.2500      0.0000    551.4370      5.6228      0.8483     53.9670
   956.5000      0.0000    611.9609      5.6306      1.0247     56.8925
   956.7500      0.0000    651.7880      5.6928      1.1480     59.0126
   957.0000      0.0000    658.4363      5.8264      1.1571     59.5438
   957.2500      0.0000    634.7318      5.9943      1.0582     58.5410
   957.5000      0.0000    592.4188      6.2177      0.9165     56.8511
   957.7500      0.0000    543.1807      6.5973      0.8167     55.5971
   958.0000      0.0000    495.4432      7.1673      0.8196     55.5498
   958.2500      0.0000    455.6548      7.7919      0.9315     56.6642
   958.5000      0.0000    427.9707      8.2719      1.0956     58.0422
   958.7500      0.0000    412.3753      8.5173      1.2234     58.5058
   959.0000      0.0000    405.3134      8.5813      1.2519     57.5124
   959.2500      0.0000    402.6364      8.5675      1.1828     55.6822
   959.5000      0.0000    401.6615      8.5436      1.0643     54.3554
   959.7500      0.0000    401.2542      8.5233      0.9412     54.5488
   960.0000      0.0000    401.0940      8.4915      0.8309     56.3250
   960.2500      0.0000    401.1253      8.4359      0.7431     59.0912
   960.5000      0.0000    401.2734      8.3625      0.7004     62.1831
   960.7500      0.0000    401.4164      8.2888      0.7248     64.9111
   961.0000      0.0000    401.4375      8.2261      0.8102     66.3501
   961.2500      0.0000    401.2901      8.1719      0.9212     65.6656
   961.5000      0.0000    400.9651      8.1207      1.0264     62.8200
   961.7500      0.0000    400.3618      8.0796      1.1262     58.8192
   962.0000      0.0000    399.2633      8.0654      1.2401     55.2849
   962.2500      0.0000    397.6429      8.0849      1.3739     53.6588
   962.5000      0.0000    396.0776      8.1233      1.5094     54.4088
   962.7500      0.0000    395.5789      8.1558      1.6170     56.9310
   963.0000      0.0000    396.7021      8.1669      1.6581     60.4813
   963.2500      0.0000    398.9377      8.1584      1.5875     65.0302
   963.5000      0.0000    401.1949      8.1406      1.3847     70.7206
   963.7500      0.0000    402.7607      8.1202      1.0930     76.6586
   964.0000      0.0000    403.6685      8.0932      0.8150     80.8515
   964.2500      0.0000    404.5724      8.0454      0.6550     81.5401
   964.5000      0.0000    406.8889      7.9635      0.6613     78.4858
   964.7500      0.0000    413.5964      7.8540      0.8163     73.1273
   965.0000      0.0000    429.7036      7.7506      1.0683     67.6925
   965.2500      0.0000    460.2390      7.6983      1.3601     64.0037
   965.5000      0.0000    505.1611      7.7242      1.6347     62.8181
   965.7500      0.0000    555.5002      7.8203      1.8399     63.9803
   966.0000      0.0000    596.3373      7.9551      1.9467     66.9004
   966.2500      0.0000    615.1102      8.1000      1.9590     70.8394
   966.5000      0.0000    607.8651      8.2425      1.9000     75.0379
   966.7500      0.0000    580.0771      8.3771      1.7919     79.0068
   967.0000      0.0000    544.1069      8.4902      1.6516     82.9739
   967.2500      0.0000    514.0414      8.5598      1.4938     87.8754
   967.5000      0.0000    497.9893      8.5713      1.3257     94.4077
   967.7500      0.0000    492.6033      8.5313      1.1422    101.8723
   968.0000      0.0000    486.1836      8.4648      0.9420    108.1294
   968.2500      0.0000    469.2950      8.3975      0.7458    110.8826
   968.5000      0.0000    442.8544      8.3393      0.5919    109.1313
   968.7500      0.0000    415.9938      8.2842      0.5197    103.6768
   969.0000      0.0000    397.7911      8.2257      0.5593     96.4380
   969.2500      0.0000    392.4851      8.1732      0.7208     89.1793
   969.5000      0.0000    400.0343      8.1508      0.9743     82.7289
   969.7500      0.0000    416.8385      8.1788      1.2478     77.1970
   970.0000      0.0000    435.1021      8.2554      1.4602     72.5453
   970.2500      0.0000    445.6552      8.3587      1.5681     68.7852
   970.5000      0.0000    445.3982      8.4656      1.5818     65.9553
   970.7500      0.0000    441.9742      8.5657      1.5459     64.1938
   971.0000      0.0000    449.5329      8.6611      1.5038     63.7496
   971.2500      0.0000    478.9448      8.7596      1.4662     64.8548
   971.5000      0.0000    530.0072      8.8651      1.4079     67.6695
   971.7500      0.0000    590.7349      8.9708      1.3048     72.2741
   972.0000      0.0000    644.7808      9.0610      1.1760     78.4658
   972.2500      0.0000    681.6619      9.1201      1.0765     85.5197
   972.5000      0.0000    701.0267      9.1407      1.0512     92.2757
   972.7500      0.0000    708.7232      9.1216      1.1053     97.4368
   973.0000      0.0000    710.4786      9.0653      1.2127     99.7691
   973.2500      0.0000    708.4625      8.9779      1.3354     98.3771
   973.5000      0.0000    700.7443      8.8725      1.4367     93.2551
   973.7500      0.0000    682.4529      8.7673      1.4961     85.5946
   974.0000      0.0000    649.4540      8.6816      1.5179     77.1856
   974.2500      0.0000    603.7280      8.6333      1.5137     69.4038
   974.5000      0.0000    554.7386      8.6325      1.4811     62.8972
   974.7500      0.0000    513.2409      8.6700      1.4156     58.0648
   975.0000      0.0000    484.9168      8.7116      1.3375     55.2719
   975.2500      0.0000    472.6595      8.7101      1.2838     54.3543
   975.5000      0.0000    481.6417      8.6311      1.2698     54.2731
   975.7500      0.0000    515.6658      8.4755      1.2728     53.6600
   976.0000      0.0000    568.5668      8.2809      1.2523     51.8049
   976.2500      0.0000    624.4207      8.1012      1.1809     49.2231
   976.5000      0.0000    668.1570      7.9792      1.0663     47.4751
   976.7500      0.0000    694.4074      7.9325      0.9585     48.2458
   977.0000      0.0000    706.6649      7.9567      0.9273     52.0953
   977.2500      0.0000    711.0376      8.0334      1.0161     57.8796
   977.5000      0.0000    711.7812      8.1309      1.2078     63.4865
   977.7500      0.0000    710.6628      8.2045      1.4405     67.1498
   978.0000      0.0000    708.3848      8.2064      1.6570     68.1156
   978.2500      0.0000    705.9177      8.1022      1.8330     66.4387
   978.5000      0.0000    704.6234      7.8859      1.9621     62.6628
   978.7500      0.0000    705.2586      7.5879      2.0328     57.9235
   979.0000      0.0000    707.2998      7.2716      2.0339     54.0793
   979.2500      0.0000    709.5292      7.0124      1.9719     53.1380
   979.5000      0.0000    711.0727      6.8632      1.8741     56.0640
   979.7500      0.0000    711.7173      6.8230      1.7777     62.0738
