~Version Information
 VERS.                                  2.0 : CWLS LAS VERSION
 WRAP.                                   NO : WRAPING MODE
 SWARE .                MController 2.5.0QA : SOFTWARE VERSION
~Well Information
 WELL.                        Fleming 11-02 : WELL
 COMP.    Pioneer Natural Resources USA Inc : COMPANY
 FLD.                      Purgatoire River : FIELD
 LOC.                 NW/NW Sec02 T33S R66W : LOCATION
 DATE.                          06/25-27/06 : DATE(S) LOGGED
 SRVC.       Blanco Geological Services LLC : SERVICE COMPANY
 STAT.                             Colorado : STATE
 CNTY.                           Las Animas : COUNTY
 CTRY.                                  USA : COUNTRY
 API.                       05-071-08491-00 : API NUMBER
 STRT.FT                             347.00 : START DEPTH
 STOP.FT                            2080.00 : STOP DEPTH
 STEP.FT                               1.00 : DEPTH INCREMENT
 NULL.                                -9999 : NULL VALUE
~Curve information
 DEPTH.FT                                   :
 ROP.MIN/FT                                 :
 GAS.UNITS                                  :
~ASCII Log data
# ...
      1747.0         0.38       1291.8 
      1748.0         0.37       1273.3 
      1749.0         0.43       1272.0 
      1750.0         0.37       1267.8 
      1751.0         0.37       1256.4 
      1752.0         0.37       1252.9 
      1753.0         0.33       1252.2 
      1754.0         0.37       1253.5 
      1755.0         0.43       1264.9 
      1756.0         0.48       1268.5 
      1757.0         0.40       1264.6 
      1758.0         0.40       1263.3 
      1759.0         0.43       1252.6 
      1760.0         0.47       1238.3 
      1761.0         0.47       1229.2 
      1762.0         4.53       2198.7 
      1763.0         0.47       1864.9 
      1764.0         0.53       1867.5 
      1765.0         0.43       1800.3 
      1766.0         0.47       1717.2 
      1767.0         0.47       1673.7 
      1768.0         0.47       1655.2 
      1769.0         0.42       1571.7 
      1770.0         0.40       1543.5 
      1771.0         0.37       1435.7 
      1772.0         0.40       1417.8 
      1773.0         0.37       1388.0 
      1774.0         0.50       1366.2 
      1775.0         0.43       1356.5 
      1776.0         0.47       1340.5 
      1777.0         0.52       1317.5 
      1778.0         0.43       1290.9 
      1779.0         0.43       1270.4 
      1780.0         0.47       1259.4 
      1781.0         0.47       1253.8 
      1782.0         0.50       1253.8 
      1783.0         0.47       1254.2 
      1784.0         0.55       1252.2 
      1785.0         0.43       1238.9 
      1786.0         0.43       1238.3 
      1787.0         0.53       1250.3 
      1788.0         0.57       1250.3 
      1789.0         0.57       1239.6 
      1790.0         0.72       1215.5 
      1791.0         0.73       1431.8 
      1792.0         4.62       2270.2 
      1793.0         0.57       2166.3 
      1794.0         0.50       2097.4 
      1795.0         0.55       1878.3 
      1796.0         0.53       1763.0 
      1797.0         0.53       1606.8 
      1798.0         0.57       1606.2 
      1799.0         0.53       1567.5 
      1800.0         0.43       1489.9 
      1801.0         0.42       1509.7 
      1802.0         0.33       1581.2 
      1803.0         0.43       1564.9 
      1804.0         0.47       1556.8 
      1805.0         0.57       1498.7 
      1806.0         0.60       1457.4 
      1807.0         0.57       1453.2 
      1808.0         0.55       1431.5 
      1809.0         0.63       1437.6 
      1810.0         0.60       1421.1 
      1811.0         0.60       1411.0 
      1812.0         0.57       1404.8 
      1813.0         0.75       1405.8 
      1814.0         0.60       1375.6 
      1815.0         0.60       1358.7 
      1816.0         0.60       1370.4 
      1817.0         0.57       1390.6 
      1818.0         0.70       1383.1 
      1819.0         0.75       1354.8 
      1820.0         0.70       1347.4 
      1821.0         1.13       1336.3 
      1822.0         5.80       3737.2 
      1823.0         0.63       2174.7 
      1824.0         0.60       2112.4 
      1825.0         0.37       1902.3 
      1826.0         0.38       1882.2 
      1827.0         0.40       1885.1 
      1828.0         0.33       1876.3 
      1829.0         0.23       1848.1 
      1830.0         0.27       1839.9 
      1831.0         0.37       1817.9 
      1832.0         0.30       1753.6 
      1833.0         0.33       1678.9 
      1834.0         0.37       1646.1 
      1835.0         0.37       1600.6 
      1836.0         0.38       1537.3 
      1837.0         0.40       1496.1 
      1838.0         0.37       1467.8 
      1839.0         0.33       1448.0 
      1840.0         0.37       1444.5 
      1841.0         0.33       1421.4 
      1842.0         0.30       1401.9 
      1843.0         0.37       1407.1 
      1844.0         0.40       1413.3 
      1845.0         0.42       1414.9 
      1846.0         0.40       1412.6 
      1847.0         0.40       1404.2 
      1848.0         0.33       1393.1 
      1849.0         0.30       1379.5 
      1850.0         0.30       1366.2 
      1851.0         0.30       1359.7 
      1852.0         5.27       2034.8 
      1853.0         0.43       1853.9 
      1854.0         0.40       1825.7 
      1855.0         0.33       1801.3 
      1856.0         0.43       1716.2 
      1857.0         0.47       1642.5 
      1858.0         0.43       1633.4 
      1859.0         0.42       1632.1 
      1860.0         0.40       1617.5 
      1861.0         0.37       1607.8 
      1862.0         0.33       1597.1 
      1863.0         0.33       1569.5 
      1864.0         0.33       1535.7 
      1865.0         0.33       1494.5 
      1866.0         0.30       1490.2 
      1867.0         0.33       1452.9 
      1868.0         0.20       1451.6 
      1869.0         0.22       1451.6 
      1870.0         0.27       1480.2 
      1871.0         0.30       1497.4 
      1872.0         0.37       1501.0 
      1873.0         0.33       1500.0 
      1874.0         0.33       1481.5 
      1875.0         0.30       1448.0 
      1876.0         0.27       1445.1 
      1877.0         0.30       1419.8 
      1878.0         0.30       1413.3 
      1879.0         0.30       1398.3 
      1880.0         0.28       1363.9 
      1881.0         0.30       1344.4 
      1882.0         3.85       2168.9 
      1883.0         0.40       2129.3 
      1884.0         0.60       2124.1 
      1885.0         0.47       2015.3 
      1886.0         0.40       1865.3 
      1887.0         0.47       1674.0 
      1888.0         0.45       1633.4 
      1889.0         0.50       1641.5 
      1890.0         0.43       1633.4 
      1891.0         0.43       1590.9 
      1892.0         0.50       1571.7 
      1893.0         0.50       1556.5 
      1894.0         0.50       1506.5 
      1895.0         0.62       1464.3 
      1896.0         0.63       1478.2 
      1897.0         0.60       1465.9 
      1898.0         0.60       1402.9 
      1899.0         0.57       1416.2 
      1900.0         0.55       1452.2 
      1901.0         0.53       1447.4 
      1902.0         0.57       1384.7 
      1903.0         0.57       1381.8 
      1904.0         0.53       1384.4 
      1905.0         0.60       1377.9 
      1906.0         0.62       1339.2 
      1907.0         0.60       1316.2 
      1908.0         0.60       1328.9 
      1909.0         0.60       1375.9 
      1910.0         0.67       1377.6 
      1911.0         0.47       1391.9 
      1912.0         4.17       2023.7 
      1913.0         0.20       1696.4 
      1914.0         0.40       1818.5 
      1915.0         0.43       1880.5 
      1916.0         0.43       1872.1 
      1917.0         0.43       1797.1 
      1918.0         0.40       1723.4 
      1919.0         0.47       1740.3 
      1920.0         0.45       1727.6 
      1921.0         0.40       1659.7 
      1922.0         0.43       1607.8 
      1923.0         0.47       1591.2 
      1924.0         0.53       1559.4 
      1925.0         0.53       1523.4 
      1926.0         0.40       1488.0 
      1927.0         0.42       1418.2 
      1928.0         0.43       1417.5 
      1929.0         0.37       1426.9 
      1930.0         0.37       1428.5 
      1931.0         0.43       1421.1 
      1932.0         0.43       1430.8 
      1933.0         0.43       1430.8 
      1934.0         0.43       1425.9 
      1935.0         0.45       1417.2 
      1936.0         0.43       1409.7 
      1937.0         0.47       1407.8 
      1938.0         0.50       1401.6 
      1939.0         0.53       1376.6 
      1940.0         0.53       1352.6 
      1941.0         0.53       1337.0 
      1942.0         4.37       2041.9 
      1943.0         0.37       1826.3 
      1944.0         0.37       1887.0 
      1945.0         0.47       1954.9 
      1946.0         0.43       1958.8 
