~Version Information
VERS.                      2.0: CWLS Log ASCII Standard - VERSION 2.0
WRAP.                       NO: One line per depth step
~Well Information Block
STRT.FT                -8.2500: 
STOP.FT               686.7500: 
STEP.FT                 0.2500: 
NULL.                -999.2500: 
COMP.          Pioneer Natural Resources: COMPANY
WELL.           Quintessa 23-7: WELL
FLD.           Purgatorie River: FIELD
LOC.           1964' FSL & 2589' FWL--: LOCATION
PROV.                       CO: PROVINCE
CNTY.               Las Animas: COUNTRY
SRVC.          Patterson Wireline: SERVICE COMPANY
DATE.          Wed Nov 23 10:31:07 2005: LOG DATE
UWI.           05 071 08558 00: UNIQUE WELL ID
~Curve Information Block
DEPT.FT            0 000 00 00: Depth
CCL.                          : Casing Collar Locator
TT3.usec                      : CBL 3' Travel Time
AMP3.mV                       : CBL 3' Amplitude
GR.GAPI                       : Gamma Ray
~Parameter Information Block
~A  Depth       CCL         TT3         AMP3         GR     
# ...
   628.2500      0.0000    748.4524     18.0926     67.9228
   628.5000      0.0000    748.2784     17.9593     68.5420
   628.7500      0.0000    748.1031     17.8323     68.7374
   629.0000      0.0000    747.9896     17.7191     68.4277
   629.2500      0.0000    747.9684     17.6212     68.3310
   629.5000      0.0000    748.0233     17.5539     69.1463
   629.7500      0.0000    748.1677     17.5549     70.7446
   630.0000      0.0000    748.5781     17.6649     72.1274
   630.2500      0.0000    749.7208     17.8987     72.2812
   630.5000      0.0000    752.3114     18.2333     71.1336
   630.7500      0.0000    756.8634     18.6197     69.5409
   631.0000      0.0000    762.8617     19.0012     68.2925
   631.2500      0.0000    768.3573     19.3273     67.4054
   631.5000      0.0000    770.9299     19.5628     66.5827
   631.7500      0.0000    769.6017     19.6900     66.1290
   632.0000      0.0000    765.8605     19.7052     67.0521
   632.2500      0.0000    762.6049     19.6185     70.1166
   632.5000      0.0000    761.8946     19.4578     74.8791
   632.7500      0.0000    763.4584     19.2614     79.7389
   633.0000      0.0000    765.1984     19.0548     82.9305
   633.2500      0.0000    765.3546     18.8352     83.5727
   633.5000      0.0000    764.3894     18.5803     81.9437
   633.7500      0.0000    764.5450     18.2686     78.8707
   634.0000      0.0000    767.3870     17.8932     75.1080
   634.2500      0.0000    772.0021     17.4638     71.4873
   634.5000      0.0000    775.7162     17.0048     69.1585
   634.7500      0.0000    776.4742     16.5515     68.9922
   635.0000      0.0000    774.5943     16.1399     70.7586
   635.2500      0.0000    772.4114     15.7982     73.1801
   635.5000      0.0000    772.1155     15.5480     74.7179
   635.7500      0.0000    773.8535     15.4091     74.2575
   636.0000      0.0000    776.1356     15.3931     71.5676
   636.2500      0.0000    778.0814     15.4862     67.5445
   636.5000      0.0000    780.8527     15.6424     63.7066
   636.7500      0.0000    787.1288     15.8027     61.0616
   637.0000      0.0000    799.7391     15.9288     59.6302
   637.2500      0.0000    820.2375     16.0231     59.0942
   637.5000      0.0000    847.2437     16.1213     59.3164
   637.7500      0.0000    876.0341     16.2641     59.9767
   638.0000      0.0000    901.2374     16.4660     60.3262
   638.2500      0.0000    920.5415     16.7070     59.8510
   638.5000      0.0000    935.1930     16.9516     58.9664
   638.7500      0.0000    947.0544     17.1722     58.7258
   639.0000      0.0000    956.1070     17.3489     59.8750
   639.2500      0.0000    960.6996     17.4554     62.2043
   639.5000      0.0000    959.2775     17.4667     64.7480
   639.7500      0.0000    952.0971     17.3824     66.5820
   640.0000      0.0000    942.9718     17.2363     67.3510
   640.2500      0.0000    939.8302     17.0779     66.9772
   640.5000      0.0000    951.2760     16.9458     65.1907
   640.7500      0.0000    979.9900     16.8550     61.7246
   641.0000      0.0000   1019.2258     16.8002     56.9433
   641.2500      0.0000   1056.8882     16.7687     52.0807
   641.5000      0.0000   1082.9323     16.7491     48.7536
   641.7500      0.0000   1092.8107     16.7283     48.1205
   642.0000      0.0000   1086.2375     16.6833     50.2511
   642.2500      0.0000   1065.6755     16.5818     54.1081
   642.5000      0.0000   1035.9022     16.3992     58.0961
   642.7500      0.0000   1002.1759     16.1354     60.7955
   643.0000      0.0000    967.1615     15.8162     61.4675
   643.2500      0.0000    930.7088     15.4826     60.1492
   643.5000      0.0000    893.9735     15.1786     57.5120
   643.7500      0.0000    862.9012     14.9444     54.6304
   644.0000      0.0000    845.9274     14.8111     52.6436
   644.2500      0.0000    847.7081     14.7961     52.3724
   644.5000      0.0000    865.2957     14.9033     54.0212
   644.7500      0.0000    889.9194     15.1291     57.0526
   645.0000      0.0000    912.1278     15.4667     60.3781
   645.2500      0.0000    925.7969     15.9027     62.7987
   645.5000      0.0000    927.8029     16.4087     63.4639
   645.7500      0.0000    913.7789     16.9381     62.2971
   646.0000      0.0000    875.9130     17.4336     60.1202
   646.2500      0.0000    808.7263     17.8434     58.0650
   646.5000      0.0000    720.7502     18.1365     56.6876
   646.7500      0.0000    639.1938     18.3071     55.8913
   647.0000      0.0000    596.6891     18.3708     55.7319
   647.2500      0.0000    608.2318     18.3576     56.8242
   647.5000      0.0000    660.1517     18.3056     59.5749
   647.7500      0.0000    719.9711     18.2481     63.1852
   648.0000      0.0000    756.9831     18.1965     65.8896
   648.2500      0.0000    761.4633     18.1374     66.3728
   648.5000      0.0000    749.5406     18.0507     64.7170
   648.7500      0.0000    743.1214     17.9283     61.8560
   649.0000      0.0000    745.1695     17.7472     58.5091
   649.2500      0.0000    746.7908     17.3989     54.9611
   649.5000      0.0000    755.3989     16.6924     51.5942
   649.7500      0.0000    794.6323     15.5313     49.2224
   650.0000      0.0000    872.2619     14.1157     48.7869
   650.2500      0.0000    964.9572     12.8689     50.7240
   650.5000      0.0000   1040.5503     12.1061     54.4997
   650.7500      0.0000   1084.5542     11.8170     58.6527
   651.0000      0.0000   1102.6788     11.7724     61.4450
   651.2500     -2.0000   1107.3722     11.7554     61.8827
   651.5000      2.0000   1107.2490     11.6863     60.3870
   651.7500      0.0000   1104.6307     11.6510     58.4029
   652.0000      0.0000   1097.0385     11.8851     57.1950
   652.2500      0.0000   1079.0342     12.6328     56.9615
   652.5000      0.0000   1045.8606     13.8950     57.0592
   652.7500      0.0000   1000.8029     15.3474     56.8976
   653.0000      0.0000    960.5417     16.5872     56.5177
   653.2500      0.0000    947.1417     17.4246     56.3807
   653.5000      0.0000    968.2297     17.9143     56.8028
   653.7500      0.0000   1007.0792     18.1977     57.7283
   654.0000      0.0000   1036.7456     18.3745     58.9698
   654.2500      0.0000   1042.1716     18.4705     60.5269
   654.5000      0.0000   1026.7917     18.4660     62.5231
   654.7500      0.0000   1002.5242     18.3418     64.8157
   655.0000      0.0000    977.8849     18.1089     66.8823
   655.2500      0.0000    954.0361     17.8085     68.1647
   655.5000      0.0000    928.0560     17.4982     68.4440
   655.7500      0.0000    897.9919     17.2381     68.0841
   656.0000      0.0000    865.6436     17.0757     68.0997
   656.2500      0.0000    835.8063     17.0345     69.6553
   656.5000      0.0000    813.5063     17.1067     73.2213
   656.7500      0.0000    801.6361     17.2493     78.3539
   657.0000      0.0000    800.8163     17.3917     84.2876
   657.2500      0.0000    810.6331     17.4642     90.2809
   657.5000      0.0000    829.9810     17.4386     95.3939
   657.7500      0.0000    856.3321     17.3416     98.8256
   658.0000      0.0000    885.5802     17.2284    100.9149
   658.2500      0.0000    913.2814     17.1410    103.0655
   658.5000      0.0000    936.4449     17.0877    106.0660
   658.7500      0.0000    954.6034     17.0497    108.8401
   659.0000      0.0000    969.1213     16.9999    109.0736
   659.2500      0.0000    981.2266     16.9169    104.9376
   659.5000      0.0000    991.0129     16.7907     96.5397
   659.7500      0.0000    998.1793     16.6190     86.1004
   660.0000      0.0000   1002.5222     16.4001     76.6382
   660.2500      0.0000   1003.2218     16.1328     70.2122
   660.5000      0.0000    998.3654     15.8267     67.0537
   660.7500      0.0000    985.7157     15.5135     65.9637
   661.0000      0.0000    964.0060     15.2444     65.4352
   661.2500      0.0000    933.9396     15.0722     64.5832
   661.5000      0.0000    898.5353     15.0290     63.2379
