~Version Information
VERS.                      2.0: CWLS Log ASCII Standard - VERSION 2.0
WRAP.                       NO: One line per depth step
~Well Information Block
STRT.FT                -5.7500: 
STOP.FT              2734.0000: 
STEP.FT                 0.2500: 
NULL.                -999.2500: 
COMP.          Pioneer Natural Resources: COMPANY
WELL.              Loews 41-32: WELL
FLD.           Purgatoire River: FIELD
LOC.           751' FNL & 128' FEL--: LOCATION
CNTY.               Las Animas: COUNTY
SRVC.                         : SERVICE COMPANY
DATE.          Sat Mar 04 08:20:59 2006: LOG DATE
UWI.           05 071 08693 00: UNIQUE WELL ID
STAT.                       CO: STATE
~Curve Information Block
DEPT.FT            0 000 00 00: Depth
GR.GAPI                       : Gamma Ray
CCL.                          : Casing Collar Locator
TT3.usec                      : CBL 3' Travel Time
AMP3.mV                       : CBL 3' Amplitude
~Parameter Information Block
~A  Depth        GR         CCL         TT3         AMP3    
    -5.7500   -999.2500   -999.2500   -999.2500   -999.2500
    -5.5000   -999.2500   -999.2500   -999.2500   -999.2500
    -5.2500   -999.2500   -999.2500   -999.2500   -999.2500
    -5.0000   -999.2500   -999.2500   -999.2500   -999.2500
    -4.7500   -999.2500   -999.2500   -999.2500   -999.2500
    -4.5000   -999.2500   -999.2500   -999.2500   -999.2500
    -4.2500   -999.2500   -999.2500   -999.2500   -999.2500
    -4.0000   -999.2500   -999.2500   -999.2500   -999.2500
    -3.7500   -999.2500   -999.2500   -999.2500   -999.2500
    -3.5000   -999.2500   -999.2500   -999.2500   -999.2500
    -3.2500   -999.2500   -999.2500   -999.2500   -999.2500
    -3.0000   -999.2500   -999.2500   1230.0000     12.7389
    -2.7500   -999.2500   -999.2500   1230.0000     12.7381
    -2.5000   -999.2500   -999.2500   1230.0000     12.7329
    -2.2500   -999.2500   -999.2500   1230.0000     12.7063
    -2.0000   -999.2500   -999.2500   1230.0000     12.6010
    -1.7500   -999.2500   -999.2500   1230.0000     12.2766
    -1.5000   -999.2500   -999.2500   1230.0000     11.4986
    -1.2500   -999.2500   -999.2500   1230.0000     10.0450
    -1.0000   -999.2500   -999.2500   1230.0000      7.9300
    -0.7500   -999.2500   -999.2500   1230.0000      5.5334
    -0.5000   -999.2500   -999.2500   1230.0000      3.4185
    -0.2500   -999.2500   -999.2500   1230.0000      1.9649
     0.0000   -999.2500   -999.2500   1230.0000      1.1868
     0.2500   -999.2500   -999.2500   1230.0000      0.7572
     0.5000   -999.2500   -999.2500   1230.0000      0.7305
     0.7500   -999.2500   -999.2500   1230.0000      0.7253
     1.0000   -999.2500   -999.2500   1230.0000      0.7247
     1.2500   -999.2500   -999.2500   1230.0000      0.7255
     1.5000   -999.2500   -999.2500   1230.0000      0.7288
     1.7500   -999.2500   -999.2500   1230.0000      0.7395
     2.0000   -999.2500   -999.2500   1230.0000      0.7670
     2.2500   -999.2500   -999.2500   1230.0000      0.8226
     2.5000   -999.2500      0.0000   1230.0000      0.9118
     2.7500   -999.2500      0.0000   1230.0000      1.0252
     3.0000   -999.2500      0.0000   1230.0000      1.1398
     3.2500   -999.2500      0.0000   1230.0000      1.2312
     3.5000   -999.2500      0.0000   1230.0000      1.2879
     3.7500   -999.2500      0.0000   1230.0000      1.3139
     4.0000   -999.2500      0.0000   1230.0000      1.3214
     4.2500   -999.2500      0.0000   1230.0000      1.3219
     4.5000   -999.2500      0.0000   1230.0000      1.3221
     4.7500   -999.2500      0.0000   1230.0000      1.3251
     5.0000   -999.2500      0.0000   1229.9696      1.3310
     5.2500   -999.2500     -2.0000   1229.8022      1.3369
     5.5000   -999.2500      0.0000   1228.9955      1.3374
     5.7500   -999.2500      0.0000   1225.9994      1.3281
     6.0000   -999.2500      0.0000   1217.5551      1.3112
     6.2500   -999.2500      0.0000   1199.4893      1.2966
     6.5000   -999.2500      0.0000   1170.1632      1.3048
     6.7500   -999.2500      0.0000   1132.9208      1.3968
     7.0000   -999.2500      0.0000   1090.9578      1.7894
     7.2500      0.0000      0.0000   1037.2921      3.0786
     7.5000      0.0000      0.0000    954.8580      6.4541
     7.7500      0.0000      0.0000    832.5954     13.4939
     8.0000      0.0000      0.0000    680.9860     25.1640
     8.2500      0.0000      0.0000    529.1992     40.5028
     8.5000      0.0000      0.0000    406.8387     56.4479
     8.7500      0.0000      1.6473    327.4680     69.5277
     9.0000      0.0000      2.0000    286.1903     77.9846
     9.2500      0.0000     -2.0000    269.0706     82.3037
     9.5000      0.0000      2.0000    263.4295     84.0680
     9.7500      0.0000     -2.0000    261.9630     84.6728
    10.0000      0.0000      2.0000    261.6657     84.8779
    10.2500      0.0000      2.0000    261.6147     84.9745
    10.5000      0.0000     -2.0000    261.6069     85.0439
    10.7500      0.0000      2.0000    261.6009     85.1022
    11.0000      0.0000      0.0000    261.5981     85.1532
    11.2500      0.0000      0.0000    261.6002     85.1967
    11.5000      0.0029      0.0000    261.6071     85.2289
    11.7500      0.0222      0.0000    261.6183     85.2443
    12.0000      0.1217      0.0000    261.6330     85.2431
    12.2500      0.5209      0.0000    261.6486     85.2329
    12.5000      1.7756      0.0000    261.6606     85.2217
    12.7500      4.8662      0.0000    261.6661     85.2103
    13.0000     10.8603      0.0000    261.6664     85.1936
    13.2500     20.0652      0.0000    261.6644     85.1700
    13.5000     31.3651      0.0000    261.6616     85.1435
    13.7500     42.5989      0.0000    261.6586     85.1102
    14.0000     51.7410      0.0000    261.6634     85.0335
    14.2500     57.7615      0.0000    261.7072     84.8127
    14.5000     60.7642      0.0000    261.8660     84.2716
    14.7500     61.7941      0.0000    262.2642     83.1983
    15.0000     62.3365      0.0000    263.0210     81.4557
    15.2500     63.4186      0.0000    264.1388     79.1289
    15.5000     65.0578      0.0000    265.4303     76.6162
    15.7500     66.7396      0.0000    266.5983     74.5137
    16.0000     68.2132      0.0000    267.4254     73.2684
    16.2500     69.4529      0.0000    267.8864     72.8821
    16.5000     70.0996      0.0000    268.0908     72.9879
    16.7500     69.6313      0.0000    268.1555     73.1981
    17.0000     68.2899      0.0000    268.1347     73.3458
    17.2500     67.3252      0.0000    268.0204     73.4887
    17.5000     68.0047      0.0000    267.7657     73.8212
    17.7500     70.5042      0.0000    267.3070     74.5634
    18.0000     73.7360      0.0000    266.5947     75.7964
    18.2500     76.0266      0.0000    265.6354     77.3697
    18.5000     76.1599      0.0000    264.5267     79.0481
    18.7500     74.2666      0.0000    263.4391     80.7080
    19.0000     71.7463      0.0000    262.5388     82.2840
    19.2500     70.0325      0.0000    261.9117     83.6194
    19.5000     69.5505      0.0000    261.5460     84.5390
    19.7500     70.0101      0.0000    261.3716     85.0255
    20.0000     71.1538      0.0000    261.3107     85.2225
    20.2500     72.7218      0.0000    261.3058     85.2937
    20.5000     74.0813      0.0000    261.3221     85.3311
    20.7500     74.5172      0.0000    261.3401     85.3615
    21.0000     74.0550      0.0000    261.3504     85.3796
    21.2500     73.7044      0.0000    261.3518     85.3698
    21.5000     74.5336      0.0000    261.3491     85.3240
    21.7500     76.4592      0.0000    261.3483     85.2537
    22.0000     78.2811      0.0000    261.3525     85.1814
    22.2500     78.9626      0.0000    261.3602     85.1222
    22.5000     78.5460      0.0000    261.3675     85.0849
    22.7500     77.8707      0.0000    261.3719     85.0800
    23.0000     77.9002      0.0000    261.3755     85.1072
    23.2500     79.3760      0.0000    261.3832     85.1352
    23.5000     82.4935      0.0000    261.3997     85.1130
    23.7500     86.5047      0.0000    261.4258     85.0121
    24.0000     89.9148      0.0000    261.4559     84.8505
    24.2500     91.5361      0.0000    261.4806     84.6721
    24.5000     91.3662      0.0000    261.4930     84.5091
    24.7500     90.2234      0.0000    261.4918     84.3743
    25.0000     88.7564      0.0000    261.4800     84.2835
    25.2500     87.1161      0.0000    261.4620     84.2625
    25.5000     85.3777      0.0000    261.4427     84.3207
    25.7500     83.8914      0.0000    261.4264     84.4278
    26.0000     83.1284      0.0000    261.4135     84.5264
    26.2500     83.2167      0.0000    261.3995     84.5731
    26.5000     83.7599      0.0000    261.3800     84.5657
    26.7500     84.3699      0.0000    261.3567     84.5341
    27.0000     85.2628      0.0000    261.3371     84.5098
    27.2500     86.9025      0.0000    261.3288     84.5088
    27.5000     89.0264      0.0000    261.3334     84.5351
