~Version Information
 VERS.                                  2.0 : CWLS LAS VERSION
 WRAP.                                   NO : WRAPING MODE
 SWARE .                 MController 2.5.0J : SOFTWARE VERSION
~Well Information
 WELL.                         Croc 42-09Tr : WELL
 COMP.    Pioneer Natural Resources USA Inc : COMPANY
 FLD.                      Purgatoire River : FIELD
 LOC.                 SE/NE Sec09 T32S R66W : LOCATION
 DATE.                             10/13/05 : DATE(S) LOGGED
 SRVC.       Blanco Geological Services LLC : SERVICE COMPANY
 STAT.                             Colorado : STATE
 CNTY.                           Las Animas : COUNTY
 CTRY.                                  USA : COUNTRY
 API.                       05-071-08550-00 : API NUMBER
 STRT.FT                             326.00 : START DEPTH
 STOP.FT                            1150.00 : STOP DEPTH
 STEP.FT                               1.00 : DEPTH INCREMENT
 NULL.                                -9999 : NULL VALUE
~Curve information
 DEPTH.FT                                   :
 ROP.MIN/FT                                 :
 GAS.UNITS                                  :
~ASCII Log data
# ...
       726.0         0.43       3474.5 
       727.0         0.53       3460.6 
       728.0         0.50       3431.0 
       729.0         0.37       2879.3 
       730.0         0.30       2787.4 
       731.0         0.27       2935.4 
       732.0         0.30       2955.7 
       733.0         0.37       2979.5 
       734.0         0.42       2992.1 
       735.0         0.43       2972.7 
       736.0         0.27       2908.6 
       737.0         0.20       2836.4 
       738.0         0.30       2781.0 
       739.0         0.30       2876.7 
       740.0         0.23       2920.2 
       741.0         0.20       2920.2 
       742.0         0.20       2891.8 
       743.0         0.23       2850.6 
       744.0         0.27       2860.9 
       745.0         0.62       2785.2 
       746.0         3.58       6035.2 
       747.0         0.43       4622.1 
       748.0         0.40       4342.7 
       749.0         0.33       4356.9 
       750.0         0.27       4333.7 
       751.0         0.27       4119.4 
       752.0         0.37       3939.9 
       753.0         0.40       3870.9 
       754.0         0.38       3463.2 
       755.0         0.30       3239.6 
       756.0         0.27       3197.4 
       757.0         0.50       3212.8 
       758.0         0.40       3202.2 
       759.0         0.33       3191.9 
       760.0         0.27       3204.8 
       761.0         0.33       3267.0 
       762.0         0.37       3286.6 
       763.0         0.30       3286.9 
       764.0         0.28       3305.6 
       765.0         0.27       3320.5 
       766.0         0.37       3330.8 
       767.0         0.33       3276.0 
       768.0         0.30       3246.0 
       769.0         0.33       3257.3 
       770.0         0.37       3268.9 
       771.0         0.33       3254.7 
       772.0         0.33       3261.8 
       773.0         0.40       3283.4 
       774.0         0.58       3274.7 
       775.0         0.10       3205.7 
       776.0         3.38       5984.0 
       777.0         0.77       4485.8 
       778.0         0.70       4355.6 
       779.0         0.50       4202.5 
       780.0         0.43       3593.7 
       781.0         0.43       3531.2 
       782.0         0.45       3512.2 
       783.0         0.47       3376.2 
       784.0         0.40       3221.8 
       785.0         0.43       3141.9 
       786.0         0.40       3023.0 
       787.0         0.47       3016.6 
       788.0         0.50       3060.4 
       789.0         0.48       3072.0 
       790.0         0.37       3056.5 
       791.0         0.50       3047.2 
       792.0         0.67       3363.3 
       793.0         0.47       4008.2 
       794.0         0.67       3685.9 
       795.0         0.68       3242.5 
       796.0         0.50       2957.9 
       797.0         0.60       3195.1 
       798.0         0.60       3251.8 
       799.0         0.53       3045.2 
       800.0         0.53       2911.2 
       801.0         0.52       2962.4 
       802.0         0.43       3040.1 
       803.0         0.53       3051.7 
       804.0         0.40       2995.3 
       805.0         0.37       2970.8 
       806.0         3.18       6218.9 
       807.0         0.77       6271.4 
       808.0         0.53       4208.9 
       809.0         0.62       4308.2 
       810.0         0.43       4363.6 
       811.0         0.40       4063.6 
       812.0         0.40       3870.9 
       813.0         0.37       3493.8 
       814.0         0.37       3371.4 
       815.0         0.27       3335.6 
       816.0         0.37       3277.3 
       817.0         0.40       3201.9 
       818.0         0.38       3159.0 
       819.0         0.37       3144.5 
       820.0         0.37       3130.6 
       821.0         0.33       3106.8 
       822.0         0.33       3098.7 
       823.0         0.30       3088.4 
       824.0         0.40       3077.5 
       825.0         0.33       3078.1 
       826.0         0.33       3094.9 
       827.0         0.42       3112.6 
       828.0         0.37       3110.0 
       829.0         0.37       3103.3 
       830.0         0.40       3099.4 
       831.0         0.43       3133.5 
       832.0         0.37       3128.7 
       833.0         0.53       3321.7 
       834.0         0.43       3846.7 
       835.0         0.38       3873.8 
       836.0         6.05       6601.4 
       837.0         0.53       4523.8 
       838.0         0.52       4564.4 
       839.0         0.43       4378.8 
       840.0         0.43       4022.4 
       841.0         0.43       3516.1 
       842.0         0.47       3441.6 
       843.0         0.47       3303.4 
       844.0         0.40       3195.7 
       845.0         0.32       3138.4 
       846.0         0.43       3124.8 
       847.0         0.40       3065.5 
       848.0         0.37       3063.3 
       849.0         0.37       3063.6 
       850.0         0.33       3054.3 
       851.0         0.30       3050.4 
       852.0         0.47       3047.2 
       853.0         0.43       3034.6 
       854.0         0.42       3044.3 
       855.0         0.40       3053.9 
       856.0         0.33       3063.6 
       857.0         0.23       3073.3 
       858.0         0.30       3043.3 
       859.0         0.53       3041.7 
       860.0         0.37       3071.0 
       861.0         0.40       3115.2 
       862.0         0.33       3125.5 
       863.0         0.32       3149.0 
       864.0         0.23       3196.7 
       865.0         0.27       3191.9 
       866.0         4.05       6135.1 
       867.0         0.37       5446.4 
       868.0         0.40       4470.6 
       869.0         0.47       4321.4 
       870.0         0.37       4042.3 
       871.0         0.40       3818.0 
       872.0         0.68       3729.7 
       873.0         0.40       3648.5 
       874.0         0.47       3580.5 
       875.0         0.57       3439.7 
       876.0         0.33       3328.5 
       877.0         0.37       3278.2 
       878.0         0.43       3264.7 
       879.0         0.52       3431.6 
       880.0         0.43       3963.7 
       881.0         0.37       3881.5 
       882.0         0.37       3539.3 
       883.0         0.40       3416.2 
       884.0         0.33       3101.6 
       885.0         0.30       3096.5 
       886.0         0.27       3041.4 
       887.0         0.30       3002.7 
       888.0         0.32       2973.7 
       889.0         0.30       2979.5 
       890.0         0.37       3001.1 
       891.0         0.33       3035.6 
       892.0         0.27       3080.0 
       893.0         0.23       3080.0 
       894.0         0.23       3082.9 
       895.0         0.20       3089.7 
       896.0         2.88       5160.9 
       897.0         0.53       4888.0 
       898.0         0.37       4175.8 
       899.0         0.30       4336.2 
       900.0         0.43       4678.8 
       901.0         0.58       4579.5 
       902.0         0.60       4190.6 
       903.0         0.50       3903.4 
       904.0         0.40       3699.8 
       905.0         0.40       3472.9 
       906.0         0.33       3149.3 
       907.0         0.40       3110.3 
       908.0         0.42       3005.3 
       909.0         0.40       3059.1 
       910.0         0.30       3067.2 
       911.0         0.27       3076.8 
       912.0         0.33       3181.9 
       913.0         0.27       3217.3 
       914.0         0.37       3243.8 
       915.0         0.40       3329.8 
       916.0         0.37       3334.6 
       917.0         0.30       3310.8 
       918.0         0.32       3230.5 
       919.0         0.30       3168.0 
       920.0         0.30       3184.8 
       921.0         0.23       3189.6 
       922.0         0.17       3190.3 
       923.0         0.33       3150.0 
       924.0         0.30       3165.1 
       925.0         0.30       3267.0 
