~Version Information
VERS.                      2.0: CWLS Log ASCII Standard - VERSION 2.0
WRAP.                       NO: One line per depth step
~Well Information Block
STRT.FT                -7.5000: 
STOP.FT              1310.7500: 
STEP.FT                 0.2500: 
NULL.                -999.2500: 
COMP.          Pioneer Natural Resources: COMPANY
WELL.          Challenger 31-29: WELL
FLD.           Purgatorie River: FIELD
LOC.           51' FNL & 1923' FEL------: LOCATION
STAT.                       CO: State
CNTY.               Las Animas: COUNTY
CTRY. USA : Country
SECT. 29 : Section
TOWN. 33S : Township
RANG. 65W : Range
SRVC.          Patterson Wireline: SERVICE COMPANY
DATE.          Wed Sep 21 12:11:38 2005: LOG DATE
API.           05 071 08514 00: UNIQUE WELL ID
~Curve Information Block
DEPT.FT            0 000 00 00: Depth
CCL.                          : Casing Collar Locator
TT3.usec                      : CBL 3' Travel Time
AMP3.mV                       : CBL 3' Amplitude
GR.GAPI                       : Gamma Ray
~Parameter Information Block
~A  Depth       CCL         TT3         AMP3         GR     
# ...
   327.5000      0.0000    305.3056     19.8714     37.9133
   327.7500      0.0000    305.3175     19.5690     40.4713
   328.0000      0.0000    305.3214     19.3959     45.2775
   328.2500      0.0000    305.3120     19.2999     51.9901
   328.5000      0.0000    305.3413     19.2388     59.4274
   328.7500      0.0000    305.4583     19.1978     67.0453
   329.0000      0.0000    305.6498     19.1917     74.9541
   329.2500      0.0000    305.8301     19.2463     82.6631
   329.5000      0.0000    305.9030     19.3691     88.7078
   329.7500      0.0000    305.8434     19.5288     91.8120
   330.0000      0.0000    305.7136     19.6618     92.1375
   330.2500      0.0000    305.5972     19.7117     91.2307
   330.5000      0.0000    305.5278     19.6692     90.7989
   330.7500      0.0000    305.4792     19.5743     91.5810
   331.0000      0.0000    305.4126     19.4759     93.2091
   331.2500      0.0000    305.3243     19.3962     94.8310
   331.5000      0.0000    305.2540     19.3295     95.7260
   331.7500      0.0000    305.2488     19.2666     95.6780
   332.0000      0.0000    305.3192     19.2096     95.2651
   332.2500      0.0000    305.4277     19.1638     95.6117
   332.5000      0.0000    305.5214     19.1243     97.3310
   332.7500      0.0000    305.5716     19.0785     99.8036
   333.0000      0.0000    305.5864     19.0239    101.8498
   333.2500      0.0000    305.5902     18.9763    102.8351
   333.5000      0.0000    305.5974     18.9567    102.7974
   333.7500      0.0000    305.6015     18.9717    101.8662
   334.0000      0.0000    305.5862     19.0053     99.9590
   334.2500      0.0000    305.5458     19.0293     96.9454
   334.5000      0.0000    305.4950     19.0199     92.9486
   334.7500      0.0000    305.4581     18.9710     88.5238
   335.0000      0.0000    305.4452     18.8964     84.6408
   335.2500      0.0000    305.4416     18.8240     82.3703
   335.5000      0.0000    305.4233     18.7840     82.1626
   335.7500      0.0000    305.3846     18.7932     83.3007
   336.0000      0.0000    305.3463     18.8474     84.3584
   336.2500      0.0000    305.3342     18.9275     84.3732
   336.5000      0.0000    305.3518     19.0141     83.4865
   336.7500      0.0000    305.3774     19.0928     82.5038
   337.0000      0.0000    305.3900     19.1485     81.9438
   337.2500      0.0000    305.3918     19.1650     81.5031
   337.5000      0.0000    305.4012     19.1395     80.4786
   337.7500      0.0000    305.4267     19.0925     78.7426
   338.0000      0.0000    305.4572     19.0607     77.1277
   338.2500      0.0000    305.4789     19.0734     76.6992
   338.5000      0.0000    305.4953     19.1342     77.7456
   338.7500      0.0000    305.5258     19.2210     79.5880
   339.0000      0.0000    305.5860     19.3008     81.2359
   339.2500      0.0000    305.6731     19.3507     82.1673
   339.5000      0.0000    305.7697     19.3680     82.7863
   339.7500      0.0000    305.8856     19.3646     84.0889
   340.0000      0.0000    306.1067     19.3515     86.2957
   340.2500      0.0000    306.8102     19.3344     87.8979
   340.5000      0.0000    309.0833     19.3196     86.8945
   340.7500      0.0000    315.1443     19.3188     83.0484
   341.0000      0.0000    327.5205     19.3426     78.1593
   341.2500      0.0000    345.8548     19.3932     74.1377
   341.5000      0.0000    363.7484     19.4626     71.6457
   341.7500      0.0000    371.2917     19.5369     70.5344
   342.0000      0.0000    363.5248     19.6054     70.6160
   342.2500      0.0000    345.4323     19.6685     71.6202
   342.5000      0.0000    326.9215     19.7373     72.8652
   342.7500      0.0000    314.3849     19.8233     73.3859
   343.0000      0.0000    308.1847     19.9305     72.4930
   343.2500      0.0000    305.7953     20.0568     70.2244
   343.5000      0.0000    304.9980     20.1967     67.2574
   343.7500      0.0000    304.7267     20.3382     64.3246
   344.0000      0.0000    304.6374     20.4627     61.6384
   344.2500      0.0000    304.6513     20.5529     59.0030
   344.5000      0.0000    304.7203     20.6026     56.5975
   344.7500      0.0000    304.7957     20.6162     55.3484
   345.0000      0.0000    304.8223     20.6003     56.0877
   345.2500      0.0000    304.7676     20.5591     58.3051
   345.5000      0.0000    304.6425     20.4975     60.2470
   345.7500      0.0000    304.4906     20.4270     60.5496
   346.0000      0.0000    304.3550     20.3700     59.5372
   346.2500      0.0000    304.2579     20.3557     58.7422
   346.5000      0.0000    304.2048     20.4036     59.3123
   346.7500      0.0000    304.1996     20.5058     60.8831
   347.0000      0.0000    304.2523     20.6286     61.9982
   347.2500      0.0000    304.3723     20.7376     61.6641
   347.5000      0.0000    304.5503     20.8209     60.2251
   347.7500      0.0000    304.7463     20.8883     58.6699
   348.0000      0.0000    304.8968     20.9553     57.6501
   348.2500      0.0000    304.9453     21.0313     57.3596
   348.5000      0.0000    304.8705     21.1197     57.8219
   348.7500      0.0000    304.6822     21.2226     58.9680
   349.0000      0.0000    304.3916     21.3429     60.6319
   349.2500      0.0000    304.0054     21.4773     62.5732
   349.5000      0.0000    303.5564     21.6057     64.3790
   349.7500      0.0000    303.1176     21.6920     65.2885
   350.0000      0.0000    302.7659     21.7051     64.3806
   350.2500      0.0000    302.5395     21.6414     61.2711
   350.5000      0.0000    302.4335     21.5275     56.5808
   350.7500      0.0000    302.4193     21.3995     51.5341
   351.0000      0.0000    302.4616     21.2820     47.1735
   351.2500      0.0000    302.5299     21.1781     43.9197
   351.5000      0.0000    302.6082     21.0747     41.5713
   351.7500      0.0000    302.6961     20.9574     39.6532
   352.0000      0.0000    302.7964     20.8236     38.0041
   352.2500      0.0000    302.9091     20.6832     37.0765
   352.5000      0.0000    303.0392     20.5477     37.4547
   352.7500      0.0000    303.2091     20.4210     39.0529
   353.0000      0.0000    303.4526     20.3001     40.9997
   353.2500      0.0000    303.7869     20.1830     42.2937
   353.5000      0.0000    304.1788     20.0753     42.4068
   353.7500      0.0000    304.5475     19.9906     41.3416
   354.0000      0.0000    304.8191     19.9439     39.4492
   354.2500      0.0000    304.9858     19.9466     37.3277
   354.5000      0.0000    305.1277     20.0046     35.6845
   354.7500      0.0000    305.4334     20.1147     35.0173
   355.0000      0.0000    306.2765     20.2603     35.3385
   355.2500      0.0000    308.2457     20.4144     36.2250
   355.5000      0.0000    311.8868     20.5520     37.1066
   355.7500      0.0000    317.1507     20.6560     37.6029
   356.0000      0.0000    323.0761     20.7156     37.8711
   356.2500      0.0000    328.2541     20.7247     38.6838
   356.5000      0.0000    331.7497     20.6849     40.7673
   356.7500      0.0000    333.5559     20.6076     43.8333
   357.0000      0.0000    334.2626     20.5089     46.5904
   357.2500      0.0000    334.4881     20.3976     48.0275
   357.5000      0.0000    334.5943     20.2675     48.4537
   357.7500      0.0000    334.6992     20.1064     48.9901
   358.0000      0.0000    334.7926     19.9170     50.1893
   358.2500      0.0000    334.8857     19.7194     51.3468
   358.5000      0.0000    335.1923     19.5241     51.1005
   358.7500      0.0000    336.3781     19.3141     48.6561
   359.0000      0.0000    339.7914     19.0648     44.5269
   359.2500      0.0000    347.4318     18.7815     40.1268
   359.5000      0.0000    361.2830     18.5123     36.7257
   359.7500      0.0000    381.8632     18.3247     34.9447
   360.0000      0.0000    407.0969     18.2655     35.0043
   360.2500      0.0000    433.1900     18.3360     36.8135
   360.5000      0.0000    458.7371     18.5039     39.5739
   360.7500      0.0000    488.4629     18.7311     41.7840
