~Version Information
VERS.                      2.0: CWLS Log ASCII Standard - VERSION 2.0
WRAP.                       NO: One line per depth step
~Well Information Block
STRT.FT                10.0000: 
STOP.FT              1063.0000: 
STEP.FT                 0.1000: 
NULL.                -999.2500: 
COMP.          Pioneer Natural Resources: COMPANY
WELL.                Mac 22-36: WELL
FLD.           Purgatorie River: FIELD
LOC.           2545' FNL & 1398' FWL: LOCATION
PROV.                 Colorado: PROVINCE
CNTY.               Las Animas: COUNTRY
SRVC.                Patterson: SERVICE COMPANY
DATE.          Mon Dec 05 10:55:42 2005: LOG DATE
UWI.                          : UNIQUE WELL ID
~Curve Information Block
DEPT.FT            0 000 00 00: Depth
DCAL.in                       : CDL Caliper
RHOB.g/cc                     : CDL Bulk Density
RHOC.g/cc                     : CDL Density Correction
DPOR.pu                       : CDL Density Porosity
GR.GAPI                       : Gamma Ray
NPOR.pu                       : Neutron Porosity
~Parameter Information Block
~A  Depth       DCAL        RHOB        RHOC        DPOR         GR         NPOR    
# ...
   768.4000      7.8366      2.5602      0.1221      5.4399    215.0765     27.3710
   768.5000      7.8185      2.5800      0.1472      4.2418    201.5470     27.6353
   768.6000      7.8185      2.6027      0.1274      2.8680    187.9375     27.7381
   768.7000      7.8185      2.6327      0.1488      1.0498    170.6199     27.6998
   768.8000      7.8239      2.6578      0.1796     -0.4743    150.8382     27.6163
   768.9000      7.8239      2.6593      0.0932     -0.5635    131.4970     27.5126
   769.0000      7.8177      2.6437      0.0714      0.3830    114.5578     27.4901
   769.1000      7.8177      2.6304      0.0502      1.1888    101.5838     27.4259
   769.2000      7.8177      2.6305      0.0542      1.1822     93.3772     27.0500
   769.3000      7.8157      2.6378      0.0602      0.7415     88.8877     26.3655
   769.4000      7.8157      2.6398      0.0770      0.6168     85.8519     25.5225
   769.5000      7.8158      2.6402      0.0451      0.5920     83.8495     24.9062
   769.6000      7.8158      2.6419      0.1214      0.4888     83.3666     24.7725
   769.7000      7.8158      2.6333      0.0654      1.0130     83.9361     24.6434
   769.8000      7.8198      2.6184      0.0387      1.9146     84.7937     23.9384
   769.9000      7.8198      2.6149      0.0802      2.1259     86.4376     22.8489
   770.0000      7.8342      2.6220      0.0768      1.6964     88.2153     21.8957
   770.1000      7.8342      2.6201      0.0748      1.8109     88.0550     21.1651
   770.2000      7.8342      2.5920      0.0601      3.5160     86.5317     20.5551
   770.3000      7.8353      2.5518      0.0007      5.9491     87.3909     20.1876
   770.4000      7.8353      2.5314      0.0643      7.1886     93.1233     20.1229
   770.5000      7.8539      2.5280      0.0572      7.3943    100.1537     20.2916
   770.6000      7.8539      2.5185      0.0577      7.9695    102.4666     20.5751
   770.7000      7.8539      2.5002      0.0508      9.0807    100.7476     20.6724
   770.8000      7.8735      2.4868      0.0698      9.8924    101.0641     20.4456
   770.9000      7.8735      2.4822      0.0660     10.1678    104.7898     20.1539
   771.0000      7.8697      2.4813      0.0252     10.2241    107.6586     20.1481
   771.1000      7.8697      2.4858      0.0472      9.9541    107.2460     20.4553
   771.2000      7.8697      2.4965      0.0647      9.3020    106.3808     20.7322
   771.3000      7.8851      2.5006      0.1616      9.0550    108.1023     20.7725
   771.4000      7.8851      2.4863      0.1040      9.9229    111.2706     20.7612
   771.5000      7.8546      2.4651      0.0880     11.2088    113.0921     20.9252
   771.6000      7.8546      2.4538      0.0761     11.8908    112.9085     21.3230
   771.7000      7.8546      2.4521      0.1177     11.9916    112.1896     21.8095
   771.8000      7.8760      2.4480      0.0861     12.2414    111.8729     22.0859
   771.9000      7.8760      2.4395      0.0519     12.7577    110.8259     22.1611
   772.0000      7.8672      2.4404      0.0599     12.7049    107.9784     22.3723
   772.1000      7.8672      2.4568      0.0985     11.7068    105.6371     22.6140
   772.2000      7.8672      2.4773      0.1086     10.4653    106.1655     22.5629
   772.3000      7.8569      2.4979      0.1004      9.2170    108.6473     22.4458
   772.4000      7.8569      2.5193      0.1674      7.9232    109.9162     22.4956
   772.5000      7.8515      2.5321      0.1690      7.1459    108.5865     22.5588
   772.6000      7.8515      2.5375      0.1268      6.8206    107.4493     22.6307
   772.7000      7.8515      2.5423      0.1524      6.5283    109.1132     22.8262
   772.8000      7.8496      2.5429      0.1229      6.4887    112.0479     23.1049
   772.9000      7.8496      2.5375      0.0929      6.8188    112.3831     23.3433
   773.0000      7.8479      2.5261      0.0830      7.5092    110.3521     23.3842
   773.1000      7.8479      2.5043      0.0655      8.8321    108.3803     23.2921
   773.2000      7.8479      2.4788     -0.0048     10.3770    107.2381     23.2131
   773.3000      7.8533      2.4583      0.0245     11.6181    106.9150     23.1193
   773.4000      7.8533      2.4377      0.0121     12.8671    106.0666     22.8796
   773.5000      7.8632      2.4233      0.0087     13.7404    104.2980     22.5695
   773.6000      7.8632      2.4296      0.0204     13.3561    102.3869     22.3801
   773.7000      7.8632      2.4413      0.0959     12.6509    101.3218     22.0865
   773.8000      7.8506      2.4207      0.0875     13.8984    102.9786     21.4647
   773.9000      7.8506      2.3628      0.0031     17.4071    106.0276     20.6926
   774.0000      7.8604      2.3001      0.0108     21.2091    107.2072     19.9536
   774.1000      7.8604      2.2593     -0.0014     23.6801    106.5098     19.4314
   774.2000      7.8604      2.2471      0.0194     24.4159    105.7076     19.2629
   774.3000      7.8719      2.2539      0.0744     24.0050    104.7148     19.2852
   774.4000      7.8719      2.2682      0.0700     23.1371    103.8092     19.2547
   774.5000      7.8667      2.2919      0.1130     21.7039    105.7855     19.2476
   774.6000      7.8667      2.3321      0.1279     19.2690    109.5503     19.5236
   774.7000      7.8667      2.3868      0.1858     15.9509    111.3013     20.1895
   774.8000      7.8837      2.4365      0.2694     12.9399    109.5921     20.9556
   774.9000      7.8837      2.4597      0.2594     11.5313    105.5427     21.3983
   775.0000      7.8856      2.4573      0.2075     11.6814    102.5606     21.6724
   775.1000      7.8856      2.4364      0.1911     12.9474    102.9199     21.8540
   775.2000      7.8856      2.3939      0.1674     15.5213    104.7015     21.6345
   775.3000      7.8965      2.3395      0.0769     18.8164    104.0737     21.1432
   775.4000      7.8965      2.2961      0.0728     21.4473    103.1500     20.7346
   775.5000      7.9080      2.2704      0.0560     23.0057    105.9607     20.5222
   775.6000      7.9080      2.2530      0.0471     24.0594    108.5251     20.4672
   775.7000      7.9080      2.2423      0.0379     24.7109    107.1184     20.6538
   775.8000      7.9387      2.2478      0.0535     24.3741    106.2381     21.2915
   775.9000      7.9387      2.2738      0.0716     22.8019    107.6906     22.2580
   776.0000      7.9473      2.3192      0.0693     20.0476    106.5119     23.1008
   776.1000      7.9473      2.3787      0.1621     16.4444    102.7241     23.6961
   776.2000      7.9473      2.4330      0.1941     13.1505    101.7213     24.2090
   776.3000      7.9314      2.4734      0.1392     10.7002    104.5610     24.6899
   776.4000      7.9314      2.5089      0.1497      8.5511    108.3969     25.2612
   776.5000      7.8910      2.5427      0.1150      6.5046    110.4289     25.9761
   776.6000      7.8910      2.5682      0.1157      4.9562    110.5302     26.4965
   776.7000      7.8910      2.5774      0.0995      4.4011    109.3418     26.5224
   776.8000      7.8895      2.5750      0.0667      4.5450    106.4233     26.2537
   776.9000      7.8895      2.5766      0.0334      4.4512    103.7917     26.0176
   777.0000      7.8964      2.5846      0.0902      3.9637    103.6708     25.8112
   777.1000      7.8964      2.5867      0.0690      3.8385    104.7191     25.4116
   777.2000      7.8964      2.5778      0.0632      4.3780    104.1893     24.7658
   777.3000      7.9075      2.5653      0.0775      5.1332    102.5407     24.2085
   777.4000      7.9075      2.5559      0.0484      5.7003    102.9793     24.0157
   777.5000      7.9109      2.5437      0.0981      6.4452    106.0744     24.1501
   777.6000      7.9109      2.5218      0.0350      7.7692    109.2727     24.4074
   777.7000      7.9109      2.5070      0.0177      8.6640    110.4847     24.6166
   777.8000      7.9242      2.5086      0.0352      8.5669    109.6965     24.7257
   777.9000      7.9242      2.5078      0.0808      8.6212    107.6215     24.6283
