~Version Information
VERS.                      2.0: CWLS Log ASCII Standard - VERSION 2.0
WRAP.                       NO: One line per depth step
~Well Information Block
STRT.FT                -7.5000: 
STOP.FT              1336.0000: 
STEP.FT                 0.2500: 
NULL.                -999.2500: 
COMP.          Pioneer Natural Resources: COMPANY
WELL.               LPGC 32-32: WELL
FLD.           Purgatorie River: FIELD
LOC.           1937' FNL & 1661' FEL--: LOCATION
CNTY.               Las Animas: COUNTY
SRVC.          Patterson Wireline: SERVICE COMPANY
DATE.          Fri Feb 03 09:39:42 2006: LOG DATE
UWI.           05 071 08641 00: UNIQUE WELL ID
STAT.                       CO: STATE
~Curve Information Block
DEPT.FT            0 000 00 00: Depth
CCL.                          : Casing Collar Locator
TT3.usec                      : CBL 3' Travel Time
AMP3.mV                       : CBL 3' Amplitude
GR.GAPI                       : Gamma Ray
~Parameter Information Block
~A  Depth       CCL         TT3         AMP3         GR     
# ...
  1131.5000      0.0000    646.7040     11.3113     55.4290
  1131.7500      0.0000    584.0867     12.2794     63.6438
  1132.0000      0.0000    508.5072     13.4443     73.3213
  1132.2500      0.0000    436.6926     14.8197     83.0636
  1132.5000      0.0000    381.8001     16.3589     91.5895
  1132.7500      0.0000    346.5850     17.9534     97.7237
  1133.0000      0.0000    326.2856     19.4773    100.6675
  1133.2500      0.0000    315.0724     20.8236    100.3701
  1133.5000      0.0000    309.1499     21.8894     97.6163
  1133.7500      0.0000    306.4454     22.5515     93.6104
  1134.0000      0.0000    305.7895     22.6994     89.3882
  1134.2500      0.0000    306.7566     22.3100     85.6487
  1134.5000      0.0000    309.6853     21.4789     82.8183
  1134.7500      0.0000    315.6356     20.3764     80.8054
  1135.0000      0.0000    326.5135     19.1755     78.8320
  1135.2500      0.0000    345.8685     18.0042     75.9853
  1135.5000      0.0000    379.3012     16.9306     71.9538
  1135.7500      0.0000    431.6484     15.9720     67.0558
  1136.0000      0.0000    500.6981     15.1202     61.8196
  1136.2500      0.0000    573.8328     14.3673     56.8988
  1136.5000      0.0000    634.0897     13.7129     53.1604
  1136.7500      0.0000    671.3875     13.1549     51.2953
  1137.0000      0.0000    687.4412     12.6801     51.1721
  1137.2500      0.0000    690.4042     12.2692     51.8680
  1137.5000      0.0000    686.1989     11.9041     52.5134
  1137.7500      0.0000    674.7833     11.5682     52.8873
  1138.0000      0.0000    654.1458     11.2359     52.9984
  1138.2500      0.0000    628.2896     10.8711     52.4246
  1138.5000      0.0000    609.7979     10.4423     50.6207
  1138.7500      0.0000    611.0239      9.9437     47.9179
  1139.0000      0.0000    632.5927      9.3985     45.7629
  1139.2500      0.0000    663.9094      8.8391     45.6946
  1139.5000      0.0000    694.0934      8.2895     48.1590
  1139.7500      0.0000    717.9048      7.7819     52.3108
  1140.0000      0.0000    731.2419      7.3829     56.7453
  1140.2500      0.0000    726.2880      7.1710     60.2393
  1140.5000      0.0000    694.9969      7.1707     62.0421
  1140.7500      2.0000    638.2804      7.3288     61.9426
  1141.0000      0.0000    571.7980      7.5697     60.2935
  1141.2500      0.0000    520.9740      7.8620     57.8096
  1141.5000      0.0000    506.6511      8.2399     55.1610
  1141.7500      0.0000    531.2348      8.7832     52.8368
  1142.0000      0.0000    576.0425      9.5540     51.4249
  1142.2500      0.0000    612.9352     10.5100     51.6902
  1142.5000      0.0000    621.6429     11.4826     54.0085
  1142.7500      0.0000    598.5160     12.2816     57.7351
  1143.0000      0.0000    552.1998     12.8320     61.3225
  1143.2500      0.0000    495.4005     13.2046     63.1529
  1143.5000      0.0000    440.2737     13.5248     62.4174
  1143.7500      0.0000    395.8426     13.8715     59.4580
  1144.0000      0.0000    365.7754     14.2505     55.3546
  1144.2500      0.0000    348.7364     14.6255     51.2627
  1144.5000      0.0000    341.1747     14.9529     48.2417
  1144.7500      0.0000    339.5094     15.1992     47.3140
  1145.0000      0.0000    340.7471     15.3495     49.0968
  1145.2500      0.0000    342.6877     15.4079     53.4106
  1145.5000      0.0000    344.2280     15.3839     59.4390
  1145.7500      0.0000    345.1954     15.2800     66.0937
  1146.0000      0.0000    345.8174     15.0982     72.3085
  1146.2500      0.0000    346.2730     14.8552     77.4791
  1146.5000      0.0000    346.5963     14.5837     81.6679
  1146.7500      0.0000    346.7710     14.3138     84.9940
  1147.0000      0.0000    346.8213     14.0539     86.9229
  1147.2500      0.0000    346.8333     13.7891     86.6982
  1147.5000      0.0000    346.9426     13.4970     84.6180
  1147.7500      0.0000    347.3445     13.1688     82.4035
  1148.0000      0.0000    348.3374     12.8264     81.9029
  1148.2500      0.0000    350.2472     12.5226     83.5073
  1148.5000      0.0000    353.0511     12.3229     85.9370
  1148.7500      0.0000    355.9483     12.2787     87.2564
  1149.0000      0.0000    357.6014     12.4054     85.9182
  1149.2500      0.0000    357.1782     12.6754     81.4098
  1149.5000      0.0000    355.0926     13.0323     74.7254
  1149.7500      0.0000    352.5356     13.4187     68.3710
  1150.0000      0.0000    350.4519     13.8001     65.2844
  1150.2500      0.0000    349.0797     14.1711     67.0949
  1150.5000      0.0000    348.1510     14.5474     73.2193
  1150.7500      0.0000    347.1834     14.9477     81.6005
  1151.0000      0.0000    345.5865     15.3805     90.1278
  1151.2500      0.0000    342.7729     15.8422     97.2288
  1151.5000      0.0000    338.5978     16.3141    101.6011
  1151.7500      0.0000    333.9825     16.7403    102.2752
  1152.0000      0.0000    330.8662     17.0275     99.3138
  1152.2500      0.0000    330.9012     17.1023     94.0389
  1152.5000      0.0000    333.9740     16.9786     88.1897
  1152.7500      0.0000    338.2871     16.7452     82.9052
  1153.0000      0.0000    341.9181     16.4918     78.7093
  1153.2500      0.0000    344.0585     16.2595     76.2227
  1153.5000      0.0000    344.9426     16.0504     76.2246
  1153.7500      0.0000    345.1292     15.8564     78.7303
  1154.0000      0.0000    345.0297     15.6767     82.4564
  1154.2500      0.0000    344.8415     15.5205     85.6470
  1154.5000      0.0000    344.6401     15.3915     87.4310
  1154.7500      0.0000    344.4617     15.2682     88.2124
  1155.0000      0.0000    344.3431     15.1081     88.7820
  1155.2500      0.0000    344.3344     14.8775     89.2460
  1155.5000      0.0000    344.5898     14.5712     88.9758
  1155.7500      0.0000    345.5947     14.1997     87.4680
  1156.0000      0.0000    348.4221     13.7689     84.9087
  1156.2500      0.0000    354.4752     13.2855     81.8460
  1156.5000      0.0000    364.1047     12.7895     78.6694
  1156.7500      0.0000    374.9622     12.3715     75.6165
  1157.0000      0.0000    382.5830     12.1344     73.0404
  1157.2500      0.0000    383.8655     12.1147     71.2841
  1157.5000      0.0000    379.7326     12.2447     70.1513
  1157.7500      0.0000    373.6055     12.4086     68.7726
  1158.0000      0.0000    367.9454     12.5311     66.4143
  1158.2500      0.0000    363.1484     12.6082     63.4317
  1158.5000      0.0000    359.0578     12.6660     61.1715
  1158.7500      0.0000    356.1780     12.7151     61.0045
  1159.0000      0.0000    355.0618     12.7501     63.6788
  1159.2500      0.0000    355.1335     12.7831     69.2384
  1159.5000      0.0000    354.8347     12.8637     76.9344
  1159.7500      0.0000    353.0786     13.0503     85.1479
  1160.0000      0.0000    350.2388     13.3480     91.9709
  1160.2500      0.0000    347.5365     13.6780     96.3552
  1160.5000      0.0000    345.8041     13.9245     98.6496
  1160.7500      0.0000    345.0534     14.0186     99.7388
  1161.0000      0.0000    344.8786     13.9749     99.7859
  1161.2500      0.0000    344.9238     13.8545     98.1929
  1161.5000      0.0000    345.0114     13.7107     94.7420
  1161.7500      0.0000    345.0808     13.5709     90.4517
  1162.0000      0.0000    345.1341     13.4503     87.1411
  1162.2500      0.0000    345.2096     13.3654     86.0479
  1162.5000      0.0000    345.3468     13.3331     86.8651
  1162.7500      0.0000    345.5386     13.3598     88.2724
  1163.0000      0.0000    345.7310     13.4352     89.3076
  1163.2500      0.0000    345.8793     13.5369     89.8073
  1163.5000      0.0000    345.9919     13.6493     89.7307
  1163.7500      0.0000    346.0935     13.7820     88.9159
  1164.0000      0.0000    346.1386     13.9753     87.7448
  1164.2500      0.0000    345.9643     14.2860     87.2856
  1164.5000      0.0000    345.3035     14.7601     88.3552
  1164.7500      0.0000    343.7687     15.4097     90.7414
