~Version Information
VERS.                      2.0: CWLS Log ASCII Standard - VERSION 2.0
WRAP.                       NO: One line per depth step
~Well Information Block
STRT.FT               970.0000: 
STOP.FT              1881.0000: 
STEP.FT                 0.1000: 
NULL.                -999.2500: 
COMP.          Petrogulf Corporation: COMPANY
WELL.             Norton 9-14R: WELL
FLD.           Purgatorie River: FIELD
LOC.           725' FSL & 1103' FWL: LOCATION
PROV.                 Colorado: PROVINCE
CNTY.               Las Animas: COUNTRY
SRVC.                Patterson: SERVICE COMPANY
DATE.          Fri Oct 07 07:52:23 2005: LOG DATE
UWI.                          : UNIQUE WELL ID
~Curve Information Block
DEPT.FT            0 000 00 00: Depth
DCAL.in                       : CDL Caliper
RHOB.g/cc                     : CDL Bulk Density
RHOC.g/cc                     : CDL Density Correction
DPOR.pu                       : CDL Density Porosity
GR.GAPI                       : Gamma Ray
NPOR.pu                       : Neutron Porosity
~Parameter Information Block
~A  Depth       DCAL        RHOB        RHOC        DPOR         GR         NPOR    
# ...
  1680.4000      7.8377      2.5806      0.0548      4.2037    150.2919     27.0015
  1680.5000      7.9256      2.5653      0.0078      5.1326    152.8623     26.7207
  1680.6000      7.9256      2.5529      0.0253      5.8857    161.0794     26.4472
  1680.7000      7.9256      2.5422     -0.0061      6.5344    167.5230     26.2562
  1680.8000      7.9365      2.5395      0.0008      6.6944    164.7920     26.0925
  1680.9000      7.9365      2.5440      0.0333      6.4270    157.5813     25.8532
  1681.0000      7.9342      2.5431      0.0273      6.4810    153.2670     25.8221
  1681.1000      7.9342      2.5340      0.0174      7.0308    154.0026     26.2393
  1681.2000      7.9342      2.5206      0.0005      7.8433    155.8205     26.8010
  1681.3000      7.9250      2.5032      0.0038      8.8950    154.7742     27.1898
  1681.4000      7.9250      2.4864     -0.0400      9.9176    152.6981     27.2944
  1681.5000      7.9204      2.4760     -0.0146     10.5472    152.0908     27.1530
  1681.6000      7.9204      2.4694     -0.0178     10.9467    152.4981     27.0149
  1681.7000      7.9204      2.4674     -0.0107     11.0643    152.6445     27.0521
  1681.8000      7.9420      2.4786     -0.0103     10.3900    153.5631     27.2164
  1681.9000      7.9420      2.4987      0.0280      9.1671    156.6199     27.3458
  1682.0000      7.9544      2.5085      0.0612      8.5732    158.7814     27.2762
  1682.1000      7.9544      2.5003      0.0111      9.0713    158.0090     27.1855
  1682.2000      7.9544      2.4838      0.0187     10.0713    156.7993     27.4343
  1682.3000      7.9399      2.4697      0.0123     10.9260    157.0099     27.7860
  1682.4000      7.9399      2.4659      0.0155     11.1587    159.8843     27.8093
  1682.5000      7.9813      2.4801      0.0238     10.2960    165.3564     27.8067
  1682.6000      7.9813      2.5123      0.0889      8.3444    169.1011     28.0235
  1682.7000      7.9813      2.5412      0.1498      6.5941    170.3740     28.0232
  1682.8000      8.0393      2.5479      0.1392      6.1861    173.7175     27.7281
  1682.9000      8.0393      2.5414      0.1240      6.5813    178.5369     27.7253
  1683.0000      7.8291      2.5374      0.0773      6.8266    179.9453     28.1656
  1683.1000      7.8291      2.5431      0.0787      6.4799    176.7742     28.5499
  1683.2000      7.8291      2.5588      0.0781      5.5281    171.0172     28.4821
  1683.3000      7.7651      2.5829      0.0931      4.0668    165.8815     28.1941
  1683.4000      7.7651      2.6136      0.1805      2.2062    164.5199     28.1273
  1683.5000      7.7900      2.6471      0.1682      0.1743    164.8980     28.2608
  1683.6000      7.7900      2.6815      0.1560     -1.9070    161.8641     28.2492
  1683.7000      7.7900      2.7039      0.2070     -3.2665    155.1172     27.8400
  1683.8000      7.8351      2.6915      0.1879     -2.5180    148.2585     27.2993
  1683.9000      7.8351      2.6523      0.0757     -0.1366    143.0677     27.2052
  1684.0000      7.9199      2.6228      0.0543      1.6512    140.5919     27.4864
  1684.1000      7.9199      2.6161      0.0741      2.0548    141.5211     27.5226
  1684.2000      7.9199      2.6204      0.0596      1.7921    142.7566     27.2979
  1684.3000      7.9443      2.6340      0.0178      0.9686    141.6277     27.3818
  1684.4000      7.9443      2.6629      0.0677     -0.7829    140.5253     27.8789
  1684.5000      7.9378      2.6995      0.0938     -3.0018    142.4173     28.3863
  1684.6000      7.9378      2.7297      0.1110     -4.8330    142.0814     28.7397
  1684.7000      7.9378      2.7519      0.0983     -6.1731    135.3212     28.9418
  1684.8000      7.9096      2.7724      0.1062     -7.4165    127.6365     29.0161
  1684.9000      7.9096      2.7843      0.1200     -8.1409    121.6051     29.1109
  1685.0000      7.8899      2.7759      0.0799     -7.6290    115.9635     29.2316
  1685.1000      7.8899      2.7492      0.0658     -6.0133    113.3471     29.2851
  1685.2000      7.8899      2.7066      0.0503     -3.4278    116.0849     29.2003
  1685.3000      7.9095      2.6542     -0.0049     -0.2575    121.9443     29.0309
  1685.4000      7.9095      2.6133     -0.0349      2.2214    127.9292     28.7779
  1685.5000      7.8962      2.5934      0.0009      3.4316    132.5570     28.3455
  1685.6000      7.8962      2.5870     -0.0374      3.8164    136.8845     27.9811
  1685.7000      7.8962      2.5885      0.0060      3.7276    143.3287     27.9558
  1685.8000      7.9179      2.5839      0.0663      4.0069    148.7647     28.0011
  1685.9000      7.9179      2.5636      0.0288      5.2334    149.4499     27.8262
  1686.0000      7.9375      2.5495     -0.0243      6.0920    147.9081     27.7163
  1686.1000      7.9375      2.5582      0.0922      5.5650    145.6708     28.0431
  1686.2000      7.9375      2.5787      0.0642      4.3231    142.8352     28.5844
  1686.3000      7.9757      2.5966      0.0910      3.2391    141.8661     28.9639
  1686.4000      7.9757      2.6032      0.0787      2.8372    143.1468     29.2563
  1686.5000      7.9663      2.6001      0.0730      3.0235    146.5711     29.6615
  1686.6000      7.9663      2.5901      0.0874      3.6278    151.6674     30.0068
  1686.7000      7.9663      2.5791      0.0668      4.2943    154.2702     29.9632
  1686.8000      7.9479      2.5849      0.0521      3.9441    151.2322     29.6830
  1686.9000      7.9479      2.6109      0.0633      2.3713    144.2831     29.5396
  1687.0000      7.9381      2.6334      0.1084      1.0054    136.8643     29.5686
  1687.1000      7.9381      2.6353      0.1306      0.8929    132.1081     29.7300
  1687.2000      7.9381      2.6299      0.1212      1.2152    131.2947     29.8366
  1687.3000      7.9455      2.6285      0.1467      1.3011    130.1704     29.5737
  1687.4000      7.9455      2.6227      0.0539      1.6553    125.8682     29.1791
  1687.5000      7.9181      2.6129      0.0240      2.2485    122.5493     29.0998
  1687.6000      7.9181      2.6082      0.0378      2.5324    122.2547     29.2268
  1687.7000      7.9181      2.6100      0.0398      2.4218    121.8195     29.1753
  1687.8000      7.9066      2.6116     -0.0029      2.3243    121.5962     28.8436
  1687.9000      7.9066      2.6069      0.0239      2.6093    122.6326     28.2046
  1688.0000      7.9096      2.5983      0.0096      3.1315    122.1125     27.2230
  1688.1000      7.9096      2.5923      0.0247      3.4980    120.0266     26.1770
  1688.2000      7.9096      2.5934     -0.0218      3.4299    119.9623     25.3256
  1688.3000      7.9075      2.6011      0.0421      2.9618    122.1588     24.6996
  1688.4000      7.9075      2.6058      0.0254      2.6807    122.3308     24.2844
  1688.5000      7.8893      2.6072      0.0069      2.5951    119.5878     24.0942
  1688.6000      7.8893      2.6148      0.0490      2.1330    117.0268     24.2739
  1688.7000      7.8893      2.6264      0.0259      1.4330    115.0811     24.8102
  1688.8000      7.8974      2.6313      0.0798      1.1352    113.8256     25.3204
  1688.9000      7.8974      2.6279      0.0428      1.3394    116.4112     25.5056
  1689.0000      7.8898      2.6262      0.0325      1.4400    121.9891     25.5182
  1689.1000      7.8898      2.6353      0.0629      0.8892    124.3207     25.5718
  1689.2000      7.8898      2.6482      0.1287      0.1071    122.1486     25.6971
  1689.3000      7.8002      2.6463      0.1281      0.2258    120.8538     25.8332
  1689.4000      7.8002      2.6309      0.1127      1.1601    122.9619     25.8724
  1689.5000      7.7764      2.6240      0.0765      1.5760    126.3634     25.7933
  1689.6000      7.7764      2.6276      0.0860      1.3597    128.4661     25.7889
  1689.7000      7.7764      2.6238      0.0945      1.5907    128.6312     26.0540
  1689.8000      7.7627      2.6125      0.0534      2.2737    129.3117     26.4850
  1689.9000      7.7627      2.6059      0.0682      2.6730    133.0446     26.8205
