~Version Information
VERS.                      2.0: CWLS Log ASCII Standard - VERSION 2.0
WRAP.                       NO: One line per depth step
~Well Information Block
STRT.FT                -6.5000: 
STOP.FT              1317.5000: 
STEP.FT                 0.2500: 
NULL.                -999.2500: 
COMP.          Pioneer Natural Resources: COMPANY
WELL.              Dicks 32-5R: WELL
FLD.           Purgatorie River: FIELD
LOC.           1485' FNL & 1684' FEL--: LOCATION
PROV.                       CO: PROVINCE
CNTY.               Las Animas: COUNTRY
SRVC.          Patterson Wireline: SERVICE COMPANY
DATE.          Tue Dec 13 09:33:22 2005: LOG DATE
UWI.           05 071 08596 00: UNIQUE WELL ID
~Curve Information Block
DEPT.FT            0 000 00 00: Depth
CCL.                          : Casing Collar Locator
TT3.usec                      : CBL 3' Travel Time
AMP3.mV                       : CBL 3' Amplitude
GR.GAPI                       : Gamma Ray
~Parameter Information Block
~A  Depth       CCL         TT3         AMP3         GR     
# ...
  1132.5000      0.0000    572.7573     10.7458     84.5874
  1132.7500      0.0000    580.6584     11.0232     88.1269
  1133.0000      0.0000    622.0869     11.2773     91.3543
  1133.2500      0.0000    682.2765     11.4523     93.3514
  1133.5000      0.0000    738.9968     11.5236     94.4022
  1133.7500      0.0000    776.8917     11.5032     95.6031
  1134.0000      0.0000    794.4141     11.4215     97.4688
  1134.2500      0.0000    799.2106     11.2999     99.6153
  1134.5000      0.0000    798.8682     11.1404    101.5375
  1134.7500      0.0000    795.5811     10.9359    103.2455
  1135.0000      0.0000    787.5969     10.6885    105.2563
  1135.2500      0.0000    774.1982     10.4180    108.1000
  1135.5000      0.0000    758.5118     10.1573    111.5693
  1135.7500      0.0000    745.4835      9.9362    114.2486
  1136.0000      0.0000    738.0632      9.7682    114.1441
  1136.2500      0.0000    736.1606      9.6459    110.1425
  1136.5000      0.0000    738.3187      9.5480    102.9962
  1136.7500      0.0000    742.8560      9.4522     95.0200
  1137.0000      0.0000    747.4512      9.3498     88.7700
  1137.2500      0.0000    749.3274      9.2471     85.5447
  1137.5000      0.0000    747.0959      9.1550     84.6714
  1137.7500      0.0000    741.9729      9.0776     84.2298
  1138.0000      0.0000    736.4048      9.0115     82.7538
  1138.2500      0.0000    731.7198      8.9496     80.2933
  1138.5000      0.0000    727.3699      8.8857     77.8239
  1138.7500      0.0000    722.0294      8.8180     76.0680
  1139.0000      0.0000    715.1226      8.7476     75.2602
  1139.2500      0.0000    707.4959      8.6758     75.7017
  1139.5000      0.0000    700.7850      8.6048     77.9066
  1139.7500      0.0000    696.1757      8.5428     82.0662
  1140.0000      0.0000    693.7849      8.5009     87.5412
  1140.2500      0.0000    693.1387      8.4845     92.9688
  1140.5000      0.0000    694.0776      8.4861     96.9274
  1140.7500      0.0000    697.4133      8.4854     98.6577
  1141.0000      0.0000    704.7977      8.4585     98.3987
  1141.2500      0.0000    717.3299      8.3899     97.1100
  1141.5000      0.0000    733.4222      8.2837     95.6260
  1141.7500      0.0000    748.3986      8.1574     93.9285
  1142.0000      0.0000    757.6768      8.0253     91.3920
  1142.2500      0.0000    760.9248      7.8902     87.7792
  1142.5000      0.0000    762.3376      7.7566     83.6944
  1142.7500      0.0000    766.5745      7.6506     79.9770
  1143.0000      0.0000    775.0287      7.6200     76.8841
  1143.2500      0.0000    785.6959      7.7052     73.9417
  1143.5000      0.0000    795.3882      7.9041     70.4531
  1143.7500      0.0000    801.9369      8.1654     66.1234
  1144.0000      0.0000    805.3392      8.4194     61.3646
  1144.2500      0.0000    807.1965      8.6168     57.3460
  1144.5000      0.0000    808.6002      8.7434     55.6715
  1144.7500      0.0000    808.3343      8.8098     57.4384
  1145.0000      0.0000    803.1729      8.8383     62.2788
  1145.2500      0.0000    790.2670      8.8584     68.6572
  1145.5000      0.0000    770.0555      8.8975     75.1792
  1145.7500      0.0000    747.4097      8.9632     81.2024
  1146.0000      0.0000    729.1438      9.0342     86.1856
  1146.2500      0.0000    719.2385      9.0715     89.1824
  1146.5000      0.0000    716.1440      9.0392     89.4438
  1146.7500      0.0000    714.8645      8.9226     87.2925
  1147.0000      0.0000    711.6080      8.7362     84.1274
  1147.2500      0.0000    706.2756      8.5149     81.5976
  1147.5000      0.0000    700.9950      8.2941     80.6301
  1147.7500      0.0000    697.3762      8.0964     81.0150
  1148.0000      0.0000    695.5372      7.9351     81.9488
  1148.2500      0.0000    694.8452      7.8219     83.0512
  1148.5000      0.0000    694.7468      7.7682     84.6886
  1148.7500      0.0000    694.9507      7.7809     87.2074
  1149.0000      0.0000    695.2870      7.8565     90.0809
  1149.2500      0.0000    695.6172      7.9768     92.1907
  1149.5000      0.0000    695.8460      8.1111     93.0063
  1149.7500      0.0000    695.9753      8.2283     93.2373
  1150.0000      0.0000    696.0981      8.3080     94.1305
  1150.2500      0.0000    696.4355      8.3447     96.3628
  1150.5000      0.0000    697.5782      8.3445     99.6867
  1150.7500      0.0000    700.9395      8.3187    103.3436
  1151.0000      0.0000    708.8475      8.2767    106.7631
  1151.2500      0.0000    723.3387      8.2219    109.8683
  1151.5000      0.0000    743.7514      8.1510    112.3881
  1151.7500      0.0000    765.4363      8.0551    113.0660
  1152.0000      0.0000    781.9902      7.9232    110.3961
  1152.2500      0.0000    789.6588      7.7515    104.3139
  1152.5000      0.0000    789.5592      7.5539     96.4565
  1152.7500      0.0000    785.8146      7.3642     88.6652
  1153.0000      0.0000    782.1648      7.2299     81.7483
  1153.2500      0.0000    780.2548      7.1947     75.5455
  1153.5000      0.0000    780.0335      7.2730     69.7888
  1153.7500      0.0000    780.8333      7.4358     64.9378
  1154.0000      0.0000    782.1138      7.6286     62.0423
  1154.2500      0.0000    783.8140      7.8070     61.5632
  1154.5000      0.0000    786.4193      7.9525     62.6807
  1154.7500      0.0000    790.6307      8.0670     64.2094
  1155.0000      0.0000    796.6279      8.1640     65.9348
  1155.2500      0.0000    803.4318      8.2645     68.5653
  1155.5000      0.0000    808.9536      8.3916     72.3784
  1155.7500      0.0000    810.5200      8.5661     76.3531
  1156.0000      0.0000    805.3804      8.7981     78.9847
  1156.2500      0.0000    791.6304      9.0727     79.8524
  1156.5000      0.0000    769.9791      9.3404     80.0355
  1156.7500      0.0000    744.7722      9.5338     81.0216
  1157.0000      0.0000    722.1166      9.6087     83.5297
  1157.2500      0.0000    706.2131      9.5751     87.2583
  1157.5000      0.0000    697.4890      9.4881     91.2098
  1157.7500      0.0000    693.9362      9.4081     94.1544
  1158.0000      0.0000    693.6351      9.3656     95.2056
  1158.2500      0.0000    696.4600      9.3549     94.1584
  1158.5000      0.0000    704.3929      9.3487     91.3128
  1158.7500      0.0000    719.9871      9.3130     87.2415
  1159.0000      0.0000    743.1043      9.2088     83.0105
  1159.2500      0.0000    768.7100      8.9969     80.2765
  1159.5000      0.0000    789.0920      8.6660     80.4552
  1159.7500      0.0000    799.0435      8.2568     83.4867
  1160.0000      0.0000    798.7991      7.8401     87.4958
  1160.2500      0.0000    792.5923      7.4634     89.6824
  1160.5000      0.0000    785.3994      7.1253     87.6778
  1160.7500      0.0000    780.7177      6.7969     80.6819
  1161.0000      0.0000    780.0421      6.4496     70.0529
  1161.2500      0.0000    783.1881      6.0622     58.8706
  1161.5000      0.0000    788.6362      5.6251     50.3016
  1161.7500      0.0000    794.0179      5.1580     45.8037
  1162.0000      0.0000    797.5007      4.7186     44.6365
  1162.2500      0.0000    799.6802      4.3680     44.8967
  1162.5000      0.0000    804.2051      4.1188     44.9404
  1162.7500      0.0000    815.5137      3.9481     44.1653
  1163.0000      0.0000    834.1805      3.8780     43.0520
  1163.2500      0.0000    853.8544      4.0017     42.6299
  1163.5000      0.0000    864.5978      4.3913     43.7105
  1163.7500      0.0000    861.1552      4.9974     46.4359
  1164.0000     -2.0000    847.4563      5.6699     50.3560
  1164.2500      0.0000    832.4147      6.2652     54.6661
  1164.5000      0.0000    822.5627      6.7377     58.4192
  1164.7500      0.0000    818.9809      7.1573     60.9106
  1165.0000      0.0000    819.0756      7.6357     62.2363
  1165.2500      0.0000    819.6271      8.1918     63.4293
  1165.5000      0.0000    818.8447      8.7008     65.7321
  1165.7500      0.0000    816.9567      9.0440     69.5543
