~Version Information
VERS.                      2.0: CWLS Log ASCII Standard - VERSION 2.0
WRAP.                       NO: One line per depth step
~Well Information Block
STRT.FT               390.0000: 
STOP.FT              1434.5000: 
STEP.FT                 0.1000: 
NULL.                -999.2500: 
COMP.          Pioneer Natural Resources: COMPANY
WELL.             John K 12-28: WELL
FLD.           Purgatoire River: FIELD
LOC.           1476' FNL & 465' FWL: LOCATION
CNTY.               Las Animas: COUNTY
SRVC.                Patterson: SERVICE COMPANY
DATE.          Mon Apr 10 06:53:47 2006: LOG DATE
UWI.           05 071 08723 00: UNIQUE WELL ID
STAT.                 Colorado: STATE
~Curve Information Block
DEPT.FT            0 000 00 00: Depth
DCAL.in                       : CDL Caliper
RHOB.g/cc                     : CDL Bulk Density
RHOC.g/cc                     : CDL Density Correction
DPOR.pu                       : CDL Density Porosity
GR.GAPI                       : Gamma Ray
NPOR.pu                       : Neutron Porosity
~Parameter Information Block
~A  Depth       DCAL        RHOB        RHOC        DPOR         GR         NPOR    
# ...
   457.2000      7.8178      2.5139     -0.0073      8.2475    130.7929     29.1941
   457.3000      7.8180      2.4910     -0.0187      9.6348    123.6304     29.3061
   457.4000      7.8180      2.4790     -0.0407     10.3632    115.9271     28.7840
   457.5000      7.8188      2.4829      0.0257     10.1278    113.9683     27.8690
   457.6000      7.8188      2.4882      0.0035      9.8072    117.3712     27.4547
   457.7000      7.8188      2.4893      0.0172      9.7405    119.8960     27.7155
   457.8000      7.8194      2.4934      0.0286      9.4895    118.3493     28.0279
   457.9000      7.8194      2.4975      0.0645      9.2411    117.7508     28.1363
   458.0000      7.8191      2.4978      0.0200      9.2222    122.8686     28.0639
   458.1000      7.8191      2.5077      0.0357      8.6232    129.4476     27.8254
   458.2000      7.8191      2.5340      0.0567      7.0332    132.0192     27.7113
   458.3000      7.8184      2.5581      0.1111      5.5721    129.9244     27.9922
   458.4000      7.8184      2.5680      0.0859      4.9717    126.6994     28.3811
   458.5000      7.8179      2.5807      0.0617      4.1986    123.5595     28.4936
   458.6000      7.8179      2.6068      0.1320      2.6152    114.5458     28.1989
   458.7000      7.8179      2.6279      0.1397      1.3401     98.5419     27.5325
   458.8000      7.8180      2.6280      0.1136      1.3344     85.5349     27.1161
   458.9000      7.8180      2.6067      0.1064      2.6264     80.5694     27.1779
   459.0000      7.8173      2.5660      0.0631      5.0891     78.4591     26.9210
   459.1000      7.8173      2.5226      0.0241      7.7212     76.8729     25.5815
   459.2000      7.8173      2.5029     -0.0205      8.9136     77.2821     23.6233
   459.3000      7.8148      2.5094      0.0416      8.5196     79.6033     22.3075
   459.4000      7.8148      2.5251      0.0329      7.5696     83.5605     21.8659
   459.5000      7.8133      2.5433      0.0078      6.4645     88.8248     21.5105
   459.6000      7.8133      2.5614      0.0467      5.3684     92.4068     20.6856
   459.7000      7.8133      2.5640      0.0853      5.2096     94.1535     19.4855
   459.8000      7.8140      2.5383      0.0687      6.7683     98.8556     18.2616
   459.9000      7.8140      2.4969      0.0455      9.2765    107.3332     17.5802
   460.0000      7.8154      2.4594      0.0522     11.5520    115.9094     17.9717
   460.1000      7.8154      2.4241      0.0420     13.6917    121.2354     19.2386
   460.2000      7.8154      2.3878     -0.0194     15.8938    123.3256     20.6881
   460.3000      7.8164      2.3610     -0.0020     17.5123    124.2237     21.8938
   460.4000      7.8164      2.3509      0.0313     18.1285    124.0082     22.9355
   460.5000      7.8166      2.3535      0.0572     17.9695    123.2302     24.1310
   460.6000      7.8166      2.3686      0.0398     17.0555    124.0153     25.4465
   460.7000      7.8166      2.3946      0.1358     15.4799    126.0917     26.3808
   460.8000      7.8171      2.4154      0.1174     14.2212    126.9783     26.9949
   460.9000      7.8171      2.4220      0.0555     13.8186    124.7842     27.8438
   461.0000      7.8175      2.4238      0.0205     13.7104    120.9783     28.8222
   461.1000      7.8175      2.4326      0.0398     13.1785    119.9696     29.2207
   461.2000      7.8175      2.4563      0.0393     11.7417    122.6518     28.9903
   461.3000      7.8176      2.4959      0.0676      9.3405    125.2143     28.6942
   461.4000      7.8176      2.5402      0.0498      6.6545    125.2358     28.3790
   461.5000      7.8173      2.5647      0.0841      5.1710    122.0401     28.2967
   461.6000      7.8173      2.5560      0.0316      5.6953    117.9551     28.8459
   461.7000      7.8173      2.5384      0.0047      6.7623    115.7296     29.6387
   461.8000      7.8166      2.5363     -0.0041      6.8934    114.4960     30.2232
   461.9000      7.8166      2.5441      0.0371      6.4173    111.8695     30.5389
   462.0000      7.8159      2.5470      0.0339      6.2419    106.2986     30.5635
   462.1000      7.8159      2.5438     -0.0122      6.4384     99.9054     30.1015
   462.2000      7.8159      2.5450      0.0017      6.3607     97.3736     29.0725
   462.3000      7.8156      2.5501      0.0582      6.0549    100.3286     28.0353
   462.4000      7.8156      2.5509     -0.0020      6.0052    104.7994     27.5377
   462.5000      7.8154      2.5467      0.0220      6.2606    106.8569     27.4552
   462.6000      7.8154      2.5303      0.0471      7.2520    105.1475     27.1587
   462.7000      7.8154      2.5009     -0.0174      9.0354     98.1725     26.7156
   462.8000      7.8146      2.4796     -0.0054     10.3298     88.4403     26.8726
   462.9000      7.8146      2.4773     -0.0260     10.4666     82.6739     27.6967
   463.0000      7.8119      2.4826     -0.0074     10.1453     84.0645     28.4524
   463.1000      7.8119      2.4872     -0.0153      9.8658     89.6983     28.8331
   463.2000      7.8119      2.4928      0.0192      9.5301     94.7295     29.1753
   463.3000      7.8086      2.5001      0.0046      9.0819     94.8359     29.5463
   463.4000      7.8086      2.5101      0.0176      8.4774     91.2405     29.6915
   463.5000      7.8085      2.5215      0.0108      7.7872     87.6772     29.7755
   463.6000      7.8085      2.5289      0.0427      7.3366     83.8546     29.9492
   463.7000      7.8085      2.5326      0.0316      7.1138     78.3334     30.0874
   463.8000      7.8099      2.5462      0.0454      6.2925     72.3895     29.9637
   463.9000      7.8099      2.5773      0.0322      4.4044     69.5104     28.9817
   464.0000      7.8098      2.6158      0.0280      2.0699     70.8997     27.0734
   464.1000      7.8098      2.6439      0.0571      0.3684     74.3981     25.4016
   464.2000      7.8098      2.6429      0.0862      0.4277     78.0517     24.5790
   464.3000      7.8085      2.6171      0.0067      1.9945     80.8862     24.3781
   464.4000      7.8085      2.5928      0.0559      3.4663     80.9698     24.4543
   464.5000      7.8050      2.5728      0.0231      4.6791     78.0328     24.2648
   464.6000      7.8050      2.5317      0.0190      7.1674     75.2432     23.5473
   464.7000      7.8050      2.4563     -0.0264     11.7392     78.0022     22.8878
   464.8000      7.7954      2.3701     -0.0966     16.9650     87.2552     22.7319
   464.9000      7.7954      2.3038     -0.0392     20.9798     95.1378     22.8091
   465.0000      7.7826      2.2626     -0.0151     23.4776     93.9920     22.7333
   465.1000      7.7826      2.2391      0.0619     24.9005     87.6257     22.4314
   465.2000      7.7826      2.2275      0.0955     25.6090     85.9687     22.3895
   465.3000      7.7834      2.2262      0.1102     25.6860     88.7312     22.9644
   465.4000      7.7834      2.2289      0.1573     25.5219     89.7471     23.8093
   465.5000      7.8013      2.2272      0.0982     25.6242     90.1933     24.5115
   465.6000      7.8013      2.2336      0.0936     25.2352     94.0273     24.9058
   465.7000      7.8013      2.2624      0.1308     23.4917    100.1636     25.3824
   465.8000      7.8141      2.3046      0.1531     20.9331    104.2902     26.2657
   465.9000      7.8141      2.3446      0.1390     18.5100    106.3823     26.8710
   466.0000      7.8163      2.3764      0.1088     16.5803    109.6092     26.9619
   466.1000      7.8163      2.3982      0.0818     15.2619    111.8752     27.1603
   466.2000      7.8163      2.4010      0.0757     15.0935    108.6513     27.4521
   466.3000      7.8152      2.3861      0.0113     15.9947    103.0585     27.6444
   466.4000      7.8152      2.3785     -0.0235     16.4545    100.8117     27.9436
   466.5000      7.8143      2.3919      0.0284     15.6425     98.1023     28.1351
   466.6000      7.8143      2.4127      0.0192     14.3832     90.7337     27.8929
   466.7000      7.8143      2.4277      0.0305     13.4753     84.6309     27.3193
