~Version Information
VERS.                      2.0: CWLS Log ASCII Standard - VERSION 2.0
WRAP.                       NO: One line per depth step
~Well Information Block
STRT.FT               440.0000: 
STOP.FT              1300.5000: 
STEP.FT                 0.1000: 
NULL.                -999.2500: 
COMP.          Pioneer Natural Resources: COMPANY
WELL.              Yoshi 14-30: WELL
FLD.           Purgatoire River: FIELD
LOC.           993' FSL & 823' FWL: LOCATION
CNTY.               Las Animas: COUNTY
SRVC.                Patterson: SERVICE COMPANY
DATE.          Fri Feb 17 14:59:28 2006: LOG DATE
UWI.           05 071 08699 00: UNIQUE WELL ID
STAT.                 Colorado: STATE
~Curve Information Block
DEPT.FT            0 000 00 00: Depth
DCAL.in                       : CDL Caliper
RHOB.g/cc                     : CDL Bulk Density
RHOC.g/cc                     : CDL Density Correction
DPOR.pu                       : CDL Density Porosity
GR.GAPI                       : Gamma Ray
NPOR.pu                       : Neutron Porosity
~Parameter Information Block
~A  Depth       DCAL        RHOB        RHOC        DPOR         GR         NPOR    
# ...
   948.8000      8.0258      2.4990      0.0212      9.1510    124.0747     25.9121
   948.9000      8.0258      2.4961      0.0149      9.3248    121.5205     26.4703
   949.0000      8.0289      2.5040      0.0203      8.8504    122.2591     26.8793
   949.1000      8.0289      2.5096      0.0475      8.5103    128.7269     27.0351
   949.2000      8.0289      2.5094      0.0113      8.5223    137.2820     26.4626
   949.3000      8.0325      2.5115      0.0401      8.3926    138.9890     24.9489
   949.4000      8.0325      2.5187      0.0401      7.9554    134.8643     23.1882
   949.5000      8.0317      2.5241      0.0763      7.6319    131.4767     22.2945
   949.6000      8.0317      2.5232      0.0894      7.6864    127.1801     22.4217
   949.7000      8.0317      2.5208      0.0848      7.8273    119.7556     22.3378
   949.8000      8.0267      2.5181      0.1408      7.9917    114.4069     21.2805
   949.9000      8.0267      2.5090      0.1126      8.5464    114.6779     20.0279
   950.0000      8.0237      2.4925      0.0981      9.5485    120.6370     19.3955
   950.1000      8.0237      2.4649      0.0609     11.2206    129.2674     19.0446
   950.2000      8.0237      2.4218      0.0306     13.8315    134.1703     18.3529
   950.3000      8.0246      2.3756      0.0098     16.6304    135.4980     17.4969
   950.4000      8.0246      2.3399      0.0609     18.7940    134.0643     16.9122
   950.5000      8.0275      2.3131      0.0578     20.4179    129.8926     16.9063
   950.6000      8.0275      2.2982      0.0345     21.3183    128.1650     17.5915
   950.7000      8.0275      2.2991      0.0725     21.2660    129.7862     18.5783
   950.8000      8.0331      2.3080      0.0976     20.7282    130.8283     19.4020
   950.9000      8.0331      2.3177      0.1067     20.1382    129.7785     19.8475
   951.0000      8.0419      2.3324      0.0824     19.2502    125.1668     19.7157
   951.1000      8.0419      2.3630      0.0877     17.3962    119.3712     19.0998
   951.2000      8.0419      2.3997      0.1673     15.1687    118.8052     18.9117
   951.3000      8.0481      2.4184      0.1053     14.0369    123.0996     19.7506
   951.4000      8.0481      2.4218      0.1108     13.8294    126.9655     21.1106
   951.5000      8.0496      2.4232      0.0945     13.7431    127.0806     22.4029
   951.6000      8.0496      2.4229      0.0529     13.7618    124.3524     23.1481
   951.7000      8.0496      2.4241      0.0006     13.6900    122.3037     22.7522
   951.8000      8.0495      2.4267      0.0474     13.5361    121.5371     21.5480
   951.9000      8.0495      2.4209      0.0072     13.8841    119.2346     20.7985
   952.0000      8.0496      2.4116     -0.0030     14.4471    115.7102     20.9237
   952.1000      8.0496      2.4090      0.0299     14.6037    116.8743     21.2780
   952.2000      8.0496      2.4126      0.0157     14.3876    125.0246     21.5381
   952.3000      8.0499      2.4189      0.0302     14.0047    129.9715     21.9684
   952.4000      8.0499      2.4254      0.0280     13.6147    123.1663     22.4564
   952.5000      8.0500      2.4342      0.0057     13.0808    112.5048     22.5492
   952.6000      8.0500      2.4471      0.0275     12.2992    109.4165     22.3704
   952.7000      8.0500      2.4589      0.0120     11.5835    111.9442     22.5477
   952.8000      8.0496      2.4654     -0.0041     11.1900    114.3065     23.0299
   952.9000      8.0496      2.4663     -0.0333     11.1316    115.2766     23.0385
   953.0000      8.0487      2.4653     -0.0366     11.1931    114.3226     22.5805
   953.1000      8.0487      2.4678     -0.0015     11.0446    110.1779     22.1857
   953.2000      8.0487      2.4796     -0.0415     10.3268    104.9802     22.0071
   953.3000      8.0476      2.4997      0.0124      9.1090    103.0701     21.9220
   953.4000      8.0476      2.5164      0.0343      8.0987    105.4462     21.8571
   953.5000      8.0464      2.5261      0.0227      7.5086    109.6732     21.9515
   953.6000      8.0464      2.5280      0.0221      7.3909    112.4353     22.1399
   953.7000      8.0464      2.5194     -0.0013      7.9134    112.5091     22.1776
   953.8000      8.0457      2.5119     -0.0122      8.3671    114.3993     22.1986
   953.9000      8.0457      2.5140      0.0501      8.2444    121.0239     22.3271
   954.0000      8.0457      2.5123      0.0269      8.3452    124.8586     22.2052
   954.1000      8.0457      2.4950      0.0529      9.3943    117.9797     21.6158
   954.2000      8.0457      2.4727     -0.0104     10.7453    107.6374     21.1410
   954.3000      8.0452      2.4660     -0.0218     11.1513    107.4597     21.2776
   954.4000      8.0452      2.4695     -0.0266     10.9400    115.2568     21.8418
   954.5000      8.0439      2.4595     -0.0039     11.5453    120.7258     22.4559
   954.6000      8.0439      2.4346     -0.0491     13.0554    121.4236     22.8003
   954.7000      8.0439      2.4208     -0.0673     13.8910    118.4777     22.7598
   954.8000      8.0431      2.4329     -0.0151     13.1557    114.2133     22.5792
   954.9000      8.0431      2.4539     -0.0061     11.8872    112.1118     22.7443
   955.0000      8.0437      2.4680     -0.0217     11.0333    114.8197     23.4231
   955.1000      8.0437      2.4818     -0.0165     10.1937    118.5832     24.2302
   955.2000      8.0437      2.4971      0.0173      9.2638    116.9178     24.7033
   955.3000      8.0445      2.5038      0.0297      8.8590    115.0962     24.4392
   955.4000      8.0445      2.5030     -0.0058      8.9071    119.2956     23.5875
   955.5000      8.0450      2.5029      0.0192      8.9175    122.3128     22.9354
   955.6000      8.0450      2.5005      0.0094      9.0626    117.1099     22.8456
   955.7000      8.0450      2.4909      0.0098      9.6418    108.1903     23.0383
   955.8000      8.0444      2.4815     -0.0196     10.2126    103.2210     23.1875
   955.9000      8.0444      2.4798      0.0071     10.3125    104.1433     23.2401
   956.0000      8.0419      2.4792      0.0227     10.3502    108.2791     23.2338
   956.1000      8.0419      2.4792     -0.0003     10.3509    113.1745     23.1393
   956.2000      8.0419      2.4897      0.0352      9.7128    115.0475     23.0377
   956.3000      8.0387      2.5028      0.0382      8.9234    110.7374     23.2691
   956.4000      8.0387      2.5055      0.0164      8.7553    104.5035     24.0658
   956.5000      8.0389      2.5085      0.0243      8.5755    101.2008     25.1192
   956.6000      8.0389      2.5281      0.0478      7.3856    101.2649     25.6998
   956.7000      8.0389      2.5597      0.0895      5.4741    105.4410     25.5472
   956.8000      8.0398      2.5879      0.0822      3.7630    107.8375     25.1893
   956.9000      8.0398      2.6163      0.0872      2.0412    101.8015     25.0303
   957.0000      8.0387      2.6482      0.1578      0.1115     94.1038     24.8139
   957.1000      8.0387      2.6642      0.1382     -0.8583     92.1605     24.2897
   957.2000      8.0387      2.6513      0.0787     -0.0759     94.3240     23.6032
   957.3000      8.0391      2.6218      0.0804      1.7077     95.4275     22.7177
   957.4000      8.0391      2.5947      0.0587      3.3541     92.2009     21.6278
   957.5000      8.0400      2.5782      0.0397      4.3522     88.0384     20.8637
   957.6000      8.0400      2.5702      0.0111      4.8372     88.7204     20.9561
   957.7000      8.0400      2.5666      0.0190      5.0551     93.1078     21.6909
   957.8000      8.0401      2.5664      0.0160      5.0660     94.6856     22.2121
   957.9000      8.0401      2.5702      0.0454      4.8366     90.8682     22.0314
   958.0000      8.0399      2.5765      0.0338      4.4528     84.9020     21.5132
   958.1000      8.0399      2.5795      0.0530      4.2745     80.1490     21.1926
   958.2000      8.0399      2.5694      0.0526      4.8851     77.6565     20.9616
   958.3000      8.0405      2.5482     -0.0200      6.1680     77.5902     20.5451
