~Version Information
VERS.                      2.0: CWLS Log ASCII Standard - VERSION 2.0
WRAP.                       NO: One line per depth step
~Well Information Block
STRT.FT                -7.7500: 
STOP.FT              2446.5000: 
STEP.FT                 0.2500: 
NULL.                -999.2500: 
COMP.          XTO Energy Inc.: COMPANY
WELL.          Hill Ranch 15-09: WELL
FLD.           Purgatoire River: FIELD
LOC.           1816' FSL & 521' FEL: LOCATION
STAT.                 Colorado: State
CNTY.               Las Animas: COUNTY
CTRY. USA : Country
SECT. 15 : Section
TOWN. 35S : Township
RANG. 67W : Range
SRVC.          Patterson Wireline: SERVICE COMPANY
DATE.          Fri Dec 09 17:49:58 2005: LOG DATE
API. 05-071-08474                          : UNIQUE WELL ID
~Curve Information Block
DEPT.FT            0 000 00 00: Depth
CCL.                          : Casing Collar Locator
TT3.usec                      : CBL 3' Travel Time
AMP3.mV                       : CBL 3' Amplitude
AMP5.mV                       : CBL 5' Amplitude
GR.GAPI                       : Gamma Ray
~Parameter Information Block
~A  Depth       CCL         TT3         AMP3        AMP5         GR     
# ...
  1448.2500      0.0000    692.6935      3.2640      1.2036    129.6740
  1448.5000      0.0000    696.6063      3.2352      1.1868    133.1260
  1448.7500      0.0000    702.8403      3.2211      1.1345    136.6403
  1449.0000      0.0000    712.2268      3.2189      1.0593    140.1813
  1449.2500      0.0000    726.1697      3.2273      0.9863    144.3978
  1449.5000      0.0000    741.7745      3.2421      0.9422    149.7016
  1449.7500      0.0000    751.2104      3.2547      0.9325    155.4781
  1450.0000      0.0000    748.9893      3.2588      0.9385    160.3573
  1450.2500      0.0000    738.8062      3.2574      0.9442    163.3369
  1450.5000      0.0000    730.8046      3.2619      0.9548    164.4749
  1450.7500      0.0000    732.9453      3.2829      0.9795    164.6030
  1451.0000      0.0000    746.5353      3.3238      1.0096    164.5776
  1451.2500      0.0000    767.7905      3.3833      1.0286    164.6960
  1451.5000      0.0000    790.5986      3.4640      1.0341    164.6927
  1451.7500      0.0000    808.5330      3.5699      1.0395    164.1318
  1452.0000      0.0000    817.8511      3.6962      1.0550    162.6337
  1452.2500      0.0000    820.2027      3.8311      1.0795    159.9432
  1452.5000      0.0000    820.2693      3.9702      1.1080    156.2325
  1452.7500      0.0000    819.0486      4.1250      1.1364    152.3626
  1453.0000      0.0000    811.6393      4.3157      1.1572    149.4436
  1453.2500      0.0000    793.9331      4.5581      1.1597    147.9211
  1453.5000      0.0000    769.5881      4.8535      1.1385    147.2081
  1453.7500      0.0000    747.9140      5.1821      1.0983    146.4072
  1454.0000      0.0000    735.8499      5.5081      1.0485    145.5082
  1454.2500      0.0000    733.5186      5.8024      0.9975    145.5975
  1454.5000      0.0000    736.4854      6.0650      0.9551    147.5112
  1454.7500      0.0000    740.3273      6.3161      0.9364    150.5580
  1455.0000      0.0000    743.0366      6.5629      0.9526    152.9836
  1455.2500      0.0000    744.5685      6.7785      0.9930    153.3376
  1455.5000      0.0000    745.5214      6.9181      1.0244    151.0551
  1455.7500      0.0000    746.4451      6.9498      1.0174    146.4083
  1456.0000      0.0000    747.9117      6.8690      0.9776    140.6275
  1456.2500      0.0000    750.5930      6.6942      0.9416    135.7942
  1456.5000      0.0000    754.7682      6.4545      0.9378    133.7160
  1456.7500      0.0000    759.4745      6.1816      0.9591    134.5250
  1457.0000      0.0000    762.4693      5.9037      0.9799    136.9045
  1457.2500      0.0000    761.7979      5.6373      0.9866    140.0908
  1457.5000      0.0000    757.7124      5.3869      0.9862    145.0242
  1457.7500      0.0000    752.7202      5.1498      0.9873    152.9729
  1458.0000      0.0000    749.5133      4.9246      0.9836    163.5000
  1458.2500      0.0000    748.6946      4.7151      0.9631    174.2830
  1458.5000      0.0000    748.1035      4.5319      0.9301    182.7759
  1458.7500      0.0000    744.5734      4.3873      0.9078    187.7860
  1459.0000      0.0000    737.3903      4.2847      0.9134    189.4944
  1459.2500      0.0000    730.1165      4.2147      0.9397    188.2410
  1459.5000      0.0000    727.6627      4.1635      0.9670    183.7469
  1459.7500      0.0000    731.3663      4.1256      0.9861    175.7241
  1460.0000      0.0000    738.1918      4.1087      1.0040    164.7962
  1460.2500      0.0000    744.4236      4.1248      1.0288    152.4624
  1460.5000      0.0000    748.0800      4.1763      1.0555    140.4617
  1460.7500      0.0000    747.7094      4.2482      1.0642    130.1730
  1461.0000      0.0000    741.5237      4.3117      1.0375    121.9815
  1461.2500      0.0000    729.3026      4.3359      0.9815    115.1680
  1461.5000      0.0000    714.0695      4.3026      0.9274    108.9696
  1461.7500      0.0000    700.6548      4.2171      0.9064    103.6747
  1462.0000      0.0000    692.7757      4.1042      0.9223    100.2191
  1462.2500      0.0000    691.5162      3.9919      0.9530     98.8464
  1462.5000      0.0000    695.4482      3.8982      0.9766     98.6456
  1462.7500      0.0000    701.3005      3.8331      0.9881     98.2451
  1463.0000      0.0000    705.4501      3.8017      0.9910     96.5597
  1463.2500      0.0000    706.1588      3.8002      0.9872     93.1335
  1463.5000      0.0000    704.0197      3.8154      0.9821     88.3080
  1463.7500      0.0000    699.6302      3.8345      0.9881     83.1859
  1464.0000      0.0000    692.1572      3.8508      1.0131     79.1123
  1464.2500      0.0000    681.3487      3.8557      1.0497     76.8583
  1464.5000      0.0000    669.4760      3.8370      1.0810     76.2948
  1464.7500      0.0000    659.7823      3.7940      1.0936     76.9684
  1465.0000      0.0000    653.7493      3.7468      1.0864     78.7929
  1465.2500      0.0000    650.6320      3.7203      1.0720     81.7789
  1465.5000      0.0000    648.8136      3.7184      1.0669     85.1912
  1465.7500      0.0000    646.7981      3.7200      1.0748     87.7304
  1466.0000      0.0000    643.4020      3.7022      1.0842     89.0125
  1466.2500      0.0000    638.0827      3.6622      1.0852     90.5177
  1466.5000      0.0000    631.7095      3.6099      1.0797     94.5723
  1466.7500      0.0000    626.6062      3.5497      1.0678    102.2625
  1467.0000      0.0000    624.9314      3.4793      1.0424    112.4306
  1467.2500      0.0000    626.8150      3.4036      1.0067    122.6302
  1467.5000      0.0000    630.5692      3.3387      0.9821    130.9187
  1467.7500      0.0000    634.5446      3.3012      0.9852    136.8876
  1468.0000      0.0000    638.1658      3.2967      1.0093    141.2797
  1468.2500      0.0000    641.5766      3.3162      1.0409    144.8285
  1468.5000      0.0000    645.3436      3.3415      1.0801    147.5309
  1468.7500      0.0000    650.8163      3.3568      1.1287    148.7654
  1469.0000      0.0000    660.1520      3.3566      1.1710    147.6055
  1469.2500      0.0000    674.9569      3.3451      1.1856    143.0959
  1469.5000      0.0000    694.0681      3.3282      1.1684    135.2305
  1469.7500      0.0000    713.0526      3.3107      1.1280    126.3294
  1470.0000      0.0000    727.3147      3.2963      1.0689    120.6792
  1470.2500      0.0000    735.7505      3.2873      0.9931    121.5627
  1470.5000      0.0000    739.8611      3.2837      0.9125    128.6581
  1470.7500      0.0000    739.5182      3.2835      0.8479    138.9611
  1471.0000      0.0000    732.2532      3.2840      0.8148    149.5391
  1471.2500      0.0000    717.6506      3.2819      0.8165    158.4123
  1471.5000      0.0000    700.2769      3.2739      0.8471    163.7226
  1471.7500      0.0000    686.7441      3.2609      0.8957    163.7822
  1472.0000      0.0000    680.6619      3.2532      0.9479    158.1267
  1472.2500      0.0000    680.9909      3.2633      0.9887    148.0633
  1472.5000      0.0000    684.3174      3.2932      1.0110    136.3568
  1472.7500      0.0000    687.3956      3.3331      1.0187    126.1392
  1473.0000      0.0000    687.4668      3.3731      1.0177    119.3128
  1473.2500      0.0000    681.6191      3.4100      1.0076    115.8975
  1473.5000      0.0000    667.8063      3.4431      0.9884    115.0840
  1473.7500      0.0000    647.7293      3.4693      0.9639    116.4564
  1474.0000      0.0000    628.6188      3.4870      0.9300    119.8416
  1474.2500      0.0000    619.9321      3.4962      0.8704    124.5061
  1474.5000      0.0000    625.8185      3.4935      0.7790    129.3577
  1474.7500      0.0000    641.2827      3.4749      0.6789    133.8589
  1475.0000      0.0000    657.1249      3.4453      0.6089    137.7894
  1475.2500      0.0000    667.6262      3.4190      0.5952    140.1183
  1475.5000      0.0000    672.8289      3.4038      0.6378    139.4089
  1475.7500      0.0000    675.9251      3.3915      0.7170    135.8763
  1476.0000      0.0000    680.7374      3.3688      0.8048    132.0993
