~Version Information
VERS.                      2.0: CWLS Log ASCII Standard - VERSION 2.0
WRAP.                       NO: One line per depth step
~Well Information Block
STRT.FT               830.0000: 
STOP.FT              1782.5000: 
STEP.FT                 0.1000: 
NULL.                -999.2500: 
COMP.          Pioneer Natural Resources: COMPANY
WELL.          Manville 42-14 Tr: WELL
FLD.           Purgatoire River: FIELD
LOC.           2018 FNL & 562' FEL: LOCATION
STAT.                 Colorado: State
CNTY.               Las Animas: COUNTY
CTRY. USA : Country
SECT. 14 : Section
TOWN. 32S : Township
RANG. 66W : Range
SRVC.                Patterson: SERVICE COMPANY
DATE.          Mon Sep 19 09:44:06 2005: LOG DATE
API.           05 071 08522 00: UNIQUE WELL ID
~Curve Information Block
DEPT.FT            0 000 00 00: Depth
DCAL.in                       : CDL Caliper
RHOB.g/cc                     : CDL Bulk Density
RHOC.g/cc                     : CDL Density Correction
DPOR.pu                       : CDL Density Porosity
GR.GAPI                       : Gamma Ray
NPOR.pu                       : Neutron Porosity
~Parameter Information Block
~A  Depth       DCAL        RHOB        RHOC        DPOR         GR         NPOR    
# ...
  1454.0000      8.1959      2.5593      0.1071      5.4975    147.7499     29.4002
  1454.1000      8.1959      2.6383      0.1718      0.7085    137.9744     29.2024
  1454.2000      8.1959      2.6930      0.2495     -2.6036    129.1314     29.6309
  1454.3000      8.2188      2.7073      0.2602     -3.4754    129.1507     29.8546
  1454.4000      8.2188      2.6857      0.2680     -2.1650    132.6663     29.6315
  1454.5000      8.1876      2.6412      0.2189      0.5306    133.0188     29.4836
  1454.6000      8.1876      2.5895      0.1065      3.6642    131.9089     29.2985
  1454.7000      8.1876      2.5539      0.0731      5.8259    134.7226     29.1546
  1454.8000      8.2172      2.5431      0.0923      6.4811    142.3186     29.7808
  1454.9000      8.2172      2.5429      0.0736      6.4898    148.3824     30.9466
  1455.0000      8.1700      2.5447      0.0711      6.3801    149.8920     31.5323
  1455.1000      8.1700      2.5469      0.1340      6.2484    148.3676     30.9782
  1455.2000      8.1700      2.5445      0.1305      6.3913    144.1303     30.1934
  1455.3000      8.1988      2.5398      0.0911      6.6786    139.8462     30.2887
  1455.4000      8.1988      2.5364      0.1194      6.8870    141.3472     30.9092
  1455.5000      8.2832      2.5255      0.1229      7.5464    148.6181     31.2306
  1455.6000      8.2832      2.5035      0.0570      8.8762    156.4935     31.0151
  1455.7000      8.2832      2.4710      0.1114     10.8455    156.7515     30.7600
  1455.8000      8.2370      2.4079      0.0840     14.6722    146.7460     31.2547
  1455.9000      8.2370      2.3009      0.0759     21.1604    135.3697     32.1294
  1456.0000      8.2307      2.1811     -0.0327     28.4154    129.2976     32.3851
  1456.1000      8.2307      2.0931     -0.0511     33.7538    128.1371     32.0897
  1456.2000      8.2307      2.0256     -0.0063     37.8432    125.6325     31.8851
  1456.3000      8.2160      1.9326     -0.0266     43.4759    120.3388     31.4639
  1456.4000      8.2160      1.8199     -0.1005     50.3114    117.1947     30.5993
  1456.5000      8.3386      1.7381     -0.1014     55.2688    116.7956     30.0717
  1456.6000      8.3386      1.7047     -0.0552     57.2914    115.3842     30.6884
  1456.7000      8.3386      1.7026     -0.0158     57.4187    109.2724     32.2173
  1456.8000      8.3280      1.7322     -0.0057     55.6252    101.1936     33.6747
  1456.9000      8.3280      1.8023      0.0690     51.3746     98.4332     34.4471
  1457.0000      8.4011      1.8962      0.1627     45.6842    101.2198     34.3777
  1457.1000      8.4011      1.9908      0.1776     39.9534    103.2501     33.8526
  1457.2000      8.4011      2.0864      0.1464     34.1563    101.9829     33.7438
  1457.3000      8.5974      2.1806      0.2007     28.4461     99.8457     33.7929
  1457.4000      8.5974      2.2465      0.1926     24.4527     99.5872     32.8980
  1457.5000      8.4678      2.2729      0.1375     22.8568    101.9774     31.5437
  1457.6000      8.4678      2.2836      0.1054     22.2082    103.7922     30.8249
  1457.7000      8.4678      2.3053      0.0534     20.8918    103.6115     30.7807
  1457.8000      8.2805      2.3412      0.1311     18.7147    105.4260     31.0509
  1457.9000      8.2805      2.3803      0.1109     16.3446    109.0787     31.7257
  1458.0000      8.2365      2.4156      0.1196     14.2031    113.8909     32.7022
  1458.1000      8.2365      2.4584      0.1015     11.6136    121.6554     33.1459
  1458.2000      8.2365      2.5326      0.1085      7.1136    128.9248     32.8632
  1458.3000      8.1911      2.6244      0.2052      1.5527    132.1532     32.2698
  1458.4000      8.1911      2.6896      0.1783     -2.4001    133.8285     31.7285
  1458.5000      8.2046      2.7243      0.1549     -4.5055    134.2057     31.8097
  1458.6000      8.2046      2.7539      0.1812     -6.2959    131.0299     32.4195
  1458.7000      8.2046      2.7853      0.2142     -8.1983    124.1301     32.6244
  1458.8000      8.1572      2.8042      0.1992     -9.3447    114.0312     32.1155
  1458.9000      8.1572      2.8002      0.1502     -9.1001    105.7791     31.4500
  1459.0000      8.1590      2.7824      0.0755     -8.0244    102.1889     30.8152
  1459.1000      8.1590      2.7640      0.0500     -6.9112     98.6505     29.9343
  1459.2000      8.1590      2.7495     -0.0345     -6.0328     94.7855     29.3143
  1459.3000      8.2358      2.7380     -0.0374     -5.3325     96.7177     29.7189
  1459.4000      8.2358      2.7254     -0.0546     -4.5724    103.5186     30.3726
  1459.5000      8.1875      2.7056      0.0190     -3.3697    106.1517     29.9883
  1459.6000      8.1875      2.6749     -0.0006     -1.5086    102.4257     28.8499
  1459.7000      8.1875      2.6359      0.0273      0.8547     97.2726     27.8039
  1459.8000      8.1591      2.5777      0.0367      4.3847     95.5978     26.9276
  1459.9000      8.1591      2.4908     -0.0112      9.6512     98.7776     25.9081
  1460.0000      8.1662      2.4017     -0.0658     15.0460    101.2614     25.1817
  1460.1000      8.1662      2.3450     -0.0352     18.4879     99.1894     25.7686
  1460.2000      8.1662      2.3197     -0.0060     20.0179     97.0849     27.6543
  1460.3000      8.1463      2.3166      0.0104     20.2068    101.3447     29.7129
  1460.4000      8.1463      2.3504      0.0406     18.1547    111.0338     30.6247
  1460.5000      8.1481      2.4248      0.2280     13.6496    118.8797     29.9964
  1460.6000      8.1481      2.4980      0.3335      9.2143    120.7110     29.3130
  1460.7000      8.1481      2.5282      0.3369      7.3797    118.4209     29.8305
  1460.8000      8.1655      2.5170      0.3247      8.0590    118.7601     30.7441
  1460.9000      8.1655      2.4796      0.3408     10.3275    125.5956     30.9225
  1461.0000      8.2258      2.4261      0.2401     13.5686    131.4550     30.8644
  1461.1000      8.2258      2.3868      0.1235     15.9529    128.8987     31.6690
  1461.2000      8.2258      2.3883      0.1217     15.8622    121.4360     33.0072
  1461.3000      8.3034      2.4150      0.1702     14.2408    114.5906     33.4067
  1461.4000      8.3034      2.4424      0.1375     12.5804    109.2121     32.7090
  1461.5000      8.3155      2.4698      0.1893     10.9203    109.0761     31.6878
  1461.6000      8.3155      2.4927      0.2287      9.5317    116.1784     30.4755
  1461.7000      8.3155      2.4964      0.2673      9.3104    125.1547     29.5049
  1461.8000      8.3594      2.4824      0.2086     10.1550    129.6453     29.2337
  1461.9000      8.3594      2.4651      0.2033     11.2032    126.3597     29.4169
  1462.0000      8.3775      2.4518      0.1926     12.0130    118.3248     30.0398
  1462.1000      8.3775      2.4436      0.1579     12.5069    113.3943     31.0967
  1462.2000      8.3775      2.4357      0.1378     12.9869    113.7529     32.0386
  1462.3000      8.3763      2.4254      0.1340     13.6147    115.3552     32.3515
  1462.4000      8.3763      2.4242      0.1386     13.6848    114.5726     32.0081
  1462.5000      8.3039      2.4406      0.1512     12.6899    111.6848     31.5148
  1462.6000      8.3039      2.4597      0.2509     11.5335    109.4072     31.2042
  1462.7000      8.3039      2.4590      0.2267     11.5774    107.2788     30.8618
  1462.8000      8.3506      2.4426      0.1335     12.5720    102.8307     30.2928
  1462.9000      8.3506      2.4331      0.1057     13.1442     96.3636     29.4918
  1463.0000      8.2624      2.4356      0.1285     12.9915     93.4165     28.9554
  1463.1000      8.2624      2.4391      0.1507     12.7844     97.0327     29.5186
  1463.2000      8.2624      2.4388      0.1718     12.7988    104.4701     30.7557
  1463.3000      8.2498      2.4420      0.1767     12.6035    108.8391     31.2122
  1463.4000      8.2498      2.4544      0.1882     11.8569    108.7300     30.6938
  1463.5000      8.4013      2.4705      0.1706     10.8805    109.4832     30.0609
