~Version Information
VERS.                      2.0: CWLS Log ASCII Standard - VERSION 2.0
WRAP.                       NO: One line per depth step
~Well Information Block
STRT.FT               545.0000: 
STOP.FT              1452.5000: 
STEP.FT                 0.1000: 
NULL.                -999.2500: 
COMP.          Pioneer Natural Resources: COMPANY
WELL.          Parklane 43-34 Tr: WELL
FLD.           Purgatoire River: FIELD
LOC.           1643' FSL & 966' FEL: LOCATION
PROV.                 Colorado: PROVINCE
CNTY.               Las Animas: COUNTRY
SRVC.                Patterson: SERVICE COMPANY
DATE.          Fri Jul 29 07:27:28 2005: LOG DATE
UWI.           05 071 08452 00: UNIQUE WELL ID
~Curve Information Block
DEPT.FT            0 000 00 00: Depth
DCAL.in                       : CDL Caliper
RHOB.g/cc                     : CDL Bulk Density
RHOC.g/cc                     : CDL Density Correction
DPOR.pu                       : CDL Density Porosity
GR.GAPI                       : Gamma Ray
NPOR.pu                       : Neutron Porosity
~Parameter Information Block
~A  Depth       DCAL        RHOB        RHOC        DPOR         GR         NPOR    
# ...
   602.6000      7.9871      2.6114      0.0389      2.3387     71.3956     19.7496
   602.7000      7.9871      2.6182      0.0239      1.9291     70.0659     18.8759
   602.8000      8.0149      2.6157      0.0115      2.0776     64.3585     18.7367
   602.9000      8.0149      2.6082      0.0569      2.5339     59.8333     19.7688
   603.0000      7.9930      2.5954      0.0297      3.3120     59.1158     21.0204
   603.1000      7.9930      2.5765      0.0678      4.4565     61.8203     21.4668
   603.2000      7.9930      2.5526      0.0845      5.9028     66.4590     21.2655
   603.3000      7.9475      2.5254      0.0326      7.5493     69.9752     21.0628
   603.4000      7.9475      2.5051     -0.0100      8.7829     71.0666     21.1759
   603.5000      7.9489      2.5105      0.0047      8.4534     72.3725     21.3736
   603.6000      7.9489      2.5378      0.0720      6.8002     76.6351     21.2308
   603.7000      7.9489      2.5643      0.1056      5.1909     81.8943     20.7069
   603.8000      7.9809      2.5897      0.0452      3.6518     84.7014     20.3280
   603.9000      7.9809      2.6169      0.1162      2.0038     86.7834     20.7226
   604.0000      7.9774      2.6285      0.1390      1.3052     91.2758     21.7139
   604.1000      7.9774      2.6227      0.1336      1.6536     96.3463     22.5099
   604.2000      7.9774      2.6153      0.1454      2.1023     97.0504     22.8953
   604.3000      7.9575      2.6066      0.1731      2.6321     93.0581     23.1023
   604.4000      7.9575      2.5872      0.1209      3.8070     89.8651     23.1337
   604.5000      7.9615      2.5561      0.1193      5.6910     92.9594     23.0458
   604.6000      7.9615      2.5261      0.0138      7.5091    101.5500     22.8644
   604.7000      7.9615      2.5181      0.0379      7.9913    107.0751     22.6535
   604.8000      7.9349      2.5325      0.0734      7.1185    105.1633     22.6386
   604.9000      7.9349      2.5527      0.0455      5.8962    103.5226     22.5087
   605.0000      7.9507      2.5667      0.0954      5.0457    107.9542     21.8126
   605.1000      7.9507      2.5714      0.0444      4.7613    112.2997     20.9651
   605.2000      7.9507      2.5703      0.0917      4.8300    111.5096     20.4150
   605.3000      8.0158      2.5464      0.1678      6.2773    108.9711     20.1669
   605.4000      8.0158      2.4835      0.1074     10.0917    107.0528     20.1316
   605.5000      8.0300      2.4129      0.0319     14.3677    106.4373     19.9254
   605.6000      8.0300      2.3750      0.0234     16.6695    106.7967     19.3678
   605.7000      8.0300      2.3687      0.0103     17.0514    107.7161     18.9870
   605.8000      8.0382      2.3710      0.0456     16.9083    112.6996     19.2182
   605.9000      8.0382      2.3703      0.0378     16.9510    122.0946     19.6431
   606.0000      8.0683      2.3713      0.1019     16.8909    127.9322     19.7637
   606.1000      8.0683      2.3799      0.1465     16.3674    127.5641     19.6698
   606.2000      8.0683      2.3985      0.1443     15.2401    127.1260     19.6170
   606.3000      8.0841      2.4233      0.2099     13.7397    130.4176     20.0104
   606.4000      8.0841      2.4464      0.1672     12.3383    133.2705     21.0901
   606.5000      8.0961      2.4646      0.1575     11.2351    131.0781     22.2399
   606.6000      8.0961      2.4755      0.1618     10.5761    126.4721     22.5763
   606.7000      8.0961      2.4786      0.1059     10.3860    124.1674     22.2497
   606.8000      8.0865      2.4733      0.1231     10.7105    127.2604     22.1810
   606.9000      8.0865      2.4575      0.0951     11.6673    131.6428     22.7136
   607.0000      8.0870      2.4413      0.0566     12.6508    129.1993     23.7045
   607.1000      8.0870      2.4365      0.1096     12.9376    123.1876     25.0859
   607.2000      8.0870      2.4473      0.0616     12.2829    123.5435     26.4941
   607.3000      8.0509      2.4808      0.0579     10.2523    131.0343     27.3570
   607.4000      8.0509      2.5411      0.0695      6.6002    136.7687     27.7158
   607.5000      8.0638      2.6209      0.1348      1.7632    136.4702     27.8542
   607.6000      8.0638      2.6939      0.2423     -2.6627    134.6012     27.7922
   607.7000      8.0638      2.7321      0.2093     -4.9774    132.5778     27.3895
   607.8000      8.0743      2.7353      0.2616     -5.1695    128.4813     26.6981
   607.9000      8.0743      2.7211      0.1853     -4.3068    124.0298     25.9081
   608.0000      8.0677      2.7055      0.1533     -3.3625    121.3365     25.2765
   608.1000      8.0677      2.6912      0.0821     -2.4949    120.5318     25.1068
   608.2000      8.0677      2.6813     -0.0046     -1.8966    123.3223     25.2114
   608.3000      8.0742      2.6879      0.0099     -2.2993    128.4464     25.1044
   608.4000      8.0742      2.7015      0.0772     -3.1212    128.2400     24.5681
   608.5000      8.1355      2.6912      0.0896     -2.4948    121.8068     23.5724
   608.6000      8.1355      2.6505      0.0804     -0.0287    118.0797     22.3054
   608.7000      8.1355      2.6035      0.0143      2.8195    120.0493     21.2709
   608.8000      8.2136      2.5660      0.0087      5.0887    122.4520     20.7155
   608.9000      8.2136      2.5346      0.0304      6.9926    122.7452     20.4547
   609.0000      8.2575      2.5106     -0.0054      8.4505    122.0498     20.4226
   609.1000      8.2575      2.4996      0.0234      9.1181    121.4727     20.5672
   609.2000      8.2575      2.4907      0.0434      9.6541    124.8786     20.6364
   609.3000      8.3371      2.4758     -0.0391     10.5582    131.7847     20.5496
   609.4000      8.3371      2.4692      0.0035     10.9548    136.2058     20.5621
   609.5000      8.4268      2.4807      0.0280     10.2604    138.8328     20.8274
   609.6000      8.4268      2.4953      0.0561      9.3785    142.9615     21.1689
   609.7000      8.4268      2.4938      0.0456      9.4666    145.2955     21.5358
   609.8000      8.4812      2.4793      0.0083     10.3461    141.9825     21.9745
   609.9000      8.4812      2.4708     -0.0030     10.8612    137.2130     22.3665
   610.0000      8.5898      2.4755      0.0492     10.5741    134.2711     22.5828
   610.1000      8.5898      2.4860      0.0151      9.9401    131.5779     22.3682
   610.2000      8.5898      2.4953      0.0368      9.3751    130.4215     21.6945
   610.3000      8.5037      2.4975      0.0654      9.2407    129.4448     21.1565
   610.4000      8.5037      2.4935     -0.0115      9.4861    125.6738     21.1513
   610.5000      8.3941      2.4870      0.0388      9.8802    122.9612     21.5134
   610.6000      8.3941      2.4748      0.0014     10.6202    125.5492     21.8227
   610.7000      8.3941      2.4626      0.0120     11.3558    132.5162     21.6205
   610.8000      8.3777      2.4642      0.0207     11.2623    138.3459     21.0430
   610.9000      8.3777      2.4838      0.0289     10.0713    137.0354     20.7671
   611.0000      8.3329      2.5099      0.0387      8.4936    132.4376     21.3020
   611.1000      8.3329      2.5283      0.0409      7.3788    131.0502     22.3114
   611.2000      8.3329      2.5399      0.0418      6.6757    132.1725     23.0059
   611.3000      8.3440      2.5475      0.0677      6.2103    133.2285     23.5188
   611.4000      8.3440      2.5541     -0.0010      5.8142    136.4651     24.3225
   611.5000      8.3633      2.5712      0.0342      4.7734    143.8644     24.9641
   611.6000      8.3633      2.6026      0.0529      2.8748    150.6259     25.0206
   611.7000      8.3633      2.6356      0.0688      0.8736    148.7398     24.8417
   611.8000      8.2351      2.6527      0.0700     -0.1652    138.3332     24.7037
   611.9000      8.2351      2.6498      0.0289      0.0137    131.1706     24.8447
   612.0000      8.1972      2.6348      0.0528      0.9191    134.8726     25.2543
   612.1000      8.1972      2.6136      0.0064      2.2078    144.7322     25.4865
