~Version Information
VERS.                      2.0: CWLS Log ASCII Standard - VERSION 2.0
WRAP.                       NO: One line per depth step
~Well Information Block
STRT.FT                -8.2500: 
STOP.FT               686.7500: 
STEP.FT                 0.2500: 
NULL.                -999.2500: 
COMP.          Pioneer Natural Resources: COMPANY
WELL.           Quintessa 23-7: WELL
FLD.           Purgatorie River: FIELD
LOC.           1964' FSL & 2589' FWL--: LOCATION
PROV.                       CO: PROVINCE
CNTY.               Las Animas: COUNTRY
SRVC.          Patterson Wireline: SERVICE COMPANY
DATE.          Wed Nov 23 10:31:07 2005: LOG DATE
UWI.           05 071 08558 00: UNIQUE WELL ID
~Curve Information Block
DEPT.FT            0 000 00 00: Depth
CCL.                          : Casing Collar Locator
TT3.usec                      : CBL 3' Travel Time
AMP3.mV                       : CBL 3' Amplitude
GR.GAPI                       : Gamma Ray
~Parameter Information Block
~A  Depth       CCL         TT3         AMP3         GR     
# ...
   360.2500      0.0000    417.7222     20.9822    124.7956
   360.5000      0.0000    427.9340     20.9696    126.0747
   360.7500      0.0000    416.4107     20.9660    128.2959
   361.0000      0.0000    390.0914     20.9624    130.1605
   361.2500      0.0000    363.5954     20.9397    130.1675
   361.5000      0.0000    346.5617     20.8967    127.8505
   361.7500      0.0000    339.1176     20.8568    124.2194
   362.0000      0.0000    336.3869     20.8464    120.7555
   362.2500      0.0000    334.3087     20.8688    118.2180
   362.5000      0.0000    331.7581     20.9042    116.5311
   362.7500      0.0000    329.4135     20.9367    115.4642
   363.0000      0.0000    328.0607     20.9708    115.0603
   363.2500      0.0000    328.2824     21.0168    115.3715
   363.5000      0.0000    331.7364     21.0668    115.9899
   363.7500      0.0000    343.0213     21.0887    116.1052
   364.0000      0.0000    369.9077     21.0434    115.1688
   364.2500      0.0000    418.9509     20.9096    113.4181
   364.5000      0.0000    487.0197     20.6997    111.5556
   364.7500      0.0000    557.8099     20.4484    109.9449
   365.0000      0.0000    612.1357     20.1762    108.4000
   365.2500      0.0000    644.4010     19.8467    106.8767
   365.5000      0.0000    665.3574     19.3514    106.0300
   365.7500      0.0000    687.6584     18.5558    106.6965
   366.0000      0.0000    715.0671     17.4155    108.8028
   366.2500      0.0000    747.9860     16.0809    111.1264
   366.5000      0.0000    789.5201     14.8652    112.3084
   366.7500      0.0000    838.2819     14.0561    111.8112
   367.0000      0.0000    882.6472     13.7196    109.6299
   367.2500      0.0000    911.5995     13.6789    105.4848
   367.5000      0.0000    927.5038     13.6835     99.0437
   367.7500      0.0000    941.3300     13.5955     90.9799
   368.0000     -2.0000    957.5490     13.4251     83.0997
   368.2500      0.0000    967.1375     13.2633     77.1357
   368.5000      0.0000    953.0028     13.2532     73.7738
   368.7500      0.0000    901.4693     13.5899     72.8067
   369.0000      0.0000    813.2679     14.4153     73.6861
   369.2500      0.0000    707.0742     15.6549     75.9037
   369.5000      0.0000    610.2313     17.0258     79.2656
   369.7500      0.0000    543.1282     18.2153     83.7001
   370.0000      0.0000    510.9192     19.0192     88.4793
   370.2500      0.0000    508.1739     19.3787     92.1085
   370.5000      0.0000    529.0247     19.3858     93.5692
   370.7500      0.0000    570.2323     19.2270     93.3588
   371.0000      0.0000    624.9788     19.0642     92.8256
   371.2500      0.0000    679.9708     18.9545     92.8408
   371.5000      0.0000    722.7908     18.8695     93.4860
   371.7500      0.0000    749.5668     18.7639     94.6729
   372.0000      0.0000    763.8260     18.6221     96.6446
   372.2500      0.0000    770.4418     18.4666     99.7443
   372.5000      0.0000    772.2256     18.3367    103.5774
   372.7500      0.0000    770.3943     18.2615    106.6100
   373.0000      0.0000    766.1991     18.2439    107.2361
   373.2500      0.0000    761.4478     18.2621    105.5190
   373.5000      0.0000    757.6636     18.2866    103.5401
   373.7500      0.0000    755.3398     18.2991    103.5988
   374.0000      0.0000    754.1784     18.2977    106.0597
   374.2500      0.0000    753.7029     18.2880    109.2019
   374.5000      0.0000    753.5562     18.2741    111.1057
   374.7500      0.0000    753.4789     18.2630    111.3088
   375.0000      0.0000    753.2592     18.2750    110.6003
   375.2500      0.0000    752.4272     18.3432    109.9260
   375.5000      0.0000    749.6051     18.4934    110.0940
   375.7500      0.0000    741.5829     18.7204    112.2399
   376.0000      0.0000    723.3420     18.9850    117.5798
   376.2500      0.0000    690.3066     19.2452    126.0153
   376.5000      0.0000    641.6463     19.4913    135.2280
   376.7500      0.0000    581.1135     19.7458    141.8069
   377.0000      0.0000    515.0385     20.0291    143.6049
   377.2500      0.0000    451.0376     20.3346    140.9749
   377.5000      0.0000    397.4364     20.6356    135.8317
   377.7500      0.0000    360.1970     20.9054    130.1048
   378.0000      0.0000    339.4355     21.1266    125.3918
   378.2500      0.0000    330.3129     21.2858    123.3199
   378.5000      0.0000    327.1724     21.3658    125.2634
   378.7500      0.0000    326.3337     21.3485    131.1900
   379.0000      0.0000    326.1882     21.2359    138.7496
   379.2500      0.0000    326.2087     21.0658    144.2365
   379.5000      0.0000    326.3012     20.8965    145.2887
   379.7500      0.0000    326.5382     20.7652    142.6015
   380.0000      0.0000    327.4514     20.6620    138.6803
   380.2500      0.0000    330.6671     20.5458    135.2111
   380.5000      0.0000    339.5588     20.3869    132.0276
   380.7500      0.0000    358.0686     20.1944    128.2714
   381.0000      0.0000    386.0037     20.0089    123.7286
   381.2500      0.0000    414.1738     19.8744    118.8574
   381.5000      0.0000    427.7575     19.8133    114.1928
   381.7500      0.0000    419.3081     19.8153    110.2214
   382.0000      0.0000    398.3111     19.8380    107.5749
   382.2500      0.0000    386.3756     19.8231    106.9009
   382.5000      0.0000    404.1411     19.7239    108.3952
   382.7500      0.0000    460.6448     19.5254    111.5510
   383.0000      0.0000    547.8207     19.2480    115.5361
   383.2500      0.0000    642.5499     18.9384    119.7647
   383.5000      0.0000    719.4980     18.6510    123.9277
   383.7500      0.0000    766.3785     18.4236    127.5973
   384.0000      0.0000    787.3281     18.2615    130.0494
   384.2500      0.0000    793.7748     18.1426    130.4689
   384.5000      0.0000    795.1794     18.0387    128.3592
   384.7500      0.0000    796.9518     17.9369    124.1062
   385.0000      0.0000    802.9347     17.8468    119.2810
   385.2500      0.0000    817.0889     17.7884    115.9276
   385.5000      0.0000    841.2651     17.7682    114.9063
   385.7500      0.0000    870.3923     17.7669    114.9429
   386.0000      0.0000    891.6560     17.7563    113.8638
   386.2500      0.0000    892.8458     17.7351    110.9231
   386.5000      0.0000    873.0914     17.7413    107.3151
   386.7500      0.0000    843.2716     17.8233    104.3010
   387.0000      0.0000    815.2235     17.9984    101.9421
   387.2500      0.0000    792.4489     18.2421    100.3883
   387.5000      0.0000    770.0941     18.5138    101.3317
   387.7500      0.0000    740.8096     18.7873    106.7205
   388.0000      0.0000    701.0953     19.0545    116.0061
   388.2500      0.0000    655.5073     19.3067    125.6656
   388.5000      0.0000    615.6519     19.5197    131.8600
   388.7500      0.0000    592.1404     19.6655    133.1240
   389.0000      0.0000    585.3054     19.7378    130.4698
   389.2500      0.0000    583.6597     19.7625    125.8449
   389.5000      0.0000    572.1026     19.7804    121.2018
   389.7500      0.0000    542.1846     19.8245    118.3068
   390.0000      0.0000    495.8508     19.9081    118.0552
   390.2500      0.0000    442.5864     20.0233    119.6992
   390.5000      0.0000    394.3195     20.1445    121.3882
   390.7500      0.0000    359.9470     20.2401    121.7615
   391.0000      0.0000    342.1122     20.2851    120.8692
   391.2500      0.0000    339.4493     20.2663    119.6947
   391.5000      0.0000    351.9518     20.1810    119.1103
   391.7500      0.0000    383.5827     20.0359    119.3520
   392.0000      0.0000    438.5766     19.8431    120.3140
   392.2500      0.0000    513.9857     19.6170    122.1285
   392.5000      0.0000    596.1293     19.3732    125.0863
   392.7500      0.0000    666.7815     19.1328    128.8012
   393.0000      0.0000    714.5047     18.9197    131.7495
   393.2500      0.0000    739.7026     18.7517    132.0526
   393.5000      0.0000    750.0460     18.6341    128.9948
