~Version Information
VERS.                      2.0: CWLS Log ASCII Standard - VERSION 2.0
WRAP.                       NO: One line per depth step
~Well Information Block
STRT.FT              2013.2500: 
STOP.FT              2153.2500: 
STEP.FT                 0.2500: 
NULL.                -999.2500: 
COMP.          XTO Energy Inc.: COMPANY
WELL.          Hill Ranch 15-09: WELL
FLD.           Purgatorie River: FIELD
LOC.           1816' FSL & 521' FEL--: LOCATION
CNTY.               Las Animas: COUNTY
CTRY.    :
API.     :
SRVC.          Patterson Wireline: SERVICE COMPANY
DATE.          Fri Oct 13 07:59:41 2006: LOG DATE
UWI.              05 071 08474: UNIQUE WELL ID
STAT.                       CO: STATE
~Curve Information Block
DEPT.FT            0 000 00 00: Depth
XCAL.in                       : X Caliper
YCAL.in                       : Y Caliper
CCL.                          : Casing Collar Locator
~Parameter Information Block
~A  Depth       XCAL        YCAL        CCL     
# ...
  2096.7500      4.8123      4.8123      0.0000
  2097.0000      4.8123      4.8123      0.0000
  2097.2500      4.8123      4.8123      0.0000
  2097.5000      4.8129      4.8129      0.0000
  2097.7500      4.8195      4.8195      0.0000
  2098.0000      4.8500      4.8500      1.7166
  2098.2500      4.9068      4.9068      0.5035
  2098.5000      4.9692      4.9692      0.0000
  2098.7500      5.0356      5.0356      0.0000
  2099.0000      5.1012      5.1012      0.0000
  2099.2500      5.1587      5.1587      0.0000
  2099.5000      5.1943      5.1943      0.0000
  2099.7500      5.2187      5.2187      0.0000
  2100.0000      5.2580      5.2580      0.0000
  2100.2500      5.2999      5.2999      0.0000
  2100.5000      5.3201      5.3201      0.0000
  2100.7500      5.3254      5.3254      0.0000
  2101.0000      5.3355      5.3355      0.0000
  2101.2500      5.3701      5.3701      0.0000
  2101.5000      5.4216      5.4216      0.0000
  2101.7500      5.4517      5.4517      0.0000
  2102.0000      5.4583      5.4583     -0.9155
  2102.2500      5.4588      5.4588      1.0712
  2102.5000      5.4588      5.4588     -0.5859
  2102.7500      5.4588      5.4588      0.0000
  2103.0000      5.4588      5.4588      0.0000
  2103.2500      5.4589      5.4589      0.0000
  2103.5000      5.4589      5.4589     -0.6042
  2103.7500      5.4589      5.4589      0.0000
  2104.0000      5.4588      5.4588      0.0000
  2104.2500      5.4588      5.4588      0.0000
  2104.5000      5.4588      5.4588      0.0000
  2104.7500      5.4588      5.4588      0.0000
  2105.0000      5.4588      5.4588      0.0000
  2105.2500      5.4587      5.4587      0.0000
  2105.5000      5.4556      5.4556      0.0000
  2105.7500      5.4230      5.4230      0.0000
  2106.0000      5.2796      5.2796      0.0000
  2106.2500      5.0191      5.0191      0.0000
  2106.5000      4.7951      4.7951      0.0000
  2106.7500      4.7089      4.7089      0.0000
  2107.0000      4.6909      4.6909      0.0000
  2107.2500      4.6878      4.6878      0.0000
  2107.5000      4.6872      4.6872      0.0000
  2107.7500      4.6871      4.6871      0.0000
  2108.0000      4.6870      4.6870      0.0000
  2108.2500      4.6871      4.6871      0.0000
  2108.5000      4.6871      4.6871      0.0000
  2108.7500      4.6870      4.6870      0.0000
  2109.0000      4.6870      4.6870      0.0000
  2109.2500      4.6870      4.6870      0.0000
  2109.5000      4.6870      4.6870      0.0000
  2109.7500      4.6870      4.6870      0.0000
  2110.0000      4.6870      4.6870      0.0000
  2110.2500      4.6870      4.6870      0.0000
  2110.5000      4.6870      4.6870      0.0000
  2110.7500      4.6870      4.6870      0.0000
  2111.0000      4.6870      4.6870      0.0000
  2111.2500      4.6870      4.6870      0.0000
  2111.5000      4.6870      4.6870      0.0000
  2111.7500      4.6870      4.6870      0.0000
  2112.0000      4.6870      4.6870      0.0000
  2112.2500      4.6870      4.6870      0.0000
  2112.5000      4.6871      4.6871      0.0000
  2112.7500      4.6871      4.6871      0.0000
  2113.0000      4.6870      4.6870      0.0000
  2113.2500      4.6870      4.6870      0.0000
  2113.5000      4.6870      4.6870      0.0000
  2113.7500      4.6870      4.6870      0.0000
  2114.0000      4.6870      4.6870      0.0000
  2114.2500      4.6870      4.6870      0.0000
  2114.5000      4.6870      4.6870      0.0000
  2114.7500      4.6870      4.6870      0.0000
  2115.0000      4.6870      4.6870      0.0000
  2115.2500      4.6870      4.6870      0.0000
  2115.5000      4.6870      4.6870      0.0000
  2115.7500      4.6871      4.6871      0.0000
  2116.0000      4.6871      4.6871      0.0000
  2116.2500      4.6871      4.6871      0.0000
  2116.5000      4.6870      4.6870      0.0000
  2116.7500      4.6870      4.6870      0.0000
  2117.0000      4.6870      4.6870      0.0000
  2117.2500      4.6870      4.6870      0.0000
  2117.5000      4.6870      4.6870      0.0000
  2117.7500      4.6870      4.6870      0.0000
  2118.0000      4.6870      4.6870      0.0000
  2118.2500      4.6870      4.6870      0.0000
  2118.5000      4.6870      4.6870      0.0000
  2118.7500      4.6870      4.6870      0.0000
  2119.0000      4.6871      4.6871      0.0000
  2119.2500      4.6871      4.6871      0.0000
  2119.5000      4.6871      4.6871      0.0000
  2119.7500      4.6870      4.6870      0.0000
  2120.0000      4.6870      4.6870      0.0000
  2120.2500      4.6870      4.6870      0.0000
  2120.5000      4.6870      4.6870      0.0000
  2120.7500      4.6871      4.6871      0.0000
  2121.0000      4.6871      4.6871      0.0000
  2121.2500      4.6871      4.6871      0.0000
  2121.5000      4.6870      4.6870      0.0000
  2121.7500      4.6870      4.6870      0.0000
  2122.0000      4.6870      4.6870      0.0000
  2122.2500      4.6871      4.6871      0.0000
  2122.5000      4.6870      4.6870      0.0000
  2122.7500      4.6870      4.6870      0.0000
  2123.0000      4.6870      4.6870      0.0000
  2123.2500      4.6870      4.6870      0.0000
  2123.5000      4.6870      4.6870      0.0000
  2123.7500      4.6870      4.6870      0.0000
  2124.0000      4.6870      4.6870      0.0000
  2124.2500      4.6871      4.6871      0.0000
  2124.5000      4.6871      4.6871      0.0000
  2124.7500      4.6871      4.6871      0.0000
  2125.0000      4.6871      4.6871      0.0000
  2125.2500      4.6872      4.6872      0.0000
  2125.5000      4.6873      4.6873      0.0000
  2125.7500      4.6877      4.6877      0.0000
  2126.0000      4.6884      4.6884      0.0000
  2126.2500      4.6895      4.6895      0.0000
  2126.5000      4.6905      4.6905      0.0000
  2126.7500      4.6910      4.6910      0.0000
  2127.0000      4.6919      4.6919      0.0000
  2127.2500      4.6928      4.6928      0.0000
  2127.5000      4.6932      4.6932      0.0000
  2127.7500      4.6939      4.6939      0.0000
  2128.0000      4.6969      4.6969      0.0000
  2128.2500      4.7015      4.7015      0.0000
  2128.5000      4.7061      4.7061      0.0000
  2128.7500      4.7122      4.7122      0.0000
  2129.0000      4.7169      4.7169      0.0000
  2129.2500      4.7155      4.7155      0.0000
  2129.5000      4.7095      4.7095      0.0000
  2129.7500      4.7039      4.7039      0.0000
  2130.0000      4.7027      4.7027      0.0000
  2130.2500      4.7021      4.7021      0.0000
  2130.5000      4.6988      4.6988      0.0000
  2130.7500      4.6944      4.6944      0.0000
  2131.0000      4.6969      4.6969      0.0000
  2131.2500      4.7066      4.7066     -0.8377
  2131.5000      4.7082      4.7082      0.0000
  2131.7500      4.6977      4.6977      0.0000
  2132.0000      4.6896      4.6896      0.0000
  2132.2500      4.6879      4.6879     -0.6042
  2132.5000      4.6882      4.6882      1.2039
  2132.7500      4.6902      4.6902      0.0000
  2133.0000      4.6949      4.6949      0.0000
  2133.2500      4.7007      4.7007      0.0000
  2133.5000      4.7050      4.7050      0.0000
  2133.7500      4.7090      4.7090      0.0000
  2134.0000      4.7132      4.7132      0.0000
  2134.2500      4.7147      4.7147      0.0000
  2134.5000      4.7138      4.7138      0.0000
  2134.7500      4.7152      4.7152      0.0000
  2135.0000      4.7192      4.7192      0.0000
  2135.2500      4.7212      4.7212      0.0000
  2135.5000      4.7180      4.7180      0.0000
  2135.7500      4.7099      4.7099      0.0000
  2136.0000      4.6999      4.6999      0.0000
  2136.2500      4.6930      4.6930      0.0000
  2136.5000      4.6898      4.6898      0.0000
  2136.7500      4.6882      4.6882      0.0000
  2137.0000      4.6874      4.6874      0.0000
  2137.2500      4.6871      4.6871      0.0000
  2137.5000      4.6871      4.6871      0.0000
  2137.7500      4.6873      4.6873      0.0000
  2138.0000      4.6875      4.6875      0.0000
  2138.2500      4.6877      4.6877      0.0000
