~Version Information
VERS.                      2.0: CWLS Log ASCII Standard - VERSION 2.0
WRAP.                       NO: One line per depth step
~Well Information Block
STRT.FT                 5.0000: 
STOP.FT               880.0000: 
STEP.FT                 0.2500: 
NULL.                -999.2500: 
COMP.          Pioneer Natural Resources: COMPANY
WELL.          Bienville 31-28: WELL
FLD.           Purgatoire River: FIELD
LOC.           1212' FNL & 2271' FEL: LOCATION
PROV.                 Colorado: PROVINCE
CNTY.               Las Animas: COUNTRY
SRVC.                Patterson: SERVICE COMPANY
DATE.          Tue Jan 24 11:44:03 2006: LOG DATE
UWI.           05 071 08666 00: UNIQUE WELL ID
~Curve Information Block
DEPT.FT            0 000 00 00: Depth
GR.GAPI                       : Gamma Ray
CCL.                          : Casing Collar Locator
TT3.usec                      : CBL 3' Travel Time
AMP3.mV                       : CBL 3' Amplitude
~Parameter Information Block
~A  Depth        GR         CCL         TT3         AMP3    
# ...
   407.0000     63.6370      0.0000    727.9922      3.1541
   407.2500     70.7957      0.0000    727.6763      3.1806
   407.5000     80.6758      0.0000    727.9192      3.2059
   407.7500     92.1538      0.0000    728.9041      3.2278
   408.0000    103.0965      0.0000    731.3229      3.2492
   408.2500    111.4252      0.0000    735.8322      3.2814
   408.5000    115.7149      0.0000    742.0103      3.3369
   408.7500    115.2281      0.0000    747.8215      3.4193
   409.0000    110.3076      0.0000    750.7149      3.5192
   409.2500    103.0091      0.0000    749.8466      3.6193
   409.5000     96.5796      0.0000    747.2049      3.7013
   409.7500     93.5043      0.0000    746.1820      3.7520
   410.0000     93.9972      0.0000    748.8210      3.7682
   410.2500     96.4782      0.0000    754.4018      3.7593
   410.5000     99.1549      0.0000    760.5155      3.7437
   410.7500    100.8738      0.0000    765.1771      3.7380
   411.0000    101.0180      0.0000    767.8798      3.7497
   411.2500     99.3895      0.0000    769.1555      3.7783
   411.5000     96.4004      0.0000    769.6979      3.8201
   411.7500     93.0794      0.0000    769.9307      3.8677
   412.0000     90.5929      0.0000    770.0228      3.9111
   412.2500     89.5443      0.0000    770.0276      3.9441
   412.5000     89.5041      0.0000    769.9711      3.9737
   412.7500     89.1611      0.0000    769.8896      4.0168
   413.0000     87.3075      0.0000    769.8306      4.0873
   413.2500     83.9768      0.0000    769.8634      4.1826
   413.5000     80.4005      0.0000    770.1333      4.2838
   413.7500     77.7372      0.0000    770.9699      4.3688
   414.0000     76.2807      0.0000    772.8972      4.4251
   414.2500     76.0138      0.0000    776.3710      4.4542
   414.5000     77.1896      0.0000    781.3941      4.4660
   414.7500     79.9106      0.0000    787.4573      4.4714
   415.0000     83.6775      0.0000    793.8093      4.4801
   415.2500     87.7699      0.0000    799.5037      4.5037
   415.5000     91.7954      0.0000    803.1128      4.5567
   415.7500     95.6650      0.0000    802.7927      4.6446
   416.0000     99.1767      0.0000    797.2211      4.7497
   416.2500    101.6613      0.0000    787.0388      4.8373
   416.5000    102.1477      0.0000    775.5436      4.8837
   416.7500    100.1167      0.0000    767.4050      4.8933
   417.0000     96.0180      0.0000    765.7607      4.8852
   417.2500     90.8673      0.0000    770.0053      4.8710
   417.5000     85.5426      0.0000    776.3718      4.8493
   417.7500     80.6338      0.0000    780.9192      4.8148
   418.0000     76.6712      0.0000    782.0719      4.7625
   418.2500     74.0647      0.0000    780.5511      4.6845
   418.5000     72.7819      0.0000    777.7488      4.5696
   418.7500     72.3884      0.0000    774.6603      4.4142
   419.0000     72.4714      0.0000    771.6344      4.2352
   419.2500     72.7635      0.0000    768.2522      4.0672
   419.5000     72.9145      0.0000    763.6235      3.9414
   419.7500     72.5648      0.0000    757.5900      3.8660
   420.0000     71.6860      0.0000    751.9000      3.8260
   420.2500     70.4797      0.0000    749.4695      3.8014
   420.5000     68.9098      0.0000    751.6481      3.7843
   420.7500     66.7340      0.0000    756.5889      3.7786
   421.0000     64.0767      0.0000    760.8339      3.7772
   421.2500     61.5260      0.0000    762.4280      3.7301
   421.5000     59.4407      0.0000    762.4760      3.5460
   421.7500     57.5420      0.0000    764.0182      3.1539
   422.0000     55.5269      0.0000    769.3787      2.5749
   422.2500     53.8335      0.0000    778.7383      1.9303
   422.5000     53.4274      0.0000    791.3926      1.3768
   422.7500     54.9941      0.0000    806.4258      1.0243
   423.0000     58.7640      0.0000    820.5116      0.8897
   423.2500     64.9594      0.0000    827.5771      0.9169
   423.5000     73.8247     -3.0000    824.3237      1.0444
   423.7500     85.0834     -3.0000    815.5836      1.2627
   424.0000     97.7136      0.0000    810.9116      1.6263
   424.2500    110.2070      0.0000    814.7430      2.2135
   424.5000    120.7668      0.0000    821.5870      3.0320
   424.7500    127.5582      0.0000    822.0604      3.9252
   425.0000    129.4640      0.0000    812.4915      4.6100
   425.2500    127.0373      0.0000    797.4579      4.8843
   425.5000    122.7089      0.0000    784.0271      4.7957
   425.7500    119.5822      0.0000    775.7407      4.5707
   426.0000    119.4191      0.0000    771.9689      4.4102
   426.2500    121.6124      0.0000    770.6108      4.3819
   426.5000    124.2545      0.0000    770.1564      4.4531
   426.7500    126.1024      0.0000    769.9822      4.5600
   427.0000    127.3654      0.0000    769.9238      4.6496
   427.2500    128.9404      0.0000    769.9226      4.6920
   427.5000    131.3361      0.0000    769.9092      4.6779
   427.7500    134.2329      0.0000    769.8422      4.6170
   428.0000    136.7347      0.0000    769.7388      4.5423
   428.2500    137.9242      0.0000    769.6456      4.4984
   428.5000    137.1822      0.0000    769.5759      4.5088
   428.7500    134.1143      0.0000    769.4913      4.5523
   429.0000    128.7584      0.0000    769.3439      4.5756
   429.2500    122.2838      0.0000    769.1227      4.5329
   429.5000    116.9424      0.0000    768.8654      4.4144
   429.7500    114.5332      0.0000    768.6334      4.2444
   430.0000    114.8182      0.0000    768.4738      4.0564
   430.2500    115.6965      0.0000    768.3955      3.8729
   430.5000    114.9093      0.0000    768.3803      3.7024
   430.7500    111.5682      0.0000    768.4191      3.5479
   431.0000    106.4062      0.0000    768.5367      3.4165
   431.2500    101.0329      0.0000    768.7766      3.3184
   431.5000     96.9199      0.0000    769.1476      3.2528
   431.7500     94.5876      0.0000    769.5794      3.2016
   432.0000     93.4309      0.0000    769.9782      3.1480
   432.2500     92.4099      0.0000    770.3543      3.1034
   432.5000     90.9367      0.0000    770.8882      3.1093
   432.7500     89.0117      0.0000    771.7310      3.2054
   433.0000     86.8512      0.0000    772.6006      3.3949
   433.2500     84.9006      0.0000    772.7183      3.6353
   433.5000     83.9558      0.0000    771.5834      3.8648
   433.7500     84.5601      0.0000    769.8864      4.0425
   434.0000     86.2004      0.0000    769.2154      4.1630
   434.2500     87.6347      0.0000    770.6508      4.2369
   434.5000     88.2584      0.0000    773.8276      4.2632
   434.7500     88.9056      0.0000    777.2690      4.2299
   435.0000     91.0878      0.0000    779.5362      4.1373
   435.2500     95.5277      0.0000    780.3101      4.0123
   435.5000    101.4649      0.0000    780.3428      3.8966
   435.7500    107.1535      0.0000    780.1741      3.8194
   436.0000    110.9165      0.0000    779.3387      3.7832
   436.2500    112.1460      0.0000    777.2377      3.7741
   436.5000    111.7556      0.0000    774.2734      3.7798
   436.7500    111.6070      0.0000    771.5632      3.7978
   437.0000    113.1680      0.0000    769.8751      3.8262
   437.2500    116.4627      0.0000    769.2098      3.8526
   437.5000    120.1951      0.0000    769.1519      3.8618
   437.7500    122.9297      0.0000    769.2898      3.8576
   438.0000    124.2747      0.0000    769.3877      3.8672
   438.2500    125.0569      0.0000    769.3682      3.9161
   438.5000    126.4009      0.0000    769.2463      3.9992
   438.7500    128.6347      0.0000    769.0635      4.0796
   439.0000    131.0556      0.0000    768.8453      4.1135
   439.2500    132.5715      0.0000    768.5906      4.0815
   439.5000    132.4298      0.0000    768.3103      4.0017
   439.7500    130.5566      0.0000    768.0571      3.9155
   440.0000    127.4727      0.0000    767.8872      3.8562
   440.2500    124.0197      0.0000    767.8011      3.8313
