~Version Information
VERS.                      2.0: CWLS Log ASCII Standard - VERSION 2.0
WRAP.                       NO: One line per depth step
~Well Information Block
STRT.FT               795.0000: 
STOP.FT              2276.0000: 
STEP.FT                 0.1000: 
NULL.                -999.2500: 
COMP.          Pioneer Natural Resources: COMPANY
WELL.            Wildcard 31-5: WELL
FLD.           Purgatoire River: FIELD
LOC.           624' FNL & 1852' FEL--: LOCATION
CNTY.               Las Animas: COUNTY
SRVC.                Patterson: SERVICE COMPANY
DATE.          Tue Mar 07 07:04:10 2006: LOG DATE
UWI.           05 071 08707 00: UNIQUE WELL ID
STAT.                 Colorado: STATE
~Curve Information Block
DEPT.FT            0 000 00 00: Depth
DCAL.in                       : CDL Caliper
DPOR.pu                       : CDL Density Porosity
NPOR.pu                       : Neutron Porosity
RHOB.g/cc                     : CDL Bulk Density
RHOC.g/cc                     : CDL Density Correction
GR.GAPI                       : Gamma Ray
~Parameter Information Block
~A  Depth       DCAL        DPOR        NPOR        RHOB        RHOC         GR     
# ...
  1380.6000      7.9952     -7.6445     63.7081      2.7761      0.1935    120.1380
  1380.7000      7.9952     -6.2023     63.7081      2.7523      0.1752    104.0808
  1380.8000      7.9701     -3.9866     63.7081      2.7158      0.1522    103.5943
  1380.9000      7.9701     -0.9081     63.7081      2.6650      0.0927    112.8285
  1381.0000      7.9425      2.1537     63.7081      2.6145     -0.0168    120.8895
  1381.1000      7.9425      4.0613     63.7081      2.5830     -0.0286    120.6501
  1381.2000      7.9425      4.9741     63.7081      2.5679     -0.0226    107.2589
  1381.3000      7.9250      6.0207     63.7081      2.5507      0.0165     88.0959
  1381.4000      7.9250      8.0487     63.7081      2.5172     -0.0532     82.0516
  1381.5000      7.9452     10.3359     63.7081      2.4795     -0.1047     90.3028
  1381.6000      7.9452     11.2321     63.7081      2.4647     -0.0533    103.4476
  1381.7000      7.9452     10.6691     63.7081      2.4740      0.0186    117.8787
  1381.8000      7.9838     10.3877     63.7081      2.4786      0.0403    125.3984
  1381.9000      7.9838     11.9158     63.7081      2.4534      0.0422    118.7536
  1382.0000      8.0065     15.1684     63.7081      2.3997      0.0077    109.9556
  1382.1000      8.0065     18.5700     63.7081      2.3436     -0.0503    113.3028
  1382.2000      8.0065     21.2960     63.7081      2.2986     -0.0183    126.3422
  1382.3000      8.0206     24.0028     63.7081      2.2540     -0.0444    139.3953
  1382.4000      8.0206     26.5473     63.7081      2.2120     -0.0200    142.8716
  1382.5000      8.0944     27.9365     63.7081      2.1890     -0.0504    136.8204
  1382.6000      8.0944     27.9630     63.7081      2.1886     -0.0194    132.0225
  1382.7000      8.0944     27.1926     63.7081      2.2013      0.0405    131.8608
  1382.8000      8.3530     25.9034     63.7081      2.2226      0.0832    127.4647
  1382.9000      8.3530     23.6954     63.7081      2.2590      0.1107    124.2845
  1383.0000      8.8646     20.4117     63.7081      2.3132      0.1876    130.2316
  1383.1000      8.8646     17.0330     63.7081      2.3690      0.2158    128.0694
  1383.2000      8.8646     15.0143     63.7081      2.4023      0.2282    111.8574
  1383.3000      9.5347     14.4940     63.7081      2.4108      0.1261    107.7090
  1383.4000      9.5347     14.1983     63.7081      2.4157      0.0856    122.8609
  1383.5000     10.1106     14.1016     63.7081      2.4173      0.0805    134.3556
  1383.6000     10.1106     14.9230     63.7081      2.4038      0.0179    127.1302
  1383.7000     10.1106     15.8543     63.7081      2.3884      0.0410    104.9143
  1383.8000     10.3617     16.3397     63.7081      2.3804      0.1025     81.3049
  1383.9000     10.3617     17.0456     63.7081      2.3687      0.0845     71.1090
  1384.0000     10.4031     18.3062     63.7081      2.3479      0.0852     71.2326
  1384.1000     10.4031     19.7381     63.7081      2.3243      0.0126     72.8513
  1384.2000     10.4031     20.3912     63.7081      2.3135     -0.0212     78.1868
  1384.3000     10.5840     19.3964     63.7081      2.3300      0.0085     86.6662
  1384.4000     10.5840     16.5387     63.7081      2.3771      0.0262     93.8951
  1384.5000     11.0488     12.0340     63.7081      2.4514      0.1170     96.5375
  1384.6000     11.0488      6.2415     63.7081      2.5470      0.1631     94.0736
  1384.7000     11.0488     -0.5544     63.7081      2.6591      0.2524     92.1095
  1384.8000     11.4862     -6.8289     63.7081      2.7627      0.3642     93.2070
  1384.9000     11.4862     -9.6967     63.7081      2.8100      0.4000     96.0062
  1385.0000     11.5128     -7.7747     63.7081      2.7783      0.3220     95.9208
  1385.1000     11.5128     -3.0271     63.7081      2.6999      0.1203     88.5558
  1385.2000     11.5128      0.8779     63.7081      2.6355      0.0631     83.6552
  1385.3000     11.1762      2.3892     63.7081      2.6106      0.0891     94.8742
  1385.4000     11.1762      2.8123     63.7081      2.6036      0.0680    111.6287
  1385.5000     10.8750      3.2541     63.7081      2.5963      0.0333    109.2960
  1385.6000     10.8750      3.8060     63.7081      2.5872      0.0481     92.6084
  1385.7000     10.8750      4.4308     63.7081      2.5769      0.0289     82.7454
  1385.8000     10.7547      5.4553     63.7081      2.5600      0.0671     78.9616
  1385.9000     10.7547      7.8480     63.7081      2.5205      0.0524     71.3046
  1386.0000     10.8421     11.0310     63.7081      2.4680     -0.0151     62.3438
  1386.1000     10.8421     12.4602     63.7081      2.4444     -0.0198     59.2486
  1386.2000     10.8421     11.7808     63.7081      2.4556      0.0730     64.7419
  1386.3000     11.1382     11.8017     63.7081      2.4553      0.0608     76.2477
  1386.4000     11.1382     14.1912     63.7081      2.4158     -0.0206     86.8259
  1386.5000     11.3652     18.0057     63.7081      2.3529     -0.0054     92.3796
  1386.6000     11.3652     21.9893     63.7081      2.2872     -0.0689     92.7788
  1386.7000     11.3652     25.3104     63.7081      2.2324     -0.0742     91.5517
  1386.8000     11.0949     28.0840     63.7081      2.1866     -0.0381     90.1165
  1386.9000     11.0949     31.2961     63.7081      2.1336     -0.1041     83.1589
  1387.0000     10.2374     34.9790     63.7081      2.0728     -0.0494     73.8192
  1387.1000     10.2374     37.4872     63.7081      2.0315     -0.0677     73.2463
  1387.2000     10.2374     37.1287     63.7081      2.0374      0.0256     78.9966
  1387.3000      9.1976     34.3149     63.7081      2.0838      0.1410     80.4944
  1387.4000      9.1976     30.3647     63.7081      2.1490      0.1907     74.8328
  1387.5000      8.4948     25.7561     63.7081      2.2250      0.2666     68.6920
  1387.6000      8.4948     20.7403     63.7081      2.3078      0.3333     70.3628
  1387.7000      8.4948     15.8020     63.7081      2.3893      0.3765     78.4578
  1387.8000      8.2250     11.7196     63.7081      2.4566      0.4299     85.3254
  1387.9000      8.2250      8.9296     63.7081      2.5027      0.4088     92.5291
  1388.0000      8.1687      6.8132     63.7081      2.5376      0.3795     97.9807
  1388.1000      8.1687      4.8933     63.7081      2.5693      0.3329     90.2379
  1388.2000      8.1687      3.4272     63.7081      2.5935      0.2749     74.8978
  1388.3000      8.1823      2.8311     63.7081      2.6033      0.2447     67.4245
  1388.4000      8.1823      3.4089     63.7081      2.5938      0.1882     76.7278
  1388.5000      8.2042      4.5597     63.7081      2.5748      0.1219    100.6910
  1388.6000      8.2042      5.0625     63.7081      2.5665      0.0871    120.4718
  1388.7000      8.2042      4.7394     63.7081      2.5718      0.0894    118.6678
  1388.8000      8.1809      4.1793     63.7081      2.5810      0.1031    102.2777
  1388.9000      8.1809      3.7441     63.7081      2.5882      0.0934     86.5920
  1389.0000      8.1277      3.8409     63.7081      2.5866      0.0805     75.7696
  1389.1000      8.1277      5.0920     63.7081      2.5660      0.0737     77.8519
  1389.2000      8.1277      7.2888     63.7081      2.5297      0.0294     95.4020
  1389.3000      8.1001      8.5435     63.7081      2.5090     -0.0003    115.0126
  1389.4000      8.1001      7.4089     63.7081      2.5278      0.0230    122.8098
  1389.5000      8.0979      5.4601     63.7081      2.5599      0.1017    114.5086
  1389.6000      8.0979      5.1921     63.7081      2.5643      0.0834    103.0016
  1389.7000      8.0979      6.6408     63.7081      2.5404      0.0846    105.3561
  1389.8000      8.0913      8.2770     63.7081      2.5134      0.0437    120.8468
  1389.9000      8.0913      9.3130     63.7081      2.4963      0.0730    136.6051
  1390.0000      8.0794     10.0086     63.7081      2.4849      0.0535    143.3420
  1390.1000      8.0794     10.5611     63.7081      2.4757      0.0615    141.7794
