~Version Information
VERS.                      2.0: CWLS Log ASCII Standard - VERSION 2.0
WRAP.                       NO: One line per depth step
~Well Information Block
STRT.FT               570.0000: 
STOP.FT              1958.5000: 
STEP.FT                 0.2500: 
NULL.                -999.2500: 
COMP.          Petrogulf Corporation: COMPANY
WELL.            Montoya 7-14R: WELL
FLD.           Purgatorie River: FIELD
LOC.           628' FSL & 454' FWL: LOCATION
PROV.                 Colorado: PROVINCE
CNTY.               Las Animas: COUNTRY
SRVC.                Patterson: SERVICE COMPANY
DATE.          Sat Oct 08 17:13:52 2005: LOG DATE
UWI.                          : UNIQUE WELL ID
~Curve Information Block
DEPT.FT            0 000 00 00: Depth
SP.mV                         : DIL Spontaneous Potential
RILD.Ohm-m                    : DIL Deep Resistivity
RILM.Ohm-m                    : DIL Medium Resistivity
RLL3.Ohm-m                    : DIL Shallow Resistivity
GR.GAPI                       : Gamma Ray
~Parameter Information Block
~A  Depth        SP         RILD        RILM        RLL3         GR     
# ...
   850.0000    118.3495     33.9744     43.6440     59.6198     85.0567
   850.2500    118.4865     32.3649     41.5495     63.9425     87.6906
   850.5000    118.9398     30.8685     39.1086     67.9335     92.7440
   850.7500    119.6925     29.5796     36.4937     69.5845     96.0699
   851.0000    120.6968     28.5286     33.8970     67.0030     99.9925
   851.2500    121.8812     27.6821     31.4844     59.6313    101.9697
   851.5000    123.1739     26.9600     29.3683     49.0165    104.9640
   851.7500    124.5292     26.2648     27.5988     38.1894    107.5495
   852.0000    125.9443     25.5147     26.1717     30.0586    112.5177
   852.2500    127.4558     24.6703     25.0416     26.2087    116.0729
   852.5000    129.1157     23.7426     24.1363     26.7818    120.2847
   852.7500    130.9566     22.7799     23.3714     30.8017    121.6400
   853.0000    132.9619     21.8425     22.6672     36.2609    121.3469
   853.2500    135.0573     20.9804     21.9647     40.3957    119.9801
   853.5000    137.1296     20.2236     21.2361     40.8622    116.7351
   853.7500    139.0611     19.5820     20.4854     37.2265    113.8873
   854.0000    140.7604     19.0511     19.7373     31.2259    109.0496
   854.2500    142.1806     18.6154     19.0226     25.3978    106.2050
   854.5000    143.3220     18.2515     18.3656     21.4384    104.1101
   854.7500    144.2225     17.9323     17.7786     19.6320    104.5727
   855.0000    144.9381     17.6320     17.2634     19.3053    107.1325
   855.2500    145.5242     17.3336     16.8149     19.5252    108.9269
   855.5000    146.0224     17.0322     16.4261     19.5856    110.1605
   855.7500    146.4580     16.7305     16.0902     19.2338    109.9049
   856.0000    146.8425     16.4317     15.8014     18.6509    108.8578
   856.2500    147.1792     16.1315     15.5529     18.2117    108.2880
   856.5000    147.4647     15.8188     15.3348     18.1733    107.9919
   856.7500    147.6908     15.4805     15.1330     18.4898    108.2050
   857.0000    147.8472     15.1096     14.9299     18.8671    109.3017
   857.2500    147.9268     14.7098     14.7067     18.9983    110.6033
   857.5000    147.9283     14.2952     14.4477     18.7834    112.9441
   857.7500    147.8542     13.8851     14.1434     18.3394    114.0904
   858.0000    147.7081     13.4970     13.7928     17.8252    114.0397
   858.2500    147.4915     13.1415     13.4032     17.2919    112.7695
   858.5000    147.2006     12.8216     12.9884     16.6981    110.4633
   858.7500    146.8246     12.5349     12.5651     16.0140    109.9413
   859.0000    146.3500     12.2774     12.1509     15.2723    111.9076
   859.2500    145.7751     12.0453     11.7617     14.5369    114.6057
   859.5000    145.1239     11.8356     11.4104     13.8569    118.7444
   859.7500    144.4455     11.6442     11.1065     13.2635    120.6420
   860.0000    143.7952     11.4650     10.8550     12.8048    121.8603
   860.2500    143.2116     11.2911     10.6564     12.5659    121.8405
   860.5000    142.7072     11.1182     10.5072     12.6284    121.0225
   860.7500    142.2746     10.9477     10.3998     12.9928    120.1109
   861.0000    141.8972     10.7887     10.3244     13.5322    118.5176
   861.2500    141.5550     10.6557     10.2710     14.0351    117.6759
   861.5000    141.2266     10.5621     10.2312     14.3125    117.4327
   861.7500    140.8921     10.5149     10.2005     14.2896    118.0344
   862.0000    140.5342     10.5121     10.1787     14.0220    119.4454
   862.2500    140.1339     10.5465     10.1700     13.6488    120.1930
   862.5000    139.6656     10.6123     10.1810     13.3216    120.7126
   862.7500    139.0986     10.7080     10.2198     13.1361    121.0548
   863.0000    138.4083     10.8346     10.2939     13.0962    122.6684
   863.2500    137.5850     10.9914     10.4100     13.1420    124.7129
   863.5000    136.6367     11.1742     10.5725     13.2292    128.1339
   863.7500    135.5839     11.3759     10.7841     13.3850    129.4588
   864.0000    134.4528     11.5894     11.0442     13.6945    128.4925
   864.2500    133.2691     11.8073     11.3486     14.2477    125.7235
   864.5000    132.0574     12.0216     11.6880     15.1055    118.9806
   864.7500    130.8447     12.2225     12.0475     16.3012    113.4272
   865.0000    129.6639     12.3992     12.4072     17.8381    105.4726
   865.2500    128.5549     12.5440     12.7442     19.6400    101.8825
   865.5000    127.5623     12.6569     13.0367     21.4636    100.7565
   865.7500    126.7286     12.7492     13.2691     22.8609    102.6793
   866.0000    126.0852     12.8413     13.4359     23.3139    107.4018
   866.2500    125.6403     12.9579     13.5435     22.5442    110.2170
   866.5000    125.3729     13.1204     13.6080     20.7776    112.6474
   866.7500    125.2350     13.3394     13.6515     18.6748    113.4782
   867.0000    125.1662     13.6090     13.6977     16.9324    114.9406
   867.2500    125.1166     13.9056     13.7673     15.9090    116.2786
   867.5000    125.0666     14.1956     13.8759     15.5943    117.7967
   867.7500    125.0335     14.4486     14.0324     15.8749    117.7664
   868.0000    125.0573     14.6502     14.2397     16.7686    116.0791
   868.2500    125.1726     14.8068     14.4962     18.3582    114.4345
   868.5000    125.3821     14.9398     14.7977     20.4821    112.0510
   868.7500    125.6492     15.0764     15.1405     22.5703    110.5193
   869.0000    125.9136     15.2427     15.5223     23.9476    107.7994
   869.2500    126.1195     15.4606     15.9427     24.3745    105.5203
   869.5000    126.2405     15.7462     16.4021     24.2199    101.6350
   869.7500    126.2892     16.1065     16.8991     24.0606     99.1215
   870.0000    126.3065     16.5356     17.4281     24.1982     96.0603
   870.2500    126.3389     17.0139     17.9775     24.6255     94.5462
   870.5000    126.4174     17.5125     18.5297     25.3245     92.9062
   870.7500    126.5489     18.0017     19.0623     26.3591     92.3790
   871.0000    126.7209     18.4572     19.5514     27.6007     93.0087
   871.2500    126.9112     18.8598     19.9747     28.5397     94.3489
   871.5000    127.0913     19.1914     20.3147     28.5986     96.6376
   871.7500    127.2281     19.4337     20.5601     27.6915     97.6448
   872.0000    127.2909     19.5744     20.7059     26.3923     98.5298
   872.2500    127.2651     19.6144     20.7525     25.4858     99.6501
   872.5000    127.1606     19.5692     20.7040     25.3260    103.4519
   872.7500    127.0054     19.4603     20.5676     25.5956    106.9923
   873.0000    126.8299     19.3071     20.3533     25.6546    111.4664
   873.2500    126.6538     19.1247     20.0739     25.1332    112.9286
   873.5000    126.4845     18.9284     19.7453     24.2175    113.4581
   873.7500    126.3226     18.7346     19.3859     23.3901    113.6725
   874.0000    126.1676     18.5548     19.0163     22.9148    114.2022
   874.2500    126.0205     18.3889     18.6564     22.5901    114.0817
   874.5000    125.8845     18.2246     18.3236     22.0081    112.5639
   874.7500    125.7685     18.0477     18.0289     21.0312    111.3307
   875.0000    125.6866     17.8546     17.7756     19.9891    111.1016
   875.2500    125.6548     17.6565     17.5584     19.4180    112.3839
   875.5000    125.6834     17.4691     17.3662     19.6196    114.8663
   875.7500    125.7694     17.2977     17.1855     20.4254    115.5930
   876.0000    125.8929     17.1336     17.0062     21.3011    114.6800
   876.2500    126.0172     16.9685     16.8261     21.6762    113.5533
   876.5000    126.0943     16.8145     16.6523     21.2943    113.1234
   876.7500    126.0726     16.7065     16.4997     20.3735    114.4110
   877.0000    125.9083     16.6850     16.3872     19.4686    118.4594
   877.2500    125.5791     16.7745     16.3333     19.1250    121.4707
   877.5000    125.0939     16.9755     16.3542     19.5501    123.6452
   877.7500    124.4889     17.2711     16.4636     20.4881    122.3804
