~Version Information
VERS.                      2.0: CWLS Log ASCII Standard - VERSION 2.0
WRAP.                       NO: One line per depth step
~Well Information Block
STRT.FT                -6.7500: 
STOP.FT              1250.5000: 
STEP.FT                 0.2500: 
NULL.                -999.2500: 
COMP.          Pioneer Natural Resources: COMPANY
WELL.          Irish Eyes 33-21: WELL
FLD.           Purgatorie River: FIELD
LOC.           1379' FSL & 2544' FEL--: LOCATION
PROV.                       CO: PROVINCE
CNTY.               Las Animas: COUNTRY
SRVC.          Patterson Wireline: SERVICE COMPANY
DATE.          Mon Jan 23 11:57:23 2006: LOG DATE
UWI.           05 071 08658 00: UNIQUE WELL ID
~Curve Information Block
DEPT.FT            0 000 00 00: Depth
CCL.                          : Casing Collar Locator
TT3.usec                      : CBL 3' Travel Time
AMP3.mV                       : CBL 3' Amplitude
GR.GAPI                       : Gamma Ray
~Parameter Information Block
~A  Depth       CCL         TT3         AMP3         GR     
# ...
   328.2500      0.0000    869.1083     24.8798     84.8364
   328.5000      0.0000    868.6301     25.0597     79.8013
   328.7500      0.0000    868.1741     25.1917     74.0491
   329.0000      0.0000    867.7133     25.3086     70.4357
   329.2500      0.0000    867.1218     25.4534     69.9569
   329.5000      0.0000    865.7960     25.6259     71.8321
   329.7500      0.0000    861.9946     25.7805     74.6810
   330.0000      0.0000    852.1812     25.8726     77.5438
   330.2500      0.0000    832.3403     25.8990     80.0242
   330.5000      0.0000    803.0300     25.8964     81.8668
   330.7500      0.0000    774.3799     25.9056     82.7241
   331.0000      0.0000    762.0955     25.9429     82.3547
   331.2500      0.0000    774.0527     26.0096     80.8584
   331.5000      0.0000    802.3358     26.1201     78.5658
   331.7500      0.0000    831.1457     26.3069     75.7903
   332.0000      0.0000    850.0845     26.5949     72.7517
   332.2500      0.0000    857.9313     26.9746     69.7242
   332.5000      0.0000    857.1538     27.3999     67.2422
   332.7500      0.0000    848.0702     27.8113     66.0537
   333.0000      0.0000    826.5306     28.1747     66.6258
   333.2500      0.0000    784.6085     28.5037     68.6501
   333.5000      0.0000    715.1536     28.8431     71.3142
   333.7500      0.0000    620.2012     29.2233     74.2335
   334.0000      0.0000    515.8184     29.6349     77.9371
   334.2500      0.0000    424.9522     30.0416     83.2276
   334.5000      0.0000    362.7935     30.4049     90.0911
   334.7500      0.0000    329.4793     30.6934     97.3199
   335.0000      0.0000    315.4892     30.8833    103.1969
   335.2500      0.0000    310.8810     30.9609    106.5426
   335.5000      0.0000    309.7164     30.9268    107.1628
   335.7500      0.0000    309.5567     30.8003    105.4595
   336.0000      0.0000    309.6438     30.6254    101.8424
   336.2500      0.0000    309.7484     30.4690     96.6088
   336.5000      0.0000    309.7482     30.4014     90.3492
   336.7500      0.0000    309.5837     30.4630     84.4739
   337.0000      0.0000    309.2559     30.6447     80.9577
   337.2500      0.0000    308.8254     30.8953     80.8216
   337.5000      0.0000    308.3802     31.1522     82.7256
   337.7500      0.0000    307.9945     31.3714     83.7418
   338.0000      0.0000    307.7014     31.5463     81.9631
   338.2500      0.0000    307.4866     31.7130     78.1009
   338.5000      0.0000    307.3062     31.9335     74.4333
   338.7500      0.0000    307.1211     32.2491     72.5390
   339.0000      0.0000    306.9240     32.6363     72.1067
   339.2500      0.0000    306.7403     33.0076     71.6061
   339.5000      0.0000    306.6060     33.2657     69.8787
   339.7500      0.0000    306.5417     33.3633     66.9930
   340.0000      0.0000    306.5373     33.3185     63.7402
   340.2500      0.0000    306.5622     33.1836     60.8555
   340.5000      0.0000    306.5931     33.0132     58.9136
   340.7500      0.0000    306.6265     32.8536     58.4767
   341.0000      0.0000    306.6617     32.7408     59.8981
   341.2500      0.0000    306.6803     32.6985     62.9268
   341.5000      0.0000    306.6571     32.7372     66.5246
   341.7500      0.0000    306.5897     32.8518     69.2037
   342.0000      0.0000    306.5079     33.0197     69.8594
   342.2500      0.0000    306.4542     33.2100     68.4451
   342.5000      0.0000    306.4604     33.3971     65.8300
   342.7500      0.0000    306.5388     33.5606     63.1127
   343.0000      0.0000    306.6859     33.6704     61.2008
   343.2500      0.0000    306.8941     33.6829     60.7670
   343.5000      0.0000    307.1576     33.5634     62.1498
   343.7500      0.0000    307.4897     33.3200     65.1455
   344.0000      0.0000    307.9721     33.0057     69.0334
   344.2500      0.0000    308.8240     32.6830     72.9086
   344.5000      0.0000    310.3327     32.3865     75.9890
   344.7500      0.0000    312.4965     32.1221     77.7393
   345.0000      0.0000    314.6501     31.8878     78.0174
   345.2500      0.0000    315.7180     31.6818     77.2950
   345.5000      0.0000    315.1323     31.4947     76.5907
   345.7500      0.0000    313.3812     31.3172     76.9507
   346.0000      0.0000    311.4877     31.1583     78.8682
   346.2500      0.0000    310.1341     31.0428     82.1056
   346.5000      0.0000    309.4033     30.9900     85.8464
   346.7500      0.0000    309.0787     31.0060     88.8678
   347.0000      0.0000    308.9665     31.0866     89.7336
   347.2500      0.0000    309.0485     31.2040     87.4007
   347.5000      0.0000    309.5343     31.2877     82.1857
   347.7500      0.0000    310.7347     31.2482     75.9803
   348.0000      0.0000    312.6487     31.0456     71.1003
   348.2500      0.0000    314.5765     30.7333     68.9621
   348.5000      0.0000    315.3923     30.4188     69.7636
   348.7500      0.0000    314.4942     30.1866     72.7369
   349.0000      0.0000    312.3831     30.0684     76.3769
   349.2500      0.0000    310.1422     30.0694     78.9462
   349.5000      0.0000    308.5204     30.1878     79.3840
   349.7500      0.0000    307.6548     30.4061     77.9851
   350.0000      0.0000    307.4261     30.6857     76.2119
   350.2500      0.0000    307.8441     30.9786     75.6371
   350.5000      0.0000    309.0598     31.2484     76.7758
   350.7500      0.0000    310.9770     31.4947     78.9028
   351.0000      0.0000    312.8622     31.7698     80.9047
   351.2500      0.0000    313.6168     32.1540     82.0880
   351.5000      0.0000    312.7967     32.6852     82.1992
   351.7500      0.0000    311.3935     33.2983     81.0734
   352.0000      0.0000    311.7089     33.8100     78.5897
   352.2500      0.0000    316.6826     33.9332     74.9721
   352.5000      0.0000    329.1570     33.3413     71.0678
   352.7500      0.0000    351.1085     31.8420     68.2156
   353.0000      0.0000    383.8985     29.5811     67.5471
   353.2500      0.0000    430.1602     27.0669     69.1631
   353.5000      0.0000    493.4965     24.9188     72.0847
   353.7500      0.0000    571.5261     23.5185     75.1193
   354.0000      0.0000    647.3544     22.8601     77.6377
   354.2500      0.0000    692.5808     22.7000     79.5883
   354.5000      2.0000    684.8113     22.8142     81.1818
   354.7500      0.0000    624.8120     23.1512     82.6102
   355.0000      0.0000    536.8295     23.8782     83.7509
   355.2500      0.0000    451.8249     25.3384     84.1488
   355.5000      0.0000    388.9780     27.7994     83.5365
   355.7500      0.0000    350.3735     31.0527     82.3305
   356.0000      0.0000    328.7458     34.3292     81.2677
   356.2500      0.0000    316.7417     36.7886     80.4677
   356.5000      0.0000    310.1721     38.0924     79.1863
   356.7500      0.0000    306.9001     38.4601     76.6104
   357.0000      0.0000    305.5253     38.3153     72.6755
   357.2500      0.0000    305.0657     37.9907     68.2090
   357.5000      0.0000    304.9566     37.6653     64.5646
   357.7500      0.0000    304.9684     37.4145     62.9780
   358.0000      0.0000    305.0236     37.2566     63.8390
   358.2500      0.0000    305.0936     37.1730     66.3406
   358.5000      0.0000    305.1659     37.1237     68.9742
   358.7500      0.0000    305.2363     37.0803     70.7087
   359.0000      0.0000    305.2987     37.0537     71.8381
   359.2500      0.0000    305.3414     37.0812     73.5734
   359.5000      0.0000    305.3527     37.1925     76.8653
   359.7500      0.0000    305.3275     37.3991     81.7532
   360.0000      0.0000    305.2672     37.7095     87.5350
   360.2500      0.0000    305.1777     38.1305     93.0571
   360.5000      0.0000    305.0702     38.6481     96.9485
   360.7500      0.0000    304.9622     39.2105     98.1024
   361.0000      0.0000    304.8734     39.7333     96.2991
   361.2500      0.0000    304.8150     40.1286     92.5411
   361.5000      0.0000    304.7819     40.3438     88.6523
