~Version Information
VERS.                      2.0: CWLS Log ASCII Standard - VERSION 2.0
WRAP.                       NO: One line per depth step
~Well Information Block
STRT.FT                 0.0000: 
STOP.FT              1538.0000: 
STEP.FT                 0.2500: 
NULL.                -999.2500: 
COMP.          Pioneer Natural Resources: COMPANY
WELL.           Butch 33-10 TR: WELL
FLD.           Purgatorie River: FIELD
LOC.           2309' FSL & 1337' FEL: LOCATION
PROV.                 Colorado: PROVINCE
CNTY.               Las Animas: COUNTRY
SRVC.                Patterson: SERVICE COMPANY
DATE.          Thu Jan 19 12:40:27 2006: LOG DATE
UWI.                          : UNIQUE WELL ID
~Curve Information Block
DEPT.FT            0 000 00 00: Depth
CCL.                          : Casing Collar Locator
TT3.usec                      : CBL 3' Travel Time
AMP3.mV                       : CBL 3' Amplitude
GR.GAPI                       : Gamma Ray
~Parameter Information Block
~A  Depth       CCL         TT3         AMP3         GR     
# ...
   603.0000      0.0000    301.9538     26.6317     70.0296
   603.2500      0.0000    302.0423     26.6214     69.5181
   603.5000      0.0000    302.1753     26.5238     67.0507
   603.7500      0.0000    302.3151     26.4124     63.8583
   604.0000      0.0000    302.3948     26.4158     61.0245
   604.2500      0.0000    302.3911     26.5289     58.5432
   604.5000      0.0000    302.3612     26.5952     56.2243
   604.7500      0.0000    302.3869     26.4845     54.5983
   605.0000      0.0000    302.4946     26.2165     54.2695
   605.2500      0.0000    302.6473     25.9065     54.8935
   605.5000      0.0000    302.7798     25.6937     55.3052
   605.7500      0.0000    302.8332     25.6880     54.4499
   606.0000      0.0000    302.8066     25.8690     52.1065
   606.2500      0.0000    302.7851     26.0477     49.0108
   606.5000      0.0000    302.8575     26.0374     46.3432
   606.7500      0.0000    303.0071     25.8608     44.8608
   607.0000      0.0000    303.1317     25.6952     44.3732
   607.2500      0.0000    303.1747     25.6400     44.0744
   607.5000      0.0000    303.1790     25.6423     43.3487
   607.7500      0.0000    303.1886     25.6395     42.1479
   608.0000      0.0000    303.1923     25.6541     40.6964
   608.2500      0.0000    303.1780     25.7401     39.2002
   608.5000      0.0000    303.1382     25.9668     37.9821
   608.7500      0.0000    303.0394     26.4224     37.5491
   609.0000      0.0000    302.8661     27.1286     38.1569
   609.2500      0.0000    302.6599     27.9632     39.3768
   609.5000      0.0000    302.4807     28.6940     40.2791
   609.7500      0.0000    302.3568     29.1320     40.0077
   610.0000      0.0000    302.2863     29.2648     38.2244
   610.2500      0.0000    302.2671     29.2068     35.2868
   610.5000      0.0000    302.2829     29.1109     32.1461
   610.7500      0.0000    302.2818     29.1297     29.9033
   611.0000      0.0000    302.2325     29.2943     29.1749
   611.2500      0.0000    302.1677     29.4733     29.7082
   611.5000      0.0000    302.1322     29.5203     30.6217
   611.7500      0.0000    302.1470     29.3345     31.2373
   612.0000      0.0000    302.2301     28.8440     31.8033
   612.2500      0.0000    302.3785     28.1242     33.2878
   612.5000      0.0000    302.5272     27.4348     36.3685
   612.7500      0.0000    302.5987     26.9943     40.7379
   613.0000      0.0000    302.5888     26.8102     45.5045
   613.2500      0.0000    302.5497     26.7825     50.1465
   613.5000      0.0000    302.5117     26.8562     54.8866
   613.7500      0.0000    302.4549     27.0276     60.1250
   614.0000      0.0000    302.3532     27.2642     65.6655
   614.2500      0.0000    302.2275     27.4888     70.6653
   614.5000      0.0000    302.1323     27.6523     74.3170
   614.7500      0.0000    302.0954     27.7716     76.3723
   615.0000      0.0000    302.1005     27.8725     76.9600
   615.2500      0.0000    302.1121     27.9555     76.2155
   615.5000      0.0000    302.0986     28.0325     74.3993
   615.7500      0.0000    302.0536     28.1252     72.2360
   616.0000      0.0000    302.0050     28.2108     70.6992
   616.2500      0.0000    301.9966     28.2243     70.3473
   616.5000      0.0000    302.0606     28.1189     71.1170
   616.7500      0.0000    302.1901     27.9102     72.7436
   617.0000      0.0000    302.3247     27.6856     75.0097
   617.2500      0.0000    302.3929     27.5472     77.5163
   617.5000      0.0000    302.3871     27.5111     79.6187
   617.7500      0.0000    302.3561     27.5103     80.8243
   618.0000      0.0000    302.3376     27.4936     81.0995
   618.2500      0.0000    302.3445     27.4680     80.6250
   618.5000      0.0000    302.3716     27.4743     79.4454
   618.7500      0.0000    302.3926     27.5478     77.6477
   619.0000      0.0000    302.3911     27.6743     75.8104
   619.2500      0.0000    302.3839     27.8017     74.9246
   619.5000      0.0000    302.3787     27.9140     75.6060
   619.7500      0.0000    302.3400     28.0619     77.5080
   620.0000      0.0000    302.2309     28.3133     79.7161
   620.2500      0.0000    302.0661     28.6824     81.5369
   620.5000      0.0000    301.8999     29.1123     82.6454
   620.7500      0.0000    301.7689     29.5334     82.7615
   621.0000      0.0000    301.6611     29.9247     81.6017
   621.2500      0.0000    301.5362     30.3091     79.0281
   621.5000      0.0000    301.3709     30.6722     75.1707
   621.7500      0.0000    301.1829     30.9341     70.7644
   622.0000      0.0000    301.0069     31.0524     67.3908
   622.2500      0.0000    300.8698     31.0767     66.8111
   622.5000      0.0000    300.7751     31.0858     69.7204
   622.7500      0.0000    300.6961     31.1359     75.1251
   623.0000      0.0000    300.6084     31.2522     80.8533
   623.2500      0.0000    300.5413     31.4028     84.8063
   623.5000      0.0000    300.5605     31.4849     86.2076
   623.7500      0.0000    300.6762     31.4107     85.9042
   624.0000      0.0000    300.8201     31.1951     85.4133
   624.2500      0.0000    300.9367     30.8986     85.6557
   624.5000      0.0000    301.0385     30.5473     86.4939
   624.7500      0.0000    301.1536     30.1861     87.1759
   625.0000      0.0000    301.2789     29.9495     87.0981
   625.2500      0.0000    301.3925     29.9812     86.2882
   625.5000      0.0000    301.4610     30.3016     85.2846
   625.7500      0.0000    301.4420     30.7832     84.5741
   626.0000      0.0000    301.3463     31.2177     84.1151
   626.2500      0.0000    301.2544     31.4429     83.4130
   626.5000      0.0000    301.2130     31.4681     82.1291
   626.7500      0.0000    301.1960     31.4294     80.5340
   627.0000      0.0000    301.1827     31.4306     79.1901
   627.2500      0.0000    301.1654     31.5054     78.3351
   627.5000      0.0000    301.1233     31.6385     77.9562
   627.7500      0.0000    301.0742     31.7341     78.3346
   628.0000      0.0000    301.0755     31.6840     79.9712
   628.2500      0.0000    301.1257     31.5204     82.8635
   628.5000      0.0000    301.1577     31.3590     86.2711
   628.7500      0.0000    301.1466     31.1725     89.2766
   629.0000      0.0000    301.1394     30.8195     91.2410
   629.2500      0.0000    301.1729     30.2908     91.6226
   629.5000      0.0000    301.2352     29.7311     89.7966
   629.7500      0.0000    301.2996     29.2766     85.5317
   630.0000      0.0000    301.3473     28.9917     79.5871
   630.2500      0.0000    301.3767     28.8547     73.5166
   630.5000      0.0000    301.4031     28.7604     68.8298
   630.7500      0.0000    301.4436     28.6110     66.2943
   631.0000      0.0000    301.4943     28.4266     65.6943
   631.2500      0.0000    301.5358     28.3292     66.1194
   631.5000      0.0000    301.5629     28.4113     66.7138
   631.7500      0.0000    301.5745     28.6630     67.2070
   632.0000      0.0000    301.5580     28.9976     67.6818
   632.2500      0.0000    301.5225     29.3068     68.2174
   632.5000      0.0000    301.5031     29.5410     69.1868
   632.7500      0.0000    301.5761     29.6888     71.7409
   633.0000      0.0000    302.2651     29.5104     77.2121
   633.2500      0.0000    305.4867     28.3696     85.4888
   633.5000      0.0000    314.1991     25.9001     94.2595
   633.7500      0.0000    327.6057     23.1586    100.4495
   634.0000      0.0000    337.6764     21.8685    102.5041
   634.2500      0.0000    337.4678     21.9957    101.0591
   634.5000      0.0000    329.5076     22.1907     97.5900
   634.7500      0.0000    320.2936     22.1456     93.0306
   635.0000      0.0000    313.6777     22.2233     87.9773
   635.2500     -2.0000    310.4840     22.3356     83.6622
   635.5000      2.0000    309.6531     22.3007     81.7665
   635.7500      0.0000    309.9046     22.1519     82.9510
   636.0000      0.0000    310.8686     21.9548     86.0822
   636.2500      0.0000    312.5444     21.7879     89.3961
