~Version Information
VERS.                      2.0: CWLS Log ASCII Standard - VERSION 2.0
WRAP.                       NO: One line per depth step
~Well Information Block
STRT.FT               520.0000: 
STOP.FT              2555.2000: 
STEP.FT                 0.1000: 
NULL.                -999.2500: 
COMP.          Pioneer Natural Resources: COMPANY
WELL.          Horsefeathers 24-34: WELL
FLD.           Purgatoire River: FIELD
LOC.           183' FSL & 1570' FWL--: LOCATION
CNTY.               Las Animas: COUNTY
SRVC.                Patterson: SERVICE COMPANY
DATE.          Mon Feb 06 08:03:40 2006: LOG DATE
UWI.           05 071 08675 00: UNIQUE WELL ID
STAT.                 Colorado: STATE
~Curve Information Block
DEPT.FT            0 000 00 00: Depth
DCAL.in                       : CDL Caliper
RHOB.g/cc                     : CDL Bulk Density
RHOC.g/cc                     : CDL Density Correction
DPOR.pu                       : CDL Density Porosity
NPOR.pu                       : Neutron Porosity
GR.GAPI                       : Gamma Ray
~Parameter Information Block
~A  Depth       DCAL        RHOB        RHOC        DPOR        NPOR         GR     
# ...
  1460.8000      8.1402      2.5499     -0.0060      6.0686     11.8988     49.8807
  1460.9000      8.1402      2.5733      0.0195      4.6476     11.9685     48.2637
  1461.0000      8.1439      2.6075      0.0592      2.5785     11.7845     46.9203
  1461.1000      8.1439      2.6261      0.0897      1.4455     11.7371     48.8091
  1461.2000      8.1439      2.6210      0.0601      1.7595     11.8651     50.6317
  1461.3000      8.1435      2.6067      0.0375      2.6229     11.7785     50.0544
  1461.4000      8.1435      2.5939      0.0739      3.4000     11.4941     48.9975
  1461.5000      8.1433      2.5799      0.0576      4.2490     11.2600     49.5752
  1461.6000      8.1433      2.5686      0.0537      4.9333     11.0425     53.9112
  1461.7000      8.1433      2.5655      0.0427      5.1207     10.8881     61.2913
  1461.8000      8.1452      2.5678      0.0591      4.9798     11.0070     67.6772
  1461.9000      8.1452      2.5725      0.0444      4.6984     11.3935     68.7497
  1462.0000      8.1457      2.5764      0.0498      4.4603     11.7950     62.2737
  1462.1000      8.1457      2.5696      0.0772      4.8749     12.0754     54.1869
  1462.2000      8.1457      2.5498      0.0352      6.0740     12.2330     51.3854
  1462.3000      8.1447      2.5316      0.0170      7.1738     12.1976     51.2653
  1462.4000      8.1447      2.5253      0.0538      7.5601     11.9519     49.3461
  1462.5000      8.1457      2.5253      0.0062      7.5569     11.6809     46.4460
  1462.6000      8.1457      2.5284      0.0298      7.3687     11.5867     45.1597
  1462.7000      8.1457      2.5362      0.0288      6.8965     11.6481     45.9390
  1462.8000      8.1463      2.5450      0.0398      6.3637     11.8353     47.3185
  1462.9000      8.1463      2.5521      0.0198      5.9334     12.1791     47.7170
  1463.0000      8.1448      2.5603      0.0283      5.4381     12.5771     47.9026
  1463.1000      8.1448      2.5716      0.0185      4.7524     13.0115     49.8699
  1463.2000      8.1448      2.5887      0.0283      3.7147     13.7941     52.7712
  1463.3000      8.1434      2.6135      0.0361      2.2145     15.0193     56.8696
  1463.4000      8.1434      2.6368      0.0653      0.8020     16.2199     62.8013
  1463.5000      8.1461      2.6422      0.0772      0.4710     17.1670     66.4067
  1463.6000      8.1461      2.6294      0.0550      1.2456     18.2310     66.4170
  1463.7000      8.1461      2.6178      0.0214      1.9492     19.4895     67.4371
  1463.8000      8.1548      2.6154      0.0329      2.0949     20.4960     70.0103
  1463.9000      8.1548      2.6084      0.0457      2.5239     21.1713     73.0751
  1464.0000      8.1649      2.5908      0.0294      3.5888     21.6922     77.4832
  1464.1000      8.1649      2.5766      0.0497      4.4458     22.1113     81.3560
  1464.2000      8.1649      2.5815      0.0359      4.1486     22.6404     83.9140
  1464.3000      8.1755      2.6073      0.0179      2.5852     23.3254     86.4847
  1464.4000      8.1755      2.6332      0.0890      1.0188     23.9255     89.4093
  1464.5000      8.1867      2.6283      0.0706      1.3149     24.1084     93.2699
  1464.6000      8.1867      2.5883      0.0487      3.7377     23.6130     98.0814
  1464.7000      8.1867      2.5382     -0.0273      6.7771     22.8333    103.8013
  1464.8000      8.1928      2.5043     -0.0350      8.8314     22.3352    109.5104
  1464.9000      8.1928      2.4986      0.0131      9.1756     21.8681    113.6471
  1465.0000      8.1938      2.5174      0.0860      8.0353     20.9528    114.1446
  1465.1000      8.1938      2.5416      0.0927      6.5686     19.9257    108.4280
  1465.2000      8.1938      2.5505      0.1263      6.0322     19.3308    103.4301
  1465.3000      8.1945      2.5448      0.0740      6.3777     19.0334    109.5996
  1465.4000      8.1945      2.5409      0.0606      6.6129     18.9762    122.2124
  1465.5000      8.1969      2.5401      0.0539      6.6587     19.5324    130.1097
  1465.6000      8.1969      2.5312      0.0564      7.2028     20.5254    129.1068
  1465.7000      8.1969      2.5148      0.0665      8.1965     21.2452    122.3359
  1465.8000      8.1988      2.5060      0.0442      8.7271     21.3739    117.8119
  1465.9000      8.1988      2.5111      0.0475      8.4164     21.1832    117.8853
  1466.0000      8.1985      2.5124      0.0815      8.3406     20.8958    118.8272
  1466.1000      8.1985      2.4981      0.0086      9.2058     20.6320    119.2265
  1466.2000      8.1985      2.4841      0.0086     10.0519     20.6883    121.4277
  1466.3000      8.1995      2.4799      0.0213     10.3121     21.1208    127.1048
  1466.4000      8.1995      2.4784      0.0368     10.3994     21.5528    132.7541
  1466.5000      8.2011      2.4820      0.0212     10.1845     21.7613    131.1979
  1466.6000      8.2011      2.4965      0.0368      9.3057     21.6306    123.1902
  1466.7000      8.2011      2.5170      0.0447      8.0614     21.1886    119.3239
  1466.8000      8.2010      2.5349      0.0699      6.9732     20.9959    123.2640
  1466.9000      8.2010      2.5405      0.0787      6.6337     21.4278    127.3621
  1467.0000      8.2016      2.5251      0.0347      7.5689     22.0046    127.3526
  1467.1000      8.2016      2.4932      0.0223      9.5041     22.3072    126.7212
  1467.2000      8.2016      2.4595     -0.0206     11.5476     22.5034    126.4527
  1467.3000      8.2028      2.4376     -0.0099     12.8708     22.7654    124.7167
  1467.4000      8.2028      2.4324     -0.0239     13.1895     23.1300    125.2858
  1467.5000      8.2036      2.4420     -0.0424     12.6090     23.4797    132.3952
  1467.6000      8.2036      2.4633     -0.0114     11.3132     23.4444    142.9399
  1467.7000      8.2036      2.4941     -0.0033      9.4501     22.8700    150.7490
  1467.8000      8.2043      2.5319      0.0610      7.1594     21.9527    152.2076
  1467.9000      8.2043      2.5675      0.0726      4.9984     20.9101    149.3278
  1468.0000      8.2025      2.5844      0.0997      3.9762     19.9806    145.4431
  1468.1000      8.2025      2.5731      0.0978      4.6600     19.3867    142.0655
  1468.2000      8.2025      2.5487      0.0789      6.1376     19.0934    141.3274
  1468.3000      8.2000      2.5338      0.1038      7.0424     19.0069    145.0826
  1468.4000      8.2000      2.5293      0.0959      7.3168     19.1769    151.1715
  1468.5000      8.2012      2.5310      0.0781      7.2144     19.5787    156.7463
  1468.6000      8.2012      2.5360      0.0630      6.9092     20.1060    158.6649
  1468.7000      8.2012      2.5259      0.0752      7.5213     20.6600    155.5512
  1468.8000      8.2036      2.4874      0.0100      9.8559     21.1628    150.6205
  1468.9000      8.2036      2.4329     -0.0023     13.1569     21.5830    145.8122
  1469.0000      8.2026      2.3813     -0.0109     16.2860     21.8708    142.9802
  1469.1000      8.2026      2.3449      0.0029     18.4886     22.0484    145.8303
  1469.2000      8.2026      2.3342     -0.0266     19.1389     22.2223    153.1973
  1469.3000      8.1997      2.3462     -0.0159     18.4101     22.4555    161.3264
  1469.4000      8.1997      2.3656     -0.0024     17.2388     22.7510    168.0739
  1469.5000      8.1989      2.3892      0.0097     15.8073     22.9241    170.8925
  1469.6000      8.1989      2.4219      0.0303     13.8264     22.6527    170.4359
  1469.7000      8.1989      2.4579      0.1010     11.6421     22.1207    166.7332
  1469.8000      8.2003      2.4872      0.1735      9.8686     21.7473    161.8219
  1469.9000      8.2003      2.5016      0.1981      8.9913     21.7610    162.9843
  1470.0000      8.2013      2.4957      0.2421      9.3528     22.3593    170.9645
  1470.1000      8.2013      2.4694      0.2093     10.9482     23.3471    178.8299
  1470.2000      8.2013      2.4313      0.2132     13.2519     23.9666    182.5044
  1470.3000      8.2048      2.3950      0.0985     15.4556     23.4977    183.1464
