~Version Information
VERS.                      2.0: CWLS Log ASCII Standard - VERSION 2.0
WRAP.                       NO: One line per depth step
~Well Information Block
STRT.FT               -10.2500: 
STOP.FT              2437.2500: 
STEP.FT                 0.2500: 
NULL.                -999.2500: 
COMP.          Pioneer Natural Resources: COMPANY
WELL.          Hellzonfire 32-31: WELL
FLD.           Purgatorie River: FIELD
LOC.           1993' FNL & 2265' FEL------: LOCATION
STAT.                       CO: State
CNTY.               Las Animas: COUNTY
CTRY. USA : Country
SECT. 31 : Section
TOWN. 32S : Township
RANG. 66W : Range
SRVC.          Patterson Wireline: SERVICE COMPANY
DATE.          Thu Sep 08 11:10:17 2005: LOG DATE
API.           05 071 08483 00: UNIQUE WELL ID
~Curve Information Block
DEPT.FT            0 000 00 00: Depth
CCL.                          : Casing Collar Locator
TT3.usec                      : CBL 3' Travel Time
AMP3.mV                       : CBL 3' Amplitude
GR.GAPI                       : Gamma Ray
~Parameter Information Block
~A  Depth       CCL         TT3         AMP3         GR     
# ...
   961.2500      0.0000    798.4908     10.1273     90.1890
   961.5000      0.0000    805.5062     10.0748     90.1182
   961.7500      0.0000    808.2606     10.0051     95.3093
   962.0000      0.0000    804.2744      9.9300    103.3409
   962.2500      0.0000    795.2397      9.8604    111.1401
   962.5000      0.0000    784.2833      9.8055    117.1171
   962.7500      0.0000    773.2898      9.7684    121.2106
   963.0000      0.0000    763.0619      9.7467    123.7288
   963.2500      0.0000    754.5446      9.7354    124.7032
   963.5000      0.0000    748.7155      9.7269    124.2714
   963.7500      0.0000    745.8488      9.7135    123.2950
   964.0000      0.0000    745.6789      9.6925    123.0961
   964.2500      0.0000    748.0540      9.6696    124.3674
   964.5000      0.0000    752.8720      9.6543    126.5660
   964.7500      0.0000    759.2904      9.6537    128.6876
   965.0000      0.0000    765.4872      9.6703    130.4567
   965.2500      0.0000    769.6873      9.7025    132.1556
   965.5000      0.0000    771.4130      9.7457    133.1738
   965.7500      0.0000    771.4930      9.7943    131.7377
   966.0000      0.0000    771.0315      9.8438    126.8315
   966.2500      0.0000    770.6384      9.8905    119.7588
   966.5000      0.0000    770.4259      9.9323    112.9224
   966.7500      0.0000    770.3161      9.9706    107.4008
   967.0000      0.0000    770.2286     10.0124    102.5397
   967.2500      0.0000    770.1179     10.0677     97.7918
   967.5000      0.0000    769.9742     10.1411     93.8845
   967.7500      0.0000    769.8780     10.2239     91.5397
   968.0000      0.0000    770.1121     10.2951     89.8468
   968.2500      0.0000    771.2470     10.3334     87.0711
   968.5000      0.0000    773.9792     10.3321     83.0329
   968.7500      0.0000    778.5038     10.3046     79.6717
   969.0000      0.0000    783.9029     10.2765     78.9543
   969.2500      0.0000    788.5219     10.2674     80.9079
   969.5000      0.0000    791.1546     10.2761     84.0104
   969.7500      0.0000    791.4623     10.2803     87.0555
   970.0000      0.0000    789.3913     10.2565     90.1326
   970.2500      0.0000    785.1617     10.1997     93.6040
   970.5000      0.0000    779.8882     10.1261     96.3758
   970.7500      0.0000    775.2373     10.0579     96.0273
   971.0000      0.0000    772.2868     10.0073     91.2447
   971.2500      0.0000    771.1923      9.9747     83.6787
   971.5000      0.0000    771.9297      9.9579     76.6059
   971.7500      0.0000    774.9035      9.9584     71.9227
   972.0000      0.0000    780.6367      9.9789     69.0851
   972.2500      0.0000    788.9699     10.0158     66.7016
   972.5000      0.0000    798.7054     10.0564     64.3048
   972.7500      0.0000    807.8984     10.0856     62.3841
   973.0000      0.0000    814.2947     10.0935     61.2246
   973.2500      0.0000    816.1470     10.0805     60.1025
   973.5000      0.0000    813.7266     10.0516     57.7233
   973.7500      0.0000    809.7330     10.0081     53.5445
   974.0000      0.0000    806.8716      9.9468     48.6542
   974.2500      0.0000    805.0514      9.8688     45.2160
   974.5000      0.0000    802.1533      9.7861     44.9863
   974.7500      0.0000    797.4005      9.7155     48.1891
   975.0000      0.0000    792.6399      9.6696     53.3972
   975.2500      0.0000    790.3276      9.6537     58.4306
   975.5000      0.0000    791.1718      9.6711     61.8804
   975.7500      0.0000    793.6562      9.7216     64.1111
   976.0000      0.0000    795.6696      9.7963     66.7196
   976.2500      0.0000    797.1549      9.8790     70.9633
   976.5000      0.0000    800.7306      9.9583     76.6807
   976.7500      0.0000    808.4860     10.0359     82.4480
   977.0000      0.0000    818.7934     10.1177     86.5135
   977.2500      0.0000    827.4953     10.1998     87.7718
   977.5000      0.0000    831.4744     10.2668     86.2960
   977.7500      0.0000    830.1081     10.3076     83.1816
   978.0000      0.0000    824.3427     10.3295     79.9206
   978.2500      0.0000    815.7407     10.3513     77.8515
   978.5000      0.0000    806.2280     10.3819     77.8147
   978.7500      0.0000    797.5134     10.4108     79.9624
   979.0000      0.0000    789.7891     10.4213     83.7732
   979.2500      0.0000    781.2387     10.4112     88.3298
   979.5000      0.0000    769.8414     10.3940     92.6511
   979.7500      0.0000    756.1448     10.3839     95.8528
   980.0000      0.0000    743.9226     10.3878     97.3573
   980.2500      0.0000    737.9438     10.4110     97.3148
   980.5000      0.0000    740.8632     10.4605     96.6703
   980.7500      0.0000    751.3797     10.5369     96.3502
   981.0000      0.0000    764.5744     10.6294     96.3094
   981.2500      0.0000    774.5620     10.7221     95.5413
   981.5000      0.0000    778.1917     10.8015     92.9811
   981.7500      0.0000    776.6906     10.8577     88.3261
   982.0000      0.0000    773.4898     10.8831     82.2159
   982.2500      0.0000    770.8176     10.8677     75.9914
   982.5000      0.0000    769.0280     10.7845     71.0976
   982.7500      0.0000    767.8828     10.5787     68.1705
   983.0000      0.0000    766.1787     10.1777     66.5960
   983.2500      0.0000    761.2407      9.5467     65.2285
   983.5000      0.0000    752.1403      8.7701     63.5370
   983.7500      0.0000    743.4200      8.0557     62.0977
   984.0000      0.0000    742.6302      7.5907     61.9939
   984.2500      0.0000    753.3248      7.3872     63.4795
   984.5000      0.0000    772.5527      7.3241     65.2007
   984.7500      0.0000    795.4377      7.3137     65.1298
   985.0000      0.0000    819.4344      7.3546     62.3867
   985.2500     -2.0000    843.3678      7.4536     57.9444
   985.5000      2.0000    865.3596      7.5806     53.6652
   985.7500      0.0000    883.3308      7.7088     50.9003
   986.0000      0.0000    895.3148      7.8737     49.9202
   986.2500      0.0000    898.2725      8.1867     50.4586
   986.5000      0.0000    889.7082      8.7548     52.7128
   986.7500      0.0000    872.0911      9.5347     57.6072
   987.0000      0.0000    853.0142     10.2991     65.6927
   987.2500      0.0000    839.1833     10.8189     75.7598
   987.5000      0.0000    831.0547     11.0571     85.0342
   987.7500      0.0000    823.4399     11.1363     91.1263
   988.0000      0.0000    810.4048     11.1753     93.5499
   988.2500      0.0000    790.0463     11.2128     93.2253
   988.5000      0.0000    765.9141     11.2401     91.0903
   988.7500      0.0000    744.1642     11.2450     87.6996
   989.0000      0.0000    729.0670     11.2285     83.6602
   989.2500      0.0000    720.9468     11.2034     79.7070
   989.5000      0.0000    717.5801     11.1787     76.3332
   989.7500      0.0000    716.5474     11.1434     73.6724
   990.0000      0.0000    716.3822     11.0779     71.7014
   990.2500      0.0000    716.5468     10.9797     70.4379
   990.5000      0.0000    717.1356     10.8729     70.0974
   990.7500      0.0000    718.7578     10.7871     71.2060
   991.0000      0.0000    722.3503     10.7338     74.5834
   991.2500      0.0000    728.5452     10.7061     81.0006
   991.5000      0.0000    736.8144     10.6955     90.5391
   991.7500      0.0000    745.4312     10.7045    102.1283
   992.0000      0.0000    752.6611     10.7430    113.7281
   992.2500      0.0000    758.0239     10.8154    123.2624
   992.5000      0.0000    762.2254     10.9094    129.8479
   992.7500      0.0000    765.8697     11.0002    134.2801
   993.0000      0.0000    768.6088     11.0669    137.9571
   993.2500      0.0000    770.0757     11.1047    141.2930
   993.5000      0.0000    771.3555     11.1223    143.4315
   993.7500      0.0000    774.3918     11.1306    143.4894
   994.0000      0.0000    779.6076     11.1285    141.7962
   994.2500      0.0000    784.8372     11.0908    139.8289
   994.5000      0.0000    786.5499     10.9671    138.9573
