~Version Information
VERS.                      2.0: CWLS Log ASCII Standard - VERSION 2.0
WRAP.                       NO: One line per depth step
~Well Information Block
STRT.FT               505.0000: 
STOP.FT               770.5000: 
STEP.FT                 0.1000: 
NULL.                -999.2500: 
COMP.          Pioneer Natural Resources: COMPANY
WELL.                Zed 11-23: WELL
FLD.           Purgatoire River: FIELD
LOC.           641' FNL & 952' FWL: LOCATION
CNTY.               Las Animas: COUNTY
SRVC.                Patterson: SERVICE COMPANY
DATE.          Mon Feb 27 07:12:43 2006: LOG DATE
UWI.           05 071 08702 00: UNIQUE WELL ID
STAT.                 Colorado: STATE
~Curve Information Block
DEPT.FT            0 000 00 00: Depth
DCAL.in                       : CDL Caliper
RHOB.g/cc                     : CDL Bulk Density
RHOC.g/cc                     : CDL Density Correction
DPOR.pu                       : CDL Density Porosity
GR.GAPI                       : Gamma Ray
NPOR.pu                       : Neutron Porosity
~Parameter Information Block
~A  Depth       DCAL        RHOB        RHOC        DPOR         GR         NPOR    
# ...
   553.0000      7.9816      2.1774     -0.0365     28.6426    127.2101     23.7143
   553.1000      7.9816      2.1760     -0.0069     28.7296    127.9953     21.9141
   553.2000      7.9816      2.1964      0.0374     27.4901    123.5314     24.1780
   553.3000      7.9825      2.2252      0.0207     25.7437    116.3029     28.6216
   553.4000      7.9825      2.2640      0.0488     23.3949    112.8171     30.8786
   553.5000      7.9768      2.3158      0.1106     20.2526    116.2194     30.1634
   553.6000      7.9768      2.3687      0.1692     17.0480    118.1270     28.6897
   553.7000      7.9768      2.4122      0.1751     14.4105    111.8562     28.1819
   553.8000      7.9776      2.4496      0.1598     12.1426    101.7378     28.1660
   553.9000      7.9776      2.4771      0.1612     10.4765     91.7280     27.6431
   554.0000      7.9906      2.4830      0.1281     10.1218     86.4972     27.6411
   554.1000      7.9906      2.4770      0.0816     10.4840     92.5308     28.6470
   554.2000      7.9906      2.4845      0.0836     10.0294    100.9382     29.1961
   554.3000      7.9728      2.5089      0.1050      8.5496    102.6872     28.4120
   554.4000      7.9728      2.5246      0.1049      7.6009    105.1911     25.7321
   554.5000      7.9710      2.5117      0.0609      8.3796    111.7508     22.5729
   554.6000      7.9710      2.4862      0.0288      9.9282    116.6535     22.5023
   554.7000      7.9710      2.4695      0.0553     10.9412    118.2237     26.3136
   554.8000      7.9712      2.4596      0.0678     11.5372    119.4058     30.1924
   554.9000      7.9712      2.4532      0.0382     11.9267    120.5384     29.9337
   555.0000      7.9774      2.4495      0.0788     12.1531    121.2513     25.5995
   555.1000      7.9774      2.4370      0.0579     12.9087    121.0269     21.4468
   555.2000      7.9774      2.4136      0.0153     14.3264    118.0062     21.5055
   555.3000      7.9934      2.3950      0.0153     15.4573    114.1468     25.4682
   555.4000      7.9934      2.3902     -0.0062     15.7464    111.0923     29.0383
   555.5000      7.9765      2.3979      0.0235     15.2812    111.6841     29.1258
   555.6000      7.9765      2.4144      0.0663     14.2778    120.8972     28.2359
   555.7000      7.9765      2.4311      0.0779     13.2681    130.4661     28.6256
   555.8000      7.9755      2.4410      0.0768     12.6656    129.0171     29.0572
   555.9000      7.9755      2.4403      0.0825     12.7095    122.0291     28.4724
   556.0000      7.9748      2.4265      0.0419     13.5432    118.6450     27.6371
   556.1000      7.9748      2.4114      0.0319     14.4592    120.9571     26.2843
   556.2000      7.9748      2.4048      0.0641     14.8598    127.4127     23.8314
   556.3000      7.9798      2.3989      0.0649     15.2199    131.6629     22.5186
   556.4000      7.9798      2.3931     -0.0117     15.5714    129.0153     24.2997
   556.5000      7.9715      2.3946      0.0524     15.4811    122.4572     27.5198
   556.6000      7.9715      2.3909      0.0603     15.7003    116.2230     29.6678
   556.7000      7.9715      2.3682      0.0279     17.0766    112.3524     30.7404
   556.8000      7.9781      2.3323      0.0298     19.2562    113.2657     30.1568
   556.9000      7.9781      2.2990      0.0032     21.2742    116.4919     26.7116
   557.0000      7.9657      2.2803     -0.0438     22.4035    114.6031     23.2314
   557.1000      7.9657      2.2643      0.0583     23.3776    107.8648     22.9214
   557.2000      7.9657      2.2222      0.0218     25.9302    103.6202     25.4572
   557.3000      7.9755      2.1430      0.0357     30.7303    105.5493     28.4843
   557.4000      7.9755      2.0278      0.0030     37.7068    107.6177     30.0163
   557.5000      7.9787      1.8913     -0.0949     45.9796    106.1419     30.5779
   557.6000      7.9787      1.7589     -0.0932     54.0088    107.0342     30.9774
   557.7000      7.9787      1.6359     -0.1109     61.4615    107.8558     31.3215
   557.8000      7.9771      1.5208     -0.1902     68.4373     98.9185     32.6250
   557.9000      7.9771      1.4273     -0.1674     74.1008     84.8180     34.5449
   558.0000      8.0397      1.3708     -0.1176     77.5286     73.8163     34.5344
   558.1000      8.0397      1.3573     -0.0601     78.3449     64.7708     32.1352
   558.2000      8.0397      1.3860     -0.0035     76.6081     57.1295     30.5423
   558.3000      8.1749      1.4516      0.0415     72.6304     54.0353     31.7297
   558.4000      8.1749      1.5516      0.0380     66.5701     56.9267     34.6404
   558.5000      8.2970      1.6780      0.1337     58.9104     63.7774     36.6680
   558.6000      8.2970      1.8141      0.1474     50.6588     68.8788     35.6881
   558.7000      8.2970      1.9532      0.1949     42.2329     68.4013     32.7950
   558.8000      8.3345      2.0922      0.2377     33.8060     68.6053     31.4889
   558.9000      8.3345      2.2197      0.2633     26.0763     78.3765     32.3929
   559.0000      8.2888      2.3185      0.2510     20.0903     93.7354     33.1400
   559.1000      8.2888      2.3779      0.1942     16.4894    103.5677     32.8671
   559.2000      8.2888      2.4070      0.1269     14.7258    103.7701     32.1251
   559.3000      8.0874      2.4263      0.0955     13.5546     97.1544     30.5161
   559.4000      8.0874      2.4548      0.0668     11.8327     88.6088     28.1992
   559.5000      8.0119      2.4928      0.1452      9.5289     85.0550     27.1470
   559.6000      8.0119      2.5201      0.0932      7.8734     89.3504     27.6703
   559.7000      8.0119      2.5316      0.0960      7.1730     96.9138     26.9800
   559.8000      7.9737      2.5416      0.0732      6.5712     97.5330     25.0960
   559.9000      7.9737      2.5561      0.0713      5.6925     89.0899     25.0132
   560.0000      7.9634      2.5718      0.0303      4.7403     82.3680     26.9496
   560.1000      7.9634      2.5846      0.0695      3.9633     79.0893     29.0973
   560.2000      7.9634      2.5870      0.0834      3.8158     78.0083     29.6332
   560.3000      7.9468      2.5785      0.0447      4.3310     84.3687     26.4063
   560.4000      7.9468      2.5685      0.0352      4.9409     95.5840     25.1616
   560.5000      7.9488      2.5545      0.0544      5.7874    101.6780     23.8835
   560.6000      7.9488      2.5287     -0.0195      7.3536     98.7043     21.5873
   560.7000      7.9488      2.4983     -0.0483      9.1948     92.9032     20.5293
   560.8000      7.9452      2.4746     -0.0218     10.6297     91.6588     22.7980
   560.9000      7.9452      2.4608      0.0132     11.4656     95.7523     26.4021
   561.0000      7.9465      2.4574     -0.0034     11.6720     99.3549     27.5508
   561.1000      7.9465      2.4582      0.0123     11.6258     97.3171     26.3930
   561.2000      7.9465      2.4514     -0.0165     12.0339     95.9738     25.7784
   561.3000      7.9584      2.4406     -0.0112     12.6896    102.5505     26.8145
   561.4000      7.9584      2.4373     -0.0191     12.8888    113.1011     27.8983
   561.5000      7.9699      2.4380     -0.0057     12.8470    121.8946     26.6815
   561.6000      7.9699      2.4227      0.0286     13.7740    124.5485     23.8130
   561.7000      7.9699      2.3815     -0.0465     16.2716    118.8074     22.6979
   561.8000      7.9695      2.3254      0.0177     19.6706    107.6398     24.6882
   561.9000      7.9695      2.2667      0.0041     23.2276     99.5720     27.7413
   562.0000      7.9533      2.2157      0.0087     26.3229    103.9450     29.5130
   562.1000      7.9533      2.1788     -0.0574     28.5550    114.8320     30.2073
   562.2000      7.9533      2.1547     -0.0604     30.0152    119.2301     29.8002
   562.3000      7.9502      2.1409     -0.0778     30.8518    116.9485     28.9307
   562.4000      7.9502      2.1425     -0.0553     30.7575    114.2389     29.4182
   562.5000      7.9518      2.1641      0.0182     29.4460    112.1735     30.9851
