~Version Information
VERS.                      2.0: CWLS Log ASCII Standard - VERSION 2.0
WRAP.                       NO: One line per depth step
~Well Information Block
STRT.FT                -6.7500: 
STOP.FT              2034.2500: 
STEP.FT                 0.2500: 
NULL.                -999.2500: 
COMP.          Evergreen Operating Corp.: COMPANY
WELL.           Big Pine 32-15: WELL
FLD.           Purgatorie River: FIELD
LOC.           2590 FNL & 1442 FEL--: LOCATION
STAT.                       CO: State
CNTY.               Las Animas: COUNTY
CTRY. USA : Country
SECT. 15 : Section
TOWN. 33S : township
RANG. 67W : Range
SRVC.          Patterson Wireline, Inc.: SERVICE COMPANY
DATE.          Mon Mar 24 12:45:01 2003: LOG DATE
API.           05 071 07772 00: UNIQUE WELL ID
~Curve Information Block
DEPT.FT            0 000 00 00: Depth
HVOLTA.V                      : Head Voltage Apparent
CCL.                          : Casing Collar Locator
TT3.usec                      : CBL 3' Travel Time
AMP3.mV                       : CBL 3' Amplitude
GR.GAPI                       : Gamma Ray
~Parameter Information Block
~A  Depth      HVOLTA       CCL         TT3         AMP3         GR     
# ...
   273.2500    121.2032      0.0000    772.9973      3.8462     91.3780
   273.5000    121.2245      0.0000    773.1876      3.4607     91.5450
   273.7500    121.1984      0.0000    760.9340      3.2082     90.2635
   274.0000    121.3049      0.0000    739.7219      3.0985     88.7728
   274.2500    121.1730      0.0000    716.5475      3.1477     88.3296
   274.5000    121.2259      0.0000    699.6466      3.3290     89.6839
   274.7500    121.0872      0.0000    691.5701      3.4502     92.4026
   275.0000    121.6324      0.0000    685.8801      3.2942     95.1209
   275.2500    121.2005      0.0000    673.3450      2.9691     96.9572
   275.5000    121.2053      0.0000    642.0272      2.8131     98.3830
   275.7500    121.1428      0.0000    595.7411      2.9176    100.2516
   276.0000    121.4964      0.0000    575.2756      3.0961    102.3436
   276.2500    121.2815      0.0000    616.9002      3.2613    103.4772
   276.5000    121.2513      0.0000    700.3354      3.4599    102.9460
   276.7500    121.4545      0.0000    771.7579      3.6278    101.2739
   277.0000    121.3083      0.0000    802.0111      3.6552     99.5399
   277.2500    121.1971      0.0000    799.8513      3.5851     98.4467
   277.5000    121.2547      0.0000    786.6129      3.5400     98.1735
   277.7500    121.2801      0.0000    776.4603      3.6010     98.5894
   278.0000    121.0865      0.0000    770.1533      3.8199     99.1379
   278.2500    121.2280      0.0000    756.0746      4.2114     98.8213
   278.5000    121.1964      0.0000    717.4974      4.6497     96.9780
   278.7500    121.2039      0.0000    646.1556      4.8835     94.1566
   279.0000    121.1730      0.0000    557.2754      4.8076     91.8612
   279.2500    121.2534      0.0000    482.9777      4.5651     91.2786
   279.5000    121.2019      0.0000    441.6834      4.2792     92.3175
   279.7500    121.2012      0.0000    427.3274      3.9453     93.7991
   280.0000    121.2843      0.0000    427.4702      3.6436     94.2678
   280.2500    121.1696      0.0000    434.7188      3.5712     92.5059
   280.5000    121.1153      0.0000    443.2212      3.7778     87.9569
   280.7500    121.2520      0.0000    448.4664      4.0864     81.4158
   281.0000    121.2561      0.0000    452.0561      4.3263     75.2302
   281.2500    121.2197      0.0000    458.4179      4.4773     72.1487
   281.5000    121.3103      0.0000    469.8030      4.5607     73.4335
   281.7500    121.2561      0.0000    490.6542      4.5638     77.8098
   282.0000    121.3049      0.0000    526.6606      4.5405     82.3571
   282.2500    121.4408      0.0000    571.0571      4.6111     84.8576
   282.5000    121.2808      0.0000    600.6714      4.7920     85.5985
   282.7500    121.2506      0.0000    594.9531      4.9905     86.9334
   283.0000    121.3268      0.0000    559.9932      5.1645     90.9273
   283.2500    121.2808      0.0000    526.7921      5.3436     97.1273
   283.5000    121.2527      0.0000    520.1634      5.4803    102.5371
   283.7500    121.2259      0.0000    534.9112      5.4405    104.0240
   284.0000    121.1977      0.0000    543.0581      5.2551    100.8905
   284.2500    121.2513      0.0000    526.6902      5.1537     95.0935
   284.5000    121.3371      0.0000    498.1210      5.2210     89.2494
   284.7500    121.2019      0.0000    476.2924      5.3275     84.8523
   285.0000    121.2520      0.0000    462.7868      5.4153     82.2228
   285.2500    121.2286      0.0000    450.5151      5.5686     81.3040
   285.5000    121.3948      0.0000    437.8804      5.7927     81.9088
   285.7500    121.2602      0.0000    428.4177      5.9627     83.4426
   286.0000    121.2815      0.0000    423.9016      6.0622     85.0731
   286.2500    120.8956      0.0000    422.7299      6.1964     86.4565
   286.5000    121.4113      0.0000    422.8998      6.3684     88.0437
   286.7500    121.1964      0.0000    423.6640      6.5638     90.3294
   287.0000    121.3598      0.0000    425.5447      6.8632     92.9185
   287.2500    121.3103      0.0000    430.1351      7.2697     94.7402
   287.5000    121.3907      0.0000    438.7568      7.6388     95.1767
   287.7500    121.1675      0.0000    450.8272      7.8186     94.6037
   288.0000    121.5864      0.0000    466.7050      7.8178     93.7508
   288.2500    121.7436      0.0000    490.7162      7.7495     92.8479
   288.5000    121.2307      0.0000    520.1714      7.6168     91.5982
   288.7500    121.2520      0.0000    534.8716      7.4256     89.9368
   289.0000    121.2499      0.0000    519.5999      7.2961     88.6461
   289.2500    121.1950      0.0000    487.1927      7.1683     88.9931
   289.5000    121.3364      0.0000    458.0967      6.8077     91.5146
   289.7500    121.1950      0.0000    438.6013      6.2492     95.2228
   290.0000    121.2499      0.0000    427.2617      5.7593     98.4062
   290.2500    121.3618      0.0000    422.3295      5.4053    100.2586
   290.5000    121.2774      0.0000    422.2375      5.1311    101.2800
   290.7500    121.2245      0.0000    426.6943      4.9752    102.1275
   291.0000    121.2479      0.0000    435.8391      4.9006    102.7935
   291.2500    121.0844      0.0000    447.0953      4.8418    102.9679
   291.5000    121.2547      0.0000    455.8795      4.8713    102.4083
   291.7500    121.3584      0.0000    460.0449      4.9504    100.8699
   292.0000    121.2801      0.0000    460.8984      4.8643     98.3552
   292.2500    121.3323      0.0000    460.7233      4.5858     95.3246
   292.5000    121.4429      0.0000    461.8702      4.2897     92.1733
   292.7500    121.3962      0.0000    467.5075      3.9909     88.8950
   293.0000    121.3344      0.0000    480.7430      3.5824     85.5573
   293.2500    121.1710      0.0000    501.8840      3.1597     82.6687
   293.5000    121.3660      0.0000    528.7295      2.9651     80.9121
   293.7500    121.2788      0.0000    559.3435      3.0971     80.7475
   294.0000    121.3055      0.0000    592.8323      3.4180     82.0460
   294.2500    121.3653      0.0000    629.8441      3.6888     83.8669
   294.5000    121.2801      0.0000    663.5240      3.7898     85.0463
   294.7500    121.2760      0.0000    672.7436      3.8003     85.3406
   295.0000    121.3866      0.0000    648.8481      3.8534     85.5518
   295.2500    121.1181      0.0000    613.3073      3.9972     86.3896
   295.5000    121.3605      0.0000    590.3762      4.1550     87.8502
   295.7500    121.3907      0.0000    588.9565      4.2509     89.7890
   296.0000    121.3625      0.0000    611.3461      4.3763     92.2425
   296.2500    121.1071      0.0000    652.3194      4.5906     94.7693
   296.5000    121.2286      0.0000    696.9421      4.7129     96.0461
   296.7500    121.1984      0.0000    731.8733      4.5997     94.7599
   297.0000    121.4710      0.0000    752.5419      4.3623     91.0143
   297.2500    121.3625      0.0000    761.4501      4.1583     86.5599
   297.5000    121.2836      0.0000    763.8789      4.0177     83.3186
   297.7500    121.2781      0.0000    764.1685      3.8985     81.8242
   298.0000    121.3646      0.0000    766.1119      3.7912     81.4071
   298.2500    121.2231      0.0000    773.4495      3.7384     81.6194
   298.5000    121.3392      0.0000    784.8006      3.7793     82.8132
   298.7500    121.2527      0.0000    791.5345      3.9306     85.2514
   299.0000    121.3344      0.0000    786.3183      4.1503     88.2137
   299.2500    121.2012      0.0000    771.4517      4.2588     90.2985
   299.5000    121.1730      0.0000    756.4967      4.0862     90.5141
   299.7500    121.3344      0.0000    748.2766      3.7025     89.0562
   300.0000    121.3900      0.0000    744.9865      3.3254     87.2060
   300.2500    121.1874      0.0000    741.8765      3.1446     86.5897
   300.5000    121.3097      0.0000    738.3458      3.2042     88.3385
   300.7500    121.3145      0.0000    736.0714      3.3431     92.5426
   301.0000    121.3914      0.0000    735.1380      3.4264     98.3030
