~Version Information
VERS.                      2.0: CWLS Log ASCII Standard - VERSION 2.0
WRAP.                       NO: One line per depth step
~Well Information Block
STRT.FT               830.0000: 
STOP.FT              1782.5000: 
STEP.FT                 0.1000: 
NULL.                -999.2500: 
COMP.          Pioneer Natural Resources: COMPANY
WELL.          Manville 42-14 Tr: WELL
FLD.           Purgatoire River: FIELD
LOC.           2018 FNL & 562' FEL: LOCATION
STAT.                 Colorado: State
CNTY.               Las Animas: COUNTY
CTRY. USA : Country
SECT. 14 : Section
TOWN. 32S : Township
RANG. 66W : Range
SRVC.                Patterson: SERVICE COMPANY
DATE.          Mon Sep 19 09:44:06 2005: LOG DATE
API.           05 071 08522 00: UNIQUE WELL ID
~Curve Information Block
DEPT.FT            0 000 00 00: Depth
DCAL.in                       : CDL Caliper
RHOB.g/cc                     : CDL Bulk Density
RHOC.g/cc                     : CDL Density Correction
DPOR.pu                       : CDL Density Porosity
GR.GAPI                       : Gamma Ray
NPOR.pu                       : Neutron Porosity
~Parameter Information Block
~A  Depth       DCAL        RHOB        RHOC        DPOR         GR         NPOR    
# ...
  1770.8000      7.8969      2.7407      0.0188     -5.4951   -999.2500   -999.2500
  1770.9000      7.8969      2.6906     -0.0757     -2.4604   -999.2500   -999.2500
  1771.0000      7.9578      2.6563     -0.0544     -0.3824   -999.2500   -999.2500
  1771.1000      7.9578      2.6581      0.0406     -0.4918   -999.2500   -999.2500
  1771.2000      7.9578      2.6950      0.0667     -2.7289   -999.2500   -999.2500
  1771.3000      7.9865      2.7480      0.1223     -5.9380   -999.2500   -999.2500
  1771.4000      7.9865      2.7784      0.1494     -7.7831   -999.2500   -999.2500
  1771.5000      7.9385      2.7685      0.1488     -7.1812   -999.2500   -999.2500
  1771.6000      7.9385      2.7455      0.1163     -5.7856   -999.2500   -999.2500
  1771.7000      7.9385      2.7333      0.2001     -5.0478   -999.2500   -999.2500
  1771.8000      7.8742      2.7213      0.1666     -4.3192   -999.2500   -999.2500
  1771.9000      7.8742      2.7098      0.1123     -3.6239   -999.2500   -999.2500
  1772.0000      7.8769      2.7200      0.1002     -4.2412   -999.2500   -999.2500
  1772.1000      7.8769      2.7525      0.0660     -6.2129   -999.2500   -999.2500
  1772.2000      7.8769      2.7903      0.0414     -8.5000   -999.2500   -999.2500
  1772.3000      7.8696      2.8256      0.0780    -10.6398   -999.2500   -999.2500
  1772.4000      7.8696      2.8431      0.1863    -11.7020   -999.2500   -999.2500
  1772.5000      7.8881      2.8207      0.1390    -10.3483   -999.2500   -999.2500
  1772.6000      7.8881      2.7664      0.1162     -7.0531   -999.2500   -999.2500
  1772.7000      7.8881      2.7051      0.0279     -3.3410   -999.2500   -999.2500
  1772.8000      7.9870      2.6547     -0.0458     -0.2836   -999.2500   -999.2500
  1772.9000      7.9870      2.6126     -0.0470      2.2681   -999.2500   -999.2500
  1773.0000      7.9997      2.5656     -0.0524      5.1181   -999.2500   -999.2500
  1773.1000      7.9997      2.5234     -0.0630      7.6754   -999.2500   -999.2500
  1773.2000      7.9997      2.5041     -0.0431      8.8447   -999.2500   -999.2500
  1773.3000      7.9969      2.4979      0.0113      9.2183   -999.2500   -999.2500
  1773.4000      7.9969      2.4831      0.0163     10.1167   -999.2500   -999.2500
  1773.5000      8.0079      2.4611     -0.0348     11.4476   -999.2500   -999.2500
  1773.6000      8.0079      2.4511     -0.0186     12.0570   -999.2500   -999.2500
  1773.7000      8.0079      2.4568      0.0140     11.7099   -999.2500   -999.2500
  1773.8000      7.9958      2.4664      0.0477     11.1254   -999.2500   -999.2500
  1773.9000      7.9958      2.4719      0.0783     10.7956   -999.2500   -999.2500
  1774.0000      7.9951      2.4763      0.0911     10.5285   -999.2500   -999.2500
  1774.1000      7.9951      2.4835      0.1281     10.0887   -999.2500   -999.2500
  1774.2000      7.9951      2.4895      0.1343      9.7297   -999.2500   -999.2500
  1774.3000      7.9680      2.4936      0.1216      9.4810   -999.2500   -999.2500
  1774.4000      7.9680      2.5049      0.1303      8.7960   -999.2500   -999.2500
  1774.5000      7.9410      2.5230      0.1639      7.6976   -999.2500   -999.2500
  1774.6000      7.9410      2.5339      0.1393      7.0345   -999.2500   -999.2500
  1774.7000      7.9410      2.5351      0.1390      6.9647   -999.2500   -999.2500
  1774.8000      7.9332      2.5362      0.1640      6.8979   -999.2500   -999.2500
  1774.9000      7.9332      2.5407      0.1490      6.6262   -999.2500   -999.2500
  1775.0000      8.0249      2.5443      0.1755      6.4051   -999.2500   -999.2500
  1775.1000      8.0249      2.5388      0.1412      6.7384   -999.2500   -999.2500
  1775.2000      8.0249      2.5243      0.0884      7.6176   -999.2500   -999.2500
  1775.3000      8.1714      2.5136      0.1089      8.2685   -999.2500   -999.2500
  1775.4000      8.1714      2.5093      0.1360      8.5259   -999.2500   -999.2500
  1775.5000      8.1386      2.5002      0.1099      9.0780   -999.2500   -999.2500
  1775.6000      8.1386      2.4787      0.1188     10.3791   -999.2500   -999.2500
  1775.7000      8.1386      2.4498      0.0700     12.1361   -999.2500   -999.2500
  1775.8000      8.0346      2.4271      0.0273     13.5065   -999.2500   -999.2500
  1775.9000      8.0346      2.4249      0.0219     13.6407   -999.2500   -999.2500
  1776.0000      7.9794      2.4463      0.0701     12.3478   -999.2500   -999.2500
  1776.1000      7.9794      2.4723      0.0658     10.7694   -999.2500   -999.2500
  1776.2000      7.9794      2.4807      0.1154     10.2635   -999.2500   -999.2500
  1776.3000      7.9741      2.4734      0.1005     10.7040   -999.2500   -999.2500
  1776.4000      7.9741      2.4730      0.0611     10.7263   -999.2500   -999.2500
  1776.5000      7.9721      2.4888      0.0883      9.7688   -999.2500   -999.2500
  1776.6000      7.9721      2.5032      0.1337      8.8994   -999.2500   -999.2500
  1776.7000      7.9721      2.5015      0.1236      8.9995   -999.2500   -999.2500
  1776.8000      7.9826      2.4886      0.0958      9.7825   -999.2500   -999.2500
  1776.9000      7.9826      2.4776      0.0608     10.4461   -999.2500   -999.2500
  1777.0000      7.9745      2.4761      0.0629     10.5412   -999.2500   -999.2500
  1777.1000      7.9745      2.4787      0.0674     10.3842   -999.2500   -999.2500
  1777.2000      7.9745      2.4782      0.0998     10.4145   -999.2500   -999.2500
  1777.3000      7.9933      2.4773      0.0772     10.4641   -999.2500   -999.2500
  1777.4000      7.9933      2.4815      0.0954     10.2092   -999.2500   -999.2500
  1777.5000      7.9975      2.4849      0.1240     10.0041   -999.2500   -999.2500
  1777.6000      7.9975      2.4841      0.0798     10.0521   -999.2500   -999.2500
  1777.7000      7.9975      2.4833      0.0998     10.1029   -999.2500   -999.2500
  1777.8000      8.0455      2.4786      0.0771     10.3878   -999.2500   -999.2500
  1777.9000      8.0455      2.4610      0.0982     11.4566   -999.2500   -999.2500
  1778.0000      8.0718      2.4327      0.0557     13.1676   -999.2500   -999.2500
  1778.1000      8.0718      2.4106      0.0296     14.5075   -999.2500   -999.2500
  1778.2000      8.0718      2.4036      0.0620     14.9322   -999.2500   -999.2500
  1778.3000      7.9944      2.4048      0.0546     14.8589   -999.2500   -999.2500
  1778.4000      7.9944      2.4079      0.0813     14.6753   -999.2500   -999.2500
  1778.5000      7.9139      2.4082      0.0634     14.6526   -999.2500   -999.2500
  1778.6000      7.9139      2.4078      0.0481     14.6803   -999.2500   -999.2500
  1778.7000      7.9139      2.4189      0.0421     14.0061   -999.2500   -999.2500
  1778.8000      7.9153      2.4599      0.0754     11.5228   -999.2500   -999.2500
  1778.9000      7.9153      2.5591      0.0590      5.5109   -999.2500   -999.2500
  1779.0000      7.9425      2.6030      0.1053      2.8504   -999.2500   -999.2500
  1779.1000      7.9425      2.1842      0.4735     28.2299   -999.2500   -999.2500
  1779.2000      7.9425      1.2414      0.0100     85.3687   -999.2500   -999.2500
  1779.3000      7.9342      0.4210      0.0100    135.0917   -999.2500   -999.2500
  1779.4000      7.9342      0.0799   -999.2500    155.7617   -999.2500   -999.2500
  1779.5000      7.6065      0.0082   -999.2500    160.1068   -999.2500   -999.2500
  1779.6000      7.6065      0.0004   -999.2500    160.5789   -999.2500   -999.2500
  1779.7000      7.6065      0.0000   -999.2500    160.6061   -999.2500   -999.2500
  1779.8000      5.3928      0.0000   -999.2500    160.6061   -999.2500   -999.2500
  1779.9000      5.3928   -999.2500   -999.2500   -999.2500   -999.2500   -999.2500
  1780.0000      5.0937   -999.2500   -999.2500   -999.2500   -999.2500   -999.2500
  1780.1000      5.0937   -999.2500   -999.2500   -999.2500   -999.2500   -999.2500
  1780.2000      5.0937   -999.2500   -999.2500   -999.2500   -999.2500   -999.2500
  1780.3000   -999.2500   -999.2500   -999.2500   -999.2500   -999.2500   -999.2500
