~Version Information
VERS.                      2.0: CWLS Log ASCII Standard - VERSION 2.0
WRAP.                       NO: One line per depth step
~Well Information Block
STRT.FT                -6.7500: 
STOP.FT              1661.0000: 
STEP.FT                 0.2500: 
NULL.                -999.2500: 
COMP.          Pioneer Natural Resources: COMPANY
WELL.           Pedri 42-33 Tr: WELL
FLD.           Purgatorie River: FIELD
LOC.           1933'' FNL & 662' FEL--: LOCATION
PROV.                       CO: PROVINCE
CNTY.               Las Animas: COUNTRY
SRVC.          Patterson Wireline: SERVICE COMPANY
DATE.          Tue Dec 27 08:53:52 2005: LOG DATE
UWI.           05 071 08640 00: UNIQUE WELL ID
~Curve Information Block
DEPT.FT            0 000 00 00: Depth
CCL.                          : Casing Collar Locator
TT3.usec                      : CBL 3' Travel Time
AMP3.mV                       : CBL 3' Amplitude
GR.GAPI                       : Gamma Ray
~Parameter Information Block
~A  Depth       CCL         TT3         AMP3         GR     
# ...
   227.7500      0.0000    771.4840      8.2301     77.1941
   228.0000      0.0000    768.9785      8.1847     78.0242
   228.2500      0.0000    767.6783      8.1508     79.5971
   228.5000      0.0000    768.0735      8.1237     80.6360
   228.7500      0.0000    769.3718      8.1007     79.5643
   229.0000      0.0000    770.3830      8.0825     75.9213
   229.2500      0.0000    770.7917      8.0735     70.6946
   229.5000      0.0000    771.4440      8.0782     65.6711
   229.7500      0.0000    773.2335      8.0941     62.6164
   230.0000      0.0000    776.0483      8.1112     62.8847
   230.2500      0.0000    779.0793      8.1191     67.0984
   230.5000      0.0000    781.8580      8.1145     74.4585
   230.7500      0.0000    784.6151      8.0994     82.5843
   231.0000      0.0000    787.6205      8.0756     88.9896
   231.2500      0.0000    790.3723      8.0446     93.0015
   231.5000      0.0000    791.7057      8.0086     95.8945
   231.7500      0.0000    790.9249      7.9691     99.2554
   232.0000      0.0000    788.6098      7.9241    103.6319
   232.2500      0.0000    786.0653      7.8687    108.3734
   232.5000      0.0000    784.1538      7.7977    112.0146
   232.7500      0.0000    782.8108      7.7109    113.0159
   233.0000      0.0000    781.2923      7.6173    110.9284
   233.2500      0.0000    778.5934      7.5332    106.9004
   233.5000      0.0000    774.0053      7.4738    102.7630
   233.7500      0.0000    767.9089      7.4460     99.7917
   234.0000      0.0000    762.0957      7.4478     98.3782
   234.2500      0.0000    758.6570      7.4704     98.2099
   234.5000      0.0000    758.0119      7.5017     98.4227
   234.7500      0.0000    758.2280      7.5301     98.0460
   235.0000      0.0000    756.7856      7.5519     96.8772
   235.2500      0.0000    752.9700      7.5692     95.8754
   235.5000      0.0000    748.2229      7.5829     96.3050
   235.7500      0.0000    744.4161      7.5900     98.3208
   236.0000      0.0000    742.3246      7.5895    100.7477
   236.2500      0.0000    741.6129      7.5863    102.5690
   236.5000      0.0000    741.6053      7.5877    104.2734
   236.7500      0.0000    741.8000      7.6000    107.1490
   237.0000      0.0000    741.9394      7.6273    111.4385
   237.2500      0.0000    741.9332      7.6678    115.7227
   237.5000      0.0000    741.7873      7.7116    118.0544
   237.7500      0.0000    741.5333      7.7454    117.3325
   238.0000      0.0000    741.1366      7.7625    113.8556
   238.2500      0.0000    740.4390      7.7679    109.1216
   238.5000      0.0000    739.1251      7.7745    105.0536
   238.7500      0.0000    736.7878      7.7942    102.8276
   239.0000      0.0000    733.2835      7.8307    102.0767
   239.2500      0.0000    729.3283      7.8801    101.2572
   239.5000      0.0000    726.7508      7.9378     99.0719
   239.7500      0.0000    727.8422      8.0014     95.6797
   240.0000      0.0000    733.9162      8.0689     92.4703
   240.2500      0.0000    743.9548      8.1367     90.6216
   240.5000      0.0000    754.5242      8.1999     90.0494
   240.7500      0.0000    761.6372      8.2539     89.7595
   241.0000      0.0000    763.4623      8.2923     88.9412
   241.2500      0.0000    761.4130      8.3008     87.5434
   241.5000      0.0000    758.2603      8.2534     85.9741
   241.7500      0.0000    755.1729      8.1311     84.4581
   242.0000      0.0000    751.8391      7.9594     82.7383
   242.2500      0.0000    750.2780      7.8057     80.3582
   242.5000      0.0000    756.4091      7.7039     77.3165
   242.7500      0.0000    774.9250      7.6008     74.3901
   243.0000      0.0000    803.2596      7.4234     72.5951
   243.2500      0.0000    833.4675      7.1796     72.5167
   243.5000      0.0000    859.6063      6.9448     74.3914
   243.7500      0.0000    880.8073      6.7748     78.3372
   244.0000     -2.0000    898.1353      6.6793     83.8154
   244.2500      2.0000    911.0143      6.6633     89.1497
   244.5000      0.0000    915.9773      6.7640     92.3979
   244.7500      0.0000    907.7112      7.0390     92.8895
   245.0000      0.0000    883.6511      7.5056     91.8316
   245.2500      0.0000    849.4579      8.0733     91.6238
   245.5000      0.0000    817.9340      8.5618     94.4702
   245.7500      0.0000    800.2355      8.8274    100.9059
   246.0000      0.0000    798.2789      8.8670    109.2316
   246.2500      0.0000    805.6916      8.7831    116.6928
   246.5000      0.0000    814.6286      8.6811    121.4248
   246.7500      0.0000    820.8952      8.6162    123.1573
   247.0000      0.0000    824.0407      8.6004    122.4180
   247.2500      0.0000    824.8464      8.6216    119.8161
   247.5000      0.0000    823.3979      8.6573    116.0475
   247.7500      0.0000    818.9290      8.6844    111.8656
   248.0000      0.0000    811.1238      8.6887    107.8380
   248.2500      0.0000    801.3092      8.6691    104.4913
   248.5000      0.0000    791.4282      8.6380    102.4697
   248.7500      0.0000    781.4816      8.6145    101.9813
   249.0000      0.0000    769.7849      8.6143    102.1545
   249.2500      0.0000    757.1513      8.6426    101.5388
   249.5000      0.0000    749.1891      8.6960     99.4134
   249.7500      0.0000    752.0635      8.7680     96.3223
   250.0000      0.0000    765.6979      8.8501     93.2321
   250.2500      0.0000    782.0696      8.9303     90.4872
   250.5000      0.0000    790.8347      8.9976     87.8805
   250.7500      0.0000    787.0840      9.0484     85.6613
   251.0000      0.0000    774.1553      9.0852     85.0685
   251.2500      0.0000    759.6941      9.1052     87.5377
   251.5000      0.0000    749.8269      9.0972     93.1885
   251.7500      0.0000    746.8050      9.0525    100.0187
   252.0000      0.0000    750.1324      8.9791    104.8699
   252.2500      0.0000    757.8041      8.9007    105.6454
   252.5000      0.0000    766.4468      8.8463    102.6910
   252.7500      0.0000    772.2125      8.8409     98.0234
   253.0000      0.0000    773.4821      8.8982     93.5687
   253.2500      0.0000    772.8719      9.0107     90.2802
   253.5000      0.0000    774.9130      9.1445     88.3107
   253.7500      0.0000    780.3625      9.2523     87.3462
   254.0000      0.0000    783.7838      9.3022     86.8382
   254.2500      0.0000    778.9756      9.2936     86.4005
   254.5000      0.0000    767.2191      9.2473     86.1938
   254.7500      0.0000    758.5563      9.1863     86.7951
   255.0000      0.0000    763.7386      9.1262     88.3866
   255.2500      0.0000    784.7597      9.0766     89.9795
   255.5000      0.0000    812.7761      9.0416     89.8848
   255.7500      0.0000    834.5725      9.0146     87.4424
   256.0000      0.0000    841.4702      8.9765     84.0881
   256.2500      0.0000    833.6588      8.9074     82.1588
   256.5000      0.0000    817.9453      8.8046     82.6441
   256.7500      0.0000    802.1775      8.6877     84.5262
   257.0000      0.0000    790.9509      8.5832     86.1507
   257.2500      0.0000    784.8507      8.5039     86.5053
   257.5000      0.0000    782.2619      8.4447     85.1121
   257.7500      0.0000    781.3917      8.3954     81.5036
   258.0000      0.0000    781.1626      8.3515     75.4702
   258.2500      0.0000    781.1564      8.3120     67.7221
   258.5000      0.0000    781.2805      8.2722     60.0492
   258.7500      0.0000    781.5536      8.2256     54.7521
   259.0000      0.0000    782.0659      8.1731     53.5907
   259.2500      0.0000    783.0272      8.1244     56.8107
   259.5000      0.0000    784.6689      8.0868     63.1018
   259.7500      0.0000    786.7983      8.0562     70.7025
   260.0000      0.0000    788.2317      8.0185     78.6629
   260.2500      0.0000    786.8733      7.9601     87.1023
   260.5000      0.0000    780.8753      7.8768     96.3376
   260.7500      0.0000    770.3117      7.7743    105.9067
   261.0000      0.0000    758.1904      7.6596    114.4830
