~Version Information
VERS.                      2.0: CWLS Log ASCII Standard - VERSION 2.0
WRAP.                       NO: One line per depth step
~Well Information Block
STRT.FT                -6.5000: 
STOP.FT              1317.5000: 
STEP.FT                 0.2500: 
NULL.                -999.2500: 
COMP.          Pioneer Natural Resources: COMPANY
WELL.              Dicks 32-5R: WELL
FLD.           Purgatorie River: FIELD
LOC.           1485' FNL & 1684' FEL--: LOCATION
PROV.                       CO: PROVINCE
CNTY.               Las Animas: COUNTRY
SRVC.          Patterson Wireline: SERVICE COMPANY
DATE.          Tue Dec 13 09:33:22 2005: LOG DATE
UWI.           05 071 08596 00: UNIQUE WELL ID
~Curve Information Block
DEPT.FT            0 000 00 00: Depth
CCL.                          : Casing Collar Locator
TT3.usec                      : CBL 3' Travel Time
AMP3.mV                       : CBL 3' Amplitude
GR.GAPI                       : Gamma Ray
~Parameter Information Block
~A  Depth       CCL         TT3         AMP3         GR     
# ...
   161.0000      0.0000    280.5064     82.2208     97.1396
   161.2500      0.0000    280.4948     82.1850     99.3541
   161.5000      0.0000    280.4842     82.1618    101.8206
   161.7500      0.0000    280.4777     82.1525    104.0720
   162.0000      0.0000    280.4777     82.1583    105.5843
   162.2500      0.0000    280.4850     82.1848    105.9412
   162.5000      0.0000    280.4988     82.2377    104.8918
   162.7500      0.0000    280.5169     82.3147    102.3630
   163.0000      0.0000    280.5365     82.4043     98.6678
   163.2500      0.0000    280.5545     82.4889     94.5603
   163.5000      0.0000    280.5696     82.5486     90.6999
   163.7500      0.0000    280.5819     82.5683     87.0674
   164.0000      0.0000    280.5914     82.5486     83.2442
   164.2500      0.0000    280.5969     82.5077     79.4575
   164.5000      0.0000    280.5974     82.4648     76.9879
   164.7500      0.0000    280.5931     82.4241     77.2522
   165.0000      0.0000    280.5840     82.3803     80.6763
   165.2500      0.0000    280.5689     82.3330     86.5283
   165.5000      0.0000    280.5479     82.2887     93.4331
   165.7500      0.0000    280.5239     82.2516     99.9319
   166.0000      0.0000    280.5016     82.2212    104.9426
   166.2500      0.0000    280.4857     82.1985    108.0776
   166.5000      0.0000    280.4792     82.1912    109.6526
   166.7500      0.0000    280.4825     82.2100    110.2973
   167.0000      0.0000    280.4929     82.2612    110.4010
   167.2500      0.0000    280.5060     82.3422    109.9236
   167.5000      0.0000    280.5172     82.4380    108.9063
   167.7500      0.0000    280.5231     82.5219    107.9065
   168.0000      0.0000    280.5219     82.5676    107.4222
   168.2500      0.0000    280.5148     82.5657    107.0599
   168.5000      0.0000    280.5048     82.5245    105.7505
   168.7500      0.0000    280.4956     82.4549    102.6966
   169.0000      0.0000    280.4895     82.3603     97.9811
   169.2500      0.0000    280.4859     82.2464     92.8259
   169.5000      0.0000    280.4815     82.1347     89.5811
   169.7500      0.0000    280.4728     82.0576     90.7736
   170.0000      0.0000    280.4587     82.0314     97.2992
   170.2500      0.0000    280.4418     82.0413    107.5169
   170.5000      0.0000    280.4270     82.0606    118.3850
   170.7500      0.0000    280.4192     82.0786    127.2512
   171.0000      0.0000    280.4207     82.1053    132.4527
   171.2500      0.0000    280.4297     82.1549    133.1137
   171.5000      0.0000    280.4417     82.2298    129.4745
   171.7500      0.0000    280.4525     82.3111    123.3402
   172.0000      0.0000    280.4607     82.3672    117.2505
   172.2500      0.0000    280.4666     82.3764    112.8305
   172.5000      0.0000    280.4705     82.3431    110.2796
   172.7500      0.0000    280.4727     82.2886    109.1813
   173.0000      0.0000    280.4732     82.2295    108.7480
   173.2500      0.0000    280.4718     82.1677    107.3956
   173.5000      0.0000    280.4673     82.0997    103.7864
   173.7500      0.0000    280.4588     82.0309     98.9364
   174.0000      0.0000    280.4473     81.9802     95.9707
   174.2500      0.0000    280.4362     81.9670     97.0133
   174.5000      0.0000    280.4295     81.9744    101.1314
   174.7500      0.0000    280.4320     81.9029    105.7166
   175.0000      0.0000    280.4521     81.5424    109.0030
   175.2500      0.0000    280.5179     80.6227    110.8046
   175.5000      0.0000    280.7041     78.9588    111.7095
   175.7500      0.0000    281.1421     76.5792    112.4910
   176.0000      0.0000    281.9632     73.7083    113.9873
   176.2500      0.0000    283.1736     70.7005    116.6929
   176.5000      0.0000    284.5735     68.0702    120.1812
   176.7500      0.0000    285.8423     66.3934    123.1224
   177.0000      0.0000    286.7402     65.9027    123.9310
   177.2500      0.0000    287.2303     66.2399    121.4686
   177.5000      0.0000    287.4240     66.7799    115.5048
   177.7500     -2.0000    287.4525     67.1111    107.0796
   178.0000      2.0000    287.3901     67.1107     98.5943
   178.2500      0.0000    287.2461     66.7616     92.8189
   178.5000      0.0000    286.9804     66.1362     91.0333
   178.7500      0.0000    286.5279     65.5761     92.3483
   179.0000      0.0000    285.8309     65.7206     95.2384
   179.2500      0.0000    284.8776     67.1735     99.1690
   179.5000      0.0000    283.7317     70.0051    104.0250
   179.7500      0.0000    282.5384     73.5541    108.6759
   180.0000      0.0000    281.4815     76.8095    111.2545
   180.2500      0.0000    280.7013     79.0721    110.6960
   180.5000      0.0000    280.2292     80.2785    107.3028
   180.7500      0.0000    279.9969     80.7759    102.0709
   181.0000      0.0000    279.9030     80.9308     96.1669
   181.2500      0.0000    279.8699     80.9492     91.0539
   181.5000      0.0000    279.8567     80.9152     88.4389
   181.7500      0.0000    279.8475     80.8742     89.4587
   182.0000      0.0000    279.8394     80.8640     93.7436
   182.2500      0.0000    279.8342     80.9026     99.4762
   182.5000      0.0000    279.8336     80.9772    104.5016
   182.7500      0.0000    279.8376     81.0621    107.4295
   183.0000      0.0000    279.8458     81.1417    108.1432
   183.2500      0.0000    279.8581     81.2127    107.7561
   183.5000      0.0000    279.8743     81.2751    107.7496
   183.7500      0.0000    279.8938     81.3298    108.6581
   184.0000      0.0000    279.9148     81.3822    109.8698
   184.2500      0.0000    279.9345     81.4346    110.8881
   184.5000      0.0000    279.9500     81.4758    112.0010
   184.7500      0.0000    279.9591     81.4890    113.2850
   185.0000      0.0000    279.9619     81.4707    113.7289
   185.2500      0.0000    279.9601     81.4386    111.9690
   185.5000      0.0000    279.9566     81.4157    107.7225
   185.7500      0.0000    279.9547     81.4072    102.3922
   186.0000      0.0000    279.9567     81.4001     98.3330
   186.2500      0.0000    279.9623     81.3861     97.3258
   186.5000      0.0000    279.9694     81.3761     99.5301
   186.7500      0.0000    279.9769     81.3889    103.7498
   187.0000      0.0000    279.9871     81.4319    108.3722
   187.2500      0.0000    280.0024     81.4960    111.7555
   187.5000      0.0000    280.0228     81.5658    112.1255
   187.7500      0.0000    280.0443     81.6317    108.1276
   188.0000      0.0000    280.0616     81.6893    100.2694
   188.2500      0.0000    280.0724     81.7321     91.6797
   188.5000      0.0000    280.0786     81.7494     86.5027
   188.7500      0.0000    280.0838     81.7344     86.7465
   189.0000      0.0000    280.0894     81.6931     90.8074
   189.2500      0.0000    280.0932     81.6427     95.4199
   189.5000      0.0000    280.0933     81.6008     98.7556
   189.7500      0.0000    280.0909     81.5763    101.2474
   190.0000      0.0000    280.0899     81.5699    104.0246
   190.2500      0.0000    280.0915     81.5799    107.4277
   190.5000      0.0000    280.0921     81.6002    111.0030
   190.7500      0.0000    280.0879     81.6182    114.1722
   191.0000      0.0000    280.0791     81.6208    116.4470
   191.2500      0.0000    280.0689     81.6068    117.1743
   191.5000      0.0000    280.0600     81.5904    115.6601
   191.7500      0.0000    280.0526     81.5900    111.8926
   192.0000      0.0000    280.0471     81.6130    106.8918
   192.2500      0.0000    280.0448     81.6552    101.8957
   192.5000      0.0000    280.0480     81.7105     97.2111
   192.7500      0.0000    280.0575     81.7747     92.2360
   193.0000      0.0000    280.0717     81.8376     86.6635
   193.2500      0.0000    280.0857     81.8789     81.3820
   193.5000      0.0000    280.0936     81.8786     78.1055
   193.7500      0.0000    280.0920     81.8308     78.2247
   194.0000      0.0000    280.0820     81.7496     81.9994
   194.2500      0.0000    280.0673     81.6632     88.6544
