~Version Information
VERS.                      2.0: CWLS Log ASCII Standard - VERSION 2.0
WRAP.                       NO: One line per depth step
~Well Information Block
STRT.FT                -8.5000: 
STOP.FT              2591.0000: 
STEP.FT                 0.2500: 
NULL.                -999.2500: 
COMP.          Pioneer Natural Resources: COMPANY
WELL.             Aviator 12-4: WELL
FLD.           Purgatorie River: FIELD
LOC.           1969' FNL & 732' FWL--: LOCATION
CNTY.               Las Animas: COUNTY
SRVC.          Patterson Wireline: SERVICE COMPANY
DATE.          Wed Apr 19 09:09:26 2006: LOG DATE
UWI.           05 071 08714 00: UNIQUE WELL ID
STAT.                       CO: STATE
~Curve Information Block
DEPT.FT            0 000 00 00: Depth
CCL.                          : Casing Collar Locator
TT3.usec                      : CBL 3' Travel Time
AMP3.mV                       : CBL 3' Amplitude
GR.GAPI                       : Gamma Ray
~Parameter Information Block
~A  Depth       CCL         TT3         AMP3         GR     
# ...
  1700.0000      0.0000    677.2380      4.9292     98.2219
  1700.2500      0.0000    674.5660      4.4204     97.1405
  1700.5000      0.0000    678.5337      3.9198     99.6601
  1700.7500      0.0000    686.9724      3.4263    106.2338
  1701.0000      0.0000    695.0567      2.9697    116.1196
  1701.2500      0.0000    699.8305      2.5808    126.7965
  1701.5000      0.0000    701.3197      2.2755    134.3720
  1701.7500      0.0000    700.9417      2.0585    135.6868
  1702.0000      0.0000    700.1024      1.9332    130.4552
  1702.2500      0.0000    700.0060      1.9000    121.1798
  1702.5000      0.0000    701.5828      1.9448    111.2233
  1702.7500      0.0000    704.5191      2.0334    103.1828
  1703.0000      0.0000    706.3065      2.1219     98.3825
  1703.2500      0.0000    703.4512      2.1768     96.7726
  1703.5000      0.0000    694.6176      2.1915     97.0324
  1703.7500      0.0000    681.9724      2.1869     97.4626
  1704.0000      0.0000    668.5578      2.1967     97.4470
  1704.2500      0.0000    654.3247      2.2433     97.8187
  1704.5000      0.0000    635.0864      2.3210     99.3580
  1704.7500      0.0000    605.9641      2.3973    101.3497
  1705.0000      0.0000    566.9957      2.4320    102.3111
  1705.2500      0.0000    526.0041      2.4087    101.9188
  1705.5000      0.0000    494.7911      2.3575    101.5843
  1705.7500      0.0000    480.7306      2.3378    103.1616
  1706.0000      0.0000    481.5215      2.3793    107.3947
  1706.2500      0.0000    489.0697      2.4443    113.4061
  1706.5000      0.0000    498.7618      2.4662    119.2358
  1706.7500      0.0000    513.1019      2.4198    123.0172
  1707.0000      0.0000    534.7108      2.3349    124.2530
  1707.2500      0.0000    557.6732      2.2522    124.1640
  1707.5000      0.0000    569.2465      2.1886    124.6537
  1707.7500      2.0000    561.2567      2.1448    126.8278
  1708.0000      0.0000    539.0107      2.1267    130.2681
  1708.2500      0.0000    518.6520      2.1446    133.4697
  1708.5000      0.0000    516.0711      2.1882    134.9650
  1708.7500      0.0000    536.8510      2.2101    134.1216
  1709.0000      0.0000    573.7704      2.1556    131.1404
  1709.2500      0.0000    612.5933      2.0219    126.7349
  1709.5000      0.0000    641.5188      1.8742    121.8081
  1709.7500      0.0000    656.8121      1.7888    117.0648
  1710.0000      0.0000    661.3046      1.7866    112.8357
  1710.2500      0.0000    659.8389      1.8289    109.2755
  1710.5000      0.0000    656.1400      1.8639    106.4334
  1710.7500      0.0000    651.7150      1.8665    104.1054
  1711.0000      0.0000    646.3914      1.8440    102.0325
  1711.2500      0.0000    640.0142      1.8172    100.4321
  1711.5000      0.0000    633.2062      1.8005    100.0798
  1711.7500      0.0000    626.0558      1.7967    101.4723
  1712.0000      0.0000    616.4844      1.8027    103.8586
  1712.2500      0.0000    600.5472      1.8149    105.6072
  1712.5000      0.0000    575.1984      1.8293    105.8888
  1712.7500      0.0000    541.7853      1.8427    105.5953
  1713.0000      0.0000    506.9259      1.8536    106.1297
  1713.2500      0.0000    479.0922      1.8647    107.5442
  1713.5000      0.0000    464.0735      1.8850    108.3332
  1713.7500      0.0000    464.0949      1.9272    107.0681
  1714.0000      0.0000    480.2084      2.0030    104.1201
  1714.2500      0.0000    512.7652      2.1194    101.8838
  1714.5000      0.0000    557.8036      2.2799    103.1317
  1714.7500      0.0000    604.5764      2.4868    108.6154
  1715.0000      0.0000    640.1057      2.7430    116.1711
  1715.2500      0.0000    657.8102      3.0517    122.5844
  1715.5000      0.0000    661.2908      3.4121    126.4310
  1715.7500      0.0000    660.0326      3.8131    128.7899
  1716.0000      0.0000    662.1446      4.2324    131.5192
  1716.2500      0.0000    670.0760      4.6456    135.7294
  1716.5000      0.0000    680.3926      5.0349    141.8036
  1716.7500      0.0000    685.6602      5.3895    149.5219
  1717.0000      0.0000    677.7752      5.6948    157.6380
  1717.2500      0.0000    653.2230      5.9267    164.2719
  1717.5000      0.0000    617.4168      6.0609    168.4367
  1717.7500      0.0000    583.1773      6.0937    170.7356
  1718.0000      0.0000    563.8168      6.0508    172.1537
  1718.2500      0.0000    567.0786      5.9774    172.7471
  1718.5000      0.0000    592.8395      5.9136    172.0645
  1718.7500      0.0000    633.1210      5.8722    170.2139
  1719.0000      0.0000    675.2803      5.8304    167.7052
  1719.2500      0.0000    709.3967      5.7492    164.6595
  1719.5000      0.0000    733.4845      5.6067    161.0132
  1719.7500      0.0000    750.0809      5.4172    157.2786
  1720.0000      0.0000    759.7986      5.2188    154.4050
  1720.2500      0.0000    761.2576      5.0454    152.7612
  1720.5000      0.0000    755.5564      4.9120    151.4466
  1720.7500      0.0000    747.4100      4.8188    148.8450
  1721.0000      0.0000    741.8899      4.7619    144.3076
  1721.2500      0.0000    741.0866      4.7375    139.2756
  1721.5000      0.0000    743.0348      4.7453    136.2261
  1721.7500      0.0000    742.4471      4.7910    136.3871
  1722.0000      0.0000    732.5421      4.8823    138.9634
  1722.2500      0.0000    707.8086      5.0194    142.4461
  1722.5000      0.0000    667.4774      5.1867    145.7205
  1722.7500      0.0000    617.8270      5.3531    147.9279
  1723.0000      0.0000    570.1752      5.4805    148.6853
  1723.2500      0.0000    534.7749      5.5367    148.8968
  1723.5000      0.0000    515.4507      5.5066    150.0049
  1723.7500      0.0000    509.2044      5.3953    151.7008
  1724.0000      0.0000    510.0423      5.2216    151.3041
  1724.2500      0.0000    512.9832      5.0088    146.2336
  1724.5000      0.0000    515.2945      4.7799    137.0297
  1724.7500      0.0000    515.4927      4.5561    127.7492
  1725.0000      0.0000    512.7855      4.3560    123.1755
  1725.2500      0.0000    508.1220      4.1960    125.0433
  1725.5000      0.0000    505.2486      4.0895    130.5304
  1725.7500      0.0000    509.5800      4.0444    134.5382
  1726.0000      0.0000    524.3507      4.0576    133.9266
  1726.2500      0.0000    546.2771      4.1127    129.7515
  1726.5000      0.0000    565.8229      4.1832    125.2763
  1726.7500      0.0000    574.6301      4.2416    122.0353
  1727.0000      0.0000    572.9797      4.2708    118.5881
  1727.2500      0.0000    567.5607      4.2709    113.1256
  1727.5000      0.0000    563.1000      4.2529    106.2053
  1727.7500      0.0000    560.2817      4.2242    100.3490
  1728.0000      0.0000    560.6676      4.1790     97.6632
  1728.2500      0.0000    567.8332      4.1020     98.4488
  1728.5000      0.0000    582.2010      3.9793    101.7258
  1728.7500      0.0000    598.2141      3.8034    106.3279
  1729.0000      0.0000    607.7251      3.5758    111.2399
  1729.2500      0.0000    604.5988      3.3134    115.3648
  1729.5000      0.0000    586.9958      3.0525    117.8646
  1729.7500      0.0000    558.1595      2.8358    119.0819
  1730.0000      0.0000    525.6224      2.6909    120.6337
  1730.2500      0.0000    497.9940      2.6210    123.8680
  1730.5000      0.0000    481.2029      2.6145    128.1039
  1730.7500      0.0000    477.1157      2.6574    130.7860
  1731.0000      0.0000    484.4918      2.7375    129.6109
  1731.2500      0.0000    500.3579      2.8437    124.5028
  1731.5000      0.0000    521.2679      2.9687    117.6466
  1731.7500      0.0000    544.7165      3.1116    111.8880
  1732.0000      0.0000    569.4731      3.2768    109.1164
  1732.2500      0.0000    593.5645      3.4699    109.7375
  1732.5000      0.0000    612.4357      3.6957    113.1970
  1732.7500      0.0000    621.3922      3.9554    118.6595
  1733.0000      0.0000    620.8220      4.2434    125.1417
  1733.2500      0.0000    617.3176      4.5429    131.4129
