~Version Information
VERS.                      2.0: CWLS Log ASCII Standard - VERSION 2.0
WRAP.                       NO: One line per depth step
~Well Information Block
STRT.FT                -4.0000: 
STOP.FT               675.2500: 
STEP.FT                 0.2500: 
NULL.                -999.2500: 
COMP.          Pioneer Natural Resources: COMPANY
WELL.          Razor Clam 23-27: WELL
FLD.           Purgatoire River: FIELD
LOC.           2499' FSL & 2636' FWL: LOCATION
CNTY.               Las Animas: COUNTY
SRVC.                         : SERVICE COMPANY
DATE.          Thu Mar 09 13:15:19 2006: LOG DATE
UWI.           05 071 08667 00: UNIQUE WELL ID
STAT.                       CO: STATE
~Curve Information Block
DEPT.FT            0 000 00 00: Depth
GR.GAPI                       : Gamma Ray
CCL.                          : Casing Collar Locator
TT3.usec                      : CBL 3' Travel Time
AMP3.mV                       : CBL 3' Amplitude
~Parameter Information Block
~A  Depth        GR         CCL         TT3         AMP3    
# ...
    96.5000     87.5648      0.0000    643.0269     17.1885
    96.7500     92.1774     -2.0000    643.2581     17.2777
    97.0000     95.1424      0.0000    617.3932     17.5109
    97.2500     97.1677      0.0000    569.1109     17.8894
    97.5000     99.0907      0.0000    509.0647     18.4915
    97.7500    101.6062      0.0000    449.6274     19.4439
    98.0000    104.9270      0.0000    399.4393     20.7737
    98.2500    108.5910      0.0000    361.6466     22.3235
    98.5000    111.8789      0.0000    335.5123     23.8571
    98.7500    114.3738      0.0000    318.8672     25.2181
    99.0000    115.9695      0.0000    309.3525     26.3909
    99.2500    116.5634      0.0000    304.6711     27.4368
    99.5000    115.9800      0.0000    302.7578     28.3563
    99.7500    114.1629      0.0000    302.1420     29.0024
   100.0000    111.3700      0.0000    302.0308     29.1700
   100.2500    108.0708      0.0000    302.1165     28.7954
   100.5000    104.7201      0.0000    302.2848     28.0540
   100.7500    101.9837      0.0000    302.4780     27.2507
   101.0000    100.9187      0.0000    302.6457     26.6197
   101.2500    102.1478      0.0000    302.7629     26.2072
   101.5000    104.9745      0.0000    302.8381     25.9049
   101.7500    107.8822      0.0000    302.9036     25.5765
   102.0000    109.5156      0.0000    302.9917     25.1656
   102.2500    108.8250      0.0000    303.1194     24.7051
   102.5000    105.1975      0.0000    303.2838     24.2459
   102.7500     99.3018      0.0000    303.4622     23.8075
   103.0000     93.4057      0.0000    303.6158     23.4093
   103.2500     90.0712      0.0000    303.7073     23.1115
   103.5000     90.3795      0.0000    303.7259     22.9887
   103.7500     93.4684      0.0000    303.6985     23.0635
   104.0000     97.5616      0.0000    303.6801     23.2865
   104.2500    101.2299      0.0000    303.7265     23.5723
   104.5000    103.7466      0.0000    303.8561     23.8363
   104.7500    104.6969      0.0000    304.0208     24.0064
   105.0000    104.0271      0.0000    304.1302     24.0358
   105.2500    102.6367      0.0000    304.1270     23.9298
   105.5000    101.9369      0.0000    304.0378     23.7540
   105.7500    102.0531      0.0000    303.9344     23.6037
   106.0000    101.1235      0.0000    303.8627     23.5505
   106.2500     97.2957      0.0000    303.8228     23.6004
   106.5000     91.2002      0.0000    303.8026     23.6850
   106.7500     85.8437      0.0000    303.8023     23.6982
   107.0000     84.0651      0.0000    303.8287     23.5692
   107.2500     86.1379      0.0000    303.8798     23.3200
   107.5000     89.5615      0.0000    303.9439     23.0469
   107.7500     91.1298      0.0000    304.0087     22.8424
   108.0000     89.4881      0.0000    304.0677     22.7392
   108.2500     85.7189      0.0000    304.1172     22.7233
   108.5000     81.4751      0.0000    304.1487     22.7849
   108.7500     77.1872      0.0000    304.1474     22.9360
   109.0000     72.5881      0.0000    304.1031     23.1693
   109.2500     68.2660      0.0000    304.0272     23.4084
   109.5000     65.7094      0.0000    303.9520     23.5444
   109.7500     65.8245      0.0000    303.9091     23.5543
   110.0000     67.9527      0.0000    303.9069     23.5563
   110.2500     70.3989      0.0000    303.9291     23.7031
   110.5000     71.6831      0.0000    303.9522     24.0233
   110.7500     71.4175      0.0000    303.9621     24.3922
   111.0000     70.3143      0.0000    303.9603     24.6552
   111.2500     69.4006      0.0000    303.9560     24.7618
   111.5000     69.0862      0.0000    303.9498     24.7824
   111.7500     68.9213      0.0000    303.9308     24.8115
   112.0000     68.2530      0.0000    303.8915     24.8669
   112.2500     67.1521      0.0000    303.8461     24.8821
   112.5000     66.5461      0.0000    303.8277     24.7778
   112.7500     67.1245      0.0000    303.8694     24.5172
   113.0000     68.2182      0.0000    303.9796     24.1140
   113.2500     68.2409      0.0000    304.1267     23.6391
   113.5000     66.2839      0.0000    304.2508     23.2185
   113.7500     62.8787      0.0000    304.3032     22.9669
   114.0000     59.3045      0.0000    304.2808     22.9103
   114.2500     56.6026      0.0000    304.2228     23.0033
   114.5000     55.2715      0.0000    304.1801     23.1920
   114.7500     55.4832      0.0000    304.1882     23.4028
   115.0000     57.2708      0.0000    304.2559     23.5127
   115.2500     60.3554      0.0000    304.3691     23.4194
   115.5000     63.8419      0.0000    304.5055     23.1407
   115.7500     66.4012      0.0000    304.6482     22.7917
   116.0000     67.1671      0.0000    304.7838     22.4716
   116.2500     66.7026      0.0000    304.8907     22.2190
   116.5000     66.9931      0.0000    304.9372     22.0636
   116.7500     69.9235      0.0000    304.8981     22.0590
   117.0000     75.1490      0.0000    304.7711     22.2499
   117.2500     79.5327      0.0000    304.5775     22.6290
   117.5000     79.3577      0.0000    304.3492     23.1295
   117.7500     73.5432      0.0000    304.1170     23.6570
   118.0000     64.6026      0.0000    303.9050     24.1427
   118.2500     56.3685      0.0000    303.7292     24.5739
   118.5000     51.0189      0.0000    303.5963     24.9700
   118.7500     48.3110      0.0000    303.4989     25.3412
   119.0000     46.9962      0.0000    303.4174     25.6908
   119.2500     46.2448      0.0000    303.3308     26.0431
   119.5000     45.8618      0.0000    303.2360     26.4148
   119.7500     45.9363      0.0000    303.1537     26.7424
   120.0000     46.7712      0.0000    303.1183     26.8830
   120.2500     48.8876      0.0000    303.1602     26.7339
   120.5000     52.6357      0.0000    303.2907     26.3367
   120.7500     57.7025      0.0000    303.4925     25.8251
   121.0000     63.1940      0.0000    303.7270     25.2841
   121.2500     68.4406      0.0000    303.9552     24.6972
   121.5000     73.8879      0.0000    304.1520     24.0360
   121.7500     81.0690      0.0000    304.3095     23.3645
   122.0000     91.1833      0.0000    304.4377     22.8221
   122.2500    103.3661      0.0000    304.5639     22.4918
   122.5000    114.6458      0.0000    304.7194     22.3050
   122.7500    122.0439      0.0000    304.9153     22.1009
   123.0000    124.6649      0.0000    305.1303     21.7824
   123.2500    123.7368      0.0000    305.3249     21.4094
   123.5000    121.1222      0.0000    305.4678     21.1423
   123.7500    118.1906      0.0000    305.5523     21.0991
   124.0000    115.8355      0.0000    305.5899     21.2548
   124.2500    114.8561      0.0000    305.5924     21.4683
   124.5000    115.7275      0.0000    305.5614     21.6077
   124.7500    118.0109      0.0000    305.4879     21.6532
   125.0000    120.2307      0.0000    305.3588     21.6923
   125.2500    120.4834      0.0000    305.1690     21.8372
   125.5000    117.4252      0.0000    304.9361     22.1451
   125.7500    111.1550      0.0000    304.6987     22.6019
   126.0000    103.2102      0.0000    304.4958     23.1583
   126.2500     95.3275      0.0000    304.3518     23.7641
   126.5000     88.2592      0.0000    304.2797     24.3716
   126.7500     82.0215      0.0000    304.2839     24.9351
   127.0000     76.6530      0.0000    304.3520     25.4252
   127.2500     72.1190      0.0000    304.4843     25.8336
   127.5000     68.1761      0.0000    304.7887     26.1447
   127.7500     65.0568      0.0000    305.8659     26.3091
   128.0000     63.6659      0.0000    309.7295     26.2491
   128.2500     64.4780      0.0000    321.2414     25.8904
   128.5000     66.6942      0.0000    348.1471     25.2187
   128.7500     68.8808      0.0000    396.3064     24.3488
   129.0000     70.2231      0.0000    460.2075     23.5341
   129.2500     71.1706      0.0000    517.9293     23.0381
   129.5000     72.9269      0.0000    541.4551     22.9507
   129.7500     76.1879      0.0000    517.7322     23.1507
