~Version Information
VERS.                      2.0: CWLS Log ASCII Standard - VERSION 2.0
WRAP.                       NO: One line per depth step
~Well Information Block
STRT.FT               680.0000: 
STOP.FT              1585.5000: 
STEP.FT                 0.1000: 
NULL.                -999.2500: 
COMP.          Pioneer Natural Resources: COMPANY
WELL.          Screamin' 12-29: WELL
FLD.           Purgatoire River: FIELD
LOC.           2038' FNL & 612' FWL: LOCATION
CNTY.               Las Animas: COUNTY
SRVC.                Patterson: SERVICE COMPANY
DATE.          Wed Mar 29 10:01:18 2006: LOG DATE
UWI.           05 071 08661 00: UNIQUE WELL ID
STAT.                 Colorado: STATE
~Curve Information Block
DEPT.FT            0 000 00 00: Depth
DCAL.in                       : CDL Caliper
RHOB.g/cc                     : CDL Bulk Density
RHOC.g/cc                     : CDL Density Correction
DPOR.pu                       : CDL Density Porosity
GR.GAPI                       : Gamma Ray
NPOR.pu                       : Neutron Porosity
~Parameter Information Block
~A  Depth       DCAL        RHOB        RHOC        DPOR         GR         NPOR    
# ...
  1515.2000      7.8746      2.4304      0.0170     13.3110     77.3736     17.8218
  1515.3000      7.8784      2.4490      0.0436     12.1820     79.1255     17.6498
  1515.4000      7.8784      2.4626      0.0454     11.3594     83.9551     17.4613
  1515.5000      7.8811      2.4591      0.0549     11.5697     87.9866     17.6170
  1515.6000      7.8811      2.4515      0.0243     12.0299     92.1193     18.3202
  1515.7000      7.8811      2.4577      0.0114     11.6536     95.5962     19.1567
  1515.8000      7.8832      2.4721      0.0403     10.7835     95.6145     19.5445
  1515.9000      7.8832      2.4777      0.0180     10.4403     91.9838     19.4588
  1516.0000      7.8742      2.4696      0.0481     10.9320     85.7856     19.0939
  1516.1000      7.8742      2.4512      0.0194     12.0463     79.8715     18.9383
  1516.2000      7.8742      2.4326     -0.0143     13.1762     78.1455     19.3620
  1516.3000      7.8514      2.4230      0.0201     13.7581     81.5303     20.0101
  1516.4000      7.8514      2.4195      0.0288     13.9693     86.0837     20.5086
  1516.5000      7.8315      2.4226     -0.0279     13.7823     86.8845     20.8386
  1516.6000      7.8315      2.4396      0.0043     12.7500     84.3220     20.6932
  1516.7000      7.8315      2.4657      0.0499     11.1714     82.4867     19.9337
  1516.8000      7.8233      2.4930      0.0376      9.5170     83.3956     19.3152
  1516.9000      7.8233      2.5209      0.0647      7.8219     84.7489     19.2467
  1517.0000      7.8185      2.5449      0.0747      6.3678     85.0253     18.9927
  1517.1000      7.8185      2.5554      0.0994      5.7330     86.6205     18.2559
  1517.2000      7.8185      2.5523      0.0404      5.9240     90.0795     17.9154
  1517.3000      7.8121      2.5466      0.0203      6.2644     90.1919     18.1229
  1517.4000      7.8121      2.5418      0.0500      6.5572     85.6576     17.8758
  1517.5000      7.8065      2.5326      0.0363      7.1152     81.8222     17.0232
  1517.6000      7.8065      2.5199      0.0324      7.8841     80.1963     16.0909
  1517.7000      7.8065      2.5061      0.0300      8.7217     78.7261     15.4471
  1517.8000      7.8056      2.4902      0.0586      9.6870     76.9343     15.2869
  1517.9000      7.8056      2.4773      0.0100     10.4697     74.8091     15.2371
  1518.0000      7.8086      2.4761      0.0405     10.5390     73.7922     15.0702
  1518.1000      7.8086      2.4801      0.0324     10.2968     74.8068     15.2243
  1518.2000      7.8086      2.4742      0.0371     10.6518     75.3735     15.7716
  1518.3000      7.8120      2.4591      0.0435     11.5716     74.5747     16.2100
  1518.4000      7.8120      2.4477      0.0523     12.2618     74.0790     16.4915
  1518.5000      7.8145      2.4449      0.0625     12.4313     74.7121     16.7504
  1518.6000      7.8145      2.4422      0.0632     12.5959     77.1593     16.8370
  1518.7000      7.8145      2.4291      0.0476     13.3908     78.5148     17.0396
  1518.8000      7.8173      2.4074      0.0220     14.7050     74.4310     17.9399
  1518.9000      7.8173      2.3928      0.0187     15.5892     69.4401     19.1947
  1519.0000      7.8208      2.3970      0.0427     15.3318     69.5574     19.9057
  1519.1000      7.8208      2.4131      0.0614     14.3552     71.5896     19.9471
  1519.2000      7.8208      2.4244      0.0652     13.6714     72.3215     19.5661
  1519.3000      7.8244      2.4230      0.0524     13.7551     73.2816     18.9620
  1519.4000      7.8244      2.4139      0.0401     14.3099     73.7701     18.6306
  1519.5000      7.8263      2.4074      0.0550     14.7016     72.6045     19.0482
  1519.6000      7.8263      2.4080      0.0569     14.6668     71.3832     19.8366
  1519.7000      7.8263      2.4124      0.0689     14.3982     72.0923     20.0144
  1519.8000      7.8267      2.4173      0.0695     14.1045     73.4794     19.7972
  1519.9000      7.8267      2.4193      0.0869     13.9826     73.7373     19.8683
  1520.0000      7.8268      2.4179      0.0349     14.0643     74.3617     20.1525
  1520.1000      7.8268      2.4206      0.0580     13.9059     76.2693     20.7264
  1520.2000      7.8268      2.4324      0.0640     13.1893     80.3110     21.8513
  1520.3000      7.8261      2.4474      0.1060     12.2775     87.9039     22.8168
  1520.4000      7.8261      2.4606      0.0620     11.4816     94.3411     22.6476
  1520.5000      7.8246      2.4743      0.0832     10.6464     93.1400     21.2645
  1520.6000      7.8246      2.4814      0.0749     10.2177     86.5616     19.4886
  1520.7000      7.8246      2.4723      0.0524     10.7712     80.6022     18.7218
  1520.8000      7.8234      2.4556      0.0322     11.7846     77.5379     19.1558
  1520.9000      7.8234      2.4469      0.0304     12.3062     77.5726     19.5869
  1521.0000      7.8240      2.4447      0.0780     12.4452     79.8400     19.5361
  1521.1000      7.8240      2.4373      0.0219     12.8905     83.8454     19.5498
  1521.2000      7.8240      2.4323      0.0145     13.1911     89.0623     19.7365
  1521.3000      7.8281      2.4386      0.0266     12.8117     89.9378     19.4859
  1521.4000      7.8281      2.4450      0.0478     12.4226     82.5819     18.5157
  1521.5000      7.8348      2.4397      0.0336     12.7428     75.0103     17.5165
  1521.6000      7.8348      2.4299      0.0180     13.3386     75.0196     17.2595
  1521.7000      7.8348      2.4274      0.0225     13.4888     81.1417     17.9921
  1521.8000      7.8389      2.4293      0.0316     13.3756     86.2410     19.3135
  1521.9000      7.8389      2.4270      0.0277     13.5133     86.1509     20.3991
  1522.0000      7.8382      2.4214      0.0101     13.8556     85.1291     20.6288
  1522.1000      7.8382      2.4164      0.0208     14.1606     84.4526     20.4105
  1522.2000      7.8382      2.4134      0.0113     14.3388     82.3659     20.4566
  1522.3000      7.8335      2.4154      0.0238     14.2196     80.1054     20.6584
  1522.4000      7.8335      2.4252      0.0370     13.6230     79.5928     20.6386
  1522.5000      7.8295      2.4425      0.0545     12.5737     82.2142     20.5276
  1522.6000      7.8295      2.4601      0.0592     11.5105     84.6380     20.8870
  1522.7000      7.8295      2.4606      0.0945     11.4768     83.5898     21.9455
  1522.8000      7.8278      2.4379      0.0336     12.8575     82.2777     22.6454
  1522.9000      7.8278      2.4149     -0.0040     14.2499     82.9321     22.0407
  1523.0000      7.8268      2.4080      0.0469     14.6639     83.4308     20.9675
  1523.1000      7.8268      2.4031      0.0449     14.9659     84.3515     20.3715
  1523.2000      7.8268      2.3925     -0.0075     15.6031     86.2812     20.0305
  1523.3000      7.8259      2.3913      0.0377     15.6788     85.8295     19.4233
  1523.4000      7.8259      2.4086      0.0171     14.6315     82.4825     18.9490
  1523.5000      7.8256      2.4340      0.0536     13.0902     78.8487     19.3186
  1523.6000      7.8256      2.4463      0.0889     12.3437     77.1790     20.2131
  1523.7000      7.8256      2.4419      0.0334     12.6151     79.4419     20.9953
  1523.8000      7.8263      2.4354      0.0344     13.0044     84.7388     21.5744
  1523.9000      7.8263      2.4295      0.0696     13.3648     89.8658     21.7131
  1524.0000      7.8282      2.4196      0.0265     13.9611     92.9906     21.4418
  1524.1000      7.8282      2.4110      0.0468     14.4840     90.7406     21.4146
  1524.2000      7.8282      2.4073      0.0641     14.7077     83.5709     21.4958
  1524.3000      7.8307      2.4107      0.0511     14.5007     78.2237     21.0544
  1524.4000      7.8307      2.4207      0.0378     13.8990     77.3759     20.4583
  1524.5000      7.8293      2.4249      0.0553     13.6417     78.0634     20.3739
  1524.6000      7.8293      2.4173      0.0157     14.1030     76.3997     20.5088
  1524.7000      7.8293      2.4086      0.0380     14.6280     72.5020     20.3098
