~Version Information
VERS.                      2.0: CWLS Log ASCII Standard - VERSION 2.0
WRAP.                       NO: One line per depth step
~Well Information Block
STRT.FT                -7.5000: 
STOP.FT              2228.7500: 
STEP.FT                 0.2500: 
NULL.                -999.2500: 
COMP.          Pioneer Natural Resources: COMPANY
WELL.          McDonald 33-31 R: WELL
FLD.           Purgatorie River: FIELD
LOC.           1386' FSL & 1926' FEL: LOCATION
STAT.                       CO: State
CNTY.               Las Animas: COUNTY
CTRY.                      USA: Country
SECT.                       31: Section
TOWN.                      32S: Township
RANG.                      66W: Range
SRVC.          Patterson Wireline: SERVICE COMPANY
DATE.          Wed Sep 28 13:29:18 2005: LOG DATE
API.           05 071 08533 00: API#
~Curve Information Block
DEPT.FT            0 000 00 00: Depth
CCL.                          : Casing Collar Locator
TT3.usec                      : CBL 3' Travel Time
AMP3.mV                       : CBL 3' Amplitude
GR.GAPI                       : Gamma Ray
~Parameter Information Block
~A  Depth       CCL         TT3         AMP3         GR     
# ...
  1768.0000      0.0000    627.9954      5.6471    118.4445
  1768.2500      0.0000    647.1754      5.7154    122.5574
  1768.5000      0.0000    647.2380      5.7667    126.0139
  1768.7500      0.0000    626.6512      5.7863    127.9651
  1769.0000      0.0000    591.2313      5.7654    128.1856
  1769.2500      0.0000    552.7912      5.7066    126.9102
  1769.5000      0.0000    522.7906      5.6271    124.5319
  1769.7500      0.0000    503.5881      5.5528    121.3862
  1770.0000      0.0000    487.6882      5.5037    117.8632
  1770.2500      0.0000    467.6435      5.4852    114.7565
  1770.5000      0.0000    444.9778      5.4925    113.0158
  1770.7500      0.0000    428.4016      5.5209    112.7440
  1771.0000      0.0000    425.4346      5.5690    112.8509
  1771.2500      0.0000    436.1926      5.6372    112.2150
  1771.5000      0.0000    452.4558      5.7272    111.0491
  1771.7500      0.0000    462.3138      5.8406    110.7740
  1772.0000      0.0000    458.6956      5.9751    112.5737
  1772.2500      0.0000    444.4440      6.1203    116.2155
  1772.5000      0.0000    428.3046      6.2592    120.1622
  1772.7500      0.0000    416.8947      6.3736    122.5880
  1773.0000      0.0000    411.4096      6.4488    122.3837
  1773.2500      0.0000    409.8592      6.4771    119.6392
  1773.5000      0.0000    410.0663      6.4602    115.4815
  1773.7500      0.0000    410.7464      6.4080    111.5504
  1774.0000      0.0000    411.3190      6.3385    109.4225
  1774.2500      0.0000    411.5862      6.2816    109.9110
  1774.5000      0.0000    411.5417      6.2782    112.3819
  1774.7500      0.0000    411.2901      6.3640    115.0058
  1775.0000      0.0000    410.9709      6.5423    116.2072
  1775.2500      0.0000    410.7385      6.7722    115.8721
  1775.5000      0.0000    410.7792      6.9867    114.9465
  1775.7500      0.0000    411.4966      7.1259    114.1121
  1776.0000      0.0000    413.9242      7.1603    113.1668
  1776.2500      0.0000    420.2738      7.0931    111.5247
  1776.5000      0.0000    433.7129      6.9557    109.1032
  1776.7500      0.0000    456.6886      6.8011    106.7395
  1777.0000      0.0000    489.0903      6.6861    105.7815
  1777.2500      0.0000    528.4245      6.6436    107.2026
  1777.5000      0.0000    571.1550      6.6688    110.9672
  1777.7500      0.0000    612.6057      6.7313    116.1040
  1778.0000      0.0000    646.8487      6.7965    121.4017
  1778.2500      0.0000    669.5499      6.8421    126.1710
  1778.5000      0.0000    681.1614      6.8704    130.3211
  1778.7500      0.0000    686.0860      6.9036    133.7506
  1779.0000      0.0000    689.1092      6.9555    135.9252
  1779.2500      0.0000    693.0198      7.0051    136.1992
  1779.5000      0.0000    698.2030      7.0055    134.6256
  1779.7500      0.0000    703.1823      6.9161    132.4571
  1780.0000      0.0000    706.0154      6.7308    131.3514
  1780.2500      0.0000    706.2543      6.4868    131.6243
  1780.5000      0.0000    705.5444      6.2456    131.6932
  1780.7500      0.0000    705.8393      6.0513    129.8107
  1781.0000      0.0000    707.0843      5.9028    126.0164
  1781.2500      0.0000    707.2108      5.7769    121.8450
  1781.5000      0.0000    704.4774      5.6747    118.6508
  1781.7500      0.0000    699.3621      5.6319    116.9794
  1782.0000      0.0000    694.1115      5.6818    117.0350
  1782.2500      0.0000    690.8583      5.8113    118.7372
  1782.5000      0.0000    690.1901      5.9545    121.4426
  1782.7500      0.0000    690.9955      6.0363    124.2835
  1783.0000      0.0000    691.4406      6.0374    126.6845
  1783.2500      0.0000    690.4199      6.0200    128.2577
  1783.5000      0.0000    688.2798      6.0771    128.5230
  1783.7500      0.0000    686.1467      6.2445    127.0138
  1784.0000      0.0000    684.7712      6.4714    123.6049
  1784.2500      0.0000    684.1415      6.6725    118.9132
  1784.5000      0.0000    683.8864      6.7923    114.5161
  1784.7500      0.0000    683.7035      6.8223    112.3516
  1785.0000      0.0000    683.4747      6.7816    113.3861
  1785.2500      0.0000    683.2205      6.6965    116.8856
  1785.5000      0.0000    683.0239      6.5871    121.1150
  1785.7500      0.0000    682.9346      6.4717    124.4389
  1786.0000      0.0000    682.9148      6.3819    125.7075
  1786.2500      0.0000    682.8795      6.3609    124.3910
  1786.5000      0.0000    682.7938      6.4316    120.9676
  1786.7500      0.0000    682.7048      6.5753    116.7772
  1787.0000      0.0000    682.6554      6.7489    113.1370
  1787.2500      0.0000    682.3932      6.9140    110.9142
  1787.5000      0.0000    680.7600      7.0432    110.8244
  1787.7500      0.0000    674.7955      7.1166    113.2036
  1788.0000      0.0000    659.4585      7.1274    117.2419
  1788.2500      0.0000    629.6856      7.0878    121.2233
  1788.5000      0.0000    584.9427      7.0202    123.7620
  1788.7500      0.0000    532.3648      6.9464    124.2149
  1789.0000      0.0000    483.7987      6.8920    122.1630
  1789.2500      0.0000    448.3738      6.8875    117.7213
  1789.5000      0.0000    427.8287      6.9473    112.5959
  1789.7500      0.0000    418.2009      7.0489    109.5475
  1790.0000      0.0000    414.3459      7.1495    110.0514
  1790.2500      0.0000    412.7356      7.2217    113.0435
  1790.5000      0.0000    411.7784      7.2657    116.2751
  1790.7500      0.0000    411.1458      7.2912    118.3496
  1791.0000      0.0000    411.3567      7.2983    119.3228
  1791.2500      0.0000    413.9981      7.2806    120.1283
  1791.5000      0.0000    422.4960      7.2416    121.9332
  1791.7500      0.0000    442.1857      7.2066    125.4298
  1792.0000      0.0000    477.6348      7.2157    130.0008
  1792.2500      0.0000    527.4956      7.3006    133.9036
  1792.5000      0.0000    582.0808      7.4654    135.9353
  1792.7500      0.0000    628.4224      7.6855    136.6642
  1793.0000      0.0000    658.8699      7.9216    137.5949
  1793.2500      0.0000    674.3665      8.1327    139.5831
  1793.5000      0.0000    680.3289      8.2802    142.4071
  1793.7500      0.0000    681.1276      8.3317    145.0963
  1794.0000      0.0000    677.7750      8.2669    146.0143
  1794.2500      0.0000    668.9602      8.0853    143.2430
  1794.5000      0.0000    653.9689      7.8092    136.0038
  1794.7500      0.0000    635.6801      7.4786    125.8336
  1795.0000      0.0000    620.7998      7.1406    115.7883
  1795.2500      0.0000    616.1456      6.8421    108.5101
  1795.5000      0.0000    623.9556      6.6305    105.2343
  1795.7500      0.0000    640.2228      6.5514    105.8416
  1796.0000      0.0000    657.3519      6.6214    108.7960
  1796.2500      0.0000    668.9079      6.7862    111.3783
  1796.5000      0.0000    672.4850      6.9139    111.3010
  1796.7500      0.0000    669.2799      6.8687    108.5585
  1797.0000      0.0000    662.7032      6.6197    105.2321
  1797.2500      0.0000    657.6443      6.2759    103.3958
  1797.5000      0.0000    659.0211      5.9920    103.4927
  1797.7500      0.0000    668.7448      5.8456    104.4829
  1798.0000      0.0000    683.1304      5.8235    105.0247
  1798.2500      0.0000    693.7963      5.8950    104.5134
  1798.5000      0.0000    692.9193      6.0440    103.4116
  1798.7500      0.0000    679.9595      6.2387    102.7848
  1799.0000     -2.0000    663.4646      6.4181    103.4519
  1799.2500      2.0000    654.2333      6.5201    105.4450
  1799.5000      0.0000    655.5460      6.5130    108.2788
  1799.7500      0.0000    661.5034      6.4149    111.6711
  1800.0000      0.0000    665.5171      6.2916    115.6936
  1800.2500      0.0000    667.7271      6.2306    120.0114
  1800.5000      0.0000    672.5525      6.3052    123.4045
  1800.7500      0.0000    681.8891      6.5540    124.7794
  1801.0000      0.0000    693.3604      6.9642    124.6039
  1801.2500      0.0000    703.7283      7.4514    124.5625
