~Version Information
VERS.                      2.0: CWLS Log ASCII Standard - VERSION 2.0
WRAP.                       NO: One line per depth step
~Well Information Block
STRT.FT               890.0000: 
STOP.FT              2097.0000: 
STEP.FT                 0.2500: 
NULL.                -999.2500: 
COMP.          Pioneer Natural Resources: COMPANY
WELL.          Greenwood 43-29 Tr: WELL
FLD.           Purgatoire River: FIELD
LOC.           1478' FSL & 744' FEL: LOCATION
STAT.                 Colorado: State
CNTY.               Las Animas: COUNTY
CTRY. USA : Country
SECT. 29 : Section
TOWN. 32S : Township
RANG. 67W : Range
SRVC.                Patterson: SERVICE COMPANY
DATE.          Wed Aug 31 08:07:28 2005: LOG DATE
API.           05 071 08478 00: UNIQUE WELL ID
~Curve Information Block
DEPT.FT            0 000 00 00: Depth
SN.Ohm-m                      : IEL Short Normal
SP.mV                         : IEL Spontaneous Potential
DIR.Ohm-m                     : IEL Induction Resistivity
GR.GAPI                       : Gamma Ray
~Parameter Information Block
~A  Depth        SN          SP         DIR          GR     
   890.0000   2000.0000   2000.0000      6.3682    103.0333
   890.2500   2000.0000   2000.0000      6.3784     99.8838
   890.5000   2000.0000   2000.0000      6.3898     98.6722
   890.7500   2000.0000   2000.0000      6.4038     99.4417
   891.0000   2000.0000   2000.0000      6.4159    101.0791
   891.2500   2000.0000   2000.0000      6.4180    101.8169
   891.5000   2000.0000   2000.0000      6.4035    102.7551
   891.7500   2000.0000   2000.0000      6.3715    104.0722
   892.0000   2000.0000   2000.0000      6.3274    108.1623
   892.2500   2000.0000   2000.0000      6.2800    112.1519
   892.5000   2000.0000   2000.0000      6.2374    118.2936
   892.7500   2000.0000   2000.0000      6.2049    121.2432
   893.0000   2000.0000   2000.0000      6.1837    123.0639
   893.2500   2000.0000   2000.0000      6.1719    123.0207
   893.5000   2000.0000   2000.0000      6.1655    122.4640
   893.7500   2000.0000   2000.0000      6.1608    122.2419
   894.0000   2000.0000   2000.0000      6.1555    122.3608
   894.2500   2000.0000   2000.0000      6.1492    122.8981
   894.5000   2000.0000   2000.0000      6.1429    124.8681
   894.7500   2000.0000   2000.0000      6.1381    127.0962
   895.0000   2000.0000   2000.0000      6.1357    131.2906
   895.2500   2000.0000   2000.0000      6.1352    133.8585
   895.5000   2000.0000   2000.0000      6.1343    135.6029
   895.7500   2000.0000   2000.0000      6.1295    134.6119
   896.0000   2000.0000   2000.0000      6.1172    130.0881
   896.2500   2000.0000   2000.0000      6.0954    126.1273
   896.5000   2000.0000   2000.0000      6.0657    121.3256
   896.7500   2000.0000   2000.0000      6.0333    119.9323
   897.0000   2000.0000   2000.0000      6.0055    120.5826
   897.2500   2000.0000   2000.0000      5.9896    122.0129
   897.5000   2000.0000   2000.0000      5.9898    124.2092
   897.7500   2000.0000   2000.0000      6.0063    125.5097
   898.0000   2000.0000   2000.0000      6.0336    127.7231
   898.2500   2000.0000   2000.0000      6.0620    129.4905
   898.5000   2000.0000   2000.0000      6.0813    132.0871
   898.7500   2000.0000   2000.0000      6.0841    133.6629
   899.0000   2000.0000   2000.0000      6.0684    136.5210
   899.2500   2000.0000   2000.0000      6.0379    139.1998
   899.5000   2000.0000   2000.0000      5.9994    144.1719
   899.7500   2000.0000   2000.0000      5.9610    147.6030
   900.0000   2000.0000   2000.0000      5.9285    151.9491
   900.2500   2000.0000   2000.0000      5.9037    153.6897
   900.5000   2000.0000   2000.0000      5.8855    153.6086
   900.7500   2000.0000   2000.0000      5.8729    151.7141
   901.0000   2000.0000   2000.0000      5.8688    147.2350
   901.2500   2000.0000   2000.0000      5.8790    144.1050
   901.5000   2000.0000   2000.0000      5.9084    140.2847
   901.7500   2000.0000   2000.0000      5.9568    138.4559
   902.0000   2000.0000   2000.0000      6.0158    136.6616
   902.2500   2000.0000   2000.0000      6.0705    136.2086
   902.5000   2000.0000   2000.0000      6.1049    137.1729
   902.7500   2000.0000   2000.0000      6.1096    138.9699
   903.0000   2000.0000   2000.0000      6.0883    142.3427
   903.2500   2000.0000   2000.0000      6.0547    143.8342
   903.5000   2000.0000   2000.0000      6.0226    142.9522
   903.7500   2000.0000   2000.0000      5.9970    140.0177
   904.0000   2000.0000   2000.0000      5.9752    133.7990
   904.2500   2000.0000   2000.0000      5.9546    130.0295
   904.5000   2000.0000   2000.0000      5.9388    126.7360
   904.7500   2000.0000   2000.0000      5.9334    126.2950
   905.0000   2000.0000   2000.0000      5.9380    127.8099
   905.2500   2000.0000   2000.0000      5.9414    129.7937
   905.5000   2000.0000   2000.0000      5.9273    133.0054
   905.7500   2000.0000   2000.0000      5.8851    134.5999
   906.0000   2000.0000   2000.0000      5.8175    135.8828
   906.2500   2000.0000   2000.0000      5.7402    136.4403
   906.5000   2000.0000   2000.0000      5.6772    137.8776
   906.7500   2000.0000   2000.0000      5.6576    139.6036
   907.0000   2000.0000   2000.0000      5.7136    143.3823
   907.2500   2000.0000   2000.0000      5.8736    146.4353
   907.5000   2000.0000   2000.0000      6.1471    151.0679
   907.7500   2000.0000   2000.0000      6.5028    153.6377
   908.0000   2000.0000   2000.0000      6.8535    155.6454
   908.2500   2000.0000   2000.0000      7.0812    155.3093
   908.5000   2000.0000   2000.0000      7.1138    152.7954
   908.7500   2000.0000   2000.0000      6.9811    150.9556
   909.0000   2000.0000   2000.0000      6.7787    150.1532
   909.2500   2000.0000   2000.0000      6.5985    151.3884
   909.5000   2000.0000   2000.0000      6.5105    154.9242
   909.7500   2000.0000   2000.0000      6.5987    157.2554
   910.0000   2000.0000   2000.0000      7.0188    158.8107
   910.2500   2000.0000   2000.0000      8.0778    157.9665
   910.5000   2000.0000   2000.0000     10.4330    154.2034
   910.7500   2000.0000   2000.0000     15.6700    150.7494
   911.0000   2000.0000   2000.0000     27.7121    145.0773
   911.2500   2000.0000   2000.0000     51.5721    140.9084
   911.5000   2000.0000   2000.0000     68.7245    133.6184
   911.7500   2000.0000   2000.0000     62.4361    128.5070
   912.0000   2000.0000   2000.0000     66.2708    123.1626
   912.2500   2000.0000   2000.0000    206.0269    123.0881
   912.5000   2000.0000   2000.0000 100000.0000    129.5413
   912.7500   2000.0000   2000.0000 100000.0000    136.9819
   913.0000   2000.0000   2000.0000 100000.0000    148.2353
   913.2500   2000.0000   2000.0000 100000.0000    153.1874
   913.5000   2000.0000   2000.0000 100000.0000    154.6950
   913.7500   2000.0000   2000.0000 100000.0000    151.9273
   914.0000   2000.0000   2000.0000 100000.0000    143.2967
   914.2500   2000.0000   2000.0000     13.4601    135.2927
   914.5000   2000.0000   2000.0000      5.5708    121.4268
   914.7500   2000.0000   2000.0000      3.8389    108.1388
   915.0000   2000.0000   2000.0000      3.4051     94.6952
   915.2500   2000.0000   2000.0000      3.5795     86.1838
   915.5000   2000.0000   2000.0000      4.2521     74.8956
   915.7500   2000.0000   2000.0000      5.5510     62.2324
   916.0000   2000.0000   2000.0000      8.0064     59.4756
   916.2500   2000.0000   2000.0000     13.7807     61.4187
   916.5000   2000.0000   2000.0000     40.0725     70.1712
   916.7500   2000.0000   2000.0000 100000.0000     70.3142
   917.0000   2000.0000   2000.0000 100000.0000     85.9633
   917.2500   2000.0000   2000.0000 100000.0000     97.2648
   917.5000   2000.0000   2000.0000 100000.0000    112.2536
   917.7500   2000.0000   2000.0000 100000.0000    103.3600
   918.0000   2000.0000   2000.0000 100000.0000    105.4847
   918.2500   2000.0000   2000.0000     67.2000    102.4532
   918.5000   2000.0000   2000.0000     38.5852     92.7902
   918.7500   2000.0000   2000.0000     31.0703     84.3002
   919.0000   2000.0000   2000.0000     28.3031     70.5690
   919.2500   2000.0000   2000.0000     27.2137     61.6577
   919.5000   2000.0000   2000.0000     26.8520     49.9884
   919.7500   2000.0000   2000.0000     26.8836     44.1459
   920.0000   2000.0000   2000.0000     27.2659     39.7246
   920.2500   2000.0000   2000.0000     28.1388     40.4284
   920.5000   2000.0000   2000.0000     29.6763     47.7007
   920.7500   2000.0000   2000.0000     31.7818     56.5517
   921.0000   2000.0000   2000.0000     33.7199     74.4459
   921.2500   2000.0000   2000.0000     34.1991     88.0970
   921.5000   2000.0000   2000.0000     32.4781    108.3744
   921.7500   2000.0000   2000.0000     29.2513    120.2314
   922.0000   2000.0000   2000.0000     25.7790    133.8153
   922.2500   2000.0000   2000.0000     22.7855    139.8376
   922.5000   2000.0000   2000.0000     20.3926    145.0593
   922.7500   2000.0000   2000.0000     18.4781    146.7418
   923.0000   2000.0000   2000.0000     16.9222    147.6653
   923.2500   2000.0000   2000.0000     15.6841    147.5183
