~Version Information
VERS.                      2.0: CWLS Log ASCII Standard - VERSION 2.0
WRAP.                       NO: One line per depth step
~Well Information Block
STRT.FT               240.0000: 
STOP.FT              1342.0000: 
STEP.FT                 0.1000: 
NULL.                -999.2500: 
COMP.          Pioneer Natural Resources: COMPANY
WELL.          Lorencito 9-4-34-66: WELL
FLD.           Purgatoire River: FIELD
LOC.           2540' FSL & 438' FEL: LOCATION
STAT.                 Colorado: State
CNTY.               Las Animas: COUNTY
CTRY. USA : Country
SECT. 4 : Section
TOWN. 34S : Township
RANG. 68W : range
SRVC.                Patterson: SERVICE COMPANY
DATE.          Thu Sep 15 13:16:59 2005: LOG DATE
API.           05 071 08498 00: UNIQUE WELL ID
~Curve Information Block
DEPT.FT            0 000 00 00: Depth
DCAL.in                       : CDL Caliper
RHOB.g/cc                     : CDL Bulk Density
RHOC.g/cc                     : CDL Density Correction
DPOR.pu                       : CDL Density Porosity
GR.GAPI                       : Gamma Ray
NPOR.pu                       : Neutron Porosity
~Parameter Information Block
~A  Depth       DCAL        RHOB        RHOC        DPOR         GR         NPOR    
# ...
   892.8000      8.0035      2.5522      0.0723      5.9268    170.2110     24.4355
   892.9000      8.0035      2.5674      0.1370      5.0040    166.9860     24.4177
   893.0000      8.0282      2.5892      0.1305      3.6855    162.9791     24.7045
   893.1000      8.0282      2.5917      0.1329      3.5318    163.4542     24.9964
   893.2000      8.0282      2.5806      0.0849      4.2048    169.5549     25.0154
   893.3000      8.0210      2.5724      0.0952      4.7045    175.8301     24.9451
   893.4000      8.0210      2.5637      0.0979      5.2286    174.9991     25.2157
   893.5000      8.0329      2.5506      0.0398      6.0214    170.0395     25.4671
   893.6000      8.0329      2.5430      0.0717      6.4836    166.0697     25.4273
   893.7000      8.0329      2.5360      0.0858      6.9109    160.4063     25.2663
   893.8000      8.0445      2.5132      0.0668      8.2896    154.4277     24.9907
   893.9000      8.0445      2.4827      0.0190     10.1398    156.4093     24.7163
   894.0000      8.0428      2.4704      0.0036     10.8858    168.1911     24.6089
   894.1000      8.0428      2.4735      0.0824     10.6965    178.8445     24.8913
   894.2000      8.0428      2.4720      0.0407     10.7878    178.2531     25.1942
   894.3000      8.0418      2.4698      0.0638     10.9218    171.2828     24.9604
   894.4000      8.0418      2.4702      0.0767     10.8993    169.9471     24.7909
   894.5000      8.0481      2.4772      0.0445     10.4746    172.9808     24.9153
   894.6000      8.0481      2.5052      0.0973      8.7731    170.7669     24.9990
   894.7000      8.0481      2.5437      0.1286      6.4433    163.4611     25.1123
   894.8000      8.0281      2.5703      0.1468      4.8290    158.7003     24.6913
   894.9000      8.0281      2.5867      0.1470      3.8380    156.7274     23.7422
   895.0000      7.9930      2.6073      0.1440      2.5857    150.0778     23.2750
   895.1000      7.9930      2.6276      0.1988      1.3575    138.4558     23.1084
   895.2000      7.9930      2.6203      0.1715      1.7982    131.1642     22.7899
   895.3000      7.9847      2.5807      0.1419      4.1977    136.4646     22.6593
   895.4000      7.9847      2.5403      0.0686      6.6474    144.7069     22.6021
   895.5000      7.9751      2.5263      0.0421      7.4982    140.8009     22.3314
   895.6000      7.9751      2.5390      0.0369      6.7261    128.9183     22.3319
   895.7000      7.9751      2.5596      0.1054      5.4792    117.6608     23.0877
   895.8000      7.9760      2.5669      0.1122      5.0347    112.2190     24.2203
   895.9000      7.9760      2.5626      0.0803      5.2948    118.4429     24.7720
   896.0000      8.0328      2.5646      0.0430      5.1770    132.5561     24.7069
   896.1000      8.0328      2.5736      0.1040      4.6318    143.1302     25.0878
   896.2000      8.0328      2.5709      0.0938      4.7910    145.8333     26.4564
   896.3000      8.0465      2.5550      0.0455      5.7566    146.8148     28.6386
   896.4000      8.0465      2.5440      0.1314      6.4270    148.5023     31.7262
   896.5000      8.0430      2.5537      0.0858      5.8336    143.8990     35.2538
   896.6000      8.0430      2.5960      0.0498      3.2711    132.3763     37.7347
   896.7000      8.0430      2.6704      0.1309     -1.2370    123.7270     38.5185
   896.8000      8.0146      2.7713      0.1184     -7.3522    121.8457     38.1602
   896.9000      8.0146      2.9004      0.1211    -15.1750    120.9037     37.1160
   897.0000      7.9922      3.0337      0.2346    -23.2567    116.9090     35.1823
   897.1000      7.9922      3.1206      0.2309    -28.5237    109.1825     32.7866
   897.2000      7.9922      3.1362      0.2524    -29.4692     98.5752     31.1160
   897.3000      8.0099      3.0885      0.1756    -26.5746     90.5129     29.9148
   897.4000      8.0099      2.9980      0.0074    -21.0909     88.5517     28.3394
   897.5000      8.0175      2.8859     -0.1366    -14.2942     89.9751     26.7072
   897.6000      8.0175      2.7797     -0.2783     -7.8619     91.1226     25.6104
   897.7000      8.0175      2.7050     -0.1990     -3.3304     92.2784     24.9717
   897.8000      8.0024      2.6571     -0.1495     -0.4324     96.9915     24.2921
   897.9000      8.0024      2.6278     -0.1367      1.3470    104.7798     23.4352
   898.0000      7.9706      2.6227      0.0124      1.6566    111.7896     22.5675
   898.1000      7.9706      2.6388      0.0574      0.6765    115.8632     21.9812
   898.2000      7.9706      2.6558      0.2004     -0.3532    116.6098     21.4898
   898.3000      7.9782      2.6498      0.1858      0.0101    113.6748     20.9617
   898.4000      7.9782      2.6252      0.1299      1.5022    109.0202     20.9717
   898.5000      7.9988      2.5979      0.1269      3.1560    107.2723     21.4824
   898.6000      7.9988      2.5639      0.0650      5.2178    107.9171     21.8534
   898.7000      7.9988      2.5238      0.0462      7.6503    110.9374     21.8633
   898.8000      7.9653      2.4937      0.0181      9.4744    119.1088     21.5550
   898.9000      7.9653      2.4793      0.0506     10.3477    129.3081     20.9964
   899.0000      8.0082      2.4694      0.0596     10.9427    135.2973     20.5140
   899.1000      8.0082      2.4615     -0.0175     11.4236    134.9721     20.4988
   899.2000      8.0082      2.4707      0.0112     10.8660    133.0721     20.9297
   899.3000      8.0106      2.5054      0.0821      8.7636    133.4702     21.3131
   899.4000      8.0106      2.5519      0.1224      5.9425    132.8042     21.4445
   899.5000      8.0261      2.5833      0.2109      4.0426    130.0699     21.5983
   899.6000      8.0261      2.5803      0.2147      4.2227    126.4627     21.8853
   899.7000      8.0261      2.5545      0.1589      5.7853    122.5624     22.1339
   899.8000      7.9952      2.5282      0.1649      7.3828    121.2066     21.9283
   899.9000      7.9952      2.5111      0.1172      8.4153    122.7742     21.1515
   900.0000      7.9718      2.5119      0.0994      8.3699    124.2599     20.3637
   900.1000      7.9718      2.5394      0.1138      6.7038    126.6965     19.8641
   900.2000      7.9718      2.5905      0.1629      3.6069    135.4451     19.4516
   900.3000      7.9530      2.6436      0.1957      0.3879    147.2239     19.4678
   900.4000      7.9530      2.6722      0.2149     -1.3470    152.3572     20.5586
   900.5000      7.9824      2.6637      0.2437     -0.8287    149.3815     22.3097
   900.6000      7.9824      2.6190      0.1868      1.8795    143.1962     23.2118
   900.7000      7.9824      2.5552      0.1513      5.7434    140.3487     22.9936
   900.8000      8.0259      2.5087      0.0615      8.5660    144.7502     22.9751
   900.9000      8.0259      2.5021      0.0991      8.9625    153.5066     23.5646
   901.0000      8.0062      2.5141      0.1110      8.2380    160.2332     24.3157
   901.1000      8.0062      2.5176      0.0630      8.0249    160.8195     25.1227
   901.2000      8.0062      2.5229      0.0299      7.7014    158.7120     25.8876
   901.3000      8.0185      2.5440      0.1028      6.4215    161.1755     26.1808
   901.4000      8.0185      2.5662      0.1455      5.0761    164.7577     25.6335
   901.5000      8.0508      2.5780      0.1412      4.3653    165.1282     24.6587
   901.6000      8.0508      2.5865      0.1284      3.8472    167.4201     23.8518
   901.7000      8.0508      2.5907      0.1680      3.5955    171.3881     23.3448
   901.8000      8.0444      2.5785      0.1415      4.3336    169.3814     23.4446
   901.9000      8.0444      2.5495      0.1099      6.0893    161.5283     24.1458
   902.0000      8.0068      2.5197      0.0600      7.8971    156.9374     24.4270
   902.1000      8.0068      2.5071      0.0375      8.6624    156.1429     23.8846
   902.2000      8.0068      2.5120      0.0967      8.3638    151.4935     23.4259
   902.3000      8.0015      2.5208      0.0937      7.8303    144.0301     23.4126
