~Version Information
VERS.                      2.0: CWLS Log ASCII Standard - VERSION 2.0
WRAP.                       NO: One line per depth step
~Well Information Block
STRT.FT               621.2500: 
STOP.FT               951.7500: 
STEP.FT                 0.2500: 
NULL.                -999.2500: 
COMP.          Pioneer Natural Resources: COMPANY
WELL.          Screamin 12-29 Tr: WELL
FLD.           Purgatoire River: FIELD
LOC.           1979' FNL & 532' FWL--: LOCATION
CNTY.               Las Animas: COUNTY
SRVC.                Patterson: SERVICE COMPANY
DATE.          Fri Mar 31 01:01:50 2006: LOG DATE
UWI.           05 071 08660 00: UNIQUE WELL ID
STAT.                 Colorado: STATE
~Curve Information Block
DEPT.FT            0 000 00 00: Depth
SN.Ohm-m                      : IEL Short Normal
SP.mV                         : IEL Spontaneous Potential
DIR.Ohm-m                     : IEL Induction Resistivity
GR.GAPI                       : Gamma Ray
~Parameter Information Block
~A  Depth        SN          SP         DIR          GR     
# ...
   721.7500    375.3117   -554.5953     14.7632    105.4303
   722.0000    436.1124   -554.7928     14.1668    106.0709
   722.2500    501.9134   -554.9473     13.4331    108.1851
   722.5000    550.6095   -555.0579     12.6634    114.1620
   722.7500    572.6183   -555.1285     11.9178    119.0942
   723.0000    565.6827   -555.1660     11.2285    125.7863
   723.2500    526.9545   -555.1774     10.6118    129.0567
   723.5000    454.0751   -555.1693     10.0735    132.2964
   723.7500    354.0027   -555.1467      9.6121    133.9564
   724.0000    246.9816   -555.1134      9.2219    136.7696
   724.2500    157.4090   -555.0726      8.8944    138.9912
   724.5000    100.0483   -555.0269      8.6197    141.9037
   724.7500     76.3284   -554.9791      8.3872    142.7258
   725.0000     82.9798   -554.9327      8.1871    141.4578
   725.2500    120.7196   -554.8913      8.0111    139.1432
   725.5000    191.9976   -554.8585      7.8528    134.7069
   725.7500    290.3864   -554.8375      7.7070    131.9115
   726.0000    395.5536   -554.8301      7.5689    128.6950
   726.2500    482.7158   -554.8369      7.4343    127.1208
   726.5000    537.7427   -554.8563      7.3017    125.1234
   726.7500    561.6368   -554.8859      7.1730    123.9982
   727.0000    562.7487   -554.9224      7.0544    123.1872
   727.2500    549.6783   -554.9623      6.9547    123.5043
   727.5000    531.6458   -555.0020      6.8834    124.8589
   727.7500    518.8123   -555.0386      6.8486    125.8007
   728.0000    516.6508   -555.0694      6.8558    126.7948
   728.2500    521.5029   -555.0922      6.9076    127.2459
   728.5000    525.3889   -555.1055      7.0037    127.6239
   728.7500    525.1036   -555.1082      7.1419    127.4684
   729.0000    524.9122   -555.1000      7.3188    126.3840
   729.2500    530.0707   -555.0818      7.5303    125.2298
   729.5000    538.2772   -555.0545      7.7717    123.2240
   729.7500    538.2064   -555.0198      8.0364    121.6701
   730.0000    518.3198   -554.9794      8.3145    118.4125
   730.2500    479.7076   -554.9355      8.5921    115.2930
   730.5000    440.9342   -554.8907      8.8530    109.5089
   730.7500    426.7202   -554.8480      9.0828    105.7937
   731.0000    447.9966   -554.8109      9.2734    102.4774
   731.2500    493.1003   -554.7830      9.4249    102.4982
   731.5000    538.9328   -554.7673      9.5430    105.2732
   731.7500    567.9310   -554.7657      9.6359    107.8257
   732.0000    573.7758   -554.7779      9.7118    111.2453
   732.2500    557.1938   -554.8016      9.7805    113.2477
   732.5000    523.7468   -554.8323      9.8554    116.4973
   732.7500    486.1135   -554.8641      9.9529    118.8517
   733.0000    461.9979   -554.8891     10.0900    121.7691
   733.2500    463.7636   -554.8979     10.2801    122.6861
   733.5000    489.5916   -554.8796     10.5313    122.2116
   733.7500    526.1904   -554.8185     10.8480    120.9839
   734.0000    559.4063   -554.6859     11.2342    118.5216
   734.2500    581.9745   -554.4333     11.6961    116.6612
   734.5000    593.8679   -553.9844     12.2419    113.5648
   734.7500    598.1314   -553.2283     12.8776    111.4906
   735.0000    596.3862   -552.0205     13.5993    109.2250
   735.2500    585.8193   -550.1989     14.3824    108.7575
   735.5000    558.4925   -547.6196     15.1706    109.5744
   735.7500    505.0370   -544.2118     15.8749    110.4447
   736.0000    423.1911   -540.0397     16.3953    110.5234
   736.2500    325.1315   -535.3519     16.6617    109.1632
   736.5000    234.2681   -530.5900     16.6679    105.9326
   736.7500    171.9948   -526.3380     16.4678    104.5982
   737.0000    146.0490   -523.2123     16.1398    106.5668
   737.2500    149.5129   -521.7173     15.7506    110.9967
   737.5000    168.9948   -522.1133     15.3396    120.8233
   737.7500    195.8817   -524.3428     14.9212    128.0382
   738.0000    232.9276   -528.0460     14.4957    137.7757
   738.2500    288.9055   -532.6563     14.0617    142.7819
   738.5000    364.8757   -537.5436     13.6261    147.5526
   738.7500    447.4592   -542.1544     13.2084    149.2028
   739.0000    517.4673   -546.1058     12.8370    150.6890
   739.2500    563.6268   -549.2164     12.5406    151.6746
   739.5000    587.1162   -551.4811     12.3401    153.2250
   739.7500    595.8535   -553.0123     12.2446    153.8552
   740.0000    597.4976   -553.9761     12.2510    153.3456
   740.2500    596.8599   -554.5416     12.3460    151.7747
   740.5000    596.3856   -554.8506     12.5078    147.5845
   740.7500    596.8563   -555.0073     12.7077    143.7605
   741.0000    597.6230   -555.0802     12.9117    137.0807
   741.2500    596.8451   -555.1109     13.0851    132.5176
   741.5000    591.6896   -555.1213     13.1993    126.4696
   741.7500    578.6627   -555.1219     13.2385    123.3933
   742.0000    555.0055   -555.1168     13.2000    120.6595
   742.2500    520.7552   -555.1095     13.0859    120.2327
   742.5000    478.3596   -555.1013     12.8962    121.6144
   742.7500    428.7137   -555.0925     12.6297    123.6217
   743.0000    369.3602   -555.0836     12.2918    127.6629
   743.2500    300.7546   -555.0749     11.9001    130.7064
   743.5000    234.4425   -555.0670     11.4831    135.1342
   743.7500    191.3533   -555.0604     11.0717    137.5767
   744.0000    190.2031   -555.0551     10.6932    140.1319
   744.2500    236.6075   -555.0511     10.3690    141.3202
   744.5000    319.3701   -555.0485     10.1141    143.1340
   744.7500    414.2231   -555.0468      9.9363    144.6936
   745.0000    494.1307   -555.0458      9.8345    147.6334
   745.2500    540.4180   -555.0451      9.7976    149.9166
   745.5000    546.2841   -555.0444      9.8048    153.6557
   745.7500    513.3367   -555.0433      9.8300    156.0764
   746.0000    449.6073   -555.0417      9.8474    158.6631
   746.2500    370.6229   -555.0391      9.8380    159.1570
   746.5000    296.3301   -555.0353      9.7934    157.9567
   746.7500    241.3769   -555.0300      9.7157    156.3758
   747.0000    206.9175   -555.0228      9.6148    153.8292
   747.2500    183.3635   -555.0131      9.5035    152.1321
   747.5000    162.0727   -554.9999      9.3957    149.0504
   747.7500    142.6733   -554.9816      9.3040    146.3716
   748.0000    128.5438   -554.9554      9.2393    141.6159
   748.2500    119.7685   -554.9153      9.2100    138.3262
   748.5000    114.2064   -554.8504      9.2227    133.7472
   748.7500    113.4060   -554.7388      9.2842    131.0880
   749.0000    123.8745   -554.5410      9.4040    127.8055
   749.2500    151.5117   -554.1865      9.5938    126.0550
   749.5000    195.6723   -553.5615      9.8651    123.7859
   749.7500    249.6678   -552.4760     10.2257    122.3622
   750.0000    306.3627   -550.6504     10.6766    120.5314
   750.2500    361.4392   -547.7071     11.2106    119.7946
   750.5000    412.0349   -543.1860     11.8132    119.7259
   750.7500    456.3013   -536.6043     12.4647    120.3109
   751.0000    494.9363   -527.5671     13.1416    121.7136
   751.2500    529.5605   -515.9227     13.8167    122.7252
   751.5000    559.1168   -501.9307     14.4609    124.0626
   751.7500    580.4637   -486.3882     15.0502    124.8073
   752.0000    591.8192   -470.6478     15.5771    125.7144
   752.2500    592.8215   -456.4788     16.0572    126.0069
   752.5000    580.5435   -445.7675     16.5240    125.3194
   752.7500    547.2965   -440.1169     17.0146    123.8508
   753.0000    485.9457   -440.4583     17.5569    120.4519
   753.2500    401.9495   -446.8021     18.1641    117.7394
   753.5000    320.7227   -458.2204     18.8350    112.9613
   753.7500    277.3629   -473.0708     19.5577    109.0070
   754.0000    292.7769   -489.3885     20.3115    102.0790
   754.2500    358.1233   -505.3150     21.0695     97.5366
   754.5000    442.5999   -519.4354     21.8008     92.4346
   754.7500    515.7172   -530.9431     22.4735     90.7387
   755.0000    563.3279   -539.6242     23.0551     90.8401
