~Version Information
VERS.                      2.0: CWLS Log ASCII Standard - VERSION 2.0
WRAP.                       NO: One line per depth step
~Well Information Block
STRT.FT                -7.2500: 
STOP.FT              1196.2500: 
STEP.FT                 0.2500: 
NULL.                -999.2500: 
COMP.          Pioneer Natural Resources: COMPANY
WELL.             Mahalo 12-20: WELL
FLD.           Purgatorie River: FIELD
LOC.           1689' FNL & 479' FWL--: LOCATION
CNTY.               Las Animas: COUNTY
SRVC.          Patterson Wireline: SERVICE COMPANY
DATE.          Tue Mar 14 15:40:32 2006: LOG DATE
UWI.           05 071 08700 00: UNIQUE WELL ID
STAT.                       CO: STATE
~Curve Information Block
DEPT.FT            0 000 00 00: Depth
CCL.                          : Casing Collar Locator
TT3.usec                      : CBL 3' Travel Time
AMP3.mV                       : CBL 3' Amplitude
GR.GAPI                       : Gamma Ray
~Parameter Information Block
~A  Depth       CCL         TT3         AMP3         GR     
# ...
    59.7500      0.0000    263.5741     85.9992     69.4266
    60.0000      0.0000    263.5743     85.8757     68.5702
    60.2500      0.0000    263.5699     85.7871     68.4586
    60.5000      0.0000    263.5625     85.6894     68.8127
    60.7500      0.0000    263.5541     85.5680     69.1171
    61.0000      0.0000    263.5459     85.4280     69.0042
    61.2500      0.0000    263.5395     85.2645     68.7517
    61.5000      0.0000    263.5376     85.0760     69.0424
    61.7500      0.0000    263.5427     84.9018     70.0832
    62.0000      0.0000    263.5554     84.8206     71.3074
    62.2500      0.0000    263.5722     84.9013     72.0506
    62.5000      0.0000    263.5870     85.1521     72.0740
    62.7500      0.0000    263.5946     85.5008     71.3744
    63.0000      0.0000    263.5951     85.8166     70.0139
    63.2500      0.0000    263.5945     85.9715     68.3844
    63.5000      0.0000    263.6003     85.9018     67.2710
    63.7500      0.0000    263.6168     85.6222     67.4675
    64.0000      0.0000    263.6420     85.1902     69.4702
    64.2500      0.0000    263.6682     84.6695     73.3765
    64.5000      0.0000    263.6847     84.1261     78.6966
    64.7500      0.0000    263.6828     83.6390     84.3899
    65.0000      0.0000    263.6616     83.3019     89.5104
    65.2500      0.0000    263.6291     83.2013     93.7043
    65.5000      0.0000    263.5978     83.3627     96.7821
    65.7500      0.0000    263.5786     83.7010     98.0449
    66.0000      0.0000    263.5743     84.0505     96.5944
    66.2500      0.0000    263.5805     84.2748     92.5075
    66.5000      0.0000    263.5899     84.3545     87.4882
    66.7500      0.0000    263.5984     84.3654     83.9979
    67.0000      0.0000    263.6054     84.3816     83.5419
    67.2500      0.0000    263.6115     84.4148     85.8485
    67.5000      0.0000    263.6175     84.4318     89.6206
    67.7500      0.0000    263.6250     84.3925     93.6658
    68.0000      0.0000    263.6376     84.2652     97.0596
    68.2500      0.0000    263.6555     84.0433     98.6903
    68.5000      0.0000    263.6704     83.7790     97.4006
    68.7500      0.0000    263.6693     83.5534     93.0215
    69.0000      0.0000    263.6534     83.3531     87.1756
    69.2500      0.0000    263.6559     82.9753     82.5518
    69.5000      0.0000    263.7440     82.1086     81.0604
    69.7500      0.0000    264.0078     80.5381     82.7775
    70.0000      0.0000    264.5454     78.2441     86.4684
    70.2500      0.0000    265.4337     75.2983     90.3668
    70.5000      0.0000    266.6660     71.7730     92.4855
    70.7500      0.0000    268.0880     67.9184     91.3551
    71.0000      0.0000    269.4240     64.3817     87.0399
    71.2500      0.0000    270.4239     61.9494     80.8897
    71.5000      0.0000    271.0094     60.9350     74.1844
    71.7500      0.0000    271.2733     60.9569     67.5558
    72.0000     -2.0000    271.3607     61.3600     61.7744
    72.2500      2.0000    271.3646     61.7456     58.3116
    72.5000      0.0000    271.2985     62.1938     58.4781
    72.7500      0.0000    271.1109     63.2147     62.1006
    73.0000      0.0000    270.7104     65.4395     67.4208
    73.2500      0.0000    270.0121     69.0362     72.2803
    73.5000      0.0000    269.0063     73.3437     75.3047
    73.7500      0.0000    267.8042     77.3216     76.3008
    74.0000      0.0000    266.6061     80.3800     76.0258
    74.2500      0.0000    265.6066     82.5569     75.5976
    74.5000      0.0000    264.9105     84.0288     75.7797
    74.7500      0.0000    264.5106     84.8249     76.6355
    75.0000      0.0000    264.3235     85.0051     77.7640
    75.2500      0.0000    264.2493     84.8274     78.8041
    75.5000      0.0000    264.2176     84.6360     79.7246
    75.7500      0.0000    264.2002     84.6477     80.6373
    76.0000      0.0000    264.1941     84.8668     81.4611
    76.2500      0.0000    264.1992     85.1676     81.9825
    76.5000      0.0000    264.2090     85.4313     82.1688
    76.7500      0.0000    264.2151     85.6167     82.1224
    77.0000      0.0000    264.2112     85.7401     81.8053
    77.2500      0.0000    264.1936     85.8208     81.0403
    77.5000      0.0000    264.1628     85.8392     79.7571
    77.7500      0.0000    264.1255     85.7426     78.0118
    78.0000      0.0000    264.0949     85.4918     75.7652
    78.2500      0.0000    264.0833     85.1079     72.9855
    78.5000      0.0000    264.0948     84.6810     70.2126
    78.7500      0.0000    264.1234     84.3361     68.8235
    79.0000      0.0000    264.1551     84.1801     70.3507
    79.2500      0.0000    264.1750     84.2521     75.3193
    79.5000      0.0000    264.1755     84.5055     82.5121
    79.7500      0.0000    264.1600     84.8332     89.3654
    80.0000      0.0000    264.1401     85.1235     93.5891
    80.2500      0.0000    264.1275     85.3090     94.9815
    80.5000      0.0000    264.1263     85.3899     95.6249
    80.7500      0.0000    264.1318     85.4224     97.9924
    81.0000      0.0000    264.1363     85.4766    102.7542
    81.2500      0.0000    264.1356     85.5919    108.2600
    81.5000      0.0000    264.1318     85.7632    111.9086
    81.7500      0.0000    264.1291     85.9622    112.0376
    82.0000      0.0000    264.1284     86.1614    108.7459
    82.2500      0.0000    264.1283     86.3388    103.3029
    82.5000      0.0000    264.1281     86.4753     97.3491
    82.7500      0.0000    264.1295     86.5631     92.5408
    83.0000      0.0000    264.1346     86.6108     89.9980
    83.2500      0.0000    264.1442     86.6311     89.5574
    83.5000      0.0000    264.1570     86.6265     90.0019
    83.7500      0.0000    264.1693     86.5900     90.4187
    84.0000      0.0000    264.1771     86.5155     90.9828
    84.2500      0.0000    264.1776     86.4005     92.3159
    84.5000      0.0000    264.1721     86.2429     94.6279
    84.7500      0.0000    264.1658     86.0473     97.5830
    85.0000      0.0000    264.1635     85.8362    100.4826
    85.2500      0.0000    264.1662     85.6472    102.6033
    85.5000      0.0000    264.1710     85.5094    103.8378
    85.7500      0.0000    264.1743     85.4244    104.9646
    86.0000      0.0000    264.1748     85.3767    106.8747
    86.2500      0.0000    264.1740     85.3588    109.5298
    86.5000      0.0000    264.1733     85.3777    112.0716
    86.7500      0.0000    264.1735     85.4402    113.8960
    87.0000      0.0000    264.1739     85.5379    115.1071
    87.2500      0.0000    264.1731     85.6531    115.8257
    87.5000      0.0000    264.1705     85.7721    115.6215
    87.7500      0.0000    264.1657     85.8926    113.9440
    88.0000      0.0000    264.1584     86.0220    110.8938
    88.2500      0.0000    264.1489     86.1728    107.4237
    88.5000      0.0000    264.1386     86.3479    104.9088
    88.7500      0.0000    264.1299     86.5246    104.5341
    89.0000      0.0000    264.1248     86.6573    106.6710
    89.2500      0.0000    264.1237     86.6987    110.5591
    89.5000      0.0000    264.1269     86.6190    114.8083
    89.7500      0.0000    264.1352     86.4088    118.4214
    90.0000      0.0000    264.1497     86.0693    121.0954
    90.2500      0.0000    264.1702     85.6038    122.5840
    90.5000      0.0000    264.1934     85.0273    122.3694
    90.7500      0.0000    264.2119     84.3982    120.2781
    91.0000      0.0000    264.2153     83.8359    117.0846
    91.2500      0.0000    264.1929     83.4823    114.2881
    91.5000      0.0000    264.1415     83.4222    113.2902
    91.7500      0.0000    264.0712     83.6272    114.4665
    92.0000      0.0000    264.0033     83.9731    116.6690
    92.2500      0.0000    263.9582     84.3189    117.8235
    92.5000      0.0000    263.9435     84.5851    116.3597
    92.7500      0.0000    263.9519     84.7756    112.1518
    93.0000      0.0000    263.9700     84.9369    106.3372
