~Version Information
VERS.                      2.0: CWLS Log ASCII Standard - VERSION 2.0
WRAP.                       NO: One line per depth step
~Well Information Block
STRT.FT                -8.5000: 
STOP.FT              1263.2500: 
STEP.FT                 0.2500: 
NULL.                -999.2500: 
COMP.          Pioneer Natural Resources: COMPANY
WELL.          Rockfish 11-30 Tr: WELL
FLD.           Purgatoire River: FIELD
LOC.           1063' FNL & 1068' FWL--: LOCATION
STAT.                       CO: State
CNTY.               Las Animas: COUNTY
CTRY. USA : country
SECT. 30 : Section
TOWN. 32S : Township
RANG. 65W : Range
SRVC.          Patterson Wireline: SERVICE COMPANY
DATE.          Tue Nov 22 16:08:49 2005: LOG DATE
API.           05 071 08585 00: UNIQUE WELL ID
~Curve Information Block
DEPT.FT            0 000 00 00: Depth
HVOLTA.V                      : Head Voltage Apparent
CCL.                          : Casing Collar Locator
TT3.usec                      : CBL 3' Travel Time
AMP3.mV                       : CBL 3' Amplitude
GR.GAPI                       : Gamma Ray
~Parameter Information Block
PPT.usec                0.0000: Predicted Pipe Time
~A  Depth      HVOLTA       CCL         TT3         AMP3         GR     
# ...
   635.5000     96.2576      0.0000    680.9228     19.3794     90.2923
   635.7500     96.3123      0.0000    745.8286     18.9295     86.9762
   636.0000     96.2548      0.0000    805.6934     18.7795     82.1405
   636.2500     96.1917      0.0000    846.8621     18.9383     76.5412
   636.5000     96.2773      0.0000    855.8932     19.3195     71.0430
   636.7500     96.3740      0.0000    823.3231     19.8050     66.8816
   637.0000     96.1903      2.0000    748.6919     20.3259     65.5688
   637.2500     96.5801      0.0000    647.4867     20.8968     68.1237
   637.5000     95.1737      0.0000    546.3923     21.6123     74.3866
   637.7500     96.4019      0.0000    466.2764     22.5556     83.0372
   638.0000     96.3291      0.0000    411.9090     23.6406     92.0553
   638.2500     96.2492      0.0000    377.2613     24.6240     99.1854
   638.5000     96.1945      0.0000    355.1278     25.3696    102.5472
   638.7500     96.2281      0.0000    340.9782     25.9738    101.5040
   639.0000     96.2506      0.0000    332.3076     26.5394     97.1155
   639.2500     96.5101      0.0000    327.4896     26.9871     91.4192
   639.5000     96.3095      0.0000    325.2143     27.1942     86.1472
   639.7500     96.2169      0.0000    324.3751     27.1727     82.3396
   640.0000     96.1384      0.0000    324.1853     27.0265     80.7708
   640.2500     96.3796      0.0000    324.2304     26.8275     81.7023
   640.5000     96.2197      0.0000    324.3433     26.5967     84.0267
   640.7500     96.2478      0.0000    324.4649     26.3599     85.5862
   641.0000     96.2590      0.0000    324.5606     26.1703     85.0172
   641.2500     96.2787      0.0000    324.6042     26.0834     83.1685
   641.5000     96.2759      0.0000    324.5892     26.1263     82.4098
   641.7500     96.2295      0.0000    324.5266     26.2899     84.4260
   642.0000     96.3193      0.0000    324.4357     26.5393     88.5440
   642.2500     96.3529      0.0000    324.3344     26.8285     91.9834
   642.5000     96.3348      0.0000    324.2346     27.1147     91.9126
   642.7500     96.3390      0.0000    324.1458     27.3633     87.7168
   643.0000     96.3418      0.0000    324.0793     27.5442     81.2723
   643.2500     96.1425      0.0000    324.0447     27.6360     74.8254
   643.5000     96.1959      0.0000    324.0422     27.6408     69.1188
   643.7500     96.3081      0.0000    324.0604     27.5948     63.8449
   644.0000     96.2323      0.0000    324.0847     27.5541     58.9229
   644.2500     96.3165      0.0000    324.1043     27.5644     54.5417
   644.5000     96.2773      0.0000    324.1125     27.6404     50.6863
   644.7500     96.2239      0.0000    324.1035     27.7698     47.4577
   645.0000     96.4274      0.0000    324.0746     27.9242     45.3706
   645.2500     96.3053      0.0000    324.0306     28.0645     44.5921
   645.5000     96.2464      0.0000    323.9846     28.1464     44.2174
   645.7500     96.2759      0.0000    323.9501     28.1383     42.9745
   646.0000     96.3081      0.0000    323.9323     28.0391     40.6282
   646.2500     96.3095      0.0000    323.9268     27.8795     38.3311
   646.5000     96.2295      0.0000    323.9241     27.7133     37.4612
   646.7500     96.2815      0.0000    323.9158     27.6044     38.1211
   647.0000     96.2759      0.0000    323.8982     27.6052     38.8559
   647.2500     96.3418      0.0000    323.8734     27.7306     37.9878
   647.5000     96.3123      0.0000    323.8452     27.9521     35.2812
   647.7500     96.3979      0.0000    323.8157     28.2173     32.1646
   648.0000     96.2534      0.0000    323.7869     28.4748     30.2776
   648.2500     96.2717      0.0000    323.7639     28.6884     30.0696
   648.5000     96.2562      0.0000    323.7509     28.8498     31.0635
   648.7500     96.2267      0.0000    323.7465     28.9879     33.0889
   649.0000     96.1917      0.0000    323.7432     29.1548     36.4627
   649.2500     96.3726      0.0000    323.7325     29.3892     40.8347
   649.5000     96.2295      0.0000    323.7097     29.6934     44.6051
   649.7500     96.1917      0.0000    323.6761     30.0356     45.9524
   650.0000     96.2801      0.0000    323.6385     30.3671     44.2812
   650.2500     96.3754      0.0000    323.6044     30.6424     40.6813
   650.5000     96.3137      0.0000    323.5749     30.8423     37.3195
   650.7500     96.3109      0.0000    323.5437     30.9833     36.2178
   651.0000     96.2239      0.0000    323.5039     31.1011     37.8921
   651.2500     96.2562      0.0000    323.4573     31.2223     40.9188
   651.5000     96.3432      0.0000    323.4120     31.3570     43.2556
   651.7500     96.0724      0.0000    323.3744     31.5092     44.1346
   652.0000     96.2281      0.0000    323.3433     31.6796     44.4160
   652.2500     96.2281      0.0000    323.3144     31.8561     45.2337
   652.5000     96.2759      0.0000    323.2855     32.0108     46.6718
   652.7500     96.2478      0.0000    323.2584     32.1153     47.7828
   653.0000     96.2787      0.0000    323.2368     32.1629     47.6957
   653.2500     96.2281      0.0000    323.2213     32.1807     46.4819
   653.5000     96.1075      0.0000    323.2077     32.2199     44.8115
   653.7500     96.2534      0.0000    323.1895     32.3226     43.1607
   654.0000     96.3137      0.0000    323.1628     32.4904     41.8413
   654.2500     96.1369      0.0000    323.1269     32.6865     41.3294
   654.5000     96.1692      0.0000    323.0829     32.8675     41.8465
   654.7500     96.2506      0.0000    323.0344     33.0041     42.8663
   655.0000     96.2169      0.0000    322.9902     33.0731     43.5624
   655.2500     96.2562      0.0000    322.9590     33.0472     43.5709
   655.5000     96.2197      0.0000    322.9421     32.8994     43.0772
   655.7500     96.2506      0.0000    322.9335     32.6165     42.4632
   656.0000     96.3810      0.0000    322.9304     32.2047     42.1580
   656.2500     96.2773      0.0000    322.9372     31.6921     42.5833
   656.5000     96.1678      0.0000    322.9580     31.1302     43.8995
   656.7500     96.2267      0.0000    322.9864     30.5899     45.8904
   657.0000     96.2183      0.0000    323.0066     30.1461     48.2574
   657.2500     96.3418      0.0000    323.0057     29.8551     50.7980
   657.5000     96.2253      0.0000    322.9832     29.7334     53.0771
   657.7500     96.2745      0.0000    322.9515     29.7507     54.2512
   658.0000     96.3684      0.0000    322.9248     29.8437     53.5975
   658.2500     96.3123      0.0000    322.9078     29.9465     51.2164
   658.5000     96.1397      0.0000    322.8947     30.0142     48.1729
   658.7500     96.2225      0.0000    322.8794     30.0234     45.9173
   659.0000     96.2253      0.0000    322.8641     29.9606     45.3025
   659.2500     96.2590      0.0000    322.8574     29.8225     46.0531
   659.5000     96.1664      0.0000    322.8636     29.6331     47.3127
   659.7500     96.2183      0.0000    322.8769     29.4489     48.4681
   660.0000     96.1622      0.0000    322.8856     29.3332     49.1130
   660.2500     96.3684      0.0000    322.8806     29.3148     48.6105
   660.5000     96.3039      0.0000    322.8625     29.3656     46.4769
   660.7500     96.2773      0.0000    322.8440     29.4148     43.2777
   661.0000     96.2548      0.0000    322.8418     29.3881     40.5857
   661.2500     96.3123      0.0000    322.8659     29.2449     39.7439
   661.5000     96.3362      0.0000    322.9148     28.9887     40.8208
   661.7500     96.1903      0.0000    322.9820     28.6532     42.8768
   662.0000     96.1987      0.0000    323.0623     28.2797     45.0128
   662.2500     96.2211      0.0000    323.1507     27.9046     46.9049
   662.5000     96.2380      0.0000    323.2408     27.5544     48.4192
   662.7500     96.2323      0.0000    323.3296     27.2374     49.2100
   663.0000     96.1973      0.0000    323.4196     26.9445     49.2519
   663.2500     96.1875      0.0000    323.5127     26.6697     49.7537
