~Version Information
 VERS.                                  2.0 : CWLS LAS VERSION
 WRAP.                                   NO : WRAPING MODE
 SWARE .                 MController 2.5.0N : SOFTWARE VERSION
~Well Information
 WELL.                   Old Faithful 21-02 : WELL
 COMP.    Pioneer Natural Resouces USA Inc. : COMPANY
 FLD.                      Purgatoire River : FIELD
 LOC.              NE/NW Sec 2 , T35S, R65W : LOCATION
 DATE.                             12/06/05 : DATE(S) LOGGED
 SRVC.       BLANCO Geological Services LLC : SERVICE COMPANY
 STAT.                                   CO : STATE
 CNTY.                           Las Animas : COUNTY
 CTRY.                                  USA : COUNTRY
 API.                          05-071-08617 : API NUMBER
 STRT.FT                             182.00 : START DEPTH
 STOP.FT                            1470.00 : STOP DEPTH
 STEP.FT                               1.00 : DEPTH INCREMENT
 NULL.                                -9999 : NULL VALUE
~Curve information
 DEPTH.FT                                   :
 ROP.MIN/FT                                 :
 GAS.UNITS                                  :
~ASCII Log data
       182.0     -9999.00          6.2 
       183.0         3.58          8.3 
       184.0         2.20          8.6 
       185.0         0.13          8.1 
       186.0         0.17          8.6 
       187.0         0.13          8.3 
       188.0         0.18          8.4 
       189.0         0.13          8.4 
       190.0         0.13          8.3 
       191.0         0.17          8.4 
       192.0         0.17          8.7 
       193.0         0.13          8.3 
       194.0         0.17          8.8 
       195.0         0.13          8.6 
       196.0         0.17          8.4 
       197.0         0.13          8.3 
       198.0         0.17          8.1 
       199.0         0.13          8.6 
       200.0         0.27          8.0 
       201.0         2.35          8.9 
       202.0         0.13          8.8 
       203.0         0.10          8.7 
       204.0         0.13          8.7 
       205.0         0.10          8.8 
       206.0         0.13          8.9 
       207.0         0.13          9.0 
       208.0         0.10          8.5 
       209.0         0.13          8.9 
       210.0         0.10          9.1 
       211.0         0.13          8.9 
       212.0         0.13          8.9 
       213.0         0.13          8.9 
       214.0         0.10          9.1 
       215.0         0.13          8.5 
       216.0         0.13          8.8 
       217.0         0.10          8.6 
       218.0         0.13          8.6 
       219.0         0.13          8.8 
       220.0         0.15          9.0 
       221.0         0.10          8.5 
       222.0         0.17          8.4 
       223.0         0.10          8.6 
       224.0         0.13          8.7 
       225.0         0.13          8.8 
       226.0         0.13          8.4 
       227.0         0.10          8.8 
       228.0         0.13          8.6 
       229.0         0.40          8.9 
       230.0         0.10          8.6 
       231.0         3.12          9.4 
       232.0         0.17          8.6 
       233.0         0.13          8.9 
       234.0         0.13          9.1 
       235.0         0.13          8.6 
       236.0         0.17          9.3 
       237.0         0.13          9.0 
       238.0         0.13          8.5 
       239.0         0.13          8.8 
       240.0         0.13          9.3 
       241.0         0.13          8.7 
       242.0         0.13          8.9 
       243.0         0.17          8.9 
       244.0         0.13          8.6 
       245.0         0.13          8.9 
       246.0         0.15          8.6 
       247.0         0.13          8.6 
       248.0         0.17          8.8 
       249.0         0.13          8.6 
       250.0         0.10          9.0 
       251.0         0.13          8.6 
       252.0         0.10          8.8 
       253.0         0.13          8.3 
       254.0         0.13          8.6 
       255.0         0.13          7.7 
       256.0         0.13          8.6 
       257.0         0.17          8.8 
       258.0         0.13          8.7 
       259.0         0.37          9.2 
       260.0         0.10          8.8 
       261.0         3.25         10.3 
       262.0         0.23          9.2 
       263.0         0.33          9.9 
       264.0         0.37         10.0 
       265.0         0.30         11.0 
       266.0         0.32         10.6 
       267.0         0.20         10.2 
       268.0         0.17         10.5 
       269.0         0.17         10.1 
       270.0         0.20         10.3 
       271.0         0.17         10.5 
       272.0         0.13         10.8 
       273.0         0.17         10.1 
       274.0         0.20         10.9 
       275.0         0.17         10.2 
       276.0         0.23         10.3 
       277.0         0.20         10.0 
       278.0         0.20         10.2 
       279.0         0.20         10.5 
       280.0         0.20         10.0 
       281.0         0.27         10.8 
       282.0         0.28         10.6 
       283.0         0.20         10.3 
       284.0         0.23         11.0 
       285.0         0.17         10.6 
       286.0         0.17         10.9 
       287.0         0.20         10.7 
       288.0         0.47         10.8 
       289.0         0.20         10.3 
       290.0         0.47         10.4 
       291.0         2.95         11.4 
       292.0         0.27         10.8 
       293.0         0.30         11.5 
       294.0         0.30         11.4 
       295.0         0.23         11.5 
       296.0         0.17         11.5 
       297.0         0.17         11.4 
       298.0         0.18         12.0 
       299.0         0.17         11.2 
       300.0         0.30         11.7 
       301.0         0.33         11.4 
       302.0         0.30         11.2 
       303.0         0.27         10.8 
       304.0         0.33         10.8 
       305.0         0.27         11.3 
       306.0         0.33         10.9 
       307.0         0.23          9.8 
       308.0         0.27         10.4 
       309.0         0.27         10.2 
       310.0         0.32         11.3 
       311.0         0.30         10.7 
       312.0         0.37         11.1 
       313.0         0.27         11.2 
       314.0         0.20         11.2 
       315.0         0.17         11.4 
       316.0         0.17         10.8 
       317.0         0.20         12.1 
       318.0         0.17         11.2 
       319.0         0.27         11.6 
       320.0         0.10         12.2 
       321.0         3.38         11.5 
       322.0         0.30         10.6 
       323.0         0.30          9.9 
       324.0         0.27         10.9 
       325.0         0.28         10.7 
       326.0         0.30         11.3 
       327.0         0.27         10.6 
       328.0         0.27         10.2 
       329.0         0.20         10.5 
       330.0         0.20         10.4 
       331.0         0.20         10.2 
       332.0         0.20          9.8 
       333.0         0.23          9.5 
       334.0         0.43         10.4 
       335.0         0.20          9.5 
       336.0         0.20         10.0 
       337.0         0.20         10.0 
       338.0         0.23          9.9 
       339.0         0.25         10.0 
       340.0         0.20         10.0 
       341.0         0.20         10.6 
       342.0         0.23         11.0 
       343.0         0.20         10.7 
       344.0         0.20         10.6 
       345.0         0.20         10.2 
       346.0         0.20         10.7 
       347.0         0.23         10.2 
       348.0         0.27         10.6 
       349.0         0.40         10.1 
       350.0         0.10         10.4 
       351.0         3.12         10.6 
       352.0         0.33         10.3 
       353.0         0.50         11.0 
       354.0         0.45         10.2 
       355.0         0.40         10.6 
       356.0         0.37         10.7 
       357.0         0.43         10.9 
       358.0         0.40         10.6 
       359.0         0.50         10.4 
       360.0         0.43         10.7 
       361.0         0.33         10.0 
       362.0         0.38         10.7 
       363.0         0.40         10.9 
       364.0         0.57         10.3 
       365.0         0.40         10.8 
       366.0         0.47         10.4 
       367.0         0.40         10.1 
       368.0         0.40         10.3 
       369.0         0.43         10.4 
       370.0         0.45         10.7 
       371.0         0.50         10.4 
       372.0         0.33         10.7 
       373.0         0.30         10.5 
       374.0         0.30         11.4 
       375.0         0.27         10.7 
       376.0         0.30         10.4 
       377.0         0.27         10.5 
       378.0         0.23         11.0 
       379.0         0.82         11.3 
       380.0         0.10         10.8 
       381.0         3.42         11.6 
