~Version Information
VERS.                      2.0: CWLS Log ASCII Standard - VERSION 2.0
WRAP.                       NO: One line per depth step
~Well Information Block
STRT.FT               875.0000: 
STOP.FT              2054.5000: 
STEP.FT                 0.2500: 
NULL.                -999.2500: 
COMP.          Pioneer Natural Resources: COMPANY
WELL.          Woodstock 43-19: WELL
FLD.           Purgatoire River: FIELD
LOC.           2195' FSL & 250' FEL: LOCATION
CNTY.               Las Animas: COUNTY
SRVC.                Patterson: SERVICE COMPANY
DATE.          Thu Feb 02 03:08:19 2006: LOG DATE
UWI.           05 071 08677 00: UNIQUE WELL ID
STAT.                 Colorado: STATE
~Curve Information Block
DEPT.FT            0 000 00 00: Depth
SN.Ohm-m                      : IEL Short Normal
SP.mV                         : IEL Spontaneous Potential
DIR.Ohm-m                     : IEL Induction Resistivity
GR.GAPI                       : Gamma Ray
~Parameter Information Block
~A  Depth        SN          SP         DIR          GR     
# ...
  1779.5000     20.6525     62.6727     15.0197     69.3052
  1779.7500     19.9569     62.9874     14.7475     67.7186
  1780.0000     18.8115     63.3757     14.4284     67.6748
  1780.2500     17.4316     63.8060     14.0890     69.8381
  1780.5000     16.0946     64.2438     13.7494     75.4165
  1780.7500     15.0005     64.6544     13.4177     79.5079
  1781.0000     14.1801     65.0065     13.0912     84.7965
  1781.2500     13.5721     65.2746     12.7621     87.5542
  1781.5000     13.1833     65.4430     12.4247     90.7223
  1781.7500     13.0319     65.5092     12.0803     92.4212
  1782.0000     12.9895     65.4867     11.7380     94.6886
  1782.2500     12.8748     65.4037     11.4129     95.8654
  1782.5000     12.6799     65.2969     11.1221     96.4226
  1782.7500     12.5038     65.2042     10.8810     95.9918
  1783.0000     12.3431     65.1559     10.7007     95.4118
  1783.2500     12.1952     65.1675     10.5858     95.7955
  1783.5000     12.1687     65.2380     10.5350     97.2272
  1783.7500     12.2877     65.3542     10.5446     98.0084
  1784.0000     12.4338     65.4984     10.6119     98.5532
  1784.2500     12.5569     65.6554     10.7356     99.0266
  1784.5000     12.7143     65.8139     10.9130    100.5683
  1784.7500     12.9120     65.9675     11.1353    101.8304
  1785.0000     13.0966     66.1172     11.3859    103.0144
  1785.2500     13.2694     66.2737     11.6438    102.8971
  1785.5000     13.4700     66.4495     11.8891    100.8669
  1785.7500     13.7076     66.6464     12.1063     98.2110
  1786.0000     13.9848     66.8514     12.2835     93.3008
  1786.2500     14.3578     67.0478     12.4126     90.5667
  1786.5000     14.9395     67.2273     12.4907     88.6333
  1786.7500     15.7653     67.3896     12.5212     88.6169
  1787.0000     16.6084     67.5354     12.5106     89.2142
  1787.2500     17.0486     67.6660     12.4637     89.4935
  1787.5000     16.8167     67.7852     12.3809     89.9140
  1787.7500     16.0071     67.8993     12.2597     90.6916
  1788.0000     14.9791     68.0127     12.0980     93.0745
  1788.2500     14.1240     68.1261     11.8964     95.1656
  1788.5000     13.6239     68.2391     11.6592     97.7272
  1788.7500     13.3431     68.3508     11.3953     98.3127
  1789.0000     13.0438     68.4578     11.1179     97.1723
  1789.2500     12.6712     68.5523     10.8427     95.4618
  1789.5000     12.3059     68.6251     10.5847     92.4932
  1789.7500     11.9910     68.6694     10.3551     90.7103
  1790.0000     11.7443     68.6819     10.1605     88.9716
  1790.2500     11.6250     68.6595     10.0032     88.8812
  1790.5000     11.7080     68.6003      9.8829     90.8537
  1790.7500     11.9855     68.5074      9.7976     93.3185
  1791.0000     12.3088     68.3921      9.7429     97.3529
  1791.2500     12.4906     68.2709      9.7112     99.4124
  1791.5000     12.4950     68.1602      9.6917    100.8632
  1791.7500     12.4258     68.0718      9.6740    100.9141
  1792.0000     12.3655     68.0082      9.6513    100.6643
  1792.2500     12.3674     67.9595      9.6240    100.9397
  1792.5000     12.4839     67.9041      9.5982    102.2183
  1792.7500     12.6910     67.8195      9.5833    103.0803
  1793.0000     12.8779     67.6973      9.5884    103.3929
  1793.2500     12.9481     67.5513      9.6215    103.0804
  1793.5000     12.8704     67.4061      9.6899    103.0147
  1793.7500     12.6819     67.2748      9.7982    103.6290
  1794.0000     12.5219     67.1448      9.9464    104.8784
  1794.2500     12.5414     66.9798     10.1291    105.2934
  1794.5000     12.7118     66.7281     10.3383    105.1167
  1794.7500     12.8810     66.3322     10.5669    104.8737
  1795.0000     13.0034     65.7456     10.8085    104.6714
  1795.2500     13.1275     64.9560     11.0541    104.2421
  1795.5000     13.2606     63.9979     11.2915    102.0048
  1795.7500     13.3876     62.9425     11.5097     99.1678
  1796.0000     13.5363     61.8707     11.7068     93.6015
  1796.2500     13.7334     60.8518     11.8927     89.7239
  1796.5000     13.9387     59.9357     12.0859     84.2606
  1796.7500     14.0719     59.1534     12.3069     80.8356
  1797.0000     14.0998     58.5186     12.5724     76.5213
  1797.2500     14.1188     58.0311     12.8902     75.0987
  1797.5000     14.2721     57.6774     13.2535     76.6178
  1797.7500     14.5798     57.4303     13.6354     80.0789
  1798.0000     14.9693     57.2550     13.9877     87.4057
  1798.2500     15.3635     57.1229     14.2482     92.4469
  1798.5000     15.6506     57.0210     14.3601     98.4216
  1798.7500     15.7260     56.9495     14.2992    100.9310
  1799.0000     15.6181     56.9126     14.0891    103.1939
  1799.2500     15.4844     56.9167     13.7908    104.4069
  1799.5000     15.5106     56.9751     13.4719    105.9528
  1799.7500     15.7658     57.1103     13.1791    106.1903
  1800.0000     16.0807     57.3478     12.9286    104.5256
  1800.2500     16.2346     57.7041     12.7132    102.3035
  1800.5000     16.2323     58.1758     12.5161     98.4639
  1800.7500     16.2132     58.7367     12.3225     96.1251
  1801.0000     16.2725     59.3436     12.1260     93.4638
  1801.2500     16.4079     59.9494     11.9303     92.4356
  1801.5000     16.4909     60.5188     11.7473     91.9590
  1801.7500     16.3729     61.0356     11.5944     91.9971
  1802.0000     16.0419     61.4977     11.4882     91.8986
  1802.2500     15.6358     61.9055     11.4393     91.6307
  1802.5000     15.3141     62.2541     11.4487     91.1450
  1802.7500     15.1140     62.5355     11.5093     90.7737
  1803.0000     14.9726     62.7462     11.6119     89.7878
  1803.2500     14.8765     62.8893     11.7532     88.6623
  1803.5000     14.8939     62.9703     11.9376     86.4786
  1803.7500     15.0740     62.9913     12.1751     85.1567
  1804.0000     15.4226     62.9505     12.4728     84.2669
  1804.2500     15.9473     62.8485     12.8281     84.5578
  1804.5000     16.6228     62.6941     13.2239     85.6252
  1804.7500     17.3555     62.5068     13.6315     86.0031
  1805.0000     18.0549     62.3143     14.0177     84.7441
  1805.2500     18.7084     62.1469     14.3538     82.1637
  1805.5000     19.3737     62.0319     14.6197     75.7698
  1805.7500     20.0900     61.9885     14.8078     70.5883
  1806.0000     20.7676     62.0249     14.9273     63.5423
  1806.2500     21.2349     62.1361     15.0081     60.6108
  1806.5000     21.3902     62.3062     15.0941     60.4635
  1806.7500     21.2495     62.5140     15.2267     63.4112
  1807.0000     20.9536     62.7403     15.4267     71.0246
  1807.2500     20.6946     62.9722     15.6857     76.5819
  1807.5000     20.4841     63.2054     15.9712     82.6793
  1807.7500     20.1477     63.4469     16.2426     84.2064
  1808.0000     19.6474     63.7137     16.4688     82.5600
  1808.2500     19.1819     64.0269     16.6375     79.4521
  1808.5000     18.9618     64.4036     16.7551     73.1858
  1808.7500     19.1227     64.8529     16.8421     68.6246
  1809.0000     19.7944     65.3743     16.9287     61.8848
  1809.2500     21.1167     65.9555     17.0490     57.6994
  1809.5000     23.2014     66.5721     17.2341     52.4634
  1809.7500     26.0459     67.1952     17.5051     50.0324
  1810.0000     29.3905     67.8027     17.8653     47.9977
  1810.2500     32.6772     68.3867     18.2936     47.2348
  1810.5000     35.3247     68.9483     18.7414     45.8318
  1810.7500     37.0958     69.4917     19.1405     44.2697
  1811.0000     38.1745     70.0216     19.4231     40.9962
  1811.2500     38.9731     70.5446     19.5413     38.6574
  1811.5000     39.6784     71.0666     19.4756     36.2009
  1811.7500     39.8459     71.5863     19.2282     36.1071
  1812.0000     38.7365     72.0900     18.8133     39.6031
  1812.2500     36.1566     72.5554     18.2547     44.8375
  1812.5000     32.6854     72.9623     17.5874     56.5692
  1812.7500     29.0944     73.3058     16.8554     65.5610
