~Version Information
VERS.                      2.0: CWLS Log ASCII Standard - VERSION 2.0
WRAP.                       NO: One line per depth step
~Well Information Block
STRT.FT               460.0000: 
STOP.FT              2311.7500: 
STEP.FT                 0.2500: 
NULL.                -999.2500: 
COMP.          Pioneer Natural Resources: COMPANY
WELL.          McDonald 33-31 R: WELL
FLD.           Purgatoire River: FIELD
LOC.           1386' FSL & 1926' FEL: LOCATION
STAT.                 Colorado: State
CNTY.               Las Animas: COUNTY
CTRY.                      USA: Country
SECT.                       31: Section
TOWN.                      32S: Township
RANG.                      66W: Range
SRVC.                Patterson: SERVICE COMPANY
DATE.          Fri Sep 23 00:08:18 2005: LOG DATE
API.           05 071 08533 00: API#
~Curve Information Block
DEPT.FT            0 000 00 00: Depth
SN.Ohm-m                      : IEL Short Normal
SP.mV                         : IEL Spontaneous Potential
DIR.Ohm-m                     : IEL Induction Resistivity
GR.GAPI                       : Gamma Ray
~Parameter Information Block
~A  Depth        SN          SP         DIR          GR     
# ...
  2034.5000      3.7237   -355.9110     12.9717    129.5429
  2034.7500      3.7148   -358.7146     18.7369    129.7352
  2035.0000      3.7695   -360.9072     43.0048    128.6487
  2035.2500      3.8476   -362.5846 100000.0000    127.1591
  2035.5000      3.9020   -363.8755 100000.0000    124.6260
  2035.7500      3.9086   -364.9054 100000.0000    123.2625
  2036.0000      3.8833   -365.7807 100000.0000    122.2934
  2036.2500      3.8699   -366.5865 100000.0000    122.5139
  2036.5000      3.9075   -367.3976 100000.0000    124.2521
  2036.7500      4.0009   -368.2943    167.5063    126.4688
  2037.0000      4.1177   -369.3691     52.3601    131.4227
  2037.2500      4.2160   -370.7233     35.4459    135.2583
  2037.5000      4.2804   -372.4525     26.1326    139.7637
  2037.7500      4.3238   -374.6197     18.2346    140.8815
  2038.0000      4.3524   -377.2249     12.3162    139.5648
  2038.2500      4.3419   -380.1777      8.5913    137.4290
  2038.5000      4.2603   -383.2817      6.4954    133.9728
  2038.7500      4.1113   -386.2298      5.5205    132.3492
  2039.0000      3.9427   -388.6275      5.5260    131.9635
  2039.2500      3.8125   -390.0379      7.2041    133.1953
  2039.5000      3.7552   -390.0511     18.8327    136.4390
  2039.7500      3.7757   -388.3625 100000.0000    138.7086
  2040.0000      3.8571   -384.8577 100000.0000    141.2167
  2040.2500      3.9623   -379.6743 100000.0000    142.1723
  2040.5000      4.0451   -373.2239 100000.0000    142.8592
  2040.7500      4.0828   -366.1495 100000.0000    143.0241
  2041.0000      4.0986   -359.2323     13.7704    143.0943
  2041.2500      4.1357   -353.2450      1.6402    143.1513
  2041.5000      4.2057   -348.7989      0.6503    143.1764
  2041.7500      4.2755   -346.2195      0.3365    142.7465
  2042.0000      4.3049   -345.4907      0.2092    140.2975
  2042.2500      4.2866   -346.2857      0.1673    137.0096
  2042.5000      4.2469   -348.0716      0.1820    129.9537
  2042.7500      4.2249   -350.2516      0.2597    124.6021
  2043.0000      4.2546   -352.3024      0.4389    116.9171
  2043.2500      4.3376   -353.8532      0.8125    112.4471
  2043.5000      4.4192   -354.7068      1.6570    106.9075
  2043.7500      4.4199   -354.7964      4.2293    103.8467
  2044.0000      4.3100   -354.1174    142.5633     99.5909
  2044.2500      4.1405   -352.6766 100000.0000     96.5476
  2044.5000      4.0038   -350.4780 100000.0000     91.0966
  2044.7500      3.9732   -347.5511 100000.0000     86.7130
  2045.0000      4.0622   -344.0008 100000.0000     79.3131
  2045.2500      4.2121   -340.0521 100000.0000     74.4602
  2045.5000      4.3273   -336.0542 100000.0000     68.7745
  2045.7500      4.3430   -332.4376 100000.0000     66.6329
  2046.0000      4.2675   -329.6327      6.2755     65.7353
  2046.2500      4.1620   -327.9783      2.1485     65.9979
  2046.5000      4.0774   -327.6465      1.4332     66.4568
  2046.7500      4.0135   -328.6072      1.2938     66.5384
  2047.0000      3.9408   -330.6405      1.4674     66.6026
  2047.2500      3.8452   -333.3799      2.0679     66.7852
  2047.5000      3.7301   -336.3804      3.8891     67.0496
  2047.7500      3.5907   -339.1919     16.8329     66.8765
  2048.0000      3.4176   -341.4304 100000.0000     65.7824
  2048.2500      3.2299   -342.8350 100000.0000     64.7737
  2048.5000      3.0861   -343.3058 100000.0000     63.8212
  2048.7500      3.0600   -342.9131   2900.3696     63.8551
  2049.0000      3.1980   -341.8746      2.3193     64.3944
  2049.2500      3.4820   -340.4929      0.7056     64.6602
  2049.5000      3.8189   -339.0844      0.2684     65.2655
  2049.7500      4.0813   -337.9034      0.0968     66.6495
  2050.0000      4.1843   -337.0872      0.0353     71.5715
  2050.2500      4.1338   -336.6370      0.0152     77.0314
  2050.5000      4.0016   -336.4292      0.0083     88.2397
  2050.7500      3.8577   -336.2531      0.0057     97.3537
  2051.0000      3.7316   -335.8704      0.0049    112.1684
  2051.2500      3.6329   -335.0722      0.0052    121.5064
  2051.5000      3.5871   -333.7325      0.0068    132.5158
  2051.7500      3.6376   -331.8360      0.0110    137.2991
  2052.0000      3.8157   -329.4875      0.0221    140.7934
  2052.2500      4.1086   -326.8899      0.0541    140.8143
  2052.5000      4.4471   -324.2922      0.1452    137.5751
  2052.7500      4.7367   -321.9338      0.3696    133.8058
  2053.0000      4.9142   -319.9885      0.9112    127.8562
  2053.2500      4.9727   -318.5301      2.7578    125.0532
  2053.5000      4.9325   -317.5295     25.9526    123.6540
  2053.7500      4.8073   -316.8888 100000.0000    124.1754
  2054.0000      4.6086   -316.5027 100000.0000    125.6305
  2054.2500      4.3671   -316.3339 100000.0000    126.4868
  2054.5000      4.1342   -316.4721 100000.0000    127.6056
  2054.7500      3.9598   -317.1577     16.8890    128.5146
  2055.0000      3.8679   -318.7521      9.2100    130.5004
  2055.2500      3.8458   -321.6521      7.7208    132.2549
  2055.5000      3.8504   -326.1768      8.7367    135.0475
  2055.7500      3.8292   -332.4550     14.7980    136.5129
  2056.0000      3.7528   -340.3529    441.6066    137.3062
  2056.2500      3.6375   -349.4685 100000.0000    136.5137
  2056.5000      3.5376   -359.1919 100000.0000    132.6976
  2056.7500      3.5119   -368.8192 100000.0000    128.2876
  2057.0000      3.5984   -377.6809 100000.0000    119.9690
  2057.2500      3.8046   -385.2450 100000.0000    114.5406
  2057.5000      4.0969   -391.1672 100000.0000    108.2152
  2057.7500      4.4015   -395.2826 100000.0000    105.3057
  2058.0000      4.6367   -397.5581 100000.0000    102.2249
  2058.2500      4.7546   -398.0321 100000.0000    100.7997
  2058.5000      4.7473   -396.7734 100000.0000     99.6686
  2058.7500      4.6241   -393.8767 100000.0000     99.5190
  2059.0000      4.4092   -389.4914 100000.0000     99.6106
  2059.2500      4.1538   -383.8524 100000.0000     99.5572
  2059.5000      3.9175   -377.2987     28.8138     99.3621
  2059.7500      3.7267   -370.2477     15.4504     99.4818
  2060.0000      3.5685   -363.1360     12.0197    100.3986
  2060.2500      3.4289   -356.3401     10.8494    101.3424
  2060.5000      3.3216   -350.1181     10.5866    102.6706
  2060.7500      3.2723   -344.5900     10.8193    103.3582
  2061.0000      3.2857   -339.7659     11.3912    104.3993
  2061.2500      3.3317   -335.6121     12.2122    105.3592
  2061.5000      3.3665   -332.1239     13.1699    107.2703
  2061.7500      3.3731   -329.3838     14.0948    108.6002
  2062.0000      3.3756   -327.5772     14.7872    110.0350
  2062.2500      3.4102   -326.9622     15.0898    110.4238
  2062.5000      3.4870   -327.8014     14.9453    110.2274
  2062.7500      3.5784   -330.2799     14.3998    109.6268
  2063.0000      3.6403   -334.4240     13.5744    108.1615
  2063.2500      3.6471   -340.0468     12.6313    107.2580
  2063.5000      3.6097   -346.7420     11.7351    107.1457
  2063.7500      3.5684   -353.9238     11.0233    108.0037
  2064.0000      3.5691   -360.9081     10.6085    109.3785
  2064.2500      3.6298   -367.0264     10.6235    109.4373
  2064.5000      3.7157   -371.7377     11.3231    107.8630
  2064.7500      3.7623   -374.7140     13.3437    106.1524
  2065.0000      3.7366   -375.8810     18.7351    103.6181
  2065.2500      3.6631   -375.4034     39.0027    102.3724
  2065.5000      3.5868   -373.6252 100000.0000    101.3249
  2065.7500      3.5313   -370.9832 100000.0000    100.8614
  2066.0000      3.4965   -367.9184 100000.0000     99.6578
  2066.2500      3.4748   -364.8046 100000.0000     98.2787
  2066.5000      3.4608   -361.9089 100000.0000     95.9546
  2066.7500      3.4530   -359.3823 100000.0000     95.0958
  2067.0000      3.4562   -357.2780    294.4183     96.3442
  2067.2500      3.4798   -355.5800     43.9262     99.1634
  2067.5000      3.5285   -354.2391     25.1972    105.1414
  2067.7500      3.5897   -353.2021     18.4954    108.7038
