~Version Information
VERS.                      2.0: CWLS Log ASCII Standard - VERSION 2.0
WRAP.                       NO: One line per depth step
~Well Information Block
STRT.FT               547.0000: 
STOP.FT              1685.5000: 
STEP.FT                 0.1000: 
NULL.                -999.2500: 
COMP.          Pioneer Natural Resources: COMPANY
WELL.           Pedri 42-33 Tr: WELL
FLD.           Purgatorie River: FIELD
LOC.           1933' FNL & 662' FEL: LOCATION
PROV.                 Colorado: PROVINCE
CNTY.               Las Animas: COUNTRY
SRVC.                Patterson: SERVICE COMPANY
DATE.          Mon Dec 19 13:36:44 2005: LOG DATE
UWI.                          : UNIQUE WELL ID
~Curve Information Block
DEPT.FT            0 000 00 00: Depth
DCAL.in                       : CDL Caliper
RHOB.g/cc                     : CDL Bulk Density
RHOC.g/cc                     : CDL Density Correction
DPOR.pu                       : CDL Density Porosity
GR.GAPI                       : Gamma Ray
~Parameter Information Block
~A  Depth       DCAL        RHOB        RHOC        DPOR         GR     
# ...
  1364.6000      8.0101      2.5539      0.0900      5.8233     82.6349
  1364.7000      8.0101      2.5438      0.0469      6.4353     78.0918
  1364.8000      8.0232      2.5363      0.0484      6.8906     74.2924
  1364.9000      8.0232      2.5326      0.0576      7.1151     72.2121
  1365.0000      8.0438      2.5220      0.0716      7.7553     72.2363
  1365.1000      8.0438      2.4974      0.0243      9.2474     72.9960
  1365.2000      8.0438      2.4724     -0.0049     10.7633     72.6329
  1365.3000      8.0371      2.4630      0.0110     11.3308     71.0399
  1365.4000      8.0371      2.4641      0.0369     11.2681     69.1027
  1365.5000      8.0450      2.4650      0.0394     11.2118     68.1954
  1365.6000      8.0450      2.4695      0.0289     10.9423     68.6106
  1365.7000      8.0450      2.4789      0.0598     10.3678     68.7125
  1365.8000      8.0452      2.4855      0.0618      9.9686     67.6710
  1365.9000      8.0452      2.4879      0.0740      9.8244     65.3271
  1366.0000      8.0323      2.4853      0.0947      9.9841     62.2243
  1366.1000      8.0323      2.4739      0.0584     10.6743     60.7973
  1366.2000      8.0323      2.4606      0.0783     11.4771     61.1775
  1366.3000      7.9970      2.4566      0.0756     11.7212     61.8974
  1366.4000      7.9970      2.4687      0.0656     10.9880     62.7972
  1366.5000      8.0038      2.5005      0.0763      9.0609     62.6260
  1366.6000      8.0038      2.5418      0.1451      6.5556     60.3667
  1366.7000      8.0038      2.5708      0.1682      4.8016     57.9067
  1366.8000      8.0036      2.5760      0.1615      4.4874     57.7483
  1366.9000      8.0036      2.5633      0.1408      5.2560     59.0414
  1367.0000      8.0097      2.5425      0.1009      6.5172     58.8929
  1367.1000      8.0097      2.5176      0.0901      8.0248     56.8626
  1367.2000      8.0097      2.4910      0.0332      9.6334     55.0731
  1367.3000      8.0097      2.4713      0.0265     10.8278     54.7785
  1367.4000      8.0097      2.4647      0.0419     11.2304     55.9503
  1367.5000      8.0116      2.4702      0.0043     10.8945     58.8549
  1367.6000      8.0116      2.4809      0.0571     10.2487     62.0561
  1367.7000      8.0116      2.4874      0.0382      9.8541     63.5716
  1367.8000      8.0119      2.4959      0.0048      9.3376     64.6093
  1367.9000      8.0119      2.5150      0.0496      8.1847     65.9295
  1368.0000      8.0395      2.5382      0.0458      6.7729     66.3071
  1368.1000      8.0395      2.5558      0.0768      5.7065     65.1809
  1368.2000      8.0395      2.5600      0.0879      5.4539     62.3366
  1368.3000      8.0362      2.5525      0.0332      5.9097     58.5152
  1368.4000      8.0362      2.5463      0.0125      6.2825     55.7172
  1368.5000      8.0405      2.5494      0.0656      6.0946     54.3871
  1368.6000      8.0405      2.5603      0.0543      5.4386     53.6962
  1368.7000      8.0405      2.5739      0.0673      4.6097     52.7576
  1368.8000      8.0419      2.5796      0.0683      4.2646     50.9217
  1368.9000      8.0419      2.5688      0.0597      4.9230     48.5456
  1369.0000      8.0456      2.5466      0.0553      6.2696     46.6567
  1369.1000      8.0456      2.5270      0.0064      7.4536     46.0730
  1369.2000      8.0456      2.5191      0.0463      7.9325     46.7922
  1369.3000      8.0335      2.5199      0.0532      7.8876     47.4576
  1369.4000      8.0335      2.5273      0.0368      7.4363     46.7291
  1369.5000      8.0265      2.5418      0.0532      6.5563     45.0109
  1369.6000      8.0265      2.5489      0.1092      6.1292     43.8549
  1369.7000      8.0265      2.5366      0.0502      6.8721     44.6426
  1369.8000      8.0345      2.5243      0.0091      7.6195     46.9582
  1369.9000      8.0345      2.5312      0.0655      7.1976     48.6814
  1370.0000      8.0353      2.5408      0.0768      6.6194     47.9066
  1370.1000      8.0353      2.5263      0.0805      7.4958     45.4570
  1370.2000      8.0353      2.4926      0.0496      9.5394     43.9592
  1370.3000      8.0499      2.4654      0.0196     11.1865     44.0350
  1370.4000      8.0499      2.4588      0.0150     11.5884     44.7626
  1370.5000      8.0449      2.4727     -0.0033     10.7466     44.9214
  1370.6000      8.0449      2.4909      0.0693      9.6436     44.6765
  1370.7000      8.0449      2.4924      0.0349      9.5512     45.7782
  1370.8000      8.0388      2.4865      0.0065      9.9065     48.7185
  1370.9000      8.0388      2.4913      0.0667      9.6154     51.7062
  1371.0000      8.0304      2.4992      0.0813      9.1412     53.5563
  1371.1000      8.0304      2.5059      0.0632      8.7333     54.3235
  1371.2000      8.0304      2.5265      0.0551      7.4859     53.4174
  1371.3000      8.0363      2.5571      0.1214      5.6306     51.2172
  1371.4000      8.0363      2.5730      0.1046      4.6660     49.4199
  1371.5000      8.0134      2.5689      0.1097      4.9141     49.0290
  1371.6000      8.0134      2.5597      0.0965      5.4757     49.2282
  1371.7000      8.0134      2.5546      0.1115      5.7806     49.0530
  1371.8000      8.0159      2.5574      0.0937      5.6115     49.3872
  1371.9000      8.0159      2.5662      0.1034      5.0798     50.6529
  1372.0000      8.0128      2.5669      0.1330      5.0358     50.9545
  1372.1000      8.0128      2.5526      0.0620      5.9031     49.5092
  1372.2000      8.0128      2.5330      0.0443      7.0891     48.3703
  1372.3000      8.0215      2.5174      0.0298      8.0334     48.4281
  1372.4000      8.0215      2.5080      0.0400      8.6076     48.0945
  1372.5000      8.0241      2.5076      0.0361      8.6294     47.5597
  1372.6000      8.0241      2.5174      0.0538      8.0337     48.2332
  1372.7000      8.0241      2.5293      0.0772      7.3140     48.2499
  1372.8000      8.0227      2.5365      0.0395      6.8782     46.3159
  1372.9000      8.0227      2.5369      0.0792      6.8536     44.4290
  1373.0000      8.0124      2.5260      0.0614      7.5127     44.4815
  1373.1000      8.0124      2.5104      0.0098      8.4614     46.5507
  1373.2000      8.0124      2.5026      0.0445      8.9307     48.3843
  1373.3000      8.0230      2.5003      0.0861      9.0704     47.2976
  1373.4000      8.0230      2.5082      0.0001      8.5922     44.5582
  1373.5000      8.0275      2.5387      0.0331      6.7438     43.9635
  1373.6000      8.0275      2.5698      0.1031      4.8607     45.9537
  1373.7000      8.0275      2.5723      0.0628      4.7082     48.9987
  1373.8000      8.0297      2.5569      0.0559      5.6427     52.7074
  1373.9000      8.0297      2.5421      0.0787      6.5364     56.2509
  1374.0000      8.0341      2.5274      0.0684      7.4296     57.7785
  1374.1000      8.0341      2.5127      0.0390      8.3210     56.0421
  1374.2000      8.0341      2.5045      0.0454      8.8182     53.1223
  1374.3000      8.0363      2.5066      0.0449      8.6936     52.6088
  1374.4000      8.0363      2.5189      0.0381      7.9460     54.0063
  1374.5000      8.0400      2.5354      0.0729      6.9482     53.8644
  1374.6000      8.0400      2.5413      0.1306      6.5857     52.0842
  1374.7000      8.0400      2.5295      0.0581      7.3016     50.5707
  1374.8000      8.0472      2.5076      0.0725      8.6310     49.3019
  1374.9000      8.0472      2.4891     -0.0378      9.7542     47.8240
  1375.0000      8.0475      2.4880      0.0328      9.8154     47.0169
  1375.1000      8.0475      2.5023      0.0791      8.9544     48.0200
  1375.2000      8.0475      2.5193      0.0338      7.9230     49.5536
  1375.3000      8.0336      2.5313      0.1130      7.1951     50.2770
  1375.4000      8.0336      2.5348      0.0805      6.9825     51.4103
  1375.5000      8.0338      2.5328      0.0919      7.1028     53.8070
  1375.6000      8.0338      2.5311      0.0452      7.2048     56.7072
  1375.7000      8.0338      2.5331      0.0575      7.0825     59.1784
