~Version Information
VERS.                      2.0: CWLS Log ASCII Standard - VERSION 2.0
WRAP.                       NO: One line per depth step
~Well Information Block
STRT.FT                10.0000: 
STOP.FT              1063.0000: 
STEP.FT                 0.1000: 
NULL.                -999.2500: 
COMP.          Pioneer Natural Resources: COMPANY
WELL.                Mac 22-36: WELL
FLD.           Purgatorie River: FIELD
LOC.           2545' FNL & 1398' FWL: LOCATION
PROV.                 Colorado: PROVINCE
CNTY.               Las Animas: COUNTRY
SRVC.                Patterson: SERVICE COMPANY
DATE.          Mon Dec 05 10:55:42 2005: LOG DATE
UWI.                          : UNIQUE WELL ID
~Curve Information Block
DEPT.FT            0 000 00 00: Depth
DCAL.in                       : CDL Caliper
RHOB.g/cc                     : CDL Bulk Density
RHOC.g/cc                     : CDL Density Correction
DPOR.pu                       : CDL Density Porosity
GR.GAPI                       : Gamma Ray
NPOR.pu                       : Neutron Porosity
~Parameter Information Block
~A  Depth       DCAL        RHOB        RHOC        DPOR         GR         NPOR    
# ...
   979.6000      7.8112      2.6068      0.1235      2.6192     93.1735     21.7422
   979.7000      7.8112      2.5985      0.0498      3.1197     93.2955     21.1715
   979.8000      7.8119      2.5936      0.1248      3.4191     96.0630     20.5747
   979.9000      7.8119      2.5903      0.1135      3.6153     96.7402     20.4411
   980.0000      7.8304      2.5864      0.0643      3.8553     95.2107     20.8104
   980.1000      7.8304      2.5857      0.0849      3.8943     93.6518     21.2401
   980.2000      7.8304      2.5853      0.1251      3.9233     92.3178     21.3234
   980.3000      7.8260      2.5761      0.0787      4.4805     92.7367     21.2762
   980.4000      7.8260      2.5527      0.0571      5.8997     95.3715     21.5821
   980.5000      7.8225      2.5215      0.0293      7.7862     97.8465     22.1325
   980.6000      7.8225      2.5025      0.0149      8.9388     99.7016     22.4848
   980.7000      7.8225      2.5067      0.0904      8.6864    102.7707     22.5189
   980.8000      7.8500      2.5229      0.0999      7.7023    106.6684     22.5897
   980.9000      7.8500      2.5371      0.0726      6.8396    109.6940     23.1129
   981.0000      7.8681      2.5439      0.1075      6.4279    111.1623     23.9224
   981.1000      7.8681      2.5461      0.0739      6.2966    109.7136     24.5996
   981.2000      7.8681      2.5512      0.1256      5.9894    104.7367     25.0475
   981.3000      7.8434      2.5549      0.1153      5.7662     99.8914     25.2846
   981.4000      7.8434      2.5500      0.1355      6.0625    100.5416     25.2911
   981.5000      7.8605      2.5426      0.0983      6.5061    106.9003     25.2011
   981.6000      7.8605      2.5460      0.0978      6.3047    113.0049     25.2118
   981.7000      7.8605      2.5606      0.1152      5.4168    114.4756     25.3958
   981.8000      7.8674      2.5760      0.1017      4.4842    113.0492     25.5028
   981.9000      7.8674      2.5818      0.1630      4.1339    111.1600     25.5340
   982.0000      7.8794      2.5727      0.0882      4.6845    107.9581     25.7350
   982.1000      7.8794      2.5571      0.0744      5.6330    103.5939     26.0339
   982.2000      7.8794      2.5460      0.0845      6.3028    100.0853     26.1643
   982.3000      7.9101      2.5422      0.1031      6.5359     96.9539     26.0417
   982.4000      7.9101      2.5474      0.0547      6.2210     93.4144     25.7714
   982.5000      7.8992      2.5614      0.1294      5.3692     91.4668     25.3856
   982.6000      7.8992      2.5745      0.1179      4.5762     92.1142     25.0060
   982.7000      7.8992      2.5816      0.1179      4.1459     93.8767     24.5413
   982.8000      7.9082      2.5879      0.1130      3.7634     92.8417     23.7800
   982.9000      7.9082      2.5945      0.0832      3.3617     86.2807     23.1261
   983.0000      7.8586      2.5928      0.1382      3.4693     77.9227     22.8416
   983.1000      7.8586      2.5811      0.0524      4.1755     72.8931     22.5262
   983.2000      7.8586      2.5698      0.0866      4.8583     71.4351     21.7590
   983.3000      7.8041      2.5632      0.0756      5.2587     69.0847     20.5121
   983.4000      7.8041      2.5656      0.0842      5.1135     64.1640     19.2662
   983.5000      7.7932      2.5803      0.0956      4.2252     61.0803     18.3699
   983.6000      7.7932      2.5967      0.1433      3.2293     61.1773     17.5232
   983.7000      7.7932      2.5969      0.1242      3.2199     61.6286     16.6630
   983.8000      7.8058      2.5731      0.0925      4.6630     61.3508     16.1718
   983.9000      7.8058      2.5404      0.0518      6.6413     62.6792     16.1059
   984.0000      7.8062      2.5156      0.0507      8.1432     67.5028     16.1468
   984.1000      7.8062      2.4964      0.0248      9.3120     73.4174     15.9305
   984.2000      7.8062      2.4858      0.0001      9.9512     77.3155     15.5711
   984.3000      7.7969      2.4955      0.0388      9.3650     79.1622     15.4779
   984.4000      7.7969      2.5179      0.0458      8.0038     80.9110     15.7407
   984.5000      7.8031      2.5367      0.0412      6.8688     82.4118     16.3650
   984.6000      7.8031      2.5461      0.0874      6.2962     83.2108     17.4275
   984.7000      7.8031      2.5481      0.0847      6.1736     86.8200     18.8603
   984.8000      7.8051      2.5443      0.0914      6.4068     94.2191     20.4666
   984.9000      7.8051      2.5373      0.0713      6.8318    100.2359     21.9555
   985.0000      7.7899      2.5340      0.0555      7.0294    101.0046     22.8961
   985.1000      7.7899      2.5397      0.1088      6.6856     99.6615     23.3132
   985.2000      7.7899      2.5527      0.0926      5.8984    101.5344     23.6906
   985.3000      7.7859      2.5671      0.1559      5.0259    106.7819     24.1193
   985.4000      7.7859      2.5800      0.1267      4.2454    110.8252     24.4266
   985.5000      7.7794      2.5972      0.1552      3.1998    109.8792     24.6040
   985.6000      7.7794      2.6163      0.1893      2.0397    106.2738     24.5469
   985.7000      7.7794      2.6227      0.1632      1.6543    104.2563     24.0690
   985.8000      7.7801      2.6068      0.1573      2.6183    102.2015     23.2910
   985.9000      7.7801      2.5748      0.0714      4.5590     98.7773     22.5191
   986.0000      7.7999      2.5446      0.0850      6.3880     97.7912     22.0020
   986.1000      7.7999      2.5250      0.0667      7.5783    100.5334     21.9254
   986.2000      7.7999      2.5135      0.0645      8.2735    103.5754     22.0426
   986.3000      7.8084      2.5146      0.0440      8.2065    103.6158     22.0090
   986.4000      7.8084      2.5311      0.1358      7.2037    102.2021     22.0160
   986.5000      7.7771      2.5506      0.1111      6.0230    103.4382     22.2885
   986.6000      7.7771      2.5622      0.1328      5.3192    106.4236     22.7632
   986.7000      7.7771      2.5622      0.1467      5.3224    109.0473     23.2858
   986.8000      7.7707      2.5589      0.0980      5.5188    112.6423     23.8356
   986.9000      7.7707      2.5762      0.0867      4.4747    115.5379     24.2259
   987.0000      7.7938      2.6132      0.1678      2.2286    113.8420     24.1455
   987.1000      7.7938      2.6401      0.1454      0.6024    106.5325     23.8081
   987.2000      7.7938      2.6426      0.1516      0.4460     97.6918     23.4669
   987.3000      7.8031      2.6317      0.1172      1.1065     92.5605     22.9147
   987.4000      7.8031      2.6256      0.0655      1.4791     90.3213     22.1275
   987.5000      7.7887      2.6284      0.0891      1.3067     88.9656     21.3503
   987.6000      7.7887      2.6285      0.0992      1.3032     88.0886     20.7926
   987.7000      7.7887      2.6173      0.0946      1.9824     86.7996     20.5796
   987.8000      7.7856      2.5967      0.0807      3.2331     87.0950     20.5872
   987.9000      7.7856      2.5820      0.0287      4.1205     90.3253     20.6720
   988.0000      7.7794      2.5802      0.0704      4.2278     94.3333     20.8659
   988.1000      7.7794      2.5811      0.0386      4.1755     98.6498     21.1663
   988.2000      7.7794      2.5846      0.0847      3.9645    103.4064     21.4367
   988.3000      7.7876      2.5899      0.1052      3.6436    106.0984     21.6114
   988.4000      7.7876      2.5850      0.0699      3.9378    106.5476     21.9073
   988.5000      7.8043      2.5630      0.0892      5.2725    107.1728     22.3546
   988.6000      7.8043      2.5288      0.0443      7.3468    107.5372     22.7533
   988.7000      7.8043      2.5039      0.0264      8.8541    105.9394     22.9597
   988.8000      7.8208      2.5023      0.0533      8.9538    105.0586     22.9995
   988.9000      7.8208      2.5102      0.0596      8.4715    107.9956     23.0360
   989.0000      7.8606      2.5123      0.0697      8.3457    111.0185     23.1274
   989.1000      7.8606      2.5101      0.0447      8.4785    109.8043     23.3461
