~Version Information
 VERS.                                  2.0 : CWLS LAS VERSION
 WRAP.                                   NO : WRAPING MODE
 SWARE .                 MController 2.5.0N : SOFTWARE VERSION
~Well Information
 WELL.                    Hellzonfire 32-31 : WELL
 COMP.    Pioneer Natural Resources USA Inc : COMPANY
 FLD.                      Purgatoire River : FIELD
 LOC.                 SW/NE SEC31 T32S R66W : LOCATION
 DATE.                             09/01/05 : DATE(S) LOGGED
 SRVC.       Blanco Geological Services LLC : SERVICE COMPANY
 STAT.                             Colorado : STATE
 CNTY.                           Las Animas : COUNTY
 CTRY.                                  USA : COUNTRY
 API.                       05-071-08483-00 : API NUMBER
 STRT.FT                             356.00 : START DEPTH
 STOP.FT                            2480.00 : STOP DEPTH
 STEP.FT                               1.00 : DEPTH INCREMENT
 NULL.                                -9999 : NULL VALUE
~Curve information
 DEPTH.FT                                   :
 ROP.MIN/FT                                 :
 GAS.UNITS                                  :
~ASCII Log data
# ...
      1756.0         0.33        191.8 
      1757.0         0.37        194.0 
      1758.0         0.37        197.7 
      1759.0         0.37        197.8 
      1760.0         0.37        197.6 
      1761.0         0.43        198.9 
      1762.0         0.38        205.6 
      1763.0         0.37        207.2 
      1764.0         0.37        207.2 
      1765.0         0.47        182.2 
      1766.0         3.45        301.7 
      1767.0         0.30        293.8 
      1768.0         0.60        326.1 
      1769.0         0.47        330.4 
      1770.0         0.47        306.8 
      1771.0         0.42        278.6 
      1772.0         0.47        250.7 
      1773.0         0.53        263.9 
      1774.0         0.47        263.7 
      1775.0         0.47        243.2 
      1776.0         0.43        232.7 
      1777.0         0.47        225.1 
      1778.0         0.58        214.6 
      1779.0         0.50        210.8 
      1780.0         0.47        202.3 
      1781.0         0.47        193.8 
      1782.0         0.40        191.4 
      1783.0         0.47        188.9 
      1784.0         0.17        181.9 
      1785.0         0.27        181.2 
      1786.0         0.20        181.3 
      1787.0         0.28        182.7 
      1788.0         0.20        183.2 
      1789.0         0.23        184.8 
      1790.0         0.33        186.5 
      1791.0         0.23        186.5 
      1792.0         0.37        196.8 
      1793.0         0.37        195.1 
      1794.0         0.40        191.1 
      1795.0         0.37        171.4 
      1796.0         4.20        269.8 
      1797.0         0.33        268.1 
      1798.0         0.40        280.5 
      1799.0         0.63        297.1 
      1800.0         0.67        283.6 
      1801.0         0.50        251.7 
      1802.0         0.52        252.5 
      1803.0         0.43        246.3 
      1804.0         0.40        232.5 
      1805.0         0.43        219.9 
      1806.0         0.47        209.7 
      1807.0         0.43        193.7 
      1808.0         0.47        186.5 
      1809.0         0.43        184.2 
      1810.0         0.38        181.8 
      1811.0         0.30        178.4 
      1812.0         0.33        176.2 
      1813.0         0.33        172.7 
      1814.0         0.40        171.6 
      1815.0         0.37        169.0 
      1816.0         0.43        167.0 
      1817.0         0.47        166.4 
      1818.0         0.43        165.3 
      1819.0         0.42        164.9 
      1820.0         0.40        164.4 
      1821.0         0.43        162.9 
      1822.0         0.40        165.1 
      1823.0         0.43        172.6 
      1824.0         0.37        172.1 
      1825.0         0.37        165.8 
      1826.0         2.28        154.8 
      1827.0         0.80        223.4 
      1828.0         0.60        258.7 
      1829.0         0.27        259.3 
      1830.0         0.28        254.5 
      1831.0         0.20        235.0 
      1832.0         0.20        224.0 
      1833.0         0.30        222.1 
      1834.0         0.40        247.8 
      1835.0         0.73        320.4 
      1836.0         0.30        322.7 
      1837.0         0.43        321.2 
      1838.0         0.23        286.5 
      1839.0         0.27        273.0 
      1840.0         0.28        238.6 
      1841.0         0.30        199.3 
      1842.0         0.33        187.8 
      1843.0         0.47        181.8 
      1844.0         0.47        184.8 
      1845.0         0.57        183.2 
      1846.0         0.47        177.7 
      1847.0         0.33        161.0 
      1848.0         0.48        150.8 
      1849.0         0.40        149.9 
      1850.0         0.40        154.0 
      1851.0         0.30        156.2 
      1852.0         0.33        156.3 
      1853.0         0.27        154.0 
      1854.0         0.17        147.7 
      1855.0         0.27        134.9 
      1856.0         2.58        233.1 
      1857.0         0.60        255.0 
      1858.0         0.40        281.3 
      1859.0         0.40        295.1 
      1860.0         0.42        291.4 
      1861.0         0.43        265.9 
      1862.0         0.47        252.6 
      1863.0         0.43        255.6 
      1864.0         0.47        256.5 
      1865.0         0.43        244.1 
      1866.0         0.40        227.6 
      1867.0         0.40        215.0 
      1868.0         0.35        203.8 
      1869.0         0.40        195.7 
      1870.0         0.33        186.3 
      1871.0         0.33        183.0 
      1872.0         0.33        178.9 
      1873.0         0.33        176.1 
      1874.0         0.33        174.0 
      1875.0         0.33        173.8 
      1876.0         0.33        171.4 
      1877.0         0.30        169.6 
      1878.0         0.38        168.0 
      1879.0         0.33        164.8 
      1880.0         0.37        164.6 
      1881.0         0.33        168.8 
      1882.0         0.37        169.4 
      1883.0         0.33        168.0 
      1884.0         0.37        164.6 
      1885.0         0.33        153.4 
      1886.0         2.08        174.8 
      1887.0         1.57        281.1 
      1888.0         0.42        261.3 
      1889.0         0.43        276.0 
      1890.0         0.33        283.6 
      1891.0         0.37        283.0 
      1892.0         0.33        273.4 
      1893.0         0.43        257.8 
      1894.0         0.37        252.0 
      1895.0         0.43        250.1 
      1896.0         0.50        243.6 
      1897.0         0.62        226.4 
      1898.0         0.57        218.4 
      1899.0         0.53        202.2 
      1900.0         0.50        197.2 
      1901.0         0.40        191.5 
      1902.0         0.40        188.5 
      1903.0         0.40        188.5 
      1904.0         0.38        185.1 
      1905.0         0.43        182.5 
      1906.0         0.60        164.3 
      1907.0         0.57        147.0 
      1908.0         0.50        135.8 
      1909.0         0.40        130.4 
      1910.0         0.37        128.6 
      1911.0         0.38        125.2 
      1912.0         0.47        129.7 
      1913.0         0.40        131.2 
      1914.0         0.37        128.1 
      1915.0         0.43        127.1 
      1916.0         3.65        285.7 
      1917.0         1.15        243.4 
      1918.0         0.37        209.3 
      1919.0         0.30        192.8 
      1920.0         0.23        190.1 
      1921.0         0.27        178.9 
      1922.0         0.30        176.0 
      1923.0         0.27        173.6 
      1924.0         0.27        169.7 
      1925.0         0.30        162.3 
      1926.0         0.23        159.3 
      1927.0         0.27        155.7 
      1928.0         0.23        153.7 
      1929.0         0.22        153.4 
      1930.0         0.27        149.8 
      1931.0         0.27        147.9 
      1932.0         0.23        146.2 
      1933.0         0.27        144.6 
      1934.0         0.23        142.5 
      1935.0         0.23        139.8 
      1936.0         0.20        135.6 
      1937.0         0.27        133.3 
      1938.0         0.23        137.0 
      1939.0         0.27        138.5 
      1940.0         0.23        133.6 
      1941.0         0.23        128.7 
      1942.0         0.20        128.1 
      1943.0         0.22        123.6 
      1944.0         0.23        114.1 
      1945.0         0.20        110.6 
      1946.0         3.15        260.8 
      1947.0         0.40        215.2 
      1948.0         0.33        194.4 
      1949.0         0.30        200.5 
      1950.0         0.30        199.6 
      1951.0         0.43        193.6 
      1952.0         0.53        173.1 
      1953.0         0.40        154.0 
      1954.0         0.37        145.3 
      1955.0         0.28        144.9 
