~Version Information
VERS.                      2.0: CWLS Log ASCII Standard - VERSION 2.0
WRAP.                       NO: One line per depth step
~Well Information Block
STRT.FT               370.0000: 
STOP.FT              1282.5000: 
STEP.FT                 0.1000: 
NULL.                -999.2500: 
COMP.          Pioneer Natural Resources: COMPANY
WELL.          Irish Eyes 33-21: WELL
FLD.           Purgatoire River: FIELD
LOC.           1379' FSL & 2544' FEL: LOCATION
PROV.                 Colorado: PROVINCE
CNTY.               Las Animas: COUNTRY
SRVC.                Patterson: SERVICE COMPANY
DATE.          Mon Jan 16 13:31:01 2006: LOG DATE
UWI.           05 071 08658 00: UNIQUE WELL ID
~Curve Information Block
DEPT.FT            0 000 00 00: Depth
DCAL.in                       : CDL Caliper
RHOB.g/cc                     : CDL Bulk Density
RHOC.g/cc                     : CDL Density Correction
DPOR.pu                       : CDL Density Porosity
GR.GAPI                       : Gamma Ray
NPOR.pu                       : Neutron Porosity
~Parameter Information Block
~A  Depth       DCAL        RHOB        RHOC        DPOR         GR         NPOR    
   370.0000      8.3186      2.0404     -0.4503     36.9457     73.5603     18.9213
   370.1000      8.3186      2.0253     -0.4719     37.8613     71.4791     19.7081
   370.2000      8.3186      2.0163     -0.4494     38.4032     69.4159     20.1367
   370.3000      8.3231      2.0082     -0.4403     38.8968     71.6047     20.0749
   370.4000      8.3231      1.9911     -0.4309     39.9339     74.6517     19.6653
   370.5000      8.3238      1.9545     -0.4135     42.1545     75.6702     19.3937
   370.6000      8.3238      1.9115     -0.5482     44.7587     78.0342     19.5139
   370.7000      8.3238      1.8938     -0.5151     45.8288     81.1714     19.6048
   370.8000      8.3244      1.9073     -0.5359     45.0110     81.1666     19.4885
   370.9000      8.3244      1.9386     -0.4851     43.1169     78.4175     19.4931
   371.0000      8.3225      1.9799     -0.5204     40.6109     75.9230     19.7853
   371.1000      8.3225      2.0222     -0.4857     38.0464     72.7814     19.7153
   371.2000      8.3225      2.0438     -0.4223     36.7377     68.8473     18.6132
   371.3000      8.3198      2.0369     -0.4818     37.1589     68.0440     17.1399
   371.4000      8.3198      2.0287     -0.4823     37.6574     70.9003     16.1612
   371.5000      8.3151      2.0370     -0.4087     37.1494     72.3907     15.7513
   371.6000      8.3151      2.0481     -0.4242     36.4768     68.9863     15.7236
   371.7000      8.3151      2.0587     -0.4324     35.8338     63.4693     15.5549
   371.8000      8.3205      2.0779     -0.4147     34.6697     59.4808     14.9059
   371.9000      8.3205      2.0958     -0.3899     33.5894     58.1672     14.4719
   372.0000      8.3209      2.0920     -0.3731     33.8166     60.5641     14.7409
   372.1000      8.3209      2.0679     -0.4235     35.2775     64.1881     15.0971
   372.2000      8.3209      2.0527     -0.5113     36.2015     65.3882     15.1143
   372.3000      8.3206      2.0512     -0.3675     36.2883     66.3880     15.2316
   372.4000      8.3206      2.0307     -0.4392     37.5342     69.1994     15.5840
   372.5000      8.3231      1.9978     -0.5479     39.5255     72.0583     15.7842
   372.6000      8.3231      1.9871     -0.4654     40.1737     74.0362     15.6951
   372.7000      8.3231      1.9906     -0.4382     39.9654     76.3360     15.5894
   372.8000      8.3292      1.9880     -0.5015     40.1193     82.2789     15.9314
   372.9000      8.3292      1.9777     -0.4830     40.7448     89.8053     16.7228
   373.0000      8.3304      1.9625     -0.5397     41.6650     88.8219     17.2938
   373.1000      8.3304      1.9624     -0.5510     41.6716     77.8285     16.8569
   373.2000      8.3304      1.9855     -0.4172     40.2755     67.7625     15.7006
   373.3000      8.3282      2.0003     -0.4328     39.3768     65.8678     15.3984
   373.4000      8.3282      1.9906     -0.4800     39.9619     69.5353     16.6925
   373.5000      8.3362      1.9660     -0.4737     41.4527     72.5806     18.6352
   373.6000      8.3362      1.9373     -0.5055     43.1959     72.0706     19.9738
   373.7000      8.3362      1.9261     -0.5805     43.8719     71.2922     20.4184
   373.8000      8.3356      1.9441     -0.4963     42.7833     74.6060     20.6155
   373.9000      8.3356      1.9697     -0.4600     41.2289     78.9878     20.9001
   374.0000      8.3379      1.9801     -0.4697     40.5985     79.4420     20.9509
   374.1000      8.3379      1.9684     -0.3653     41.3085     77.3584     20.5813
   374.2000      8.3379      1.9434     -0.5086     42.8264     75.8285     19.8807
   374.3000      8.3353      1.9308     -0.5158     43.5889     75.9809     19.0661
   374.4000      8.3353      1.9376     -0.4781     43.1772     75.2558     18.5314
   374.5000      8.3406      1.9394     -0.4447     43.0680     73.3477     18.5090
   374.6000      8.3406      1.9238     -0.5350     44.0119     74.3947     18.7840
   374.7000      8.3406      1.9103     -0.5167     44.8329     77.8913     18.8450
   374.8000      8.3327      1.9112     -0.5485     44.7743     81.2931     18.7462
   374.9000      8.3327      1.9231     -0.5323     44.0575     83.3088     18.7769
   375.0000      8.3323      1.9376     -0.4559     43.1758     83.4773     18.2730
   375.1000      8.3323      1.9340     -0.4606     43.3920     81.1627     17.2078
   375.2000      8.3323      1.9039     -0.5079     45.2163     75.2659     16.4531
   375.3000      8.3376      1.8719     -0.5734     47.1591     68.3607     16.5660
   375.4000      8.3376      1.8632     -0.5598     47.6844     64.1868     17.4753
   375.5000      8.3386      1.8760     -0.5092     46.9120     63.5637     18.1193
   375.6000      8.3386      1.8951     -0.5167     45.7531     64.7314     17.8617
   375.7000      8.3386      1.9103     -0.4152     44.8282     65.2320     17.4856
   375.8000      8.3372      1.9213     -0.5216     44.1624     66.1482     17.6380
   375.9000      8.3372      1.9382     -0.5001     43.1380     68.4231     18.3102
   376.0000      8.3387      1.9617     -0.5034     41.7154     69.1393     18.9748
   376.1000      8.3387      1.9806     -0.4866     40.5701     66.2513     19.0198
   376.2000      8.3387      1.9956     -0.4763     39.6593     62.4283     18.7807
   376.3000      8.3358      2.0208     -0.4843     38.1314     61.1854     18.9451
   376.4000      8.3358      2.0408     -0.3612     36.9196     62.3029     19.6289
   376.5000      8.3351      2.0174     -0.3536     38.3371     66.1730     20.3615
   376.6000      8.3351      1.9603     -0.4771     41.8004     73.1530     20.5616
   376.7000      8.3351      1.9175     -0.5056     44.3956     78.6837     20.7940
   376.8000      8.3363      1.9029     -0.5333     45.2790     78.8968     21.5746
   376.9000      8.3363      1.8943     -0.4723     45.7973     76.7969     22.2882
   377.0000      8.3400      1.8838     -0.5698     46.4389     75.1951     22.6168
   377.1000      8.3400      1.8950     -0.6128     45.7554     73.6004     22.7094
   377.2000      8.3400      1.9358     -0.5261     43.2824     71.2250     22.3034
   377.3000      8.3477      1.9721     -0.4643     41.0827     69.1481     21.6386
   377.4000      8.3477      1.9886     -0.6165     40.0876     70.3742     21.3220
   377.5000      8.3497      2.0020     -0.4373     39.2719     72.4153     20.9588
   377.6000      8.3497      2.0112     -0.4999     38.7153     69.7843     20.3300
   377.7000      8.3497      2.0158     -0.5053     38.4342     64.4968     19.9147
   377.8000      8.3444      2.0302     -0.5065     37.5667     60.6133     19.5767
   377.9000      8.3444      2.0454     -0.4027     36.6400     60.2947     18.8408
   378.0000      8.3477      2.0390     -0.4256     37.0311     64.3124     18.0294
   378.1000      8.3477      2.0143     -0.4473     38.5257     70.3337     17.8941
   378.2000      8.3477      1.9939     -0.5710     39.7664     74.3018     18.0601
   378.3000      8.3629      1.9905     -0.4859     39.9704     73.5154     17.6788
   378.4000      8.3629      2.0032     -0.4604     39.2003     70.5683     17.1340
   378.5000      8.3520      2.0254     -0.4147     37.8560     71.7217     17.0124
   378.6000      8.3520      2.0399     -0.4299     36.9727     78.7683     17.2760
   378.7000      8.3520      2.0334     -0.4480     37.3712     86.2763     17.9141
   378.8000      8.3542      2.0137     -0.4590     38.5610     87.0318     18.4948
   378.9000      8.3542      1.9883     -0.4313     40.1003     80.9207     18.5203
   379.0000      8.3533      1.9621     -0.4949     41.6939     78.0474     18.3968
   379.1000      8.3533      1.9498     -0.4638     42.4336     81.6333     18.8833
   379.2000      8.3533      1.9496     -0.4848     42.4511     83.8690     20.1932
   379.3000      8.3646      1.9492     -0.4877     42.4712     83.0227     21.5474
   379.4000      8.3646      1.9490     -0.4559     42.4854     83.0282     21.9056
   379.5000      8.3653      1.9457     -0.4481     42.6853     84.4333     20.9733
