~Version Information
VERS.                      2.0: CWLS Log ASCII Standard - VERSION 2.0
WRAP.                       NO: One line per depth step
~Well Information Block
STRT.FT               547.0000: 
STOP.FT              1685.5000: 
STEP.FT                 0.1000: 
NULL.                -999.2500: 
COMP.          Pioneer Natural Resources: COMPANY
WELL.           Pedri 42-33 Tr: WELL
FLD.           Purgatorie River: FIELD
LOC.           1933' FNL & 662' FEL: LOCATION
PROV.                 Colorado: PROVINCE
CNTY.               Las Animas: COUNTRY
SRVC.                Patterson: SERVICE COMPANY
DATE.          Mon Dec 19 13:36:44 2005: LOG DATE
UWI.                          : UNIQUE WELL ID
~Curve Information Block
DEPT.FT            0 000 00 00: Depth
DCAL.in                       : CDL Caliper
RHOB.g/cc                     : CDL Bulk Density
RHOC.g/cc                     : CDL Density Correction
DPOR.pu                       : CDL Density Porosity
GR.GAPI                       : Gamma Ray
~Parameter Information Block
~A  Depth       DCAL        RHOB        RHOC        DPOR         GR     
# ...
   692.6000      8.1558      2.4140      0.1810     14.3043    126.1168
   692.7000      8.1558      2.4092      0.1367     14.5963    127.6071
   692.8000      8.0861      2.3865      0.1142     15.9709    128.9678
   692.9000      8.0861      2.3424      0.0791     18.6419    128.2818
   693.0000      8.0419      2.2783      0.0852     22.5270    125.7698
   693.1000      8.0419      2.1965      0.0834     27.4837    122.2042
   693.2000      8.0419      2.0912      0.0843     33.8673    117.3690
   693.3000      8.0757      1.9571      0.0265     41.9960    111.4579
   693.4000      8.0757      1.8049     -0.0059     51.2201    108.0762
   693.5000      8.0924      1.6609     -0.0824     59.9425    107.7795
   693.6000      8.0924      1.5583     -0.0977     66.1631    106.1553
   693.7000      8.0924      1.5183     -0.0438     68.5891    102.0866
   693.8000      8.1335      1.5322      0.0258     67.7479     97.4368
   693.9000      8.1335      1.5743      0.0581     65.1949     92.6946
   694.0000      8.1842      1.6320      0.0684     61.6986     88.0161
   694.1000      8.1842      1.7087      0.0826     57.0472     85.6277
   694.2000      8.1842      1.8048      0.1439     51.2212     88.5702
   694.3000      8.2937      1.9060      0.2231     45.0936     94.4294
   694.4000      8.2937      1.9946      0.1997     39.7240     97.7813
   694.5000      8.3057      2.0683      0.1703     35.2545     97.5264
   694.6000      8.3057      2.1288      0.1570     31.5905     95.4615
   694.7000      8.3057      2.1706      0.1175     29.0541     92.6882
   694.8000      8.2082      2.1975      0.1084     27.4226     90.8173
   694.9000      8.2082      2.2268      0.0902     25.6492     91.8269
   695.0000      8.2156      2.2749      0.0602     22.7319     95.7081
   695.1000      8.2156      2.3345      0.1541     19.1220    101.0645
   695.2000      8.2156      2.3855      0.1360     16.0283    105.4309
   695.3000      8.1308      2.4347      0.0885     13.0482    107.5902
   695.4000      8.1308      2.4909      0.1671      9.6425    109.0349
   695.5000      8.1106      2.5350      0.1545      6.9685    110.5971
   695.6000      8.1106      2.5540      0.1578      5.8168    110.6421
   695.7000      8.1106      2.5624      0.1053      5.3105    108.9814
   695.8000      8.1337      2.5752      0.0984      4.5348    110.0027
   695.9000      8.1337      2.5842      0.0806      3.9901    114.7220
   696.0000      8.1209      2.5771      0.0738      4.4204    116.6954
   696.1000      8.1209      2.5599      0.0099      5.4583    112.5837
   696.2000      8.1209      2.5482     -0.0020      6.1699    107.4195
   696.3000      8.0987      2.5439      0.0415      6.4325    105.9358
   696.4000      8.0987      2.5390      0.0265      6.7277    107.6897
   696.5000      8.1107      2.5331     -0.0056      7.0858    111.1771
   696.6000      8.1107      2.5274      0.0149      7.4314    113.5460
   696.7000      8.1107      2.5194      0.0350      7.9181    113.3417
   696.8000      8.1060      2.5161     -0.0049      8.1142    114.4417
   696.9000      8.1060      2.5260      0.0146      7.5129    117.0751
   697.0000      8.1016      2.5294      0.0989      7.3086    118.1687
   697.1000      8.1016      2.4985      0.0859      9.1819    120.3175
   697.2000      8.1016      2.4402      0.0538     12.7145    125.0361
   697.3000      8.0791      2.3793      0.0114     16.4056    128.5838
   697.4000      8.0791      2.3305      0.0343     19.3617    128.1021
   697.5000      8.0315      2.3060      0.0367     20.8482    125.1496
   697.6000      8.0315      2.3108      0.0664     20.5587    124.5583
   697.7000      8.0315      2.3312      0.0882     19.3215    128.0853
   697.8000      8.0451      2.3530      0.0986     18.0004    133.2899
   697.9000      8.0451      2.3760      0.0856     16.6059    136.8105
   698.0000      8.0764      2.4007      0.1451     15.1105    136.8270
   698.1000      8.0764      2.4234      0.1762     13.7363    136.0999
   698.2000      8.0764      2.4516      0.1817     12.0268    138.3525
   698.3000      8.1364      2.4914      0.2736      9.6094    143.5894
   698.4000      8.1364      2.5256      0.2943      7.5398    148.0399
   698.5000      8.1418      2.5389      0.2060      6.7319    147.9558
   698.6000      8.1418      2.5402      0.1662      6.6545    145.1919
   698.7000      8.1418      2.5412      0.1694      6.5917    145.0472
   698.8000      8.1237      2.5430      0.1527      6.4827    147.6437
   698.9000      8.1237      2.5406      0.1450      6.6293    149.5446
   699.0000      8.1185      2.5354      0.1050      6.9474    149.1715
   699.1000      8.1185      2.5328      0.1357      7.1055    146.3164
   699.2000      8.1185      2.5271      0.1155      7.4489    143.1704
   699.3000      8.1469      2.5158      0.0694      8.1326    141.8199
   699.4000      8.1469      2.5086      0.0558      8.5685    140.4640
   699.5000      8.1569      2.5081      0.0746      8.5992    139.6152
   699.6000      8.1569      2.5073      0.0720      8.6508    140.8925
   699.7000      8.1569      2.5058      0.0684      8.7370    140.3516
   699.8000      8.1249      2.5113      0.0631      8.4033    135.1234
   699.9000      8.1249      2.5270      0.0857      7.4542    128.5801
   700.0000      8.1115      2.5481      0.0703      6.1773    124.9963
   700.1000      8.1115      2.5687      0.1077      4.9292    124.2078
   700.2000      8.1115      2.5918      0.1044      3.5250    124.1640
   700.3000      8.1270      2.6214      0.1483      1.7333    122.9992
   700.4000      8.1270      2.6523      0.1286     -0.1413    119.8431
   700.5000      8.0928      2.6813      0.1470     -1.8951    115.6352
   700.6000      8.0928      2.7011      0.1576     -3.0983    110.9556
   700.7000      8.0928      2.6995      0.1810     -3.0017    105.4954
   700.8000      8.0427      2.6808      0.1341     -1.8651    100.2935
   700.9000      8.0427      2.6619      0.1062     -0.7199     97.4761
   701.0000      8.0483      2.6476      0.0872      0.1453     97.7230
   701.1000      8.0483      2.6352      0.0479      0.8952     99.2934
   701.2000      8.0483      2.6242      0.0720      1.5620     98.9709
   701.3000      8.0400      2.6100      0.0085      2.4235     96.3290
   701.4000      8.0400      2.5888      0.0393      3.7076     93.6628
   701.5000      8.0317      2.5654      0.0011      5.1291     92.4381
   701.6000      8.0317      2.5477      0.0253      6.2025     92.6587
   701.7000      8.0317      2.5386     -0.0145      6.7507     93.5835
   701.8000      8.0216      2.5396     -0.0110      6.6891     94.2680
   701.9000      8.0216      2.5477      0.0491      6.1984     93.9053
   702.0000      8.0471      2.5597      0.0300      5.4703     93.2899
   702.1000      8.0471      2.5740      0.0625      4.6034     94.4427
   702.2000      8.0471      2.5778      0.0811      4.3762     97.3331
   702.3000      8.0402      2.5649      0.0377      5.1590    100.0547
   702.4000      8.0402      2.5507      0.0582      6.0195    102.4476
   702.5000      8.0609      2.5469      0.1012      6.2489    105.5162
   702.6000      8.0609      2.5500      0.1255      6.0583    107.7414
   702.7000      8.0609      2.5585      0.0634      5.5471    107.2180
   702.8000      8.0245      2.5676      0.1347      4.9922    105.1086
   702.9000      8.0245      2.5637      0.1017      5.2323    103.7235
   703.0000      8.0079      2.5504      0.0931      6.0367    103.8831
   703.1000      8.0079      2.5386      0.1239      6.7488    104.7721
   703.2000      8.0079      2.5192      0.1691      7.9268    105.5030
   703.3000      8.0135      2.4811      0.1383     10.2379    105.9518
   703.4000      8.0135      2.4365      0.0699     12.9423    106.5306
   703.5000      8.0355      2.4044      0.1103     14.8844    107.4080
   703.6000      8.0355      2.3844      0.1003     16.0950    110.1391
   703.7000      8.0355      2.3704      0.0854     16.9483    115.6395
