~Version Information
VERS.                      2.0: CWLS Log ASCII Standard - VERSION 2.0
WRAP.                       NO: One line per depth step
~Well Information Block
STRT.FT                -6.0000: 
STOP.FT               783.7500: 
STEP.FT                 0.2500: 
NULL.                -999.2500: 
COMP.          Pioneer Natural Resources: COMPANY
WELL.           Weissach 32-32: WELL
FLD.           Purgatorie River: FIELD
LOC.           --2193' FNL & 2256' FEL--: LOCATION
STAT.                       CO: State
CNTY.               Las Animas: COUNTY
CTRY. USA : Country
SECT. 32 : Section
TOWN. 33S : Township
RANG. 65W : Range
SRVC.          Patterson Wireline: SERVICE COMPANY
DATE.          Thu Sep 29 12:52:09 2005: LOG DATE
API.           05 071 08523 00: UNIQUE WELL ID
~Curve Information Block
DEPT.FT            0 000 00 00: Depth
CCL.                          : Casing Collar Locator
TT3.usec                      : CBL 3' Travel Time
AMP3.mV                       : CBL 3' Amplitude
GR.GAPI                       : Gamma Ray
~Parameter Information Block
~A  Depth       CCL         TT3         AMP3         GR     
# ...
    94.5000      0.0000    707.6873      8.9728     60.5379
    94.7500      0.0000    707.4366      8.9373     62.5780
    95.0000      0.0000    707.4384      8.9174     66.0960
    95.2500      0.0000    707.7148      8.9130     71.5600
    95.5000      0.0000    708.5508      8.9178     78.8082
    95.7500      0.0000    710.3093      8.9235     86.2612
    96.0000      0.0000    712.9951      8.9231     91.4454
    96.2500      0.0000    715.7937      8.9138     92.6970
    96.5000      0.0000    717.3458      8.8983     90.3940
    96.7500      0.0000    716.8489      8.8844     86.4573
    97.0000      0.0000    714.7887      8.8804     82.8004
    97.2500      0.0000    712.3781      8.8896     80.4285
    97.5000      0.0000    710.4815      8.9064     79.6652
    97.7500      0.0000    709.2460      8.9210     80.5214
    98.0000      0.0000    708.4637      8.9269     82.6599
    98.2500      0.0000    707.9607      8.9254     85.5068
    98.5000      0.0000    707.6747      8.9227     88.6775
    98.7500      0.0000    707.5712      8.9253     92.0508
    99.0000      0.0000    707.5884      8.9358     95.4821
    99.2500      0.0000    707.6450      8.9509     98.8630
    99.5000      0.0000    707.6760      8.9626    102.3684
    99.7500      0.0000    707.6492      8.9638    106.1313
   100.0000      0.0000    707.5668      8.9545    109.6552
   100.2500      0.0000    707.4547      8.9423    111.9759
   100.5000      0.0000    707.3441      8.9365    112.5830
   100.7500      0.0000    707.2562      8.9413    112.0481
   101.0000      0.0000    707.1951      8.9527    111.6495
   101.2500      0.0000    707.1500      8.9627    112.3682
   101.5000      0.0000    707.0971      8.9666    114.2229
   101.7500      0.0000    707.0009      8.9677    116.4891
   102.0000      0.0000    706.8325      8.9761    118.2832
   102.2500      0.0000    706.6063      8.9996    118.8831
   102.5000      0.0000    706.3931      9.0301    118.0229
   102.7500      0.0000    706.2705      9.0382    116.2301
   103.0000      0.0000    706.2469      8.9911    114.4532
   103.2500      0.0000    706.2504      8.8866    112.8593
   103.5000      0.0000    706.1935      8.7607    110.1627
   103.7500      0.0000    706.0404      8.6581    104.6924
   104.0000      0.0000    705.8137      8.5985     96.2383
   104.2500      0.0000    705.5621      8.5730     86.5375
   104.5000      0.0000    705.3371      8.5681     78.2026
   104.7500      0.0000    705.1857      8.5898     73.6838
   105.0000      0.0000    705.1323      8.6621     74.6856
   105.2500      0.0000    705.1573      8.7989     81.2172
   105.5000      0.0000    705.2052      8.9765     90.8670
   105.7500      0.0000    705.2255      9.1420     99.9378
   106.0000      0.0000    705.1930      9.2536    106.0414
   106.2500      0.0000    705.0974      9.3089    109.5886
   106.5000      0.0000    704.9441      9.3332    112.7118
   106.7500      0.0000    704.7725      9.3504    116.9521
   107.0000      0.0000    704.6450      9.3662    121.9108
   107.2500      0.0000    704.6022      9.3735    125.7117
   107.5000      0.0000    704.6420      9.3663    126.3643
   107.7500      0.0000    704.7385      9.3486    122.8161
   108.0000      0.0000    704.8680      9.3332    115.3205
   108.2500      0.0000    705.0142      9.3324    105.4691
   108.5000      0.0000    705.1702      9.3506     96.0215
   108.7500      0.0000    705.3433      9.3825     90.1020
   109.0000      0.0000    705.5482      9.4172     89.7337
   109.2500      0.0000    705.7921      9.4443     94.6929
   109.5000      0.0000    706.0639      9.4612    102.7168
   109.7500      0.0000    706.3386      9.4734    110.8398
   110.0000      0.0000    706.5867      9.4888    116.8169
   110.2500      0.0000    706.7867      9.5112    119.8285
   110.5000      0.0000    706.9355      9.5381    120.3099
   110.7500      0.0000    707.0447      9.5631    119.3102
   111.0000      0.0000    707.1287      9.5796    117.8408
   111.2500      0.0000    707.1967      9.5861    116.3458
   111.5000      0.0000    707.2480      9.5887    114.5382
   111.7500      0.0000    707.2729      9.5961    112.0046
   112.0000      0.0000    707.2603      9.6123    108.9495
   112.2500      0.0000    707.2101      9.6343    105.8836
   112.5000      0.0000    707.1343      9.6575    102.6704
   112.7500      0.0000    707.0480      9.6797     98.7193
   113.0000      0.0000    706.9670      9.7015     94.3177
   113.2500      0.0000    706.9139      9.7251     90.9180
   113.5000      0.0000    706.9189      9.7549     89.6427
   113.7500      0.0000    706.9971      9.7962     89.9810
   114.0000      0.0000    707.1246      9.8508     90.2653
   114.2500      0.0000    707.2176      9.9155     89.0749
   114.5000      0.0000    707.0841      9.9851     85.9750
   114.7500      0.0000    706.2994     10.0582     81.2872
   115.0000      0.0000    704.1422     10.1372     75.7701
   115.2500      0.0000    699.8292     10.2232     70.6561
   115.5000      0.0000    693.1358     10.3106     67.4613
   115.7500      0.0000    684.9179     10.3880     67.3639
   116.0000      0.0000    676.8115     10.4429     70.8471
   116.2500      0.0000    670.2759     10.4692     77.7646
   116.5000      0.0000    666.2348     10.4711     87.1460
   116.7500      0.0000    665.6887     10.4616     96.9415
   117.0000      0.0000    669.7159     10.4546    104.7562
   117.2500      0.0000    678.0445     10.4581    109.3094
   117.5000      0.0000    688.2109     10.4723    110.9470
   117.7500      0.0000    697.0087     10.4923    110.7396
   118.0000      0.0000    702.6599     10.5126    109.5423
   118.2500      0.0000    705.3655     10.5306    107.8761
   118.5000      0.0000    706.2781     10.5481    106.0482
   118.7500      0.0000    706.4182     10.5688    104.2797
   119.0000      0.0000    706.3329     10.5927    103.0977
   119.2500      0.0000    706.2112     10.6137    103.3420
   119.5000      0.0000    706.0626     10.6246    105.1782
   119.7500      0.0000    705.8353     10.6231    107.3404
   120.0000      0.0000    705.5289     10.6140    108.0828
   120.2500      0.0000    705.2512     10.6040    106.9364
   120.5000      0.0000    705.2461     10.5951    105.1149
   120.7500      0.0000    705.9232     10.5721    104.2035
   121.0000      0.0000    707.8474     10.4870    104.8158
   121.2500      0.0000    711.2237     10.2582    106.6783
   121.5000      0.0000    714.7487      9.8173    109.5303
   121.7500      0.0000    715.4221      9.1983    113.1720
   122.0000      0.0000    711.4056      8.5784    116.7260
   122.2500      0.0000    706.1621      8.1746    118.7371
   122.5000      0.0000    707.7018      8.0678    118.2109
   122.7500      0.0000    721.3422      8.1510    115.0334
   123.0000      0.0000    743.6692      8.2527    109.4083
   123.2500      0.0000    764.8745      8.2746    101.6968
   123.5000      0.0000    776.5606      8.2145     93.1392
   123.7500      0.0000    776.8508      8.1108     86.0257
   124.0000     -2.0000    769.2499      7.9897     82.3811
   124.2500      0.0000    757.8069      7.8677     82.5362
   124.5000      0.0000    743.8935      7.7934     85.2676
   124.7500      0.0000    727.8732      7.8653     89.0937
   125.0000      0.0000    712.3763      8.1700     93.0588
   125.2500      0.0000    701.5136      8.6942     96.4573
   125.5000      0.0000    697.1342      9.3177     98.6016
   125.7500      0.0000    697.5398      9.8928     99.4094
   126.0000      0.0000    699.6976     10.3182     99.9284
   126.2500      0.0000    701.6176     10.5661    101.7319
   126.5000      0.0000    702.7571     10.6716    105.7204
   126.7500      0.0000    703.2970     10.6928    111.5049
   127.0000      0.0000    703.4972     10.6721    117.5648
   127.2500      0.0000    703.4881     10.6271    121.9973
   127.5000      0.0000    703.3285     10.5617    123.7725
   127.7500      0.0000    703.0795     10.4788    123.5866
