~Version Information
VERS.                      2.0: CWLS Log ASCII Standard - VERSION 2.0
WRAP.                       NO: One line per depth step
~Well Information Block
STRT.FT               545.0000: 
STOP.FT              1452.5000: 
STEP.FT                 0.1000: 
NULL.                -999.2500: 
COMP.          Pioneer Natural Resources: COMPANY
WELL.          Parklane 43-34 Tr: WELL
FLD.           Purgatoire River: FIELD
LOC.           1643' FSL & 966' FEL: LOCATION
PROV.                 Colorado: PROVINCE
CNTY.               Las Animas: COUNTRY
SRVC.                Patterson: SERVICE COMPANY
DATE.          Fri Jul 29 07:27:28 2005: LOG DATE
UWI.           05 071 08452 00: UNIQUE WELL ID
~Curve Information Block
DEPT.FT            0 000 00 00: Depth
DCAL.in                       : CDL Caliper
RHOB.g/cc                     : CDL Bulk Density
RHOC.g/cc                     : CDL Density Correction
DPOR.pu                       : CDL Density Porosity
GR.GAPI                       : Gamma Ray
NPOR.pu                       : Neutron Porosity
~Parameter Information Block
~A  Depth       DCAL        RHOB        RHOC        DPOR         GR         NPOR    
# ...
   842.6000      8.2910      2.4556      0.1168     11.7842    136.3200     23.6683
   842.7000      8.2910      2.4491      0.1018     12.1786    140.7825     23.5618
   842.8000      8.3045      2.4285      0.0707     13.4248    149.3235     23.3006
   842.9000      8.3045      2.4100      0.0841     14.5449    157.2820     23.2823
   843.0000      8.3441      2.4016      0.0563     15.0561    156.7795     23.4527
   843.1000      8.3441      2.4042      0.0671     14.8972    150.0073     23.2697
   843.2000      8.3441      2.4067      0.0709     14.7427    145.7073     22.7760
   843.3000      8.2879      2.3985      0.0732     15.2439    145.7357     22.6684
   843.4000      8.2879      2.3946      0.0480     15.4771    144.1029     23.1802
   843.5000      8.2665      2.4165      0.0398     14.1537    139.1419     23.9621
   843.6000      8.2665      2.4453      0.1074     12.4055    134.3577     24.7156
   843.7000      8.2665      2.4478      0.0241     12.2554    130.1763     25.0431
   843.8000      8.2831      2.4220      0.0726     13.8157    126.1966     24.8289
   843.9000      8.2831      2.3853      0.0120     16.0409    126.7492     24.5985
   844.0000      8.2707      2.3602     -0.0219     17.5647    133.2713     24.4848
   844.1000      8.2707      2.3548     -0.0084     17.8918    138.3712     24.3480
   844.2000      8.2707      2.3487      0.0164     18.2622    139.0152     24.5187
   844.3000      8.2337      2.3228     -0.0010     19.8325    141.0981     25.0925
   844.4000      8.2337      2.2900      0.0079     21.8209    145.4982     25.8088
   844.5000      8.1975      2.2901     -0.0190     21.8117    146.8287     26.8852
   844.6000      8.1975      2.3562      0.0491     17.8070    142.8783     28.2224
   844.7000      8.1975      2.4793      0.1623     10.3426    136.1927     29.1681
   844.8000      8.1466      2.6291      0.2158      1.2640    131.0310     29.7179
   844.9000      8.1466      2.7929      0.2894     -8.6590    127.6951     30.0888
   845.0000      8.0693      2.9386      0.4051    -17.4882    124.7471     30.2789
   845.1000      8.0693      3.0025      0.4012    -21.3630    122.3146     30.1243
   845.2000      8.0693      2.9651      0.3601    -19.0959    120.8106     29.3601
   845.3000      8.0650      2.8747      0.1848    -13.6204    120.1250     28.3423
   845.4000      8.0650      2.7787      0.1310     -7.8005    117.9835     27.7356
   845.5000      8.0938      2.6775      0.0495     -1.6675    112.3040     27.4854
   845.6000      8.0938      2.5747     -0.1680      4.5608    107.4650     27.0820
   845.7000      8.0938      2.5123     -0.2593      8.3441    106.9237     26.2995
   845.8000      8.0352      2.5104     -0.1632      8.4607    104.7050     25.2726
   845.9000      8.0352      2.5302     -0.0502      7.2594     97.1455     24.4345
   846.0000      8.0333      2.5372      0.0396      6.8347     89.4329     24.1831
   846.1000      8.0333      2.5378      0.1031      6.7974     88.7219     24.2760
   846.2000      8.0333      2.5389      0.1353      6.7340     96.0801     24.0571
   846.3000      8.0166      2.5300      0.0704      7.2730    106.6326     23.4625
   846.4000      8.0166      2.5083      0.0684      8.5876    116.6521     22.9883
   846.5000      7.9530      2.4801      0.0657     10.2948    124.5817     22.8049
   846.6000      7.9530      2.4481      0.0533     12.2339    129.6768     22.6366
   846.7000      7.9530      2.4197     -0.0309     13.9596    133.3843     22.3419
   846.8000      7.9949      2.4033      0.0231     14.9531    138.9378     22.3476
   846.9000      7.9949      2.3954      0.0269     15.4313    143.1249     22.5913
   847.0000      8.0235      2.3982      0.0055     15.2592    140.4819     22.4408
   847.1000      8.0235      2.4141      0.0579     14.2964    135.9360     22.1628
   847.2000      8.0235      2.4224      0.0495     13.7953    137.2791     22.4128
   847.3000      8.0334      2.4077      0.0245     14.6868    141.3536     23.0443
   847.4000      8.0334      2.3843      0.0104     16.1019    141.7774     23.3193
   847.5000      8.0342      2.3727      0.0526     16.8048    139.7285     23.0359
   847.6000      8.0342      2.3738      0.0663     16.7375    136.9168     22.7463
   847.7000      8.0342      2.3813      0.0625     16.2850    134.1547     22.7720
   847.8000      8.0557      2.3981      0.0947     15.2645    138.6125     22.8702
   847.9000      8.0557      2.4260      0.0879     13.5757    148.4851     22.9274
   848.0000      8.0303      2.4544      0.1051     11.8530    150.6875     23.0820
   848.1000      8.0303      2.4727      0.0900     10.7475    145.5369     23.1611
   848.2000      8.0303      2.4800      0.1092     10.3021    142.6691     23.1558
   848.3000      8.0226      2.4767      0.1163     10.5055    144.1764     23.4806
   848.4000      8.0226      2.4678      0.1354     11.0403    147.0234     24.1012
   848.5000      8.0316      2.4662      0.0986     11.1381    151.0368     24.4233
   848.6000      8.0316      2.4774      0.1448     10.4631    157.0037     24.2859
   848.7000      8.0316      2.4918      0.1470      9.5878    161.7591     24.0639
   848.8000      8.0386      2.5047      0.0856      8.8085    161.8698     23.9673
   848.9000      8.0386      2.5190      0.1061      7.9368    160.5275     24.2038
   849.0000      8.0583      2.5236      0.1175      7.6607    160.1933     24.7559
   849.1000      8.0583      2.5099      0.1003      8.4934    159.0359     25.2960
   849.2000      8.0583      2.4952      0.0827      9.3804    158.1793     25.5268
   849.3000      8.0204      2.4992      0.0800      9.1365    156.4640     25.2392
   849.4000      8.0204      2.5146      0.1255      8.2083    151.3354     24.5704
   849.5000      8.0070      2.5188      0.1183      7.9505    144.6844     23.8647
   849.6000      8.0070      2.5036      0.0937      8.8708    140.4460     23.5709
   849.7000      8.0070      2.4819     -0.0045     10.1878    139.4618     23.8670
   849.8000      8.0042      2.4723      0.0048     10.7700    139.1128     24.4110
   849.9000      8.0042      2.4825      0.0002     10.1532    136.4592     25.0098
   850.0000      8.0329      2.5080      0.0653      8.6082    131.6564     25.6553
   850.1000      8.0329      2.5369      0.0461      6.8543    127.7269     26.2016
   850.2000      8.0329      2.5579      0.1132      5.5794    124.5099     26.4224
   850.3000      7.9961      2.5676      0.0637      4.9957    121.1260     26.2201
   850.4000      7.9961      2.5733      0.0597      4.6483    118.3783     25.8222
   850.5000      7.9876      2.5783      0.0657      4.3474    116.1749     25.4685
   850.6000      7.9876      2.5695      0.0675      4.8772    114.0784     24.9712
   850.7000      7.9876      2.5389      0.0066      6.7343    110.4015     24.1743
   850.8000      7.9880      2.5023     -0.0067      8.9493    105.0199     23.4284
   850.9000      7.9880      2.4794     -0.0101     10.3424    101.7948     22.9895
   851.0000      8.0238      2.4740     -0.0396     10.6676    100.9745     22.8219
   851.1000      8.0238      2.4832      0.0102     10.1114     96.9128     22.6898
   851.2000      8.0238      2.4974      0.0584      9.2475     90.1685     22.4238
   851.3000      8.0582      2.5049      0.0696      8.7911     88.9805     22.2749
   851.4000      8.0582      2.5042      0.0755      8.8373     93.9335     22.3520
   851.5000      8.0812      2.5017      0.0964      8.9899     98.5714     22.4348
   851.6000      8.0812      2.5053      0.0714      8.7696     97.9978     22.2100
   851.7000      8.0812      2.5231      0.1262      7.6895     90.0304     21.3354
   851.8000      7.9737      2.5569      0.1201      5.6443     79.1689     20.1006
   851.9000      7.9737      2.5994      0.1620      3.0693     73.8060     19.2859
   852.0000      7.9312      2.6338      0.1816      0.9842     73.0931     19.0930
   852.1000      7.9312      2.6504      0.1911     -0.0215     69.7004     19.0115
