~Version Information
VERS.                      2.0: CWLS Log ASCII Standard - VERSION 2.0
WRAP.                       NO: One line per depth step
~Well Information Block
STRT.FT                 0.0000: 
STOP.FT               816.5000: 
STEP.FT                 0.1000: 
NULL.                -999.2500: 
COMP.          Pioneer Natural Resources: COMPANY
WELL.           Weissach 32-32: WELL
FLD.           Purgatorie River: FIELD
LOC.           2193' FNL & 2256' FEL: LOCATION
STAT.                 Colorado: State
CNTY.               Las Animas: COUNTY
CTRY. USA : Country
SECT. 32 : Section
TOWN. 33S : Township
RANG. 66W : Range
SRVC.                Patterson: SERVICE COMPANY
DATE.          Mon Sep 26 09:15:29 2005: LOG DATE
API. 05-071-08523                         : UNIQUE WELL ID
~Curve Information Block
DEPT.FT            0 000 00 00: Depth
DCAL.in                       : CDL Caliper
RHOB.g/cc                     : CDL Bulk Density
RHOC.g/cc                     : CDL Density Correction
DPOR.pu                       : CDL Density Porosity
GR.GAPI                       : Gamma Ray
NPOR.pu                       : Neutron Porosity
~Parameter Information Block
~A  Depth       DCAL        RHOB        RHOC        DPOR         GR         NPOR    
# ...
   633.6000      7.8710      2.5597      0.0805      5.4712    117.6409     26.3465
   633.7000      7.8710      2.5655      0.0450      5.1196    117.2677     26.2480
   633.8000      7.9061      2.5704      0.0606      4.8258    114.8700     26.1605
   633.9000      7.9061      2.5628      0.0732      5.2828    109.4214     25.9677
   634.0000      7.8848      2.5538      0.0187      5.8303    104.9127     25.7173
   634.1000      7.8848      2.5649      0.0473      5.1575    104.3677     25.2680
   634.2000      7.8848      2.5821      0.1122      4.1150    106.1180     24.5391
   634.3000      7.8067      2.5798      0.0618      4.2534    107.3043     23.6843
   634.4000      7.8067      2.5660      0.0588      5.0924    107.4995     23.0429
   634.5000      7.7986      2.5586      0.1044      5.5417    107.2656     22.7645
   634.6000      7.7986      2.5553      0.1340      5.7389    106.8995     22.7305
   634.7000      7.7986      2.5470      0.1322      6.2434    106.6906     22.7781
   634.8000      7.7833      2.5363      0.1326      6.8880    107.3138     22.8570
   634.9000      7.7833      2.5318      0.0920      7.1622    108.7680     23.0002
   635.0000      7.7728      2.5360      0.1198      6.9062    110.7745     23.1679
   635.1000      7.7728      2.5459      0.1175      6.3079    114.4323     23.4548
   635.2000      7.7728      2.5609      0.1479      5.4008    119.2128     23.9693
   635.3000      7.7778      2.5841      0.1633      3.9950    121.5140     24.6501
   635.4000      7.7778      2.6118      0.2062      2.3162    119.7493     25.3272
   635.5000      7.7889      2.6332      0.2141      1.0157    118.3204     25.7525
   635.6000      7.7889      2.6433      0.2367      0.4050    120.3025     25.9448
   635.7000      7.7889      2.6370      0.2486      0.7901    121.3831     26.1317
   635.8000      7.8055      2.6169      0.1589      2.0060    119.4786     26.3122
   635.9000      7.8055      2.6086      0.1291      2.5109    118.2949     26.4238
   636.0000      7.8079      2.6218      0.1541      1.7067    118.0589     26.5184
   636.1000      7.8079      2.6357      0.1397      0.8670    116.8122     26.6537
   636.2000      7.8079      2.6347      0.1485      0.9299    115.7701     26.8863
   636.3000      7.8118      2.6165      0.1281      2.0306    115.4650     27.1514
   636.4000      7.8118      2.5914      0.0860      3.5488    113.6789     27.3028
   636.5000      7.8248      2.5815      0.0469      4.1543    111.3899     27.3269
   636.6000      7.8248      2.5899      0.0705      3.6433    111.0711     27.3487
   636.7000      7.8248      2.5945      0.1058      3.3644    112.0198     27.4366
   636.8000      7.8205      2.5827      0.0769      4.0799    116.0439     27.4900
   636.9000      7.8205      2.5672      0.0451      5.0172    124.4142     27.4338
   637.0000      7.8133      2.5607      0.0943      5.4118    130.4159     27.3368
   637.1000      7.8133      2.5565      0.0497      5.6649    128.5069     27.2549
   637.2000      7.8133      2.5475      0.0670      6.2144    123.9578     27.2213
   637.3000      7.8211      2.5340      0.0766      7.0323    122.4053     27.2570
   637.4000      7.8211      2.5182      0.0434      7.9905    123.6062     27.3257
   637.5000      7.8504      2.5080      0.0239      8.6075    124.7277     27.3484
   637.6000      7.8504      2.5070      0.0766      8.6642    123.6958     27.2684
   637.7000      7.8504      2.4989      0.0828      9.1554    121.9503     27.2146
   637.8000      7.8705      2.4712      0.0559     10.8355    122.6080     27.4238
   637.9000      7.8705      2.4380      0.0171     12.8502    123.0288     28.0135
   638.0000      7.9032      2.4177      0.0323     14.0758    119.9793     28.7883
   638.1000      7.9032      2.4130      0.0363     14.3637    117.4643     29.4925
   638.2000      7.9032      2.4124      0.0375     14.4019    118.2079     30.0541
   638.3000      7.9146      2.4006      0.0355     15.1141    116.7370     30.2732
   638.4000      7.9146      2.3662      0.0932     17.1979    110.1317     29.8883
   638.5000      7.9154      2.3045      0.0348     20.9383    104.9123     29.1400
   638.6000      7.9154      2.2278      0.0034     25.5871    102.7495     28.6161
   638.7000      7.9154      2.1513      0.0212     30.2220    100.5824     28.6766
   638.8000      7.9050      2.0762     -0.0127     34.7756    100.2152     29.3067
   638.9000      7.9050      2.0027      0.0020     39.2300     99.7819     30.0989
   639.0000      7.8968      1.9351     -0.0482     43.3278     94.5296     30.6893
   639.1000      7.8968      1.8784     -0.0169     46.7661     87.3385     31.0818
   639.2000      7.8968      1.8402     -0.0051     49.0801     82.6620     31.4190
   639.3000      7.9127      1.8261      0.0694     49.9329     79.9399     31.9381
   639.4000      7.9127      1.8283      0.0957     49.8001     77.6197     32.6600
   639.5000      7.9114      1.8359      0.0813     49.3379     75.5220     33.2768
   639.6000      7.9114      1.8484      0.0778     48.5813     74.8597     33.6456
   639.7000      7.9114      1.8752      0.0736     46.9548     77.1059     33.7663
   639.8000      7.9061      1.9308      0.0961     43.5889     82.6026     33.6213
   639.9000      7.9061      2.0151      0.1542     38.4782     88.4619     33.2745
   640.0000      7.9000      2.1108      0.1868     32.6805     91.5023     32.9625
   640.1000      7.9000      2.2033      0.1512     27.0716     93.8109     32.8386
   640.2000      7.9000      2.2819      0.1692     22.3113     96.9269     32.7552
   640.3000      7.8933      2.3378      0.1442     18.9231     97.9592     32.5162
   640.4000      7.8933      2.3785      0.1633     16.4526     95.4598     32.1335
   640.5000      7.8654      2.4140      0.1871     14.3042     92.1569     31.6434
   640.6000      7.8654      2.4425      0.1437     12.5747     93.2558     30.9250
   640.7000      7.8654      2.4623      0.0781     11.3732    100.3481     30.0647
   640.8000      7.8078      2.4784      0.0760     10.3988    108.0340     29.3999
   640.9000      7.8078      2.4959      0.0633      9.3413    111.2581     29.1185
   641.0000      7.7801      2.5163      0.0677      8.1060    111.8210     29.1054
   641.1000      7.7801      2.5413      0.0725      6.5895    113.1285     29.0060
   641.2000      7.7801      2.5667      0.1261      5.0509    116.2199     28.6231
   641.3000      7.8404      2.5753      0.0947      4.5258    120.1201     28.0211
   641.4000      7.8404      2.5580      0.1098      5.5743    121.0406     27.2665
   641.5000      7.8315      2.5294      0.0501      7.3080    116.9686     26.6316
   641.6000      7.8315      2.5100      0.0647      8.4870    112.4179     26.3941
   641.7000      7.8315      2.5073      0.0327      8.6460    111.3718     26.1673
   641.8000      7.8540      2.5169      0.0655      8.0695    112.1771     25.4980
   641.9000      7.8540      2.5254      0.0718      7.5506    111.8223     24.8190
   642.0000      7.9000      2.5294      0.0239      7.3077    109.2263     24.7452
   642.1000      7.9000      2.5350      0.0571      6.9710    105.7302     25.0332
   642.2000      7.9000      2.5392      0.0353      6.7181    104.4829     25.0881
   642.3000      7.9185      2.5357      0.0334      6.9253    107.6793     25.0101
   642.4000      7.9185      2.5240      0.0387      7.6335    111.7891     25.1285
   642.5000      7.9053      2.5110      0.0322      8.4218    111.8690     25.3053
   642.6000      7.9053      2.5087     -0.0219      8.5627    109.1741     25.4204
   642.7000      7.9053      2.5167      0.0125      8.0814    105.8494     25.4979
   642.8000      7.8701      2.5207      0.0456      7.8365    103.0650     25.3738
   642.9000      7.8701      2.5220     -0.0166      7.7603    101.0839     24.7867
   643.0000      7.8219      2.5311      0.0182      7.2075    100.6416     23.8537
   643.1000      7.8219      2.5457      0.0684      6.3215    102.5659     23.1859
