~Version Information
VERS.                      2.0: CWLS Log ASCII Standard - VERSION 2.0
WRAP.                       NO: One line per depth step
~Well Information Block
STRT.FT               545.0000: 
STOP.FT              1452.5000: 
STEP.FT                 0.1000: 
NULL.                -999.2500: 
COMP.          Pioneer Natural Resources: COMPANY
WELL.          Parklane 43-34 Tr: WELL
FLD.           Purgatoire River: FIELD
LOC.           1643' FSL & 966' FEL: LOCATION
PROV.                 Colorado: PROVINCE
CNTY.               Las Animas: COUNTRY
SRVC.                Patterson: SERVICE COMPANY
DATE.          Fri Jul 29 07:27:28 2005: LOG DATE
UWI.           05 071 08452 00: UNIQUE WELL ID
~Curve Information Block
DEPT.FT            0 000 00 00: Depth
DCAL.in                       : CDL Caliper
RHOB.g/cc                     : CDL Bulk Density
RHOC.g/cc                     : CDL Density Correction
DPOR.pu                       : CDL Density Porosity
GR.GAPI                       : Gamma Ray
NPOR.pu                       : Neutron Porosity
~Parameter Information Block
~A  Depth       DCAL        RHOB        RHOC        DPOR         GR         NPOR    
# ...
  1140.2000      7.9512      2.5649      0.0686      5.1605    103.3480     23.6092
  1140.3000      7.9395      2.5638      0.0131      5.2226    102.0292     23.2588
  1140.4000      7.9395      2.5689      0.1183      4.9146    100.3268     22.3847
  1140.5000      7.9291      2.5624      0.0351      5.3110     96.8656     21.6402
  1140.6000      7.9291      2.5552      0.0165      5.7447     90.0975     21.2287
  1140.7000      7.9291      2.5727      0.0234      4.6856     81.5968     20.8203
  1140.8000      7.9225      2.6035      0.0914      2.8172     75.1298     20.3343
  1140.9000      7.9225      2.6125      0.0588      2.2705     73.1282     19.9902
  1141.0000      7.9199      2.5964      0.0649      3.2473     76.3957     19.9123
  1141.1000      7.9199      2.5829      0.0611      4.0653     83.1586     20.1850
  1141.2000      7.9199      2.5844      0.0579      3.9775     88.4736     20.6031
  1141.3000      7.9262      2.5808      0.0647      4.1921     89.5999     20.6474
  1141.4000      7.9262      2.5566      0.0269      5.6608     87.9664     20.4009
  1141.5000      7.9276      2.5370     -0.0342      6.8512     85.5699     20.2868
  1141.6000      7.9276      2.5502      0.0166      6.0504     82.7797     20.5174
  1141.7000      7.9276      2.5771      0.0558      4.4197     80.2651     21.1354
  1141.8000      7.9272      2.5875      0.0726      3.7875     80.5070     21.7661
  1141.9000      7.9272      2.5854      0.0501      3.9154     82.0700     21.9687
  1142.0000      7.9454      2.5959      0.0294      3.2812     81.1373     21.8099
  1142.1000      7.9454      2.6216      0.1215      1.7187     79.3328     21.6100
  1142.2000      7.9454      2.6314      0.1247      1.1278     77.8346     21.6526
  1142.3000      7.9366      2.6133      0.1103      2.2234     74.4570     21.9127
  1142.4000      7.9366      2.5960      0.0848      3.2703     70.0064     22.1296
  1142.5000      7.9312      2.5964      0.1088      3.2496     66.7420     22.2077
  1142.6000      7.9312      2.5950      0.0680      3.3306     65.3485     22.0246
  1142.7000      7.9312      2.5839      0.0214      4.0048     64.3382     21.4433
  1142.8000      7.9458      2.5777      0.0220      4.3807     63.5632     20.6666
  1142.9000      7.9458      2.5805      0.0785      4.2112     63.5931     20.0860
  1143.0000      7.9450      2.5922      0.0352      3.5016     62.1449     19.8488
  1143.1000      7.9450      2.6134      0.0991      2.2172     58.5274     19.7246
  1143.2000      7.9450      2.6293      0.0819      1.2559     55.4671     19.4212
  1143.3000      7.9485      2.6323      0.0920      1.0730     54.6331     19.0208
  1143.4000      7.9485      2.6312      0.1162      1.1419     56.1903     18.7644
  1143.5000      7.9296      2.6269      0.0857      1.4008     60.0887     18.5960
  1143.6000      7.9296      2.6117      0.1011      2.3230     65.0047     18.3970
  1143.7000      7.9296      2.5845      0.0551      3.9683     67.9919     18.1904
  1143.8000      7.9022      2.5517      0.0070      5.9551     68.8776     17.9500
  1143.9000      7.9022      2.5205     -0.0144      7.8473     70.2184     17.6618
  1144.0000      7.9392      2.4987      0.0296      9.1709     69.7776     17.3916
  1144.1000      7.9392      2.4856      0.0293      9.9649     65.2390     17.0095
  1144.2000      7.9392      2.4803      0.0129     10.2864     59.5207     16.6838
  1144.3000      7.9155      2.4908      0.0320      9.6510     56.3391     16.8532
  1144.4000      7.9155      2.5156      0.0784      8.1436     55.7545     17.3701
  1144.5000      7.9237      2.5365      0.1266      6.8801     55.0298     17.8007
  1144.6000      7.9237      2.5441      0.1370      6.4207     55.8170     18.2081
  1144.7000      7.9237      2.5520      0.1261      5.9405     61.9948     18.7425
  1144.8000      7.8997      2.5706      0.1344      4.8141     69.1573     18.9892
  1144.9000      7.8997      2.5866      0.1763      3.8440     71.7950     18.7359
  1145.0000      7.9002      2.5863      0.0900      3.8636     71.3536     18.4970
  1145.1000      7.9002      2.5686      0.1400      4.9329     70.4196     18.4309
  1145.2000      7.9002      2.5364      0.0675      6.8832     69.5669     18.1980
  1145.3000      7.9550      2.5040      0.0414      8.8485     69.0460     17.8497
  1145.4000      7.9550      2.4828      0.0255     10.1319     69.4660     17.7764
  1145.5000      7.9945      2.4676      0.0423     11.0530     70.9164     18.0934
  1145.6000      7.9945      2.4416      0.0856     12.6283     72.3805     18.4943
  1145.7000      7.9945      2.3973     -0.0252     15.3124     73.8791     18.5777
  1145.8000      7.9631      2.3513      0.0188     18.1012     77.0697     18.1610
  1145.9000      7.9631      2.3225      0.0236     19.8478     79.6066     17.4045
  1146.0000      7.9208      2.3212      0.0034     19.9279     77.3833     16.7125
  1146.1000      7.9208      2.3350      0.1428     19.0927     72.4194     16.3968
  1146.2000      7.9208      2.3384      0.1317     18.8874     68.7383     16.4086
  1146.3000      7.8842      2.3366      0.1556     18.9935     69.1154     16.3464
  1146.4000      7.8842      2.3495      0.1918     18.2150     74.2337     16.0766
  1146.5000      7.8724      2.3783      0.2126     16.4644     79.6937     15.6963
  1146.6000      7.8724      2.4120      0.1970     14.4256     79.9281     15.0057
  1146.7000      7.8724      2.4373      0.1937     12.8901     75.7352     14.1300
  1146.8000      7.8713      2.4450      0.2278     12.4226     71.5832     13.5631
  1146.9000      7.8713      2.4278      0.2444     13.4664     69.8740     13.4135
  1147.0000      7.8818      2.3775      0.2384     16.5165     69.8171     13.6078
  1147.1000      7.8818      2.2993      0.1727     21.2539     70.1578     13.9574
  1147.2000      7.8818      2.2214      0.0928     25.9771     70.2796     14.1245
  1147.3000      7.9159      2.1757      0.0093     28.7429     68.5231     14.2848
  1147.4000      7.9159      2.1681      0.0284     29.2086     66.2437     14.8912
  1147.5000      7.9132      2.1674      0.0522     29.2499     67.5234     15.8251
  1147.6000      7.9132      2.1345      0.0808     31.2430     71.9052     16.4131
  1147.7000      7.9132      2.0531      0.0835     36.1742     75.4364     16.4579
  1147.8000      7.8959      1.9427      0.0535     42.8664     78.2347     16.3895
  1147.9000      7.8959      1.8484     -0.0103     48.5843     82.8073     16.4839
  1148.0000      7.9650      1.8066     -0.0357     51.1163     85.8801     16.4633
  1148.1000      7.9650      1.8164     -0.0488     50.5183     84.1691     16.1102
  1148.2000      7.9650      1.8405     -0.0447     49.0580     80.5446     15.8646
  1148.3000      8.0004      1.8476     -0.1078     48.6320     78.5725     16.0825
  1148.4000      8.0004      1.8522     -0.0462     48.3519     80.1252     16.5666
  1148.5000      8.0408      1.9000      0.0016     45.4529     84.9631     17.1749
  1148.6000      8.0408      2.0156      0.2103     38.4474     89.7312     17.9506
  1148.7000      8.0408      2.1630      0.4169     29.5139     90.5912     18.7264
  1148.8000      8.0206      2.2796      0.3672     22.4504     90.1389     19.3479
  1148.9000      8.0206      2.3398      0.3704     18.7987     94.1911     19.9344
  1149.0000      7.9079      2.3729      0.2495     16.7930    100.3015     20.5004
  1149.1000      7.9079      2.4236      0.2720     13.7188    103.1490     20.9458
  1149.2000      7.9079      2.4924      0.2867      9.5514    104.1673     21.2399
  1149.3000      7.9279      2.5426      0.3369      6.5116    108.0650     21.3599
  1149.4000      7.9279      2.5612      0.2475      5.3805    116.2315     21.3509
  1149.5000      7.9762      2.5725      0.1806      4.6989    125.0752     21.2045
  1149.6000      7.9762      2.5786      0.2211      4.3252    132.0747     20.7960
  1149.7000      7.9762      2.5461      0.1969      6.2984    138.7233     20.3423
