~Version Information
VERS.                      2.0: CWLS Log ASCII Standard - VERSION 2.0
WRAP.                       NO: One line per depth step
~Well Information Block
STRT.FT                 0.0000: 
STOP.FT               968.2500: 
STEP.FT                 0.2500: 
NULL.                -999.2500: 
COMP.          Pioneer Natural Resources: COMPANY
WELL.              Atlas 32-18: WELL
FLD.           Purgatorie River: FIELD
LOC.           1892' FNL & 1456' FEL: LOCATION
PROV.                 Colorado: PROVINCE
CNTY.               Las Animas: COUNTRY
SRVC.                Patterson: SERVICE COMPANY
DATE.          Fri Dec 02 11:37:22 2005: LOG DATE
UWI.                          : UNIQUE WELL ID
~Curve Information Block
DEPT.FT            0 000 00 00: Depth
CCL.                          : Casing Collar Locator
TT3.usec                      : CBL 3' Travel Time
AMP3.mV                       : CBL 3' Amplitude
GR.GAPI                       : Gamma Ray
~Parameter Information Block
~A  Depth       CCL         TT3         AMP3         GR     
# ...
   301.5000      0.0000    695.5710      8.1520     82.1921
   301.7500      0.0000    697.9046      8.1734     76.0921
   302.0000      0.0000    701.2580      8.1319     71.8329
   302.2500      0.0000    705.1821      8.0776     69.4220
   302.5000      0.0000    705.2830      8.0366     69.4643
   302.7500      0.0000    701.6033      7.9883     72.3242
   303.0000      0.0000    698.8364      7.9372     77.5391
   303.2500      0.0000    698.3882      7.9184     84.1978
   303.5000      0.0000    699.4838      7.9473     91.3567
   303.7500      0.0000    704.0410      8.0290     97.9692
   304.0000      0.0000    712.3699      8.1792    102.8941
   304.2500      0.0000    720.3446      8.3812    105.3241
   304.5000      0.0000    724.8412      8.5678    105.2814
   304.7500      0.0000    726.4625      8.6782    103.6548
   305.0000      0.0000    726.8741      8.6993    101.6944
   305.2500      0.0000    726.9507      8.6619    100.5471
   305.5000      0.0000    726.9684      8.6336    101.1372
   305.7500      0.0000    726.9979      8.6691    103.8768
   306.0000      0.0000    727.0062      8.7430    108.1740
   306.2500      0.0000    726.9532      8.7878    112.5396
   306.5000      0.0000    726.8604      8.7813    115.3163
   306.7500      0.0000    726.7801      8.7473    115.3732
   307.0000      0.0000    726.7742      8.7154    112.6732
   307.2500      0.0000    726.8882      8.7189    108.7133
   307.5000      0.0000    727.0900      8.7806    106.0180
   307.7500      0.0000    727.2898      8.8652    106.3293
   308.0000      0.0000    727.4220      8.8963    109.0794
   308.2500      0.0000    727.4753      8.8508    112.0146
   308.5000      0.0000    727.4675      8.7784    113.3328
   308.7500      0.0000    727.4333      8.7241    112.8010
   309.0000      0.0000    727.4341      8.7033    110.9720
   309.2500      0.0000    727.5079      8.7282    108.0806
   309.5000      0.0000    727.6023      8.7895    104.0429
   309.7500      0.0000    727.6437      8.8437     99.1923
   310.0000      0.0000    727.6331      8.8709     94.5934
   310.2500      0.0000    727.6106      8.9125     91.3265
   310.5000      0.0000    727.5815      8.9982     89.4557
   310.7500      0.0000    727.5261      9.0760     88.0783
   311.0000      0.0000    727.4168      9.0798     86.3777
   311.2500      0.0000    727.0309      9.0296     84.1701
   311.5000      0.0000    725.4227      9.0066     81.5113
   311.7500      0.0000    720.6326      9.0508     78.4750
   312.0000      0.0000    711.3492      9.1240     75.4787
   312.2500      0.0000    699.7672      9.1779     73.3482
   312.5000      0.0000    690.4718      9.2253     72.9389
   312.7500      0.0000    685.6816      9.3041     74.9059
   313.0000      0.0000    684.3013      9.3898     79.6042
   313.2500      0.0000    685.1494      9.4226     86.6703
   313.5000      0.0000    688.5477      9.4082     94.6919
   313.7500      0.0000    694.3450      9.4106    101.6053
   314.0000      0.0000    699.9303      9.4546    105.4875
   314.2500      0.0000    702.1653      9.4844    105.1474
   314.5000      0.0000    699.9602      9.4383    100.6328
   314.7500      0.0000    694.7014      9.3321     93.4632
   315.0000      0.0000    690.2332      9.2325     85.9295
   315.2500      0.0000    690.3290      9.1693     79.8789
   315.5000      0.0000    695.1827      9.1259     76.1573
   315.7500      0.0000    701.9418      9.0988     74.7799
   316.0000      0.0000    708.7608      9.0999     75.1579
   316.2500      0.0000    715.7119      9.1338     76.3903
   316.5000      0.0000    721.7664      9.2018     77.8638
   316.7500      0.0000    725.3599      9.2851     79.7248
   317.0000      0.0000    726.7312      9.3393     82.5982
   317.2500      0.0000    727.0632      9.3434     86.7493
   317.5000      0.0000    727.0780      9.3271     91.5751
   317.7500      0.0000    727.0164      9.3258     95.9994
   318.0000      0.0000    726.9490      9.3370     99.3423
   318.2500      0.0000    726.8953      9.3328    101.7542
   318.5000      0.0000    726.8597      9.2943    103.8364
   318.7500      0.0000    726.7954      9.2366    105.9210
   319.0000      0.0000    726.4205      9.2106    107.9442
   319.2500      0.0000    724.7578      9.2618    110.0663
   319.5000      0.0000    719.6431      9.3686    112.9704
   319.7500      0.0000    708.8934      9.4511    117.0267
   320.0000      0.0000    693.4977      9.4598    121.3423
   320.2500      0.0000    678.8903      9.4149    124.2436
   320.5000      0.0000    671.4059      9.3672    124.8457
   320.7500      0.0000    672.3981      9.3415    123.9303
   321.0000      0.0000    677.0592      9.3025    123.2614
   321.2500      0.0000    680.4378      9.1582    124.0578
   321.5000      0.0000    681.3715      8.8026    126.0077
   321.7500      0.0000    680.9067      8.2475    127.7433
   322.0000      0.0000    682.1816      7.7219    128.2809
   322.2500      0.0000    690.6728      7.4009    127.8431
   322.5000      0.0000    708.6761      7.1312    127.1969
   322.7500      0.0000    730.8779      6.8014    126.5272
   323.0000      0.0000    748.2212      6.6170    125.5025
   323.2500      0.0000    754.0847      6.6965    124.3407
   323.5000     -2.0000    749.9398      6.8816    124.1265
   323.7500      2.0000    744.9266      7.0019    125.8585
   324.0000      2.0000    743.4053      7.0246    129.6606
   324.2500      0.0000    737.8118      7.0303    135.0911
   324.5000      0.0000    716.8621      7.2172    141.6327
   324.7500      0.0000    674.1146      7.8696    148.3754
   325.0000      0.0000    618.9914      8.9738    153.7153
   325.2500      0.0000    583.9778      9.8975    156.2709
   325.5000      0.0000    593.8536     10.1011    156.2459
   325.7500      0.0000    631.0984      9.8501    155.3076
   326.0000      0.0000    662.3160      9.6007    154.7487
   326.2500      0.0000    677.4653      9.4073    154.0061
   326.5000      0.0000    684.6846      9.1769    151.2664
   326.7500      0.0000    690.3693      8.9005    145.3475
   327.0000      0.0000    694.3214      8.6006    136.6965
   327.2500      0.0000    696.5758      8.3114    126.6370
   327.5000      0.0000    700.9073      8.1181    116.0557
   327.7500      0.0000    708.0674      8.0913    105.1181
   328.0000      0.0000    713.0163      8.1943     94.1260
   328.2500      0.0000    713.0864      8.3204     84.2524
   328.5000      0.0000    712.4296      8.3922     77.1492
   328.7500      0.0000    715.2172      8.4041     73.8075
   329.0000      0.0000    719.7092      8.3975     73.8394
   329.2500      0.0000    721.8621      8.4211     75.8225
   329.5000      0.0000    719.9180      8.5131     78.3344
   329.7500      0.0000    714.8464      8.6886     80.7552
   330.0000      0.0000    709.7589      8.9178     83.2824
   330.2500      0.0000    707.7742      9.1396     86.4631
   330.5000      0.0000    709.9664      9.3151     90.7161
   330.7500      0.0000    715.0422      9.4485     95.6953
   331.0000      0.0000    719.1700      9.5756     99.6575
   331.2500      0.0000    718.2435      9.7276    100.0972
   331.5000      0.0000    711.9145      9.8762     95.9222
   331.7500      0.0000    705.1692      9.9531     88.9894
   332.0000      0.0000    703.6161      9.9144     83.0182
   332.2500      0.0000    705.5694      9.7667     81.0304
   332.5000      0.0000    703.9217      9.5739     83.9483
   332.7500      0.0000    696.9009      9.4265     91.0281
   333.0000      0.0000    690.3997      9.3554    100.6776
   333.2500      0.0000    690.3936      9.3115    110.8283
   333.5000      0.0000    697.7315      9.2483    119.5613
   333.7500      0.0000    707.5939      9.1696    126.3577
   334.0000      0.0000    712.4359      9.0891    132.5452
   334.2500      0.0000    708.5574      8.9967    139.6978
   334.5000      0.0000    699.9863      8.8787    147.3587
   334.7500      0.0000    694.1919      8.7505    153.1295
