~Version Information
VERS.                      2.0: CWLS Log ASCII Standard - VERSION 2.0
WRAP.                       NO: One line per depth step
~Well Information Block
STRT.FT               330.0000: 
STOP.FT              1876.2000: 
STEP.FT                 0.1000: 
NULL.                -999.2500: 
COMP.          Pioneer Natural Resources: COMPANY
WELL.          Cooper 11-13 Tr: WELL
FLD.           Purgatoire River: FIELD
LOC.           476' FNL & 738' FWL: LOCATION
STAT.                 Colorado: State
CNTY.               Las Animas: COUNTY
CTRY. USA : Country
SECT. 13 : Section
TOWN. 32S : Township
RANG. 67W : Range 
SRVC.                Patterson: SERVICE COMPANY
DATE.          Mon Sep 26 10:28:17 2005: LOG DATE
API.           05 071 08525 00: UNIQUE WELL ID
~Curve Information Block
DEPT.FT            0 000 00 00: Depth
DCAL.in                       : CDL Caliper
RHOB.g/cc                     : CDL Bulk Density
RHOC.g/cc                     : CDL Density Correction
DPOR.pu                       : CDL Density Porosity
NPOR.pu                       : Neutron Porosity
GR.GAPI                       : Gamma Ray
~Parameter Information Block
~A  Depth       DCAL        RHOB        RHOC        DPOR        NPOR         GR     
# ...
   531.6000      7.9684      2.4964      0.0062      9.3083     19.8996     94.2976
   531.7000      7.9684      2.5028      0.0496      8.9238     20.2658     92.2617
   531.8000      7.9685      2.5130      0.0207      8.3036     20.6983     90.4362
   531.9000      7.9685      2.5202      0.0425      7.8695     20.4169     88.3359
   532.0000      7.9674      2.5176      0.0416      8.0242     19.8218     86.8821
   532.1000      7.9674      2.5043      0.0440      8.8300     19.7148     86.4731
   532.2000      7.9674      2.4837      0.0552     10.0807     20.1521     83.2574
   532.3000      7.9666      2.4641      0.0311     11.2639     20.4416     76.9522
   532.4000      7.9666      2.4566      0.0523     11.7214     20.1894     72.5514
   532.5000      7.9658      2.4597      0.0804     11.5353     19.5482     73.1352
   532.6000      7.9658      2.4729      0.0250     10.7312     18.7370     77.8820
   532.7000      7.9658      2.5013      0.0927      9.0110     18.2741     81.8487
   532.8000      7.9696      2.5320      0.1237      7.1503     18.1268     81.1404
   532.9000      7.9696      2.5483      0.1169      6.1615     17.6561     79.2144
   533.0000      7.9828      2.5486      0.1210      6.1437     17.0879     80.0366
   533.1000      7.9828      2.5367      0.0758      6.8667     17.1452     80.9509
   533.2000      7.9828      2.5129      0.0806      8.3062     17.6218     79.9081
   533.3000      7.9937      2.4772      0.0307     10.4707     17.6854     79.7072
   533.4000      7.9937      2.4386      0.0214     12.8151     17.2410     79.9673
   533.5000      7.9944      2.4086     -0.0341     14.6293     16.9227     79.1895
   533.6000      7.9944      2.3898     -0.0280     15.7722     16.8496     78.4364
   533.7000      7.9944      2.3820     -0.0585     16.2395     16.4556     76.7564
   533.8000      7.9924      2.3902     -0.0295     15.7466     15.7006     74.1850
   533.9000      7.9924      2.4098     -0.0074     14.5605     15.2281     71.4859
   534.0000      7.9902      2.4190      0.0407     14.0014     15.3275     67.6890
   534.1000      7.9902      2.4042     -0.0051     14.8959     15.4916     63.6878
   534.2000      7.9902      2.3832      0.0270     16.1719     15.2691     61.1975
   534.3000      7.9858      2.3755      0.0207     16.6389     14.7475     59.2845
   534.4000      7.9858      2.3820      0.0128     16.2439     14.1926     55.8331
   534.5000      7.9819      2.3937      0.0500     15.5363     13.8737     52.9179
   534.6000      7.9819      2.3988      0.0617     15.2266     13.5387     51.7235
   534.7000      7.9819      2.3941      0.0674     15.5064     12.7645     49.7838
   534.8000      7.9823      2.3915      0.0273     15.6694     11.9134     47.2056
   534.9000      7.9823      2.4029      0.0502     14.9731     11.3827     47.3031
   535.0000      7.9873      2.4172      0.0850     14.1108     10.9288     51.5946
   535.1000      7.9873      2.4170      0.0273     14.1195     10.5096     55.8631
   535.2000      7.9873      2.4110      0.0059     14.4825     10.3178     54.6325
   535.3000      7.9908      2.4077      0.0644     14.6862     10.1239     49.2091
   535.4000      7.9908      2.3995      0.0523     15.1795      9.7594     45.2673
   535.5000      7.9919      2.3912      0.0167     15.6855      9.4735     44.5219
   535.6000      7.9919      2.3934      0.0703     15.5488      9.4353     45.0223
   535.7000      7.9919      2.4017      0.0646     15.0502      9.5900     46.9067
   535.8000      7.9931      2.4074      0.0641     14.7032      9.8066     49.6628
   535.9000      7.9931      2.4078      0.0493     14.6787      9.9824     51.2672
   536.0000      7.9926      2.4035      0.0128     14.9371     10.1210     53.8151
   536.1000      7.9926      2.4043      0.0074     14.8913     10.2168     57.8660
   536.2000      7.9926      2.4169      0.0326     14.1295     10.2713     59.4954
   536.3000      7.9907      2.4265      0.0866     13.5466     10.4646     58.4544
   536.4000      7.9907      2.4217      0.0308     13.8338     10.9443     56.9811
   536.5000      7.9900      2.4150      0.0516     14.2451     11.4747     56.0858
   536.6000      7.9900      2.4154      0.0476     14.2167     11.7388     55.5898
   536.7000      7.9900      2.4211      0.0822     13.8699     11.8767     55.1820
   536.8000      7.9909      2.4280      0.0499     13.4568     11.9966     55.9873
   536.9000      7.9909      2.4308      0.0565     13.2830     11.8724     57.6582
   537.0000      7.9914      2.4250      0.0342     13.6377     11.7267     57.5768
   537.1000      7.9914      2.4137      0.0333     14.3213     11.7623     54.9611
   537.2000      7.9914      2.4054      0.0195     14.8255     11.6643     52.6953
   537.3000      7.9910      2.4074      0.0288     14.7006     11.4620     53.1572
   537.4000      7.9910      2.4182      0.0309     14.0487     11.4973     54.5084
   537.5000      7.9904      2.4221      0.0647     13.8141     11.7436     54.1965
   537.6000      7.9904      2.4131      0.0257     14.3584     11.8356     53.2286
   537.7000      7.9904      2.4100      0.0176     14.5480     11.4151     54.9879
   537.8000      7.9899      2.4241      0.0550     13.6923     10.8138     59.2037
   537.9000      7.9899      2.4391      0.0585     12.7804     10.5263     61.5173
   538.0000      7.9901      2.4356      0.0629     12.9911     10.4138     60.9722
   538.1000      7.9901      2.4174      0.0476     14.0987     10.2771     59.0447
   538.2000      7.9901      2.4033      0.0458     14.9538     10.2094     56.3572
   538.3000      7.9909      2.4020      0.0521     15.0285     10.2827     54.0519
   538.4000      7.9909      2.4074      0.0404     14.7046     10.4310     52.8783
   538.5000      7.9897      2.4120      0.0629     14.4254     10.3952     53.5676
   538.6000      7.9897      2.4110      0.0647     14.4845     10.0984     55.7337
   538.7000      7.9897      2.4063      0.0221     14.7667      9.9322     57.1647
   538.8000      7.9882      2.4059      0.0497     14.7949     10.1135     56.8585
   538.9000      7.9882      2.4103      0.0458     14.5296     10.4427     56.1566
   539.0000      7.9901      2.4180      0.0132     14.0599     10.8134     56.5943
   539.1000      7.9901      2.4266      0.0577     13.5412     11.2846     58.2721
   539.2000      7.9901      2.4260      0.0522     13.5757     11.6107     59.3611
   539.3000      7.9927      2.4185      0.0055     14.0329     11.6142     58.2236
   539.4000      7.9927      2.4166      0.0371     14.1450     11.5872     55.1484
   539.5000      7.9934      2.4158      0.0697     14.1962     11.6553     51.2725
   539.6000      7.9934      2.4079      0.0424     14.6752     11.6271     48.2664
   539.7000      7.9934      2.4030      0.0093     14.9686     11.2763     47.7099
   539.8000      7.9935      2.4056      0.0647     14.8110     10.6375     48.8470
   539.9000      7.9935      2.4044      0.0559     14.8831      9.9983     49.3758
   540.0000      7.9935      2.4023     -0.0154     15.0138      9.6774     48.3917
   540.1000      7.9935      2.4055      0.0428     14.8159      9.7989     47.1974
   540.2000      7.9935      2.4074      0.0419     14.7034     10.1701     45.8247
   540.3000      7.9936      2.4121      0.0482     14.4198     10.3850     43.9671
   540.4000      7.9936      2.4239      0.0722     13.7059     10.3628     45.6613
   540.5000      7.9918      2.4296      0.0995     13.3563     10.4203     51.5628
   540.6000      7.9918      2.4241      0.0258     13.6930     10.5179     55.2075
   540.7000      7.9918      2.4195      0.0131     13.9671     10.4802     53.7394
   540.8000      7.9899      2.4187      0.0662     14.0204     10.4575     49.9331
   540.9000      7.9899      2.4169      0.0495     14.1255     10.4799     46.8457
   541.0000      7.9905      2.4199      0.0669     13.9430     10.3968     44.2809
   541.1000      7.9905      2.4283      0.0494     13.4362     10.2543     42.6703
