~Version Information
VERS.                      2.0: CWLS Log ASCII Standard - VERSION 2.0
WRAP.                       NO: One line per depth step
~Well Information Block
STRT.FT               491.0000: 
STOP.FT              1909.5000: 
STEP.FT                 0.1000: 
NULL.                -999.2500: 
COMP.          Pioneer Natural Resources: COMPANY
WELL.            Corazon 13-10: WELL
FLD.           Purgatoire River: FIELD
LOC.           2510' FSL & 439' FWL: LOCATION
PROV.                 Colorado: PROVINCE
CNTY.               Las Animas: COUNTRY
SRVC.                Patterson: SERVICE COMPANY
DATE.          Thu Dec 01 07:28:46 2005: LOG DATE
UWI.           05 071 08613 00: UNIQUE WELL ID
~Curve Information Block
DEPT.FT            0 000 00 00: Depth
DCAL.in                       : CDL Caliper
RHOB.g/cc                     : CDL Bulk Density
RHOC.g/cc                     : CDL Density Correction
DPOR.pu                       : CDL Density Porosity
GR.GAPI                       : Gamma Ray
NPOR.pu                       : Neutron Porosity
~Parameter Information Block
~A  Depth       DCAL        RHOB        RHOC        DPOR         GR         NPOR    
# ...
  1143.8000      8.4640      2.4092      0.0217     14.5939    150.2574     31.2358
  1143.9000      8.4640      2.4164     -0.0220     14.1606    152.7231     31.2717
  1144.0000      8.3804      2.4135      0.0052     14.3304    160.3921     29.8433
  1144.1000      8.3804      2.3995     -0.0006     15.1824    164.5968     28.0117
  1144.2000      8.3804      2.3898     -0.0124     15.7680    161.8864     27.7110
  1144.3000      8.3910      2.4006     -0.0328     15.1144    156.9530     28.9388
  1144.4000      8.3910      2.4306      0.0002     13.2982    154.6272     30.0198
  1144.5000      8.4051      2.4672      0.0250     11.0812    154.5104     29.8127
  1144.6000      8.4051      2.5056      0.0424      8.7523    151.5992     28.6840
  1144.7000      8.4051      2.5472      0.0676      6.2317    148.5878     28.1408
  1144.8000      8.4298      2.5872      0.1076      3.8085    152.2283     28.8578
  1144.9000      8.4298      2.6101      0.1610      2.4171    158.0587     29.4361
  1145.0000      8.3605      2.6101      0.1338      2.4211    161.4482     28.8354
  1145.1000      8.3605      2.6081      0.0924      2.5410    164.4368     28.3117
  1145.2000      8.3605      2.6160      0.1604      2.0621    164.1403     28.6773
  1145.3000      8.3476      2.6140      0.0751      2.1807    159.9121     29.2284
  1145.4000      8.3476      2.5911      0.0273      3.5724    157.1275     29.6913
  1145.5000      8.3458      2.5676     -0.0211      4.9934    155.9524     30.0564
  1145.6000      8.3458      2.5717     -0.0350      4.7482    151.8996     30.1606
  1145.7000      8.3458      2.6051      0.0040      2.7230    145.8069     30.1524
  1145.8000      8.3466      2.6422      0.0227      0.4735    142.1795     29.8392
  1145.9000      8.3466      2.6611      0.0659     -0.6733    143.9346     28.7705
  1146.0000      8.3536      2.6596     -0.0024     -0.5793    149.3119     27.2952
  1146.1000      8.3536      2.6434      0.0345      0.4002    152.2364     26.4358
  1146.2000      8.3536      2.6249     -0.0148      1.5240    150.7720     26.6509
  1146.3000      8.3513      2.6131      0.0101      2.2372    149.3693     27.4845
  1146.4000      8.3513      2.5895     -0.0153      3.6664    149.6612     28.1195
  1146.5000      8.3477      2.5362     -0.0253      6.8987    146.5526     28.1119
  1146.6000      8.3477      2.4759     -0.0894     10.5510    140.7173     27.5497
  1146.7000      8.3477      2.4406     -0.0280     12.6896    142.4806     26.6296
  1146.8000      8.3535      2.4286     -0.0234     13.4157    154.9217     25.9888
  1146.9000      8.3535      2.4246     -0.0194     13.6605    170.3360     26.4863
  1147.0000      8.3513      2.4249      0.0060     13.6431    179.5035     27.5833
  1147.1000      8.3513      2.4311     -0.0211     13.2671    177.4109     28.2946
  1147.2000      8.3513      2.4474      0.0216     12.2794    168.2423     28.7578
  1147.3000      8.3605      2.4745      0.0411     10.6339    159.1161     28.9658
  1147.4000      8.3605      2.4914      0.1048      9.6107    155.9202     28.5966
  1147.5000      8.3819      2.4773      0.0302     10.4675    159.8871     28.1448
  1147.6000      8.3819      2.4487      0.0328     12.2001    166.2387     28.1331
  1147.7000      8.3819      2.4388     -0.0017     12.7974    171.2220     27.9262
  1147.8000      8.4025      2.4635      0.0330     11.3022    170.2958     27.3188
  1147.9000      8.4025      2.5065      0.0582      8.6965    165.1632     27.5858
  1148.0000      8.3791      2.5372      0.0390      6.8341    163.5090     28.6961
  1148.1000      8.3791      2.5462      0.0212      6.2930    166.0517     28.8706
  1148.2000      8.3791      2.5459      0.0450      6.3096    167.2691     27.8574
  1148.3000      8.3477      2.5510      0.0600      6.0024    164.6072     27.2478
  1148.4000      8.3477      2.5646      0.0367      5.1787    161.2937     27.6560
  1148.5000      8.3356      2.5796      0.0120      4.2638    160.5855     28.5193
  1148.6000      8.3356      2.5908     -0.0081      3.5857    160.8951     29.1808
  1148.7000      8.3356      2.5945      0.0149      3.3643    162.3014     28.8359
  1148.8000      8.3491      2.5854      0.0216      3.9150    164.1907     27.6408
  1148.9000      8.3491      2.5637     -0.0178      5.2331    162.7388     26.6132
  1149.0000      8.3217      2.5328     -0.0140      7.1012    158.6429     26.1313
  1149.1000      8.3217      2.5016     -0.0243      8.9952    154.8906     26.2945
  1149.2000      8.3217      2.4859     -0.0430      9.9455    153.0378     26.6976
  1149.3000      8.3128      2.4891      0.0612      9.7532    155.1671     26.7453
  1149.4000      8.3128      2.4905      0.0368      9.6649    158.6571     26.5814
  1149.5000      8.3153      2.4757      0.0246     10.5657    159.5754     26.3652
  1149.6000      8.3153      2.4546     -0.0100     11.8421    157.5167     25.8906
  1149.7000      8.3153      2.4446     -0.0185     12.4509    154.0320     25.3936
  1149.8000      8.3086      2.4552     -0.0465     11.8046    152.7000     25.4524
  1149.9000      8.3086      2.4845      0.0254     10.0317    153.2892     25.6010
  1150.0000      8.3051      2.5142      0.0477      8.2275    153.7579     25.1052
  1150.1000      8.3051      2.5288      0.0597      7.3466    154.9697     24.6454
  1150.2000      8.3051      2.5255      0.1001      7.5460    156.6289     25.3021
  1150.3000      8.3026      2.5112      0.0600      8.4138    157.1952     26.5818
  1150.4000      8.3026      2.4890      0.0690      9.7596    155.0473     27.2993
  1150.5000      8.2958      2.4477      0.0439     12.2619    149.1447     27.4419
  1150.6000      8.2958      2.3915     -0.0729     15.6672    142.5826     27.4378
  1150.7000      8.2958      2.3396     -0.0233     18.8135    138.7524     27.5233
  1150.8000      8.2936      2.2933     -0.0374     21.6180    135.5928     27.8906
  1150.9000      8.2936      2.2410     -0.0680     24.7863    131.9104     28.7468
  1151.0000      8.2853      2.1632     -0.0122     29.5047    130.3217     29.6380
  1151.1000      8.2853      2.0624     -0.1070     35.6138    129.8199     29.5946
  1151.2000      8.2853      1.9923     -0.1675     39.8624    128.4876     29.2250
  1151.3000      8.2755      1.9922     -0.0693     39.8688    127.4988     29.5216
  1151.4000      8.2755      2.0426      0.0153     36.8122    129.2171     29.5731
  1151.5000      8.2849      2.1097      0.0556     32.7440    133.9520     29.1549
  1151.6000      8.2849      2.1823      0.0706     28.3429    139.2892     29.3368
  1151.7000      8.2849      2.2650      0.1355     23.3363    141.3682     29.7637
  1151.8000      8.3357      2.3590      0.1874     17.6383    137.5575     29.6227
  1151.9000      8.3357      2.4490      0.1849     12.1801    129.3987     29.3506
  1152.0000      8.2864      2.5053      0.1707      8.7726    121.2046     29.4879
  1152.1000      8.2864      2.5181      0.0491      7.9916    117.8969     29.8359
  1152.2000      8.2864      2.5173     -0.0015      8.0444    118.8931     29.6420
  1152.3000      8.2826      2.5335      0.0345      7.0635    116.5193     28.2857
  1152.4000      8.2826      2.5675      0.0207      5.0004    112.1285     26.1804
  1152.5000      8.2520      2.5921      0.0708      3.5102    112.4883     24.2957
  1152.6000      8.2520      2.5831      0.0769      4.0559    114.2078     23.3554
  1152.7000      8.2520      2.5556      0.0036      5.7234    111.6926     23.3549
  1152.8000      8.2455      2.5331      0.0219      7.0856    106.3015     23.3462
  1152.9000      8.2455      2.5179     -0.0267      8.0050    105.2742     22.8054
  1153.0000      8.2424      2.5137     -0.0107      8.2618    113.0373     22.2139
  1153.1000      8.2424      2.5192      0.0195      7.9281    123.1106     21.7420
  1153.2000      8.2424      2.5237      0.0318      7.6554    126.6951     21.3497
  1153.3000      8.2408      2.5218     -0.0004      7.7670    121.8682     21.5367
