~Version Information
VERS.                      2.0: CWLS Log ASCII Standard - VERSION 2.0
WRAP.                       NO: One line per depth step
~Well Information Block
STRT.FT                -6.5000: 
STOP.FT              1467.0000: 
STEP.FT                 0.2500: 
NULL.                -999.2500: 
COMP.          Pioneer Natural Resources: COMPANY
WELL.          Surtees 23-34 Tr: WELL
FLD.           Purgatorie River: FIELD
LOC.           1559' FSL & 1997' FWL--: LOCATION
PROV.                       CO: PROVINCE
CNTY.               Las Animas: COUNTRY
SRVC.          Patterson Wireline: SERVICE COMPANY
DATE.          Tue Aug 02 13:04:45 2005: LOG DATE
UWI.           05 071 08449 00: UNIQUE WELL ID
~Curve Information Block
DEPT.FT            0 000 00 00: Depth
CCL.                          : Casing Collar Locator
TT3.usec                      : CBL 3' Travel Time
AMP3.mV                       : CBL 3' Amplitude
GR.GAPI                       : Gamma Ray
~Parameter Information Block
~A  Depth       CCL         TT3         AMP3         GR     
# ...
  1132.5000      0.0000    785.4712      6.0562    109.6096
  1132.7500      0.0000    777.6530      6.0397    108.4511
  1133.0000      0.0000    766.4803      5.9368    107.0980
  1133.2500      0.0000    756.8176      5.7802    104.5493
  1133.5000      0.0000    751.4985      5.6522    100.9014
  1133.7500      0.0000    749.7826      5.6204     97.3728
  1134.0000      0.0000    749.7166      5.6851     95.0837
  1134.2500      0.0000    750.3358      5.7963     94.1349
  1134.5000     -2.0000    751.2010      5.9092     93.9579
  1134.7500      0.0000    750.8989      6.0160     94.2500
  1135.0000      0.0000    747.3032      6.1404     95.4620
  1135.2500      0.0000    739.8262      6.3158     98.5033
  1135.5000      0.0000    730.9596      6.5497    103.7158
  1135.7500      0.0000    725.0182      6.7950    109.7773
  1136.0000      0.0000    724.9678      6.9713    113.9814
  1136.2500      0.0000    730.2387      7.0259    114.3931
  1136.5000      0.0000    737.4951      6.9553    111.9258
  1136.7500      0.0000    743.4375      6.7710    109.6484
  1137.0000      0.0000    746.8431      6.4791    109.4670
  1137.2500      0.0000    748.5025      6.1049    109.8489
  1137.5000      0.0000    750.0202      5.7108    107.3568
  1137.7500      0.0000    752.7756      5.3746    100.1319
  1138.0000      0.0000    757.3561      5.1481     89.4328
  1138.2500      0.0000    763.4854      5.0361     78.3015
  1138.5000      0.0000    770.2885      5.0107     69.5245
  1138.7500      0.0000    776.4550      5.0399     64.6714
  1139.0000      0.0000    780.1545      5.1029     63.9771
  1139.2500      0.0000    779.2978      5.1893     66.4547
  1139.5000      0.0000    772.5994      5.2976     70.4789
  1139.7500      0.0000    761.0474      5.4402     74.9777
  1140.0000      0.0000    748.3821      5.6426     80.1506
  1140.2500      0.0000    739.2717      5.9244     86.7662
  1140.5000      0.0000    736.1303      6.2736     94.9546
  1140.7500      0.0000    737.5291      6.6435    103.9544
  1141.0000      0.0000    739.6771      6.9789    112.6411
  1141.2500      0.0000    739.3297      7.2449    119.9822
  1141.5000      0.0000    735.5797      7.4329    125.3699
  1141.7500      0.0000    729.6043      7.5511    128.9255
  1142.0000      0.0000    723.0808      7.6101    131.2880
  1142.2500      0.0000    716.7711      7.6158    132.7841
  1142.5000      0.0000    710.4753      7.5745    132.9387
  1142.7500      0.0000    704.2445      7.5057    130.9843
  1143.0000      0.0000    699.2659      7.4413    126.6708
  1143.2500      0.0000    697.0958      7.4080    120.4740
  1143.5000      0.0000    698.1439      7.4147    113.3035
  1143.7500      0.0000    701.6580      7.4584    106.1438
  1144.0000      0.0000    707.2021      7.5350     99.6596
  1144.2500      0.0000    714.9667      7.6342     93.9666
  1144.5000      0.0000    724.0948      7.7302     88.9583
  1144.7500      0.0000    731.9045      7.7861     84.8417
  1145.0000      0.0000    735.6714      7.7760     81.9833
  1145.2500      0.0000    734.7741      7.7027     80.3241
  1145.5000      0.0000    730.8177      7.5934     79.5338
  1145.7500      0.0000    726.2800      7.4798     79.7401
  1146.0000      0.0000    723.3060      7.3834     81.4137
  1146.2500      0.0000    723.1115      7.3202     84.3484
  1146.5000      0.0000    725.3807      7.3106     87.3644
  1146.7500      0.0000    727.7949      7.3740     89.3723
  1147.0000      0.0000    726.6620      7.5064     90.3764
  1147.2500      0.0000    719.1006      7.6610     91.1596
  1147.5000      0.0000    705.4805      7.7488     92.3358
  1147.7500      0.0000    690.2368      7.6781     93.9388
  1148.0000      0.0000    679.9337      7.4233     95.4195
  1148.2500      0.0000    679.0413      7.0636     95.6566
  1148.5000      0.0000    686.4836      6.7342     93.5208
  1148.7500      0.0000    696.7253      6.5286     89.0930
  1149.0000      0.0000    704.8630      6.4554     84.1717
  1149.2500      0.0000    710.4966      6.4722     81.2232
  1149.5000     -2.0000    716.4152      6.5327     81.7799
  1149.7500      0.0000    724.3486      6.6102     85.6381
  1150.0000      0.0000    733.2099      6.7026     91.2910
  1150.2500      0.0000    741.1694      6.8169     97.1705
  1150.5000      0.0000    747.5178      6.9388    102.5046
  1150.7500      0.0000    752.0437      7.0296    107.0180
  1151.0000      0.0000    754.3120      7.0718    110.3462
  1151.2500      0.0000    754.4323      7.0962    112.3294
  1151.5000      0.0000    753.4561      7.1403    113.5747
  1151.7500      0.0000    752.4930      7.1943    114.9947
  1152.0000      0.0000    751.9061      7.2056    116.7290
  1152.2500      0.0000    751.3712      7.1220    117.8627
  1152.5000      0.0000    750.2021      6.9199    117.1150
  1152.7500      0.0000    747.5915      6.6074    113.6032
  1153.0000      0.0000    743.2151      6.2153    107.3124
  1153.2500      0.0000    738.0396      5.7894     99.3350
  1153.5000      0.0000    734.2980      5.3824     91.6300
  1153.7500      0.0000    734.3296      5.0400     86.0939
  1154.0000      0.0000    740.1422      4.7841     83.6166
  1154.2500      0.0000    754.1741      4.6084     83.9486
  1154.5000      0.0000    777.6575      4.4928     86.2109
  1154.7500      0.0000    805.5116      4.4223     89.3550
  1155.0000      0.0000    825.2820      4.3959     92.4781
  1155.2500      0.0000    826.0760      4.4256     95.0951
  1155.5000      0.0000    808.7560      4.5337     97.1529
  1155.7500      0.0000    784.2119      4.7480     98.9131
  1156.0000      0.0000    762.0496      5.0919    101.0106
  1156.2500      0.0000    744.0012      5.5676    104.1561
  1156.5000      0.0000    726.7456      6.1405    108.1449
  1156.7500      0.0000    706.2780      6.7394    111.3820
  1157.0000      0.0000    679.2513      7.2822    111.9955
  1157.2500      0.0000    645.1513      7.7127    109.5553
  1157.5000      0.0000    609.7792      8.0196    105.6135
  1157.7500      0.0000    584.4443      8.2226    102.6554
  1158.0000      0.0000    579.6443      8.3500    102.4772
  1158.2500      0.0000    598.2451      8.4250    105.0753
  1158.5000      0.0000    633.0931      8.4633    108.6610
  1158.7500      0.0000    670.8221      8.4742    110.8960
  1159.0000      0.0000    699.4075      8.4647    110.6816
  1159.2500      0.0000    713.4024      8.4457    108.9533
  1159.5000      0.0000    712.7025      8.4327    107.5600
  1159.7500      0.0000    698.0255      8.4388    107.2969
  1160.0000      0.0000    670.4896      8.4656    107.1419
  1160.2500      0.0000    636.9578      8.5010    105.3657
  1160.5000      0.0000    612.2982      8.5243    101.3344
  1160.7500      0.0000    610.5239      8.5167     96.3651
  1161.0000      0.0000    631.9363      8.4726     92.8046
  1161.2500      0.0000    662.0115      8.4053     91.9521
  1161.5000      0.0000    683.1251      8.3430     92.6950
  1161.7500      0.0000    685.4299      8.3173     92.4088
  1162.0000      0.0000    669.4631      8.3473     89.3650
  1162.2500      0.0000    644.6067      8.4246     84.1830
  1162.5000      0.0000    625.4208      8.5082     79.2522
  1162.7500      0.0000    623.8671      8.5442     77.2616
  1163.0000      0.0000    641.4623      8.4986     79.8947
  1163.2500      0.0000    669.2401      8.3768     86.7742
  1163.5000      0.0000    695.4039      8.2133     95.2411
  1163.7500      0.0000    712.8893      8.0486    101.7468
  1164.0000      0.0000    721.4567      7.9156    104.1551
  1164.2500      0.0000    725.1039      7.8363    103.0412
  1164.5000      0.0000    728.2089      7.8213    100.7839
  1164.7500      0.0000    732.9513      7.8674     99.3396
  1165.0000      0.0000    738.9066      7.9548     99.1235
  1165.2500      0.0000    744.3751      8.0482     99.9139
  1165.5000      0.0000    748.0089      8.1074    101.8590
  1165.7500      0.0000    749.4335      8.1075    104.7538
