~Version Information
VERS.                      2.0: CWLS Log ASCII Standard - VERSION 2.0
WRAP.                       NO: One line per depth step
~Well Information Block
STRT.FT                 0.0000: 
STOP.FT              1238.2500: 
STEP.FT                 0.2500: 
NULL.                -999.2500: 
COMP.          Pioneer Natural Resources: COMPANY
WELL.                 Ray 34-6: WELL
FLD.           Purgatoire River: FIELD
LOC.           684' FSL & 2254' FEL: LOCATION
CNTY.               Las Animas: COUNTY
SRVC.                         : SERVICE COMPANY
DATE.          Fri Jun 23 09:23:24 2006: LOG DATE
UWI.           05 071 08695 00: UNIQUE WELL ID
STAT.                       CO: STATE
~Curve Information Block
DEPT.FT            0 000 00 00: Depth
GR.GAPI                       : Gamma Ray
CCL.                          : Casing Collar Locator
TT3.usec                      : CBL 3' Travel Time
AMP3.mV                       : CBL 3' Amplitude
~Parameter Information Block
~A  Depth        GR         CCL         TT3         AMP3    
# ...
   167.5000     82.8177      0.0000    773.0690      8.8700
   167.7500     82.0916      0.0000    773.2566      8.8507
   168.0000     83.1764      0.0000    773.2430      8.8328
   168.2500     85.0627      0.0000    773.1972      8.8314
   168.5000     86.2436      0.0000    773.1567      8.8657
   168.7500     85.9936      0.0000    773.1111      8.9296
   169.0000     84.9657      0.0000    773.0446      8.9829
   169.2500     84.6379      0.0000    772.9681      8.9824
   169.5000     86.0940      0.0000    772.9263      8.9168
   169.7500     89.2204      0.0000    772.9405      8.8100
   170.0000     92.8435      0.0000    772.9448      8.7010
   170.2500     95.5334      0.0000    772.7859      8.6310
   170.5000     96.4685      0.0000    772.2686      8.6389
   170.7500     95.7862      0.0000    771.1553      8.7522
   171.0000     94.2499      0.0000    769.2199      8.9696
   171.2500     92.7097      0.0000    766.5778      9.2411
   171.5000     91.8926      0.0000    764.0673      9.4675
   171.7500     92.3287      0.0000    762.9539      9.5503
   172.0000     93.9420      0.0000    763.8336      9.4685
   172.2500     95.7183      0.0000    765.9105      9.3112
   172.5000     96.4490      0.0000    767.5499      9.2169
   172.7500     96.0934      0.0000    767.4095      9.2733
   173.0000     95.8627      0.0000    765.0506      9.4700
   173.2500     96.6828      0.0000    760.9023      9.7310
   173.5000     97.9646      0.0000    755.9527      9.9694
   173.7500     98.1615      0.0000    751.3187     10.1258
   174.0000     96.3913      0.0000    747.7608     10.1884
   174.2500     93.2134      0.0000    745.2790     10.1910
   174.5000     89.6788      0.0000    743.1620     10.1775
   174.7500     86.1611      0.0000    740.7298     10.1587
   175.0000     82.6583      0.0000    738.0827     10.1117
   175.2500     79.5813      0.0000    735.9199     10.0189
   175.5000     77.3368      0.0000    734.7429      9.8907
   175.7500     75.6182      0.0000    734.4518      9.7510
   176.0000     74.0330      0.0000    734.5746      9.6169
   176.2500     73.0707      0.0000    734.7090      9.5020
   176.5000     73.6154      0.0000    734.8018      9.4278
   176.7500     75.7097      0.0000    735.1837      9.4257
   177.0000     78.4882      0.0000    736.3156      9.5211
   177.2500     81.2167      0.0000    738.2719      9.7080
   177.5000     83.7710      0.0000    740.3202      9.9304
   177.7500     86.1595      0.0000    741.2196     10.0998
   178.0000     88.1914      0.0000    740.2359     10.1466
   178.2500     89.7136      0.0000    737.7700     10.0599
   178.5000     90.8760      0.0000    734.8718      9.8834
   178.7500     92.1170      0.0000    732.3820      9.6810
   179.0000     93.8644      0.0000    730.6818      9.5083
   179.2500     96.0443      0.0000    729.9724      9.4009
   179.5000     97.8183      0.0000    730.5116      9.3675
   179.7500     98.0003      0.0000    732.4824      9.3869
   180.0000     96.0372      0.0000    735.5540      9.4188
   180.2500     92.8094      0.0000    738.6471      9.4281
   180.5000     90.2244      0.0000    740.5878      9.4000
   180.7500     89.5696      0.0000    741.2776      9.3378
   181.0000     90.3542      0.0000    741.8468      9.2543
   181.2500     91.1554      0.0000    743.2745      9.1686
   181.5000     91.4261      0.0000    745.1346      9.1037
   181.7500     91.9516      0.0000    746.0245      9.0773
   182.0000     93.5565      0.0000    745.0421      9.0912
   182.2500     95.9856      0.0000    742.7277      9.1278
   182.5000     98.3518      0.0000    740.7244      9.1537
   182.7500    100.1295      0.0000    740.4669      9.1267
   183.0000    101.2024      0.0000    742.0744      9.0101
   183.2500    101.3960      0.0000    744.5451      8.7925
   183.5000    100.7523      0.0000    746.9413      8.4973
   183.7500    100.1706      0.0000    749.0460      8.1669
   184.0000    100.8853      0.0000    750.9887      7.8370
   184.2500    102.9374      0.0000    752.8095      7.5271
   184.5000    104.6411      0.0000    754.4440      7.2514
   184.7500    103.9685      0.0000    755.5596      7.0253
   185.0000    100.4769      0.0000    755.3273      6.8587
   185.2500     95.8621      0.0000    752.9185      6.7509
   185.5000     92.7788      0.0000    748.5291      6.6882
   185.7500     93.0424      0.0000    743.5633      6.6419
   186.0000     96.4532      0.0000    739.6024      6.5795
   186.2500    100.8712      0.0000    737.4587      6.4908
   186.5000    103.5889      0.0000    737.3000      6.4054
   186.7500    103.0844      0.0000    739.2971      6.3862
   187.0000     99.6859      0.0000    743.7476      6.5027
   187.2500     94.6771      0.0000    750.4340      6.7894
   187.5000     89.1310      0.0000    758.0903      7.2049
   187.7500     83.7096      0.0000    764.8729      7.6381
   188.0000     79.0369      0.0000    769.5076      7.9780
   188.2500     75.7904      0.0000    771.9019      8.1934
   188.5000     74.4732      0.0000    772.7476      8.3403
   188.7500     75.1572      0.0000    772.7930      8.4925
   189.0000     77.4030      0.0000    772.4841      8.6672
   189.2500     80.4457      0.0000    772.0011      8.8201
   189.5000     83.5979      0.0000    771.3927      8.9022
   189.7500     86.4504      0.0000    770.5931      8.9006
   190.0000     88.6754      0.0000    769.4308      8.8238
   190.2500     89.8312      0.0000    767.8557      8.6746
   190.5000     89.5799      0.0000    766.2542      8.4471
   190.7500     87.9145      0.0000    765.2373      8.1412
   191.0000     85.0629      0.0000    764.8804      7.7732
   191.2500     81.4546      0.0000    764.5000      7.3697
   191.5000     78.0591      0.0000    763.4501      6.9452
   191.7500     76.4720      0.0000    761.6968      6.4862
   192.0000     78.1139      0.0000    759.4194      5.9688
   192.2500     83.0393      0.0000    756.5884      5.4056
   192.5000     89.5395      0.0000    753.1171      4.8735
   192.7500     94.9529      0.0000    748.6104      4.4781
   193.0000     96.9817      0.0000    742.1194      4.2732
   193.2500     94.7145      0.0000    733.9124      4.2184
   193.5000     89.1252      0.0000    728.2741      4.2172
   193.7500     82.7905      0.0000    732.9680      4.1839
   194.0000     78.5833      0.0000    754.0515      4.0683
   194.2500     78.0167      0.0000    790.9485      3.8490
   194.5000     80.5273      0.0000    835.9341      3.5448
   194.7500     84.1583      0.0000    877.3464      3.2286
   195.0000     87.0265      0.0000    905.0408      2.9955
   195.2500     88.4485      0.0000    916.2097      2.9068
   195.5000     88.7568      2.0000    917.0472      2.9679
   195.7500     88.0461      2.0000    917.4789      3.1499
   196.0000     85.4782      0.0000    922.7336      3.4238
   196.2500     80.1264      0.0000    928.3826      3.7932
   196.5000     72.1849      0.0000    923.7675      4.3006
   196.7500     63.0694      0.0000    902.3728      4.9757
   197.0000     54.6631      0.0000    868.9977      5.7615
   197.2500     48.5365      0.0000    835.4200      6.5127
   197.5000     45.3454      0.0000    810.6042      7.0858
   197.7500     44.7453      0.0000    796.7009      7.4287
   198.0000     45.9608      0.0000    791.5836      7.5909
   198.2500     48.1869      0.0000    791.6824      7.6747
   198.5000     50.3583      0.0000    792.9324      7.7780
   198.7500     51.1765      0.0000    792.0592      7.9517
   199.0000     49.9080      0.0000    788.2912      8.1810
   199.2500     47.0520      0.0000    783.3509      8.4008
   199.5000     44.0797      0.0000    779.6131      8.5366
   199.7500     42.6139      0.0000    778.3988      8.5407
   200.0000     43.6473      0.0000    779.5425      8.4062
   200.2500     47.0423      0.0000    781.6687      8.1654
   200.5000     51.6109      0.0000    782.9218      7.8808
   200.7500     56.0089      0.0000    782.1736      7.6203
