~Version Information
VERS.                      2.0: CWLS Log ASCII Standard - VERSION 2.0
WRAP.                       NO: One line per depth step
~Well Information Block
STRT.FT                -6.7500: 
STOP.FT              2027.0000: 
STEP.FT                 0.2500: 
NULL.                -999.2500: 
COMP.          Pioneer Natural Resources: COMPANY
WELL.             Fleming 11-2: WELL
FLD.           Purgatorie River: FIELD
LOC.           534' FNL & 160' FWL--: LOCATION
CNTY.               Las Animas: COUNTY
SRVC.          Patterson Wireline: SERVICE COMPANY
DATE.          Thu Jul 13 10:28:00 2006: LOG DATE
UWI.           05 071 08491 00: UNIQUE WELL ID
STAT.                       CO: STATE
~Curve Information Block
DEPT.FT            0 000 00 00: Depth
CCL.                          : Casing Collar Locator
TT3.usec                      : CBL 3' Travel Time
AMP3.mV                       : CBL 3' Amplitude
GR.GAPI                       : Gamma Ray
~Parameter Information Block
~A  Depth       CCL         TT3         AMP3         GR     
# ...
  2003.2500      0.0000    441.2539      4.0112     94.6894
  2003.5000      0.0000    448.2540      4.0279     96.0805
  2003.7500      0.0000    453.4408      4.0388     97.1415
  2004.0000      0.0000    456.5275      4.0441     97.1999
  2004.2500      0.0000    457.7870      4.0485     95.9861
  2004.5000      0.0000    457.4455      4.0557     94.0423
  2004.7500      0.0000    455.7686      4.0635     92.6323
  2005.0000      0.0000    453.5140      4.0644     93.2550
  2005.2500      0.0000    451.8064      4.0516     96.7627
  2005.5000      0.0000    451.2720      4.0242    102.5874
  2005.7500      0.0000    451.4864      3.9888    109.0027
  2006.0000      0.0000    451.5027      3.9553    114.1346
  2006.2500      0.0000    450.7626      3.9327    116.4992
  2006.5000      0.0000    449.3586      3.9276    115.0566
  2006.7500      0.0000    447.6647      3.9454    109.7608
  2007.0000      0.0000    445.9455      3.9899    102.2061
  2007.2500      0.0000    444.2475      4.0613     94.9995
  2007.5000      0.0000    442.5173      4.1515     90.0313
  2007.7500      0.0000    440.7756      4.2429     87.4836
  2008.0000      0.0000    439.1927      4.3148     86.4203
  2008.2500      0.0000    438.0137      4.3538     85.8943
  2008.5000      0.0000    437.4323      4.3587     85.5705
  2008.7500      0.0000    437.5080      4.3374     85.9179
  2009.0000      0.0000    438.1548      4.3036     87.8796
  2009.2500      0.0000    439.2186      4.2713     91.8806
  2009.5000      0.0000    440.6049      4.2496     97.0316
  2009.7500      0.0000    442.5157      4.2391    101.5769
  2010.0000      0.0000    445.9461      4.2357    104.0832
  2010.2500      0.0000    453.5108      4.2398    104.1875
  2010.5000      0.0000    469.5240      4.2586    102.5994
  2010.7500      0.0000    497.3528      4.2980    100.6843
  2011.0000      0.0000    534.1412      4.3527     99.6494
  2011.2500      0.0000    568.2344      4.4069     99.5923
  2011.5000      0.0000    585.4519      4.4473     99.3594
  2011.7500      0.0000    581.4257      4.4735     97.6463
  2012.0000      0.0000    567.5645      4.4934     94.2659
  2012.2500      0.0000    562.6951      4.5118     90.1764
  2012.5000      0.0000    577.6884      4.5255     86.0130
  2012.7500      0.0000    608.0549      4.5299     80.5094
  2013.0000      0.0000    640.2757      4.5257     70.9624
  2013.2500      0.0000    662.8129      4.5168     56.0540
  2013.5000      0.0000    669.9324      4.5065     38.0572
  2013.7500      0.0000    658.4211      4.4957     21.5606
  2014.0000      0.0000    627.0532      4.4841      9.9913
  2014.2500      0.0000    581.3328      4.4712      3.7364
  2014.5000      0.0000    534.0551      4.4568      1.1169
  2014.7500      0.0000    497.4394      4.4419      0.2649
  2015.0000      0.0000    475.6565      4.4290      0.0490
  2015.2500      0.0000    465.4395      4.4200      0.0065
  2015.5000      0.0000    461.4469      4.4145   -999.2500
  2015.7500      0.0000    459.9421      4.4108   -999.2500
  2016.0000      0.0000    459.2280      4.4093   -999.2500
  2016.2500      0.0000    458.7884      4.4132   -999.2500
  2016.5000      0.0000    458.5503      4.4247   -999.2500
  2016.7500      0.0000    458.5508      4.4419   -999.2500
  2017.0000      0.0000    458.7834      4.4580   -999.2500
  2017.2500      0.0000    459.0527      4.4642   -999.2500
  2017.5000      0.0000    458.5714      4.4509   -999.2500
  2017.7500      0.0000    454.9858      4.4018   -999.2500
  2018.0000      0.0000    442.8204      4.2785   -999.2500
  2018.2500      0.0000    413.0785      4.0114   -999.2500
  2018.5000      0.0000    357.3235      3.5327   -999.2500
  2018.7500      0.0000    276.1835      2.8487   -999.2500
  2019.0000      0.0000    184.2760      2.0819   -999.2500
  2019.2500      0.0000    103.2042      1.4104   -999.2500
  2019.5000      0.0000     47.5062      0.9517   -999.2500
  2019.7500      0.0000     17.7028      0.7074   -999.2500
  2020.0000      0.0000      5.2821      0.6059   -999.2500
  2020.2500      0.0000      1.2506      0.5731   -999.2500
  2020.5000      0.0000      0.2314      0.5648   -999.2500
  2020.7500      0.0000   -999.2500   -999.2500   -999.2500
  2021.0000      0.0000   -999.2500   -999.2500   -999.2500
  2021.2500      0.0000   -999.2500   -999.2500   -999.2500
  2021.5000      0.0000   -999.2500   -999.2500   -999.2500
  2021.7500      0.0000   -999.2500   -999.2500   -999.2500
  2022.0000      0.0000   -999.2500   -999.2500   -999.2500
  2022.2500      0.0000   -999.2500   -999.2500   -999.2500
  2022.5000      0.0000   -999.2500   -999.2500   -999.2500
  2022.7500      0.0000   -999.2500   -999.2500   -999.2500
  2023.0000      0.0000   -999.2500   -999.2500   -999.2500
  2023.2500      0.0000   -999.2500   -999.2500   -999.2500
  2023.5000      0.0000   -999.2500   -999.2500   -999.2500
  2023.7500      0.0000   -999.2500   -999.2500   -999.2500
  2024.0000      0.0000   -999.2500   -999.2500   -999.2500
  2024.2500      0.0000   -999.2500   -999.2500   -999.2500
  2024.5000      0.0000   -999.2500   -999.2500   -999.2500
  2024.7500      0.0000   -999.2500   -999.2500   -999.2500
  2025.0000      0.0000   -999.2500   -999.2500   -999.2500
  2025.2500      0.0000   -999.2500   -999.2500   -999.2500
  2025.5000      0.0000   -999.2500   -999.2500   -999.2500
  2025.7500      0.0000   -999.2500   -999.2500   -999.2500
  2026.0000      0.0000   -999.2500   -999.2500   -999.2500
  2026.2500      0.0000   -999.2500   -999.2500   -999.2500
  2026.5000   -999.2500   -999.2500   -999.2500   -999.2500
  2026.7500   -999.2500   -999.2500   -999.2500   -999.2500
  2027.0000   -999.2500   -999.2500   -999.2500   -999.2500
