~Version Information
VERS.                      2.0: CWLS Log ASCII Standard - VERSION 2.0
WRAP.                       NO: One line per depth step
~Well Information Block
STRT.FT                -5.0000: 
STOP.FT               912.2500: 
STEP.FT                 0.2500: 
NULL.                -999.2500: 
COMP.          Pioneer Natural Resources: COMPANY
WELL.               Ernie 31-6: WELL
FLD.           Purgatoire River: FIELD
LOC.           681' FNL & 2138' FEL: LOCATION
CNTY.               Las Animas: COUNTY
SRVC.                         : SERVICE COMPANY
DATE.          Tue Jun 27 10:36:58 2006: LOG DATE
UWI.           05 071 08716 00: UNIQUE WELL ID
STAT.                       CO: STATE
~Curve Information Block
DEPT.FT            0 000 00 00: Depth
GR.GAPI                       : Gamma Ray
CCL.                          : Casing Collar Locator
TT3.usec                      : CBL 3' Travel Time
AMP3.mV                       : CBL 3' Amplitude
~Parameter Information Block
~A  Depth        GR         CCL         TT3         AMP3    
# ...
   698.5000     46.4249      0.0000    676.0262      8.1395
   698.7500     47.4418      0.0000    684.3602      7.9180
   699.0000     51.0762      0.0000    685.7307      7.7743
   699.2500     55.4792      0.0000    684.6444      7.7114
   699.5000     58.7587      0.0000    685.0253      7.7088
   699.7500     60.2426      0.0000    688.8232      7.7435
   700.0000     60.4967      0.0000    695.2886      7.8022
   700.2500     60.5405      0.0000    702.0753      7.8798
   700.5000     61.0373      0.0000    707.2306      7.9724
   700.7500     61.9456      0.0000    710.2076      8.0734
   701.0000     62.7607      0.0000    711.4872      8.1760
   701.2500     63.0961      0.0000    711.8368      8.2743
   701.5000     63.1186      0.0000    711.8954      8.3593
   701.7500     63.4341      0.0000    712.0453      8.4134
   702.0000     64.5882      0.0000    712.3963      8.4185
   702.2500     66.8092      0.0000    712.8945      8.3720
   702.5000     70.1550      0.0000    713.5224      8.2947
   702.7500     74.5946      0.0000    714.4468      8.2176
   703.0000     79.6775      0.0000    715.9424      8.1595
   703.2500     84.1550      0.0000    717.9802      8.1116
   703.5000     86.2735      0.0000    719.7500      8.0442
   703.7500     84.7349      0.0000    719.5936      7.9274
   704.0000     79.3755      0.0000    715.4494      7.7530
   704.2500     71.0775      0.0000    705.1987      7.5476
   704.5000     61.3982      0.0000    687.4052      7.3659
   704.7500     52.2693      0.0000    663.9164      7.2563
   705.0000     45.4542      0.0000    642.3554      7.2253
   705.2500     41.7859      0.0000    632.8386      7.2396
   705.5000     40.9694      0.0000    639.1533      7.2649
   705.7500     42.2198      0.0000    654.7094      7.2953
   706.0000     44.8569      0.0000    669.3173      7.3461
   706.2500     48.1448      0.0000    678.0709      7.4276
   706.5000     50.9864      0.0000    682.1292      7.5205
   706.7500     52.3049      0.0000    683.7984      7.5772
   707.0000     51.7504      0.0000    683.6931      7.5571
   707.2500     49.8698      0.0000    681.6534      7.4662
   707.5000     47.6306      0.0000    678.2234      7.3532
   707.7500     45.8817      0.0000    674.6754      7.2652
   708.0000     45.1396      0.0000    672.1050      7.2137
   708.2500     45.5670      0.0000    670.7795      7.1830
   708.5000     46.9825      0.0000    670.3712      7.1567
   708.7500     48.9456      0.0000    670.6152      7.1274
   709.0000     50.8706      0.0000    671.7528      7.0883
   709.2500     52.1056      0.0000    674.5865      7.0313
   709.5000     52.2360      0.0000    680.1776      6.9572
   709.7500     51.6327      0.0000    689.1819      6.8763
   710.0000     51.4954      0.0000    701.0593      6.7968
   710.2500     52.8216      0.0000    713.7808      6.7150
   710.5000     55.2330      0.0000    724.4574      6.6198
   710.7500     57.2258      0.0000    730.7330      6.5065
   711.0000     57.9268      0.0000    732.0617      6.3880
   711.2500     58.5008      0.0000    729.5415      6.2931
   711.5000     61.3646      0.0000    724.0124      6.2487
   711.7500     67.8103      0.0000    713.9767      6.2582
   712.0000     76.5528      0.0000    695.7066      6.2950
   712.2500     84.6701      0.0000    666.6324      6.3185
   712.5000     89.9261      0.0000    630.5692      6.2980
   712.7500     92.2846      0.0000    599.9868      6.2260
   713.0000     93.4326      0.0000    590.3307      6.1147
   713.2500     95.0885      0.0000    608.8312      5.9941
   713.5000     97.9320      0.0000    648.2463      5.9148
   713.7500    101.9167      0.0000    692.1932      5.9261
   714.0000    107.0809      0.0000    726.4947      6.0279
   714.2500    113.7969      0.0000    746.0916      6.1595
   714.5000    122.2033      0.0000    753.8641      6.2605
   714.7500    131.0923      0.0000    755.1208      6.3222
   715.0000    137.3457      0.0000    752.9269      6.3638
   715.2500    137.4424      0.0000    747.6323      6.3886
   715.5000    130.4082      0.0000    740.2311      6.3872
   715.7500    119.0266      1.6455    734.5693      6.3658
   716.0000    107.6768      1.9577    734.6507      6.3535
   716.2500     99.3652      0.0000    740.5275      6.3881
   716.5000     94.9229      0.0000    748.4994      6.4854
   716.7500     94.0163      0.0000    754.7023      6.6034
   717.0000     95.9109      0.0000    757.3875      6.6600
   717.2500     99.3133      0.0000    756.8174      6.6156
   717.5000    102.2580      0.0000    754.4070      6.5182
   717.7500    102.9008      0.0000    751.7722      6.4378
   718.0000    100.6458      0.0000    749.8751      6.3881
   718.2500     96.4680      0.0000    748.8566      6.3369
   718.5000     92.3489      0.0000    748.5433      6.2653
   718.7500     90.5319      0.0000    748.9495      6.1832
   719.0000     92.6193      0.0000    750.2924      6.1014
   719.2500     98.3888      0.0000    752.4937      6.0166
   719.5000    105.4084      0.0000    754.6479      5.9246
   719.7500    110.4540      0.0000    755.2625      5.8380
   720.0000    111.5834      0.0000    753.2971      5.7912
   720.2500    108.7980      0.0000    748.9109      5.8341
   720.5000    103.2151      0.0000    743.3654      6.0037
   720.7500     96.2329      0.0000    738.8090      6.2854
   721.0000     89.0923      0.0000    738.0545      6.6126
   721.2500     82.4457      0.0000    743.3022      6.9186
   721.5000     76.3847      0.0000    754.1269      7.1832
   721.7500     71.3402      0.0000    766.9932      7.4218
   722.0000     68.7816      0.0000    777.2076      7.6440
   722.2500     70.5715      0.0000    781.3359      7.8380
   722.5000     77.4870      0.0000    778.1850      7.9843
   722.7500     88.3021      0.0000    768.8386      8.0702
   723.0000     99.9430      0.0000    756.5952      8.0945
   723.2500    108.5367      0.0000    746.0239      8.0673
   723.5000    111.1214      0.0000    740.5845      8.0019
   723.7500    107.2917      0.0000    740.6519      7.8982
   724.0000     99.5542      0.0000    744.1011      7.7415
   724.2500     91.7869      0.0000    748.6519      7.5317
   724.5000     86.7944      0.0000    753.2147      7.3049
   724.7500     84.8934      0.0000    757.3654      7.1100
   725.0000     84.4740      0.0000    760.5732      6.9655
   725.2500     83.6225      0.0000    762.3327      6.8564
   725.5000     81.3579      0.0000    762.4534      6.7731
   725.7500     78.0169      0.0000    760.8995      6.7330
   726.0000     74.9357      0.0000    757.7604      6.7623
   726.2500     73.6872      0.0000    753.4127      6.8686
   726.5000     75.2800      0.0000    748.2003      7.0375
   726.7500     79.7640      0.0000    741.9775      7.2418
   727.0000     86.3271      0.0000    734.4741      7.4524
   727.2500     93.7976      0.0000    726.1200      7.6484
   727.5000    101.1959      0.0000    718.1677      7.8287
   727.7500    107.7459      0.0000    712.1417      8.0116
   728.0000    112.5269      0.0000    709.4476      8.2186
   728.2500    114.7650      0.0000    711.0459      8.4596
   728.5000    114.6764      0.0000    716.7364      8.7263
   728.7500    113.4612      0.0000    724.7971      8.9925
   729.0000    112.1291      0.0000    732.6514      9.2178
   729.2500    110.4298      0.0000    737.7717      9.3625
   729.5000    106.9294      0.0000    738.1435      9.4159
   729.7500    100.3684      0.0000    732.8480      9.4185
   730.0000     91.4099      0.0000    722.9071      9.4453
   730.2500     82.9299      0.0000    711.3730      9.5485
   730.5000     78.1104      0.0000    702.1114      9.7126
   730.7500     78.3051      0.0000    698.0773      9.8740
   731.0000     82.7091      0.0000    700.3414      9.9847
   731.2500     89.2414      0.0000    708.1511     10.0417
   731.5000     95.3027      0.0000    719.2761     10.0503
   731.7500     98.6558      0.0000    730.4384      9.9843
