~Version Information
VERS.                      2.0: CWLS Log ASCII Standard - VERSION 2.0
WRAP.                       NO: One line per depth step
~Well Information Block
STRT.FT               410.0000: 
STOP.FT              1530.5000: 
STEP.FT                 0.1000: 
NULL.                -999.2500: 
COMP.          Pioneer Natural Resources: COMPANY
WELL.          Pioneer 34-27 Tr: WELL
FLD.           Purgatoire River: FIELD
LOC.           243' FSL & 1593' FEL: LOCATION
STAT.                 Colorado: State
CNTY.               Las Animas: COUNTY
CTRY. USA : Country
SECT. 27 : Section
TOWN. 32S : Township
RANG. 67W : Range 
SRVC.                Patterson: SERVICE COMPANY
DATE.          Fri Oct 07 07:11:38 2005: LOG DATE
API.           05 071 08548 00: UNIQUE WELL ID
~Curve Information Block
DEPT.FT            0 000 00 00: Depth
DCAL.in                       : CDL Caliper
RHOB.g/cc                     : CDL Bulk Density
RHOC.g/cc                     : CDL Density Correction
DPOR.pu                       : CDL Density Porosity
GR.GAPI                       : Gamma Ray
NPOR.pu                       : Neutron Porosity
~Parameter Information Block
~A  Depth       DCAL        RHOB        RHOC        DPOR         GR         NPOR    
# ...
   630.8000      8.1711      2.5748      0.0466      4.5558    147.6029     26.2464
   630.9000      8.1711      2.5990      0.0695      3.0924    147.3662     26.5915
   631.0000      8.1613      2.6078      0.0863      2.5598    144.7689     27.0952
   631.1000      8.1613      2.6228      0.0439      1.6508    142.6631     27.4380
   631.2000      8.1613      2.6511      0.1049     -0.0662    142.0627     27.3969
   631.3000      8.1616      2.6662      0.0968     -0.9803    139.9062     27.1850
   631.4000      8.1616      2.6526      0.0962     -0.1561    132.4522     26.9514
   631.5000      8.1472      2.6313      0.0292      1.1330    121.3065     26.7324
   631.6000      8.1472      2.6217      0.0165      1.7122    114.3467     26.7239
   631.7000      8.1472      2.6159      0.0598      2.0667    118.3979     26.9674
   631.8000      8.1540      2.5988      0.0585      3.1016    130.6465     27.2099
   631.9000      8.1540      2.5688      0.0097      4.9212    138.3184     27.3968
   632.0000      8.1488      2.5388      0.0034      6.7399    133.9902     27.7067
   632.1000      8.1488      2.5236      0.0113      7.6619    123.2732     28.0453
   632.2000      8.1488      2.5234      0.0341      7.6742    114.2062     28.0430
   632.3000      8.1923      2.5306      0.0164      7.2348    108.8133     27.5987
   632.4000      8.1923      2.5482      0.0424      6.1675    109.1295     27.2078
   632.5000      8.1763      2.5686      0.0672      4.9340    116.5306     27.4123
   632.6000      8.1763      2.5709      0.0300      4.7932    124.5371     27.8968
   632.7000      8.1763      2.5536      0.0023      5.8414    126.8657     27.9541
   632.8000      8.1711      2.5287      0.0249      7.3534    126.8021     27.6095
   632.9000      8.1711      2.5091     -0.0673      8.5386    127.6218     27.3634
   633.0000      8.1341      2.5074     -0.0100      8.6427    125.2285     27.3553
   633.1000      8.1341      2.5211     -0.0065      7.8117    120.1310     27.3409
   633.2000      8.1341      2.5387      0.0376      6.7450    117.2619     27.1249
   633.3000      8.1448      2.5583      0.0172      5.5603    115.2826     26.6412
   633.4000      8.1448      2.5768      0.0503      4.4360    111.7289     26.1680
   633.5000      8.1314      2.5840      0.0206      3.9996    107.8258     26.0591
   633.6000      8.1314      2.5867      0.0621      3.8353    104.9145     26.0641
   633.7000      8.1314      2.5961      0.0592      3.2685    103.7306     26.0776
   633.8000      8.1299      2.6054      0.0586      2.7059    106.0632     26.3556
   633.9000      8.1299      2.6043      0.0831      2.7700    112.4151     26.7191
   634.0000      8.0998      2.5980      0.0349      3.1486    117.8274     26.8381
   634.1000      8.0998      2.6031      0.0583      2.8413    118.4653     26.7420
   634.2000      8.0998      2.6158      0.1000      2.0727    117.0713     26.6539
   634.3000      8.0914      2.6109      0.0753      2.3671    114.7804     26.6535
   634.4000      8.0914      2.5813      0.0052      4.1660    109.4310     26.7044
   634.5000      8.1237      2.5458      0.0077      6.3168    103.7388     26.8870
   634.6000      8.1237      2.5241     -0.0346      7.6319    101.7503     27.2836
   634.7000      8.1237      2.5205      0.0214      7.8514    102.5568     27.6237
   634.8000      8.1246      2.5287     -0.0095      7.3513    103.2848     27.5530
   634.9000      8.1246      2.5481      0.0162      6.1773    103.0015     27.3383
   635.0000      8.1155      2.5712      0.0631      4.7763    101.2718     27.1848
   635.1000      8.1155      2.5807      0.0837      4.2011     99.2056     26.7082
   635.2000      8.1155      2.5744      0.0564      4.5842     99.8645     25.8738
   635.3000      8.1210      2.5654      0.0760      5.1258    103.0654     25.1448
   635.4000      8.1210      2.5636      0.0899      5.2341    105.7884     24.8175
   635.5000      8.1068      2.5673      0.0999      5.0106    104.6424     24.8278
   635.6000      8.1068      2.5742      0.0771      4.5924     99.0900     24.7501
   635.7000      8.1068      2.5910      0.1006      3.5764     96.0620     24.3282
   635.8000      8.0534      2.6188      0.1497      1.8920     98.5875     23.8577
   635.9000      8.0534      2.6487      0.1324      0.0764     98.7117     23.5279
   636.0000      8.0588      2.6768      0.1518     -1.6262     94.9814     23.2561
   636.1000      8.0588      2.6994      0.1738     -2.9944     91.6148     23.1642
   636.2000      8.0588      2.6999      0.2059     -3.0236     86.0196     23.3576
   636.3000      8.0686      2.6653      0.1401     -0.9255     77.6565     23.6121
   636.4000      8.0686      2.6109      0.1172      2.3709     72.6948     23.7291
   636.5000      8.0732      2.5659      0.0387      5.0946     74.3849     23.7781
   636.6000      8.0732      2.5462      0.0604      6.2917     81.8819     23.7849
   636.7000      8.0732      2.5503      0.0540      6.0419     90.2847     23.8007
   636.8000      8.0668      2.5751      0.0453      4.5392     95.7104     23.9844
   636.9000      8.0668      2.6090      0.1501      2.4874     98.7335     24.0926
   637.0000      8.0701      2.6341      0.1380      0.9647     97.5695     23.8612
   637.1000      8.0701      2.6547      0.1393     -0.2840     92.7767     23.4796
   637.2000      8.0701      2.6754      0.1550     -1.5401     88.0621     23.1543
   637.3000      8.0512      2.6823      0.1856     -1.9590     85.8440     22.9831
   637.4000      8.0512      2.6738      0.1503     -1.4410     86.0102     23.0612
   637.5000      8.0433      2.6654      0.1271     -0.9314     86.1071     23.5549
   637.6000      8.0433      2.6596      0.1131     -0.5818     85.2691     24.4871
   637.7000      8.0433      2.6485      0.0757      0.0899     84.6666     25.2953
   637.8000      8.0399      2.6327      0.0719      1.0492     87.8616     25.3446
   637.9000      8.0399      2.6070      0.0884      2.6045     95.2933     24.7824
   638.0000      8.0606      2.5589      0.0556      5.5185    100.4097     24.3637
   638.1000      8.0606      2.4964     -0.0238      9.3073    101.7216     24.5574
   638.2000      8.0606      2.4530     -0.0969     11.9415    104.0152     25.1349
   638.3000      8.1113      2.4583     -0.0801     11.6170    106.2114     25.4923
   638.4000      8.1113      2.5060      0.0050      8.7257    107.4913     25.4042
   638.5000      8.0893      2.5533      0.0673      5.8609    110.5381     25.2523
   638.6000      8.0893      2.5659      0.0239      5.0965    111.9733     25.3032
   638.7000      8.0893      2.5514      0.0467      5.9740    108.9364     25.4650
   638.8000      8.1309      2.5382     -0.0249      6.7774    106.8879     25.3995
   638.9000      8.1309      2.5393      0.0262      6.7062    108.7690     25.0403
   639.0000      8.1743      2.5494     -0.0035      6.0956    108.8525     24.7886
   639.1000      8.1743      2.5627      0.0282      5.2934    102.3991     24.8361
   639.2000      8.1743      2.5725      0.0144      4.6942     94.2798     25.0284
   639.3000      8.1627      2.5794      0.0202      4.2785     90.5137     25.3263
   639.4000      8.1627      2.5941      0.0447      3.3852     92.4902     25.6234
   639.5000      8.1372      2.6138      0.0940      2.1949     97.5643     25.5944
   639.6000      8.1372      2.6252      0.0876      1.5039     98.6212     25.4472
   639.7000      8.1372      2.6293      0.0521      1.2553     92.2279     25.5401
   639.8000      8.0903      2.6330      0.0655      1.0285     83.6435     25.5956
   639.9000      8.0903      2.6330      0.0602      1.0293     77.2409     25.3236
   640.0000      8.0445      2.6199      0.0658      1.8266     73.4133     24.8575
   640.1000      8.0445      2.5918      0.0827      3.5296     73.2849     24.3375
   640.2000      8.0445      2.5664      0.0034      5.0660     75.7837     23.7287
   640.3000      8.0634      2.5623      0.0595      5.3134     76.2616     23.1425
