~Version Information
VERS.                      2.0: CWLS Log ASCII Standard - VERSION 2.0
WRAP.                       NO: One line per depth step
~Well Information Block
STRT.FT               370.0000: 
STOP.FT              2832.5000: 
STEP.FT                 0.1000: 
NULL.                -999.2500: 
COMP.          Pioneer Natural Resources: COMPANY
WELL.          Black Cat 13-32: WELL
FLD.           Purgatoire River: FIELD
LOC.           1865' FSL & 1120' FWL--: LOCATION
PROV.                 Colorado: PROVINCE
CNTY.               Las Animas: COUNTRY
SRVC.                Patterson: SERVICE COMPANY
DATE.          Sun Jul 31 08:38:44 2005: LOG DATE
UWI.           05 071 08450 00: UNIQUE WELL ID
~Curve Information Block
DEPT.FT            0 000 00 00: Depth
DCAL.in                       : CDL Caliper
DPOR.pu                       : CDL Density Porosity
NPOR.pu                       : Neutron Porosity
RHOB.g/cc                     : CDL Bulk Density
RHOC.g/cc                     : CDL Density Correction
GR.GAPI                       : Gamma Ray
~Parameter Information Block
~A  Depth       DCAL        DPOR        NPOR        RHOB        RHOC         GR     
# ...
   677.2000      8.0784      1.7011     25.5450      2.6219      0.1408    159.2724
   677.3000      8.0772      2.2406     25.6414      2.6130      0.0532    167.4850
   677.4000      8.0772      3.2441     25.9391      2.5965      0.0526    168.2990
   677.5000      8.0770      3.4351     26.3283      2.5933      0.0265    165.2450
   677.6000      8.0770      2.1487     26.4863      2.6145      0.0312    165.7267
   677.7000      8.0770      0.2217     26.7154      2.6463      0.0730    164.6680
   677.8000      8.0779     -0.6796     27.5308      2.6612      0.0799    157.8158
   677.9000      8.0779     -0.2189     28.5550      2.6536      0.0168    151.4596
   678.0000      8.0792      0.9754     29.0490      2.6339      0.0306    149.4128
   678.1000      8.0792      2.5047     28.8846      2.6087      0.0322    149.3235
   678.2000      8.0792      3.6459     28.5660      2.5898      0.0145    150.0835
   678.3000      8.0800      3.7253     28.4764      2.5885     -0.0059    150.9164
   678.4000      8.0800      3.4662     28.4602      2.5928      0.0354    153.0239
   678.5000      8.0795      4.1071     28.1953      2.5822      0.0316    161.8212
   678.6000      8.0795      5.5688     27.5586      2.5581     -0.0173    170.4365
   678.7000      8.0795      7.2332     26.7594      2.5307      0.0293    170.7772
   678.8000      8.0784      9.1309     25.8798      2.4993      0.0287    167.7079
   678.9000      8.0784     11.0684     24.9689      2.4674      0.0039    163.6349
   679.0000      8.0784     12.3927     24.4678      2.4455     -0.0055    159.7097
   679.1000      8.0784     12.9125     24.7025      2.4369      0.0270    154.7813
   679.2000      8.0784     12.8766     25.5182      2.4375      0.0778    149.4181
   679.3000      8.0784     12.2388     26.3038      2.4481      0.0227    151.4664
   679.4000      8.0784     10.9500     26.5234      2.4693      0.0512    158.4604
   679.5000      8.0786      9.4958     26.3284      2.4933      0.0247    163.1435
   679.6000      8.0786      8.0901     26.3051      2.5165      0.0489    164.9860
   679.7000      8.0786      6.6671     26.6436      2.5400      0.0582    164.6622
   679.8000      8.0781      5.4797     26.9218      2.5596      0.1084    164.5261
   679.9000      8.0781      5.1654     26.4223      2.5648      0.1345    166.1470
   680.0000      8.0769      5.5428     25.1912      2.5585      0.0751    166.7887
   680.1000      8.0769      5.2969     24.1408      2.5626      0.1034    162.7370
   680.2000      8.0769      4.0472     23.7560      2.5832      0.1910    153.7678
   680.3000      8.0762      2.7622     23.7435      2.6044      0.1880    148.4306
   680.4000      8.0762      2.4089     23.6355      2.6103      0.1590    151.3998
   680.5000      8.0754      3.0429     23.4464      2.5998      0.0377    152.7756
   680.6000      8.0754      3.6774     23.5395      2.5893      0.0620    147.3072
   680.7000      8.0754      4.0771     23.8761      2.5827      0.0885    143.2389
   680.8000      8.0764      4.9987     24.2901      2.5675      0.0863    143.3960
   680.9000      8.0764      6.3555     24.9483      2.5451      0.0619    142.6258
   681.0000      8.0808      6.8498     25.8251      2.5370      0.0477    142.0784
   681.1000      8.0808      5.6225     26.7193      2.5572      0.0589    146.4576
   681.2000      8.0808      3.4855     27.6342      2.5925      0.0757    153.6521
   681.3000      8.0857      1.8089     28.1278      2.6202      0.1039    154.6524
   681.4000      8.0857      0.7467     27.7835      2.6377      0.0820    148.2402
   681.5000      8.0914     -0.3747     27.4603      2.6562      0.1172    142.3547
   681.6000      8.0914     -0.8990     28.0081      2.6648      0.1512    144.8687
   681.7000      8.0914      0.0924     28.8319      2.6485      0.0762    157.0420
   681.8000      8.0969      1.5607     29.2594      2.6242      0.0381    166.4560
   681.9000      8.0969      2.1733     29.6314      2.6141      0.0057    163.3906
   682.0000      8.0959      1.9030     29.9986      2.6186      0.0137    153.8573
   682.1000      8.0959      1.4881     30.1023      2.6254      0.0471    147.2811
   682.2000      8.0959      1.4068     30.3880      2.6268      0.0304    148.7426
   682.3000      8.0821      1.4504     31.0231      2.6261      0.0478    156.6158
   682.4000      8.0821      1.6609     31.3786      2.6226      0.0561    163.4700
   682.5000      8.0620      2.4229     31.1973      2.6100      0.0576    163.7787
   682.6000      8.0620      3.2400     30.8111      2.5965      0.0282    158.6741
   682.7000      8.0620      3.0482     30.4941      2.5997      0.0129    155.1600
   682.8000      8.0519      2.3314     30.0429      2.6115      0.0732    158.4747
   682.9000      8.0519      2.6105     29.3205      2.6069      0.0758    166.0186
   683.0000      8.0526      3.7198     28.7726      2.5886      0.0104    168.0269
   683.1000      8.0526      4.2594     28.8717      2.5797      0.0236    160.3020
   683.2000      8.0526      4.0231     29.4666      2.5836      0.0569    152.0764
   683.3000      8.0568      3.9339     29.8031      2.5851      0.0282    151.0658
   683.4000      8.0568      4.1736     29.4983      2.5811      0.0104    152.5614
   683.5000      8.0645      3.6730     29.0149      2.5894      0.0299    149.6555
   683.6000      8.0645      2.3275     28.8826      2.6116      0.0891    143.0150
   683.7000      8.0645      1.4850     29.1605      2.6255      0.0338    138.2265
   683.8000      8.0739      1.5563     29.4868      2.6243      0.0507    142.1740
   683.9000      8.0739      2.1628     29.3397      2.6143      0.0371    152.3003
   684.0000      8.0782      2.8712     28.9189      2.6026     -0.0015    157.8568
   684.1000      8.0782      3.1341     28.8065      2.5983      0.0006    157.0540
   684.2000      8.0782      3.1142     28.8042      2.5986      0.0542    156.5376
   684.3000      8.0780      3.2564     28.7996      2.5963      0.0192    155.3418
   684.4000      8.0780      3.2982     29.1512      2.5956      0.0001    149.1848
   684.5000      8.0768      3.0399     29.5804      2.5998      0.0253    144.9464
   684.6000      8.0768      2.9841     29.7145      2.6008      0.0206    149.4533
   684.7000      8.0768      3.6476     29.6191      2.5898      0.0394    153.9281
   684.8000      8.0770      4.7559     29.3451      2.5715      0.0162    153.1224
   684.9000      8.0770      5.3711     28.8950      2.5614     -0.0138    156.0005
   685.0000      8.0783      5.4313     28.3801      2.5604      0.0284    165.2400
   685.1000      8.0783      5.8041     27.9607      2.5542      0.0335    174.7100
   685.2000      8.0783      6.3804     27.7131      2.5447     -0.0259    178.3094
   685.3000      8.0798      6.2672     27.8712      2.5466     -0.0021    171.3095
   685.4000      8.0798      5.7822     28.4289      2.5546      0.0504    158.9200
   685.5000      8.0813      5.8496     28.9373      2.5535     -0.0040    151.4617
   685.6000      8.0813      6.6702     29.0734      2.5399      0.0200    152.9408
   685.7000      8.0813      7.8844     28.9097      2.5199     -0.0076    157.8966
   685.8000      8.0807      8.4651     28.6328      2.5103     -0.0099    159.5685
   685.9000      8.0807      7.9811     28.5290      2.5183      0.0093    158.4412
   686.0000      8.0778      7.2836     28.7121      2.5298      0.0596    156.0600
   686.1000      8.0778      6.9581     28.7840      2.5352      0.0363    153.0008
   686.2000      8.0778      7.0371     28.5366      2.5339      0.0492    152.0149
   686.3000      8.0773      7.5051     28.3020      2.5262      0.0216    154.9577
   686.4000      8.0773      7.8525     28.3970      2.5204      0.0051    160.1250
   686.5000      8.0790      7.7087     28.5679      2.5228      0.0239    163.7515
   686.6000      8.0790      7.3500     28.2657      2.5287      0.0537    162.2320
   686.7000      8.0790      7.0851     27.6995      2.5331      0.0664    155.4788
