~Version Information
VERS.                      2.0: CWLS Log ASCII Standard - VERSION 2.0
WRAP.                       NO: One line per depth step
~Well Information Block
STRT.FT               -10.0000: 
STOP.FT              2073.0000: 
STEP.FT                 0.2500: 
NULL.                -999.2500: 
COMP.          Pioneer Natural Resources: COMPANY
WELL.              Joplin 44-5: WELL
FLD.           Purgatorie River: FIELD
LOC.           262' FSL & 418' FEL--: LOCATION
PROV.                       CO: PROVINCE
CNTY.               Las Animas: COUNTRY
SRVC.          Patterson Wireline: SERVICE COMPANY
DATE.          Mon Dec 19 09:21:33 2005: LOG DATE
UWI.           05 071 08623 00: UNIQUE WELL ID
~Curve Information Block
DEPT.FT            0 000 00 00: Depth
CCL.                          : Casing Collar Locator
TT3.usec                      : CBL 3' Travel Time
AMP3.mV                       : CBL 3' Amplitude
GR.GAPI                       : Gamma Ray
~Parameter Information Block
~A  Depth       CCL         TT3         AMP3         GR     
# ...
   660.0000      0.0000    805.3591      6.5915    101.9983
   660.2500      0.0000    830.6642      6.6717    101.7126
   660.5000      0.0000    850.2809      6.7204     98.3708
   660.7500      0.0000    858.5544      6.7438     91.2121
   661.0000      0.0000    855.0206      6.7481     81.3731
   661.2500      0.0000    842.6439      6.7410     71.3402
   661.5000      0.0000    825.4857      6.7360     63.3362
   661.7500      0.0000    806.7310      6.7489     58.0047
   662.0000      0.0000    787.7385      6.7868     54.5180
   662.2500      0.0000    768.8326      6.8423     51.7977
   662.5000      0.0000    750.9687      6.8991     49.4476
   662.7500      0.0000    736.4053      6.9414     47.6358
   663.0000      0.0000    727.8308      6.9575     46.5381
   663.2500      0.0000    726.8214      6.9432     46.2215
   663.5000      0.0000    732.9326      6.9042     46.8743
   663.7500      0.0000    744.0174      6.8522     48.8529
   664.0000      0.0000    757.4393      6.7961     52.5403
   664.2500      0.0000    771.0086      6.7399     58.1918
   664.5000      0.0000    783.0660      6.6893     65.5756
   664.7500      0.0000    792.3939      6.6534     73.6460
   665.0000      0.0000    798.5286      6.6358     80.8243
   665.2500      0.0000    801.9370      6.6296     85.7430
   665.5000      0.0000    803.5927      6.6238     87.7536
   665.7500      0.0000    804.3734      6.6136     87.2318
   666.0000      0.0000    804.8059      6.6015     85.7331
   666.2500      0.0000    805.1234      6.5936     85.3291
   666.5000      0.0000    805.3861      6.5966     87.1167
   666.7500      0.0000    805.5785      6.6133     90.5945
   667.0000      0.0000    805.6807      6.6367     94.7348
   667.2500      0.0000    805.6976      6.6497     99.2903
   667.5000      0.0000    805.6355      6.6351    104.6671
   667.7500      0.0000    805.4337      6.5880    110.5977
   668.0000      0.0000    804.8912      6.5198    115.2608
   668.2500      0.0000    803.5981      6.4505    116.1378
   668.5000      0.0000    800.9479      6.3960    112.1926
   668.7500      0.0000    796.4906      6.3614    105.2268
   669.0000      0.0000    790.6787      6.3443     98.6750
   669.2500      0.0000    785.2856      6.3415     94.9429
   669.5000      0.0000    782.5137      6.3493     94.0471
   669.7500      0.0000    783.2368      6.3605     94.5028
   670.0000      0.0000    786.3394      6.3657     94.8736
   670.2500      0.0000    790.0311      6.3585     94.6030
   670.5000      0.0000    793.3546      6.3354     94.1456
   670.7500      0.0000    795.9742      6.2940     94.5162
   671.0000      0.0000    797.1231      6.2366     96.1709
   671.2500      0.0000    795.8323      6.1737     98.3352
   671.5000      0.0000    792.3258      6.1206     99.8492
   671.7500      0.0000    788.5195      6.0917    100.5774
   672.0000      0.0000    786.7078      6.0980    101.3790
   672.2500      0.0000    787.8856      6.1427    102.5515
   672.5000      0.0000    791.4122      6.2128    102.9862
   672.7500      0.0000    795.8494      6.2806    101.3862
   673.0000      0.0000    799.8389      6.3201     98.0563
   673.2500      0.0000    802.5852      6.3230     94.9528
   673.5000      0.0000    803.9914      6.2973     93.9239
   673.7500      0.0000    804.4419      6.2562     95.1154
   674.0000      0.0000    804.4021      6.2127     96.9224
   674.2500      0.0000    804.1672      6.1794     97.1378
   674.5000      0.0000    803.8584      6.1647     94.4237
   674.7500      0.0000    803.5131      6.1655     89.2163
   675.0000      0.0000    803.1355      6.1685     83.3417
   675.2500      0.0000    802.6720      6.1594     78.7354
   675.5000      0.0000    801.9038      6.1320     76.4137
   675.7500      0.0000    800.3125      6.0928     76.1616
   676.0000      0.0000    797.0860      6.0585     76.7316
   676.2500      0.0000    791.6594      6.0484     76.4781
   676.5000      0.0000    784.9354      6.0706     74.3580
   676.7500      0.0000    780.3028      6.1147     70.6496
   677.0000      0.0000    782.7181      6.1592     66.7071
   677.2500      0.0000    794.7887      6.1873     63.9435
   677.5000      0.0000    812.0128      6.1963     62.8993
   677.7500      0.0000    823.2117      6.1956     63.0564
   678.0000      0.0000    819.6633      6.2007     63.4144
   678.2500      0.0000    806.1082      6.2249     63.3065
   678.5000      0.0000    800.7686      6.2702     62.8120
   678.7500      0.0000    821.7526      6.3249     62.4396
   679.0000      0.0000    872.0564      6.3732     62.5061
   679.2500      0.0000    936.8862      6.4054     63.0311
   679.5000      0.0000    994.8575      6.4179     64.1473
   679.7500      0.0000   1032.1390      6.4103     66.1207
   680.0000      0.0000   1048.0294      6.3862     68.7570
   680.2500      0.0000   1050.6963      6.3554     71.1329
   680.5000      0.0000   1049.8599      6.3302     72.2929
   680.7500      0.0000   1052.0389      6.3210     72.1347
   681.0000      0.0000   1058.7181      6.3362     71.4301
   681.2500      0.0000   1065.8002      6.3815     70.9898
   681.5000      0.0000   1065.2483      6.4541     70.9146
   681.7500      0.0000   1050.5160      6.5381     70.7743
   682.0000      0.0000   1022.3784      6.6126     70.5510
   682.2500      0.0000    988.9799      6.6668     71.0371
   682.5000      0.0000    959.6715      6.7066     72.8387
   682.7500      0.0000    939.0603      6.7474     75.3172
   683.0000      0.0000    925.7297      6.8005     77.0760
   683.2500      0.0000    914.8934      6.8670     77.2958
   683.5000      0.0000    902.5604      6.9407     76.2025
   683.7500      0.0000    888.5907      7.0131     74.4030
   684.0000      0.0000    876.2919      7.0724     72.1048
   684.2500      0.0000    869.1426      7.1012     69.0095
   684.5000      0.0000    867.9493      7.0809     64.9598
   684.7500      0.0000    870.3352      7.0015     60.7199
   685.0000      0.0000    871.6230      6.8636     57.9290
   685.2500      0.0000    866.2189      6.6858     58.0477
   685.5000      0.0000    850.2969      6.5209     61.3437
   685.7500      0.0000    826.0308      6.4394     66.8129
   686.0000      0.0000    803.8125      6.4563     72.8648
   686.2500      0.0000    797.6592      6.4868     78.1690
   686.5000      0.0000    815.1041      6.4270     82.0944
   686.7500      0.0000    850.1110      6.2692     84.5503
   687.0000      0.0000    886.9682      6.0963     85.6919
   687.2500      0.0000    913.6306      5.9777     85.9566
   687.5000     -2.0000    931.6996      5.9132     86.0197
   687.7500      0.0000    950.5521      5.8655     86.2183
   688.0000      0.0000    972.0023      5.8166     86.1789
   688.2500      0.0000    985.8291      5.7886     85.4484
   688.5000      0.0000    981.8875      5.8139     84.2889
   688.7500      0.0000    961.6992      5.8861     83.4568
   689.0000      0.0000    935.5856      5.9557     83.4169
   689.2500      0.0000    912.3649      5.9928     84.0626
   689.5000      0.0000    895.0431      6.0229     84.8639
   689.7500      0.0000    883.5263      6.0797     84.9436
   690.0000      0.0000    877.0121      6.1566     83.4093
   690.2500      0.0000    873.2191      6.2251     80.0832
   690.5000      0.0000    867.8818      6.2720     75.7925
   690.7500      0.0000    857.1530      6.3017     71.7017
   691.0000      0.0000    841.4237      6.3209     68.4158
   691.2500      0.0000    826.5084      6.3289     65.7483
   691.5000      0.0000    819.6135      6.3172     63.0906
   691.7500      0.0000    823.5517      6.2736     59.9035
   692.0000      0.0000    836.5624      6.1955     56.1096
   692.2500      0.0000    857.1484      6.0991     52.2326
   692.5000      0.0000    883.8355      6.0121     49.2029
   692.7500      0.0000    908.7034      5.9561     48.0722
   693.0000      0.0000    918.2034      5.9321     49.8614
   693.2500      0.0000    906.3340      5.9197     55.2677
