~Version Information
VERS.                      2.0: CWLS Log ASCII Standard - VERSION 2.0
WRAP.                       NO: One line per depth step
~Well Information Block
STRT.FT               -16.0000: 
STOP.FT              2827.7500: 
STEP.FT                 0.2500: 
NULL.                -999.2500: 
COMP.          Pioneer Natural Resources: COMPANY
WELL.          Touchstone 11-32: WELL
FLD.           Purgatorie River: FIELD
LOC.           853' FNL & 407' FWL--: LOCATION
CNTY.               Las Animas: COUNTY
SRVC.          Patterson Wireline: SERVICE COMPANY
DATE.          Wed Mar 15 10:09:19 2006: LOG DATE
UWI.           05 071 08564 00: UNIQUE WELL ID
STAT.                       CO: STATE
~Curve Information Block
DEPT.FT            0 000 00 00: Depth
CCL.                          : Casing Collar Locator
TT3.usec                      : CBL 3' Travel Time
AMP3.mV                       : CBL 3' Amplitude
GR.GAPI                       : Gamma Ray
~Parameter Information Block
~A  Depth       CCL         TT3         AMP3         GR     
# ...
   922.0000      0.0000    310.4313     23.4799    160.1451
   922.2500      0.0000    314.5500     23.3061    153.6481
   922.5000      0.0000    320.1898     23.0064    147.5099
   922.7500      0.0000    325.7681     22.6842    143.5724
   923.0000      0.0000    329.3678     22.4401    142.4264
   923.2500      0.0000    330.1775     22.3134    143.2779
   923.5000      0.0000    329.0197     22.2723    145.0325
   923.7500      0.0000    327.4898     22.2510    147.2112
   924.0000      0.0000    326.8439     22.1947    149.5819
   924.2500      0.0000    327.6563     22.0768    151.2908
   924.5000      0.0000    329.9624     21.8932    151.0662
   924.7500      0.0000    333.2672     21.6579    148.4907
   925.0000      0.0000    336.5388     21.4036    144.6708
   925.2500      0.0000    338.5061     21.1807    141.5733
   925.5000      0.0000    338.0907     21.0467    140.9237
   925.7500      0.0000    334.7740     21.0440    143.5100
   926.0000      0.0000    328.9551     21.1748    148.9063
   926.2500      0.0000    322.0569     21.3951    155.6255
   926.5000      0.0000    315.9253     21.6364    161.6741
   926.7500      0.0000    311.8863     21.8361    165.1571
   927.0000      0.0000    310.3832     21.9551    164.7861
   927.2500      0.0000    311.3379     21.9825    160.3291
   927.5000      0.0000    314.3684     21.9378    152.7074
   927.7500      0.0000    318.4962     21.8651    143.4933
   928.0000      0.0000    322.2020     21.8132    134.2911
   928.2500      0.0000    324.5220     21.8100    126.4119
   928.5000      0.0000    326.0797     21.8501    120.5272
   928.7500      0.0000    328.4075     21.9032    116.3418
   929.0000      0.0000    332.1493     21.9351    113.0309
   929.2500      0.0000    336.4118     21.9274    110.2952
   929.5000      0.0000    339.8651     21.8802    108.7139
   929.7500      0.0000    341.9721     21.8034    109.1593
   930.0000      0.0000    343.1377     21.7086    112.2503
   930.2500      0.0000    344.4550     21.6104    117.9797
   930.5000      0.0000    348.1170     21.5269    124.9859
   930.7500      0.0000    358.6648     21.4735    130.4126
   931.0000      0.0000    383.0934     21.4575    131.7255
   931.2500      0.0000    426.5297     21.4872    129.1827
   931.5000      0.0000    483.5397     21.5841    125.8336
   931.7500      0.0000    533.5517     21.7754    124.6822
   932.0000      0.0000    550.5475     22.0685    126.3925
   932.2500      0.0000    522.8010     22.4333    129.8562
   932.5000      0.0000    463.3082     22.8090    134.0916
   932.7500      0.0000    399.1346     23.1290    138.9472
   933.0000      0.0000    351.2475     23.3503    144.1988
   933.2500      0.0000    324.6405     23.4696    148.5400
   933.5000      0.0000    313.2942     23.5182    149.9757
   933.7500      0.0000    309.4605     23.5364    147.4967
   934.0000      0.0000    308.3309     23.5426    142.2360
   934.2500      0.0000    307.9596     23.5219    136.8212
   934.5000      0.0000    307.7837     23.4491    133.5981
   934.7500      0.0000    307.6794     23.3189    133.1590
   935.0000      0.0000    307.6484     23.1475    134.0255
   935.2500      0.0000    307.8705     22.9441    133.7176
   935.5000      0.0000    308.8845     22.6941    130.5923
   935.7500      0.0000    311.7325     22.3714    124.9523
   936.0000      0.0000    317.6872     21.9683    118.5185
   936.2500      0.0000    327.2306     21.5211    113.0471
   936.5000      0.0000    338.7586     21.1068    109.5033
   936.7500      0.0000    348.7740     20.7894    108.3155
   937.0000      0.0000    354.9383     20.5524    109.8357
   937.2500      0.0000    360.1698     20.2816    113.9939
   937.5000      0.0000    373.6182     19.8082    119.5007
   937.7500      0.0000    406.5056     18.9907    124.1132
   938.0000      0.0000    464.7202     17.8258    126.1796
   938.2500      0.0000    542.3270     16.5174    125.6326
   938.5000      0.0000    621.4547     15.3777    123.3429
   938.7500      0.0000    681.3847     14.6144    120.0998
   939.0000      2.0000    710.1270     14.2303    116.5212
   939.2500      0.0000    708.1721     14.1259    113.5005
   939.5000      0.0000    683.0366     14.2494    112.1071
   939.7500      0.0000    641.9595     14.6714    112.9115
   940.0000      0.0000    588.8476     15.5524    115.6685
   940.2500      0.0000    526.6172     16.9787    119.4906
   940.5000      0.0000    462.1366     18.7365    122.8398
   940.7500      0.0000    407.1225     20.3078    123.7415
   941.0000      0.0000    371.7396     21.2284    120.9440
   941.2500      0.0000    358.1660     21.4428    114.9547
   941.5000      0.0000    362.8682     21.2525    107.3904
   941.7500      0.0000    383.9679     20.9965     99.3805
   942.0000      0.0000    422.3954     20.8557     91.2553
   942.2500      0.0000    473.3894     20.8709     83.9174
   942.5000      0.0000    519.1292     21.0186     79.7459
   942.7500      0.0000    535.5956     21.2500     81.3185
   943.0000      0.0000    510.7622     21.5106     89.1801
   943.2500      0.0000    455.5247     21.7673    101.2011
   943.5000      0.0000    394.8324     22.0220    113.9306
   943.7500      0.0000    348.8346     22.2997    124.2322
   944.0000      0.0000    322.8919     22.6211    130.2066
   944.2500      0.0000    311.6915     22.9876    131.6516
   944.5000      0.0000    307.9416     23.3858    129.9375
   944.7500      0.0000    306.9533     23.7996    127.0761
   945.0000      0.0000    306.7338     24.2170    124.6603
   945.2500      0.0000    306.6649     24.6294    123.2775
   945.5000      0.0000    306.6054     25.0246    122.5058
   945.7500      0.0000    306.5186     25.3832    121.6788
   946.0000      0.0000    306.4100     25.6877    121.0654
   946.2500      0.0000    306.3044     25.9366    122.1115
   946.5000      0.0000    306.2306     26.1498    126.0974
   946.7500      0.0000    306.1992     26.3547    132.5934
   947.0000      0.0000    306.2014     26.5609    139.6631
   947.2500      0.0000    306.2235     26.7484    145.5365
   947.5000      0.0000    306.2560     26.8845    149.6271
   947.7500      0.0000    306.2902     26.9546    151.9638
   948.0000      0.0000    306.3139     26.9760    152.2964
   948.2500      0.0000    306.3107     26.9856    150.1354
   948.5000      0.0000    306.2669     27.0143    145.3329
   948.7500      0.0000    306.1801     27.0714    138.4653
   949.0000      0.0000    306.0636     27.1460    130.9660
   949.2500      0.0000    305.9443     27.2170    124.9321
   949.5000      0.0000    305.8555     27.2606    122.2312
   949.7500      0.0000    305.8242     27.2559    123.3870
   950.0000      0.0000    305.8566     27.1957    127.3284
   950.2500      0.0000    305.9292     27.0958    132.1203
   950.5000      0.0000    305.9991     26.9882    135.7669
   950.7500      0.0000    306.0305     26.9008    136.8117
   951.0000      0.0000    306.0203     26.8381    134.9787
   951.2500      0.0000    305.9973     26.7815    131.4269
   951.5000      0.0000    305.9955     26.7086    128.1315
   951.7500      0.0000    306.0258     26.6142    126.5754
   952.0000      0.0000    306.0706     26.5126    126.6294
   952.2500      0.0000    306.1000     26.4212    126.6699
   952.5000      0.0000    306.0913     26.3469    124.9886
   952.7500      0.0000    306.0359     26.2880    121.2080
   953.0000      0.0000    305.9372     26.2467    116.5658
   953.2500      0.0000    305.8070     26.2325    113.2695
   953.5000      0.0000    305.6648     26.2535    113.3672
   953.7500      0.0000    305.5345     26.3072    117.4254
   954.0000      0.0000    305.4400     26.3821    123.8804
   954.2500      0.0000    305.3971     26.4625    130.0171
   954.5000      0.0000    305.4099     26.5287    133.9288
   954.7500      0.0000    305.4695     26.5589    135.4950
   955.0000      0.0000    305.5536     26.5438    135.4138
   955.2500      0.0000    305.6284     26.4991    133.7484
