~Version Information
VERS.                      2.0: CWLS Log ASCII Standard - VERSION 2.0
WRAP.                       NO: One line per depth step
~Well Information Block
STRT.FT                -7.5000: 
STOP.FT               988.5000: 
STEP.FT                 0.2500: 
NULL.                -999.2500: 
COMP.          Pioneer Natural Resources: COMPANY
WELL.          Stags Leap 13-30: WELL
FLD.           Purgatorie River: FIELD
LOC.           1813' FSL & 117' FWL--: LOCATION
PROV.                       CO: PROVINCE
CNTY.               Las Animas: COUNTRY
SRVC.          Patterson Wireline: SERVICE COMPANY
DATE.          Tue Dec 13 11:29:26 2005: LOG DATE
UWI.           05 071 08595 00: UNIQUE WELL ID
~Curve Information Block
DEPT.FT            0 000 00 00: Depth
CCL.                          : Casing Collar Locator
TT3.usec                      : CBL 3' Travel Time
AMP3.mV                       : CBL 3' Amplitude
GR.GAPI                       : Gamma Ray
~Parameter Information Block
~A  Depth       CCL         TT3         AMP3         GR     
# ...
   126.5000      0.0000    749.5240      9.7334     78.7573
   126.7500      0.0000    749.6927      9.7034     81.2113
   127.0000      0.0000    748.5757      9.6880     83.4107
   127.2500      0.0000    744.2861      9.6966     85.0770
   127.5000      0.0000    734.8328      9.7387     85.9328
   127.7500      0.0000    720.5243      9.8172     85.2441
   128.0000      0.0000    706.0151      9.9214     82.0692
   128.2500      0.0000    697.6948     10.0234     76.3973
   128.5000      0.0000    696.3691     10.0930     69.9008
   128.7500      0.0000    693.4604     10.1230     65.1721
   129.0000      0.0000    677.6916     10.1373     64.1622
   129.2500      0.0000    647.2676     10.1719     67.0888
   129.5000      0.0000    614.9385     10.2521     72.2195
   129.7500      0.0000    599.4755     10.3823     76.6494
   130.0000      0.0000    610.7354     10.5482     78.0662
   130.2500      0.0000    642.6985     10.7199     76.3864
   130.5000      0.0000    680.3291     10.8549     73.6667
   130.7500      0.0000    711.3024     10.9094     72.3508
   131.0000      0.0000    731.3552     10.8588     73.5311
   131.2500      0.0000    742.0720     10.7183     76.3822
   131.5000      0.0000    746.8283     10.5396     78.8550
   131.7500      0.0000    748.4379     10.3797     79.2298
   132.0000      0.0000    748.4976     10.2675     77.5794
   132.2500      0.0000    747.5255     10.2012     75.7343
   132.5000      0.0000    745.4048     10.1724     75.5380
   132.7500      0.0000    742.0380     10.1833     77.2183
   133.0000      0.0000    737.9661     10.2401     79.6993
   133.2500      0.0000    734.4991     10.3381     82.0520
   133.5000      0.0000    733.0645     10.4596     84.0437
   133.7500      0.0000    734.2947     10.5879     85.5867
   134.0000      0.0000    737.6119     10.7248     86.4724
   134.2500      0.0000    741.6690     10.8976     86.7588
   134.5000      0.0000    745.3259     11.1456     86.8981
   134.7500      0.0000    748.3760     11.4928     87.3171
   135.0000      0.0000    751.3832     11.9292     88.0621
   135.2500      0.0000    754.7677     12.4164     88.8763
   135.5000      0.0000    758.0854     12.9058     89.5636
   135.7500      0.0000    760.5052     13.3466     90.2439
   136.0000      0.0000    762.3812     13.6894     90.9981
   136.2500      0.0000    766.1377     13.9014     91.2091
   136.5000      0.0000    774.7782     13.9844     89.7822
   136.7500      0.0000    788.8532     13.9679     86.4961
   137.0000      0.0000    804.8979     13.8805     82.8902
   137.2500      0.0000    817.4413     13.7330     81.2349
   137.5000      0.0000    823.1982     13.5263     82.5315
   137.7500      0.0000    823.5867     13.2684     85.7169
   138.0000      0.0000    823.1019     12.9819     88.7679
   138.2500      0.0000    825.1981     12.6930     90.3811
   138.5000      0.0000    829.8651     12.4137     90.6211
   138.7500      0.0000    834.8935     12.1352     90.1421
   139.0000      0.0000    838.5178     11.8407     89.0959
   139.2500      0.0000    840.4659     11.5226     87.0832
   139.5000      0.0000    841.2854     11.1900     84.0190
   139.7500      0.0000    841.3896     10.8634     80.5912
   140.0000      0.0000    840.6075     10.5611     77.6689
   140.2500      0.0000    838.1215     10.2874     75.4832
   140.5000      0.0000    832.9550     10.0347     73.6300
   140.7500      0.0000    825.3342      9.7961     71.6663
   141.0000      0.0000    817.9377      9.5724     69.4399
   141.2500      0.0000    814.8220      9.3653     67.0854
   141.5000      0.0000    817.9570      9.1710     65.0932
   141.7500      0.0000    825.2270      8.9885     64.3292
   142.0000      0.0000    832.5514      8.8335     65.6193
   142.2500      0.0000    837.3348      8.7350     69.0270
   142.5000      0.0000    839.3511      8.7087     73.5324
   142.7500      0.0000    839.2361      8.7324     77.5309
   143.0000      0.0000    837.1352      8.7554     79.7509
   143.2500      0.0000    832.7462      8.7360     79.8568
   143.5000      0.0000    826.2191      8.6713     78.3995
   143.7500      0.0000    818.7302      8.5886     76.3196
   144.0000      0.0000    811.9791      8.5121     74.4669
   144.2500      0.0000    807.0043      8.4437     73.5380
   144.5000      0.0000    803.5162      8.3783     74.3437
   144.7500      0.0000    800.2798      8.3252     77.7139
   145.0000      0.0000    796.1489      8.3015     83.6746
   145.2500      0.0000    791.0993      8.3025     90.6781
   145.5000      0.0000    786.5763      8.2944     96.2954
   145.7500      0.0000    784.6105      8.2495     99.1606
   146.0000      0.0000    786.1683      8.1781     99.9227
   146.2500      0.0000    790.2667      8.1137     99.9830
   146.5000      0.0000    794.7869      8.0762     99.8098
   146.7500      0.0000    798.0723      8.0621     99.0006
   147.0000      0.0000    799.7306      8.0618     97.5928
   147.2500      0.0000    800.2488      8.0673     96.4673
   147.5000      0.0000    800.2479      8.0643     96.3187
   147.7500      0.0000    800.0956      8.0319     96.7823
   148.0000      0.0000    799.9068      7.9564     96.9934
   148.2500      0.0000    799.6879      7.8405     96.7333
   148.5000      0.0000    799.4481      7.6996     96.5227
   148.7500      0.0000    799.2180      7.5553     96.6493
   149.0000      0.0000    799.0004      7.4336     96.6449
   149.2500      0.0000    798.7606      7.3601     95.9944
   149.5000      0.0000    798.4846      7.3541     95.0064
   149.7500      0.0000    798.2393      7.4245     94.4771
   150.0000      0.0000    798.1525      7.5641     94.5367
   150.2500      0.0000    798.4637      7.7450     94.4928
   150.5000      0.0000    799.7463      7.9202     94.0516
   150.7500      0.0000    803.1981      8.0355     93.8441
   151.0000      0.0000    810.2846      8.0508     94.1996
   151.2500      0.0000    821.1266      7.9645     94.3106
   151.5000      0.0000    832.7303      7.8142     93.4981
   151.7500      0.0000    839.8240      7.6481     92.5919
   152.0000      0.0000    838.7466      7.4951     93.1240
   152.2500      0.0000    830.3306      7.3639     95.4289
   152.5000      0.0000    818.4537      7.2605     98.2466
   152.7500      0.0000    806.5099      7.1999    100.1098
   153.0000      0.0000    795.9516      7.1992    100.6175
   153.2500      0.0000    787.4722      7.2549    100.3071
   153.5000      0.0000    782.2477      7.3225     99.6572
   153.7500      0.0000    781.3135      7.3261     98.4857
   154.0000      0.0000    784.0504      7.2098     96.2506
   154.2500      0.0000    788.0619      6.9848     92.6384
   154.5000      0.0000    790.6848      6.7198     87.5899
   154.7500      0.0000    790.3979      6.4842     81.0340
   155.0000      0.0000    787.1761      6.3057     73.0762
   155.2500      0.0000    782.4100      6.1742     64.2900
   155.5000      0.0000    778.4000      6.0731     55.5680
   155.7500      0.0000    776.9640      6.0054     47.9764
   156.0000      0.0000    778.1805      5.9964     42.8443
   156.2500      0.0000    780.8853      6.0696     41.5400
   156.5000      0.0000    784.2072      6.2153     44.7706
   156.7500      0.0000    788.0521      6.3844     51.8671
   157.0000      0.0000    792.5494      6.5192     60.7186
   157.2500      0.0000    797.9217      6.5941     68.8306
   157.5000      0.0000    804.6427      6.6240     74.9363
   157.7500      0.0000    812.8097      6.6343     79.5713
   158.0000      0.0000    821.2581      6.6280     83.9489
   158.2500      0.0000    827.7874      6.5894     88.4961
   158.5000      0.0000    830.4299      6.5181     92.6529
   158.7500      0.0000    828.5499      6.4475     95.7061
   159.0000      0.0000    823.2355      6.4174     97.3105
   159.2500      0.0000    817.0142      6.4240     97.4170
   159.5000      0.0000    812.7806      6.4102     96.5451
   159.7500      0.0000    812.7153      6.3302     96.1602
