~Version Information
 VERS.                                  2.0 : CWLS LAS VERSION
 WRAP.                                   NO : WRAPING MODE
 SWARE .                  MController 2.5.1 : SOFTWARE VERSION
~Well Information
 WELL.                    Sparrowhawk 22-12 : WELL
 COMP.  Pioneer Natural Resources USA, Inc. : COMPANY
 FLD.                      Purgatoire River : FIELD
 LOC.             SE/NE Sec. 12, T32S, R66W : LOCATION
 DATE.                03/22/2006-03/23/2006 : DATE(S) LOGGED
 SRVC.                  Entrada GeoSciences : SERVICE COMPANY
 STAT.                             Colorado : STATE
 CNTY.                           Las Animas : COUNTY
 CTRY.                        United States : COUNTRY
 API.                          05-071-08484 : API NUMBER
 STRT.FT                             533.00 : START DEPTH
 STOP.FT                            2380.00 : STOP DEPTH
 STEP.FT                               1.00 : DEPTH INCREMENT
 NULL.                                -9999 : NULL VALUE
~Curve information
 DEPTH.FT                                   :
 ROP.MIN/FT                                 :
 GAS.UNITS                                  :
~ASCII Log data
# ...
     1533.00         0.30        526.3 
     1534.00         0.17        558.2 
     1535.00         0.20        595.7 
     1536.00         0.17        624.8 
     1537.00         0.17        659.3 
     1538.00         0.20        728.8 
     1539.00         0.23        846.5 
     1540.00         0.23        962.5 
     1541.00         0.25       1061.0 
     1542.00         0.27       1110.8 
     1543.00         0.20       1116.4 
     1544.00         0.23       1084.7 
     1545.00         0.20       1021.4 
     1546.00         0.20        939.4 
     1547.00         0.20        853.6 
     1548.00         0.27        749.0 
     1549.00         0.23        671.6 
     1550.00         0.13        633.2 
     1551.00         0.13        599.8 
     1552.00         0.30        531.6 
     1553.00         0.27        502.9 
     1554.00         0.20        480.0 
     1555.00         0.23        466.0 
     1556.00         0.48        467.1 
     1557.00         0.43        460.1 
     1558.00         0.43        451.3 
     1559.00         0.47        477.1 
     1560.00         0.40        564.1 
     1561.00         0.47        694.8 
     1562.00         0.48        852.1 
     1563.00         0.43       1123.7 
     1564.00         0.37       1340.5 
     1565.00         0.33       1409.9 
     1566.00         0.33       1389.4 
     1567.00         0.33       1264.3 
     1568.00         0.40       1054.8 
     1569.00         0.30        894.9 
     1570.00         0.33        760.4 
     1571.00         0.43        635.0 
     1572.00         0.48        561.5 
     1573.00         0.40        538.0 
     1574.00         0.47        514.0 
     1575.00         0.57        496.7 
     1576.00         0.43        490.0 
     1577.00         0.43        485.6 
     1578.00         0.50        477.7 
     1579.00         0.48        479.7 
     1580.00         0.40        483.0 
     1581.00         0.43        485.3 
     1582.00         0.50        486.2 
     1583.00         0.47        485.3 
     1584.00         0.53        477.4 
     1585.00         0.53        469.8 
     1586.00         0.32        463.0 
     1587.00         0.23        458.9 
     1588.00         0.23        460.1 
     1589.00         0.23        459.8 
     1590.00         0.35        449.6 
     1591.00         0.37        445.2 
     1592.00         0.33        433.7 
     1593.00         0.37        443.4 
     1594.00         0.30        470.6 
     1595.00         0.27        517.2 
     1596.00         0.33        585.2 
     1597.00         0.37        693.6 
     1598.00         0.27        822.5 
     1599.00         0.27        961.4 
     1600.00         0.20       1046.6 
     1601.00         0.25       1103.5 
     1602.00         0.20       1122.2 
     1603.00         0.17       1112.2 
     1604.00         0.17       1080.9 
     1605.00         0.27        987.4 
     1606.00         0.20        905.1 
     1607.00         0.43        751.9 
     1608.00         0.27        691.5 
     1609.00         0.30        630.3 
     1610.00         0.30        588.1 
     1611.00         0.33        546.8 
     1612.00         0.30        528.9 
     1613.00         0.32        512.2 
     1614.00         0.33        506.1 
     1615.00         0.43        492.3 
     1616.00         0.17        473.9 
     1617.00         0.33        470.9 
     1618.00         0.67        460.7 
     1619.00         0.80        453.1 
     1620.00         0.48        459.8 
     1621.00         0.53        538.0 
     1622.00         0.43        652.0 
     1623.00         0.43        783.8 
     1624.00         0.33        842.4 
     1625.00         0.33        848.0 
     1626.00         0.27        811.1 
     1627.00         0.30        762.7 
     1628.00         0.27        713.8 
     1629.00         0.23        672.5 
     1630.00         0.28        632.1 
     1631.00         0.30        592.5 
     1632.00         0.43        551.5 
     1633.00         0.30        529.2 
     1634.00         0.27        515.5 
     1635.00         0.33        506.4 
     1636.00         0.37        499.7 
     1637.00         0.33        494.1 
     1638.00         0.27        486.5 
     1639.00         0.27        484.4 
     1640.00         0.25        484.4 
     1641.00         0.30        479.4 
     1642.00         0.30        482.7 
     1643.00         0.40        479.4 
     1644.00         0.43        479.1 
     1645.00         0.40        476.2 
     1646.00         0.27        480.9 
     1647.00         0.27        466.0 
     1648.00         0.37        453.4 
     1649.00         0.27        445.7 
     1650.00         0.33        475.3 
     1651.00         0.27        511.7 
     1652.00         0.37        582.3 
     1653.00         0.48        687.4 
     1654.00         0.33        769.2 
     1655.00         0.20        845.9 
     1656.00         0.20        971.9 
     1657.00         0.20       1110.2 
     1658.00         0.27       1274.6 
     1659.00         0.27       1371.2 
     1660.00         0.27       1389.7 
     1661.00         0.33       1336.7 
     1662.00         0.27       1227.7 
     1663.00         0.30       1068.9 
     1664.00         0.37        879.6 
     1665.00         0.28        768.9 
     1666.00         0.30        677.8 
     1667.00         0.40        595.5 
     1668.00         0.40        543.9 
     1669.00         0.40        513.1 
     1670.00         0.23        510.5 
     1671.00         0.23        513.1 
     1672.00         0.20        504.0 
     1673.00         0.17        513.1 
     1674.00         0.17        516.9 
     1675.00         0.27        514.3 
     1676.00         0.27        485.0 
     1677.00         0.30        492.6 
     1678.00         0.37        480.3 
     1679.00         0.30        458.9 
     1680.00         0.30        454.2 
     1681.00         0.23        456.0 
     1682.00         0.20        465.7 
     1683.00         0.45        527.5 
     1684.00         0.47        635.0 
     1685.00         0.43        757.8 
     1686.00         0.37        929.1 
     1687.00         0.40       1100.5 
     1688.00         0.33       1165.9 
     1689.00         0.37       1150.6 
     1690.00         0.33       1047.2 
     1691.00         0.35        911.6 
     1692.00         0.43        765.1 
     1693.00         0.30        689.2 
     1694.00         0.23        639.1 
     1695.00         0.23        604.2 
     1696.00         0.23        579.9 
     1697.00         0.23        556.5 
     1698.00         0.27        543.3 
     1699.00         0.20        526.0 
     1700.00         0.33        517.8 
     1701.00         0.33        517.5 
     1702.00         0.30        511.7 
     1703.00         0.28        508.7 
     1704.00         0.37        501.7 
     1705.00         0.37        499.9 
     1706.00         0.53        446.0 
     1707.00         0.73        440.5 
     1708.00         0.68        499.4 
     1709.00         0.63        616.8 
     1710.00         0.67        830.1 
     1711.00         0.63       1213.3 
     1712.00         0.47       1330.2 
     1713.00         0.45       1266.1 
     1714.00         0.30       1137.2 
     1715.00         0.33        966.4 
     1716.00         0.30        834.2 
     1717.00         0.30        732.0 
     1718.00         0.27        656.7 
     1719.00         0.23        616.8 
     1720.00         0.27        576.1 
     1721.00         0.53        522.5 
     1722.00         0.40        509.6 
     1723.00         0.38        499.4 
     1724.00         0.40        494.1 
     1725.00         0.37        490.0 
     1726.00         0.40        485.0 
     1727.00         0.33        481.2 
     1728.00         0.33        479.4 
     1729.00         0.30        472.4 
     1730.00         0.30        471.8 
     1731.00         0.33        461.6 
     1732.00         0.37        470.9 
