~Version Information
VERS.                      2.0: CWLS Log ASCII Standard - VERSION 2.0
WRAP.                       NO: One line per depth step
~Well Information Block
STRT.FT               620.0000: 
STOP.FT              3067.2000: 
STEP.FT                 0.1000: 
NULL.                -999.2500: 
COMP.          Pioneer Natural Resources: COMPANY
WELL.          Interceptor 43-13 Kv: WELL
FLD.           Purgatoire River: FIELD
LOC.           2073' FSL & 519' FEL--: LOCATION
PROV.                 Colorado: PROVINCE
CNTY.               Las Animas: COUNTRY
SRVC.                Patterson: SERVICE COMPANY
DATE.          Sat Jan 14 20:27:27 2006: LOG DATE
UWI.           05 071 08655 00: UNIQUE WELL ID
~Curve Information Block
DEPT.FT            0 000 00 00: Depth
DCAL.in                       : CDL Caliper
RHOB.g/cc                     : CDL Bulk Density
RHOC.g/cc                     : CDL Density Correction
DPOR.pu                       : CDL Density Porosity
NPOR.pu                       : Neutron Porosity
GR.GAPI                       : Gamma Ray
~Parameter Information Block
~A  Depth       DCAL        RHOB        RHOC        DPOR        NPOR         GR     
# ...
  2069.6000      8.0113      2.6108      0.0900      2.3758     26.7427     93.0403
  2069.7000      8.0113      2.5812     -0.0132      4.1727     26.0998     92.8845
  2069.8000      8.0113      2.5709      0.0342      4.7921     25.6211     95.5173
  2069.9000      8.0113      2.5974      0.0478      3.1899     25.5348     96.0319
  2070.0000      8.0109      2.6335      0.0929      1.0016     25.6925     91.9597
  2070.1000      8.0109      2.6395      0.0790      0.6335     25.9039     86.3430
  2070.2000      8.0109      2.6123      0.0664      2.2840     26.2883     85.1943
  2070.3000      8.0095      2.5801      0.0307      4.2362     26.8801     91.0596
  2070.4000      8.0095      2.5605      0.0422      5.4237     27.2819    100.1434
  2070.5000      8.0087      2.5482      0.0547      6.1702     27.0798    107.9710
  2070.6000      8.0087      2.5373      0.0340      6.8288     26.4127    111.6037
  2070.7000      8.0087      2.5354     -0.0061      6.9450     25.8171    110.7223
  2070.8000      8.0104      2.5480      0.0519      6.1818     25.7996    107.1259
  2070.9000      8.0104      2.5660      0.0397      5.0887     26.4092    101.2368
  2071.0000      8.0121      2.5749      0.0842      4.5524     27.0987     93.2959
  2071.1000      8.0121      2.5704      0.0190      4.8228     27.3944     86.0273
  2071.2000      8.0121      2.5682      0.0216      4.9602     27.5235     84.2078
  2071.3000      8.0125      2.5755      0.0495      4.5144     27.7955     86.7160
  2071.4000      8.0125      2.5845      0.0485      3.9677     27.8622     88.0422
  2071.5000      8.0137      2.5940      0.0520      3.3920     27.5907     88.6550
  2071.6000      8.0137      2.6008      0.0678      2.9796     27.4161     92.5510
  2071.7000      8.0137      2.5999      0.0528      3.0357     27.2774    100.1744
  2071.8000      8.0147      2.6002      0.0176      3.0160     26.9667    107.0337
  2071.9000      8.0147      2.6060      0.1118      2.6654     26.8834    111.3430
  2072.0000      8.0149      2.6039      0.0770      2.7935     27.2403    111.8363
  2072.1000      8.0149      2.5904      0.0348      3.6101     27.3967    104.0530
  2072.2000      8.0149      2.5756      0.0358      4.5079     26.9714     93.6646
  2072.3000      8.0140      2.5685      0.0308      4.9415     26.5553     91.2889
  2072.4000      8.0140      2.5744      0.0662      4.5836     26.6990     94.1790
  2072.5000      8.0120      2.5938      0.0508      3.4081     27.1701     91.3039
  2072.6000      8.0120      2.6193      0.0867      1.8576     27.1757     83.0055
  2072.7000      8.0120      2.6323      0.1209      1.0746     26.4207     77.4449
  2072.8000      8.0105      2.6227      0.0740      1.6567     25.7660     76.8116
  2072.9000      8.0105      2.6126      0.0234      2.2655     25.9280     78.3056
  2073.0000      8.0047      2.6350      0.0124      0.9084     26.5475     79.2887
  2073.1000      8.0047      2.6972      0.0983     -2.8586     26.9194     78.4973
  2073.2000      8.0047      2.7700      0.1471     -7.2749     26.7843     77.4675
  2073.3000      7.9930      2.8265      0.1692    -10.6942     26.4709     78.2611
  2073.4000      7.9930      2.8735      0.1414    -13.5464     26.4521     79.7683
  2073.5000      7.9822      2.9203      0.1769    -16.3847     26.5442     78.6605
  2073.6000      7.9822      2.9573      0.1484    -18.6257     26.1145     74.3458
  2073.7000      7.9822      2.9789      0.1484    -19.9304     25.1471     68.4673
  2073.8000      7.9741      2.9855      0.1755    -20.3322     24.2868     62.6666
  2073.9000      7.9741      2.9710      0.1360    -19.4559     24.3714     59.4096
  2074.0000      7.9679      2.9288      0.0820    -16.8947     25.3354     59.1919
  2074.1000      7.9679      2.8668      0.0350    -13.1398     26.0692     61.0616
  2074.2000      7.9679      2.8145      0.0013     -9.9722     26.1731     65.1574
  2074.3000      7.9632      2.7882      0.0254     -8.3743     26.2924     71.1542
  2074.4000      7.9632      2.7677      0.0084     -7.1317     26.4301     77.6149
  2074.5000      7.9590      2.7478     -0.0082     -5.9293     26.0339     82.2370
  2074.6000      7.9590      2.7540      0.0024     -6.3059     25.5477     82.2786
  2074.7000      7.9590      2.7816      0.0961     -7.9769     25.7361     78.9369
  2074.8000      7.9596      2.7880      0.1179     -8.3615     26.2068     77.5381
  2074.9000      7.9596      2.7618      0.0855     -6.7753     26.1946     80.2487
  2075.0000      7.9677      2.7298      0.0616     -4.8339     25.8605     84.5342
  2075.1000      7.9677      2.7000      0.0522     -3.0287     25.6686     87.7740
  2075.2000      7.9677      2.6573      0.0699     -0.4402     25.5879     89.9545
  2075.3000      7.9779      2.6017      0.0514      2.9300     25.4444     91.9284
  2075.4000      7.9779      2.5603     -0.0248      5.4334     25.2374     93.0975
  2075.5000      7.9827      2.5532      0.0172      5.8645     25.1322     91.8974
  2075.6000      7.9827      2.5567      0.0875      5.6534     25.2226     89.6362
  2075.7000      7.9827      2.5432      0.0077      6.4756     25.3463     88.7487
  2075.8000      7.9821      2.5280     -0.0067      7.3954     25.3098     86.7253
  2075.9000      7.9821      2.5337     -0.0006      7.0510     25.0138     82.2772
  2076.0000      7.9799      2.5517      0.0342      5.9587     24.7877     81.7343
  2076.1000      7.9799      2.5605      0.0470      5.4253     24.9614     88.9265
  2076.2000      7.9799      2.5569      0.0199      5.6409     25.2077     98.2158
  2076.3000      7.9808      2.5535      0.0348      5.8491     25.0366    103.1504
  2076.4000      7.9808      2.5542      0.0496      5.8073     24.6346    100.8610
  2076.5000      7.9856      2.5559      0.0379      5.7015     24.7373     93.5397
  2076.6000      7.9856      2.5593      0.0454      5.4982     25.1975     89.1124
  2076.7000      7.9856      2.5612      0.0703      5.3847     25.2718     90.4099
  2076.8000      7.9890      2.5569      0.0350      5.6413     25.1684     94.6332
  2076.9000      7.9890      2.5548      0.0205      5.7700     25.3806     98.2435
  2077.0000      7.9925      2.5662      0.0301      5.0812     25.7160     98.7143
  2077.1000      7.9925      2.5872      0.0951      3.8037     25.8816     95.6796
  2077.2000      7.9925      2.6083      0.0434      2.5284     25.9469     92.4643
  2077.3000      8.0014      2.6230      0.1027      1.6352     26.1576     94.0431
  2077.4000      8.0014      2.6202      0.1014      1.8083     26.4147     97.2889
  2077.5000      8.0144      2.5959      0.0610      3.2762     26.3957     95.3298
  2077.6000      8.0144      2.5711     -0.0078      4.7847     25.8612     91.4896
  2077.7000      8.0144      2.5685      0.0010      4.9392     25.3458     91.0555
  2077.8000      8.0293      2.5818      0.0845      4.1350     25.5396     91.6312
  2077.9000      8.0293      2.5923      0.0578      3.4969     25.9827     90.4273
  2078.0000      8.0412      2.6016      0.0830      2.9337     25.8991     89.3314
  2078.1000      8.0412      2.6079      0.0928      2.5501     25.3500     91.2308
  2078.2000      8.0412      2.5973      0.0705      3.1931     25.0149     94.8722
  2078.3000      8.0516      2.5754      0.0746      4.5222     25.1043     96.1547
  2078.4000      8.0516      2.5649      0.0217      5.1590     25.2307     95.5291
  2078.5000      8.0600      2.5684      0.0858      4.9462     25.4334     95.9326
  2078.6000      8.0600      2.5632      0.0982      5.2610     25.8888     96.4175
  2078.7000      8.0600      2.5453      0.0449      6.3431     26.1372     96.7693
  2078.8000      8.0629      2.5318      0.0662      7.1661     25.9542     97.8083
  2078.9000      8.0629      2.5298      0.0189      7.2856     25.6734     96.3111
  2079.0000      8.0616      2.5353      0.0324      6.9528     25.4341     90.6287
  2079.1000      8.0616      2.5363      0.0366      6.8929     25.3410     85.6817
