~Version Information
VERS.                      2.0: CWLS Log ASCII Standard - VERSION 2.0
WRAP.                       NO: One line per depth step
~Well Information Block
STRT.FT                -2.7500: 
STOP.FT               973.2500: 
STEP.FT                 0.2500: 
NULL.                -999.2500: 
COMP.          Pioneer Natural Resources: COMPANY
WELL.          Red Raider 22-15: WELL
FLD.           Purgatoire River: FIELD
LOC.           1809' FNL & 2107' FWL: LOCATION
CNTY.               Las Animas: COUNTY
SRVC.                Patterson: SERVICE COMPANY
DATE.          Mon Apr 17 16:50:50 2006: LOG DATE
UWI.           05 071 08718 00: UNIQUE WELL ID
STAT.                 Colorado: STATE
~Curve Information Block
DEPT.FT            0 000 00 00: Depth
GR.GAPI                       : Gamma Ray
CCL.                          : Casing Collar Locator
TT3.usec                      : CBL 3' Travel Time
AMP3.mV                       : CBL 3' Amplitude
~Parameter Information Block
~A  Depth        GR         CCL         TT3         AMP3    
# ...
   734.2500     56.3980      0.0000    709.3669      9.2248
   734.5000     55.0220      0.0000    709.5187      9.2440
   734.7500     55.0388      0.0000    709.7649      9.2465
   735.0000     55.8312      0.0000    710.0186      9.2247
   735.2500     56.4663      0.0000    710.2147      9.1844
   735.5000     56.7103      0.0000    710.3542      9.1438
   735.7500     57.2411      0.0000    710.4792      9.1200
   736.0000     58.7591      0.0000    710.6124      9.1181
   736.2500     61.0318      0.0000    710.7309      9.1331
   736.5000     63.0950      0.0000    710.7869      9.1579
   736.7500     64.2548      0.0000    710.7151      9.1882
   737.0000     64.5284      0.0000    710.3768      9.2219
   737.2500     64.2605      0.0000    709.4457      9.2550
   737.5000     63.7859      0.0000    707.3659      9.2806
   737.7500     63.5179      0.0000    703.6321      9.2916
   738.0000     64.0092      0.0000    698.4321      9.2862
   738.2500     65.6803      0.0000    693.1086      9.2705
   738.5000     68.4843      0.0000    689.7189      9.2542
   738.7500     71.7946      0.0000    689.7913      9.2415
   739.0000     74.6067      0.0000    693.2861      9.2282
   739.2500     75.9852      0.0000    698.6346      9.2075
   739.5000     75.4780      0.0000    703.7950      9.1809
   739.7500     73.2386      0.0000    707.4386      9.1592
   740.0000     69.9408      0.0000    709.3712      9.1495
   740.2500     66.6212      0.0000    710.1161      9.1431
   740.5000     64.3227      0.0000    710.2988      9.1183
   740.7500     63.5606      0.0000    710.3751      9.0622
   741.0000     64.1104      0.0000    710.7365      8.9864
   741.2500     65.4543      0.0000    711.9202      8.9212
   741.5000     67.4515      0.0000    714.5885      8.8938
   741.7500     70.5023      0.0000    718.9680      8.9141
   742.0000     74.9782      0.0000    723.9431      8.9782
   742.2500     80.4891      0.0000    726.8992      9.0783
   742.5000     85.8590      0.0000    725.2256      9.2027
   742.7500     89.9498      0.0000    718.4857      9.3316
   743.0000     92.5015      0.0000    708.9854      9.4399
   743.2500     94.1297      0.0000    699.9850      9.5070
   743.5000     95.5975      0.0000    693.3005      9.5253
   743.7500     97.0775      0.0000    688.5092      9.5002
   744.0000     97.8190      0.0000    684.3345      9.4444
   744.2500     96.4250      0.0000    680.6849      9.3727
   744.5000     91.8916      0.0000    679.1984      9.2997
   744.7500     84.8063      0.0000    681.6451      9.2402
   745.0000     77.4221      0.0000    687.8341      9.2088
   745.2500     72.3252      0.0000    695.3968      9.2159
   745.5000     70.8338      0.0000    701.7477      9.2624
   745.7500     72.3112      0.0000    706.0182      9.3329
   746.0000     74.8822      0.0000    709.2160      9.3888
   746.2500     77.0678      0.0000    713.0358      9.3763
   746.5000     78.8074      0.0000    718.4080      9.2562
   746.7500     80.8526      0.0000    724.4489      9.0374
   747.0000     83.5178      0.0000    728.7170      8.7831
   747.2500     86.2210      0.0000    729.2895      8.5740
   747.5000     87.8969      0.0000    727.0898      8.4614
   747.7500     87.6276      0.0000    725.7521      8.4470
   748.0000     85.1787      0.0000    728.6842      8.4956
   748.2500     81.1970      0.0000    736.0859      8.5616
   748.5000     76.9429      0.0000    744.8433      8.6107
   748.7500     73.8937      0.0000    751.2528      8.6278
   749.0000     73.4911      0.0000    753.6525      8.6077
   749.2500     76.6846      0.0000    752.4383      8.5461
   749.5000     83.1132      0.0000    748.3622      8.4464
   749.7500     90.7680      0.0000    741.6575      8.3383
   750.0000     96.9683      0.0000    732.5908      8.2769
   750.2500    100.0298      0.0000    721.9651      8.3111
   750.5000    100.0213      0.0000    710.8289      8.4470
   750.7500     97.9256      0.0000    700.2188      8.6418
   751.0000     94.4392      0.0000    691.2578      8.8330
   751.2500     89.9546      0.0000    684.8762      8.9731
   751.5000     85.3771      0.0000    681.2388      9.0458
   751.7500     82.2055      0.0000    679.7194      9.0596
   752.0000     81.5157      0.0000    679.4538      9.0324
   752.2500     83.0544      0.0000    679.7743      8.9838
   752.5000     85.5112      0.0000    680.2593      8.9374
   752.7500     87.6389      0.0000    680.6402      8.9206
   753.0000     89.0692      0.0000    680.8506      8.9509
   753.2500     90.2368      0.0000    681.2083      9.0172
   753.5000     91.7748      0.0000    682.5656      9.0830
   753.7500     93.9250      0.0000    686.0588      9.1146
   754.0000     96.2069      0.0000    692.1595      9.1052
   754.2500     97.6907      0.0000    699.3826      9.0717
   754.5000     97.9161      0.0000    703.9764      9.0350
   754.7500     97.4235      0.0000    701.6067      9.0065
   755.0000     97.1711      0.0000    690.2637      8.9902
   755.2500     97.6270      0.0000    672.2806      8.9866
   755.5000     98.5272      0.0000    653.3130      8.9941
   755.7500     99.3091      0.0000    638.0258      9.0088
   756.0000     99.6196      0.0000    626.4979      9.0266
   756.2500     99.4131      0.0000    616.4166      9.0451
   756.5000     98.6380      0.0000    608.7478      9.0624
   756.7500     97.0373      0.0000    608.5184      9.0753
   757.0000     94.3456      0.0000    618.9304      9.0804
   757.2500     90.5151      0.0000    636.8267      9.0772
   757.5000     85.6313      0.0000    655.2985      9.0705
   757.7500     79.8939      0.0000    669.5645      9.0678
   758.0000     73.9609      0.0000    679.3472      9.0704
   758.2500     69.1396      0.0000    686.4809      9.0725
   758.5000     66.9186      0.0000    691.6176      9.0701
   758.7500     68.2643      0.0000    693.6779      9.0705
   759.0000     73.3671      0.0000    691.9363      9.0862
   759.2500     81.6115      0.0000    687.5950      9.1158
   759.5000     91.3243      0.0000    682.8494      9.1273
   759.7500     99.7805      0.0000    678.9866      9.0623
   760.0000    104.2463      0.0000    675.9000      8.8696
   760.2500    103.5370      0.0000    673.2101      8.5545
   760.5000     98.5374      0.0000    671.4833      8.1990
   760.7500     91.2619      0.0000    672.3144      7.9053
   761.0000     83.6512      0.0000    677.0087      7.6992
   761.2500     77.0178      0.0000    684.4033      7.5178
   761.5000     71.8531      0.0000    689.0095      7.3175
   761.7500     67.8343      0.0000    682.1086      7.1569
   762.0000     64.3157      0.0000    658.4666      7.1293
   762.2500     61.0310      0.0000    625.0193      7.2488
   762.5000     58.2492      0.0000    600.2916      7.4409
   762.7500     56.2812      3.0000    599.7355      7.6273
   763.0000     55.0730      0.0000    621.0092      7.8020
   763.2500     54.3817      0.0000    647.1901      8.0364
   763.5000     54.1711      0.0000    664.0471      8.3975
   763.7500     54.6669      0.0000    670.1857      8.8322
   764.0000     56.0061      0.0000    671.5286      9.1657
   764.2500     57.8238      0.0000    672.1769      9.2705
   764.5000     59.2907      0.0000    672.5867      9.2144
   764.7500     59.7971      0.0000    672.4313      9.1849
   765.0000     59.5336      0.0000    672.0380      9.2927
   765.2500     59.1209      0.0000    671.8389      9.4930
   765.5000     58.7789      0.0000    671.8752      9.6762
   765.7500     58.2239      0.0000    671.9481      9.7802
   766.0000     57.3461      0.0000    671.9163      9.8127
   766.2500     56.5563      0.0000    671.7883      9.8092
   766.5000     56.2101      0.0000    671.6480      9.7975
   766.7500     55.9512      0.0000    671.5603      9.7913
   767.0000     55.0986      0.0000    671.5602      9.7942
   767.2500     53.6326      0.0000    671.6690      9.8029
   767.5000     52.3355      0.0000    671.8853      9.8130
