~Version Information
VERS.                      2.0: CWLS Log ASCII Standard - VERSION 2.0
WRAP.                       NO: One line per depth step
~Well Information Block
STRT.FT               550.0000: 
STOP.FT              1979.0000: 
STEP.FT                 0.1000: 
NULL.                -999.2500: 
COMP.          Pioneer Natural Resources: COMPANY
WELL.          Flying Horse 12-11 Tr: WELL
FLD.           Purgatoire River: FIELD
LOC.           2459' FNL & 410' FWL: LOCATION
STAT.                 Colorado: PROVINCE
CNTY.               Las Animas: COUNTY
CTRY. USA : Country
SECT. 11 : Section
TOWN. 32S : Township
RANG. 66W : Range
SRVC.                Patterson: SERVICE COMPANY
DATE.          Tue Sep 06 07:09:24 2005: LOG DATE
API.           05 071 08485 00: UNIQUE WELL ID
~Curve Information Block
DEPT.FT            0 000 00 00: Depth
DCAL.in                       : CDL Caliper
RHOB.g/cc                     : CDL Bulk Density
RHOC.g/cc                     : CDL Density Correction
DPOR.pu                       : CDL Density Porosity
GR.GAPI                       : Gamma Ray
NPOR.pu                       : Neutron Porosity
~Parameter Information Block
~A  Depth       DCAL        RHOB        RHOC        DPOR         GR         NPOR    
# ...
  1682.8000      7.9909      2.5328      0.0676      7.1028    137.0894     26.9290
  1682.9000      7.9909      2.4953      0.0345      9.3739    138.6456     26.2626
  1683.0000      8.0050      2.4702      0.0714     10.8959    140.6382     25.9631
  1683.1000      8.0050      2.4656      0.0679     11.1736    139.9393     26.1329
  1683.2000      8.0050      2.4725      0.0895     10.7583    138.1054     26.0010
  1683.3000      7.9997      2.4841      0.0443     10.0536    135.5393     25.8997
  1683.4000      7.9997      2.5063      0.0506      8.7092    131.9051     26.8584
  1683.5000      7.9533      2.5427      0.0983      6.5016    126.9468     28.5558
  1683.6000      7.9533      2.5830      0.1532      4.0605    121.3755     29.8177
  1683.7000      7.9533      2.6053      0.1956      2.7093    117.3808     29.5728
  1683.8000      7.9436      2.5919      0.1455      3.5190    116.9424     27.9391
  1683.9000      7.9436      2.5574      0.0994      5.6130    118.6503     26.4256
  1684.0000      7.9540      2.5386      0.0603      6.7511    118.9584     25.7979
  1684.1000      7.9540      2.5436      0.0918      6.4477    116.1700     25.6925
  1684.2000      7.9540      2.5485      0.0636      6.1485    111.9297     25.8075
  1684.3000      7.9507      2.5480     -0.0187      6.1838    110.6592     26.1190
  1684.4000      7.9507      2.5535      0.0609      5.8487    115.1500     26.4554
  1684.5000      7.9490      2.5660      0.0416      5.0918    121.6905     26.5134
  1684.6000      7.9490      2.5832      0.0582      4.0495    125.1678     26.2885
  1684.7000      7.9490      2.5941      0.0764      3.3886    126.9927     25.8693
  1684.8000      7.9544      2.5828      0.0860      4.0735    128.1914     25.3116
  1684.9000      7.9544      2.5522      0.0478      5.9287    126.8666     24.9671
  1685.0000      7.9776      2.5177      0.0446      8.0177    124.3883     25.2961
  1685.1000      7.9776      2.4848      0.0606     10.0093    125.1663     26.2392
  1685.2000      7.9776      2.4569     -0.0093     11.7010    130.2551     26.9999
  1685.3000      7.9649      2.4453      0.0083     12.4047    135.0639     27.0093
  1685.4000      7.9649      2.4433      0.0228     12.5263    136.0942     26.2630
  1685.5000      7.8981      2.4367     -0.0303     12.9297    134.8806     25.5822
  1685.6000      7.8981      2.4270      0.0207     13.5163    134.9202     25.9250
  1685.7000      7.8981      2.4220     -0.0250     13.8160    138.5087     26.8139
  1685.8000      7.9141      2.4313      0.0128     13.2530    144.8290     27.4318
  1685.9000      7.9141      2.4500      0.1052     12.1201    146.3782     27.5328
  1686.0000      8.1140      2.4645      0.1297     11.2449    140.1215     27.0834
  1686.1000      8.1140      2.4780      0.1646     10.4238    134.8848     26.5566
  1686.2000      8.1140      2.5067      0.1153      8.6833    136.1068     26.5050
  1686.3000      8.1221      2.5569      0.1809      5.6414    138.8771     26.5898
  1686.4000      8.1221      2.6107      0.2283      2.3846    137.2650     26.1667
  1686.5000      8.0231      2.6447      0.2457      0.3199    132.3763     25.7341
  1686.6000      8.0231      2.6518      0.2578     -0.1081    132.3767     25.9697
  1686.7000      8.0231      2.6326      0.2611      1.0525    144.1643     26.3089
  1686.8000      7.9385      2.5885      0.1966      3.7244    158.4703     26.3176
  1686.9000      7.9385      2.5323      0.0755      7.1329    160.7695     26.3066
  1687.0000      7.9028      2.4844      0.0505     10.0394    153.6826     26.2328
  1687.1000      7.9028      2.4562      0.0245     11.7443    144.9987     26.1863
  1687.2000      7.9028      2.4444      0.0621     12.4581    138.5507     26.6626
  1687.3000      8.0227      2.4414      0.0184     12.6405    138.6317     27.5476
  1687.4000      8.0227      2.4498     -0.0186     12.1308    143.4003     28.4221
  1687.5000      8.0406      2.4635      0.0756     11.3044    147.7706     28.9148
  1687.6000      8.0406      2.4670      0.0275     11.0883    148.4229     28.8764
  1687.7000      8.0406      2.4679      0.0208     11.0393    143.3560     28.5682
  1687.8000      8.0467      2.4796      0.0461     10.3291    134.4852     28.4672
  1687.9000      8.0467      2.4979      0.0880      9.2209    127.1036     28.2514
  1688.0000      8.0399      2.5136      0.0806      8.2646    124.9330     27.4456
  1688.1000      8.0399      2.5184      0.0993      7.9756    127.3734     26.8954
  1688.2000      8.0399      2.5080      0.0660      8.6035    132.5717     27.2858
  1688.3000      8.0376      2.4883      0.0525      9.7992    136.6295     28.0934
  1688.4000      8.0376      2.4659      0.0478     11.1580    138.7691     28.4897
  1688.5000      8.0415      2.4524      0.0095     11.9743    142.8382     28.3983
  1688.6000      8.0415      2.4546      0.0473     11.8423    148.0740     28.4130
  1688.7000      8.0415      2.4580      0.0445     11.6364    150.8428     28.4844
  1688.8000      8.0386      2.4557      0.0242     11.7732    149.9335     28.5208
  1688.9000      8.0386      2.4622      0.0087     11.3846    146.6311     28.9820
  1689.0000      8.0442      2.4746      0.0475     10.6329    146.7234     29.6275
  1689.1000      8.0442      2.4719      0.0472     10.7966    153.7686     29.8328
  1689.2000      8.0442      2.4674      0.0070     11.0658    163.1151     29.3985
  1689.3000      8.0499      2.4937      0.0500      9.4735    171.3691     28.6791
  1689.4000      8.0499      2.5371      0.1295      6.8437    176.1051     27.7630
  1689.5000      8.0300      2.5584      0.1264      5.5505    175.4423     26.4841
  1689.6000      8.0300      2.5541      0.1253      5.8127    173.6374     24.8822
  1689.7000      8.0300      2.5456      0.1258      6.3264    172.0555     23.6291
  1689.8000      8.0110      2.5428      0.0863      6.4968    165.6389     23.4862
  1689.9000      8.0110      2.5469      0.0626      6.2457    156.9189     23.9810
  1690.0000      8.0274      2.5622      0.0217      5.3201    153.0694     24.0415
  1690.1000      8.0274      2.5823      0.1185      4.1022    149.5646     23.2878
  1690.2000      8.0274      2.5976      0.0704      3.1782    140.6604     21.9445
  1690.3000      7.9965      2.6102      0.0971      2.4136    129.5871     20.7620
  1690.4000      7.9965      2.6104      0.0939      2.3992    119.8043     20.3332
  1690.5000      8.0027      2.5885      0.0676      3.7282    114.6302     19.9774
  1690.6000      8.0027      2.5632      0.0316      5.2617    117.6010     18.8418
  1690.7000      8.0027      2.5530      0.0340      5.8816    125.2225     17.4547
  1690.8000      7.9768      2.5470      0.0405      6.2406    126.5409     16.8859
  1690.9000      7.9768      2.5331      0.0415      7.0844    116.8743     17.4842
  1691.0000      7.9888      2.5264      0.0102      7.4936    106.8920     18.5446
  1691.1000      7.9888      2.5448     -0.0240      6.3774    105.1772     19.1333
  1691.2000      7.9888      2.5801      0.0577      4.2364    105.9110     19.2265
  1691.3000      8.0119      2.6110      0.1038      2.3660    104.3013     19.3021
  1691.4000      8.0119      2.6356      0.1008      0.8745    101.8387     19.5343
  1691.5000      7.9837      2.6547      0.1810     -0.2862     99.2468     19.8327
  1691.6000      7.9837      2.6506      0.2212     -0.0380     97.7628     20.2885
  1691.7000      7.9837      2.6305      0.0991      1.1843     95.0025     20.9865
  1691.8000      7.9110      2.6285      0.0954      1.3028     89.4316     21.3248
  1691.9000      7.9110      2.6448      0.1617      0.3149     88.0148     21.1326
  1692.0000      7.9056      2.6546      0.1007     -0.2767     94.3150     21.0036
  1692.1000      7.9056      2.6576      0.0620     -0.4605    102.7089     21.0099
  1692.2000      7.9056      2.6618      0.1161     -0.7162    107.2869     20.7212
  1692.3000      7.9311      2.6558      0.0994     -0.3494    104.5795     19.9381
