~Version Information
VERS.                      2.0: CWLS Log ASCII Standard - VERSION 2.0
WRAP.                       NO: One line per depth step
~Well Information Block
STRT.FT                -8.0000: 
STOP.FT               918.7500: 
STEP.FT                 0.2500: 
NULL.                -999.2500: 
COMP.          Pioneer Natural Resources: COMPANY
WELL.          Sculpin 32-30 Tr: WELL
FLD.           Purgatorie River: FIELD
LOC.           1600' FNL & 1857' FEL--: LOCATION
CNTY.               Las Animas: COUNTY
SRVC.          Patterson Wireline: SERVICE COMPANY
DATE.          Thu Aug 03 08:40:45 2006: LOG DATE
UWI.           05 071 08706 00: UNIQUE WELL ID
STAT.                       CO: STATE
~Curve Information Block
DEPT.FT            0 000 00 00: Depth
CCL.                          : Casing Collar Locator
TT3.usec                      : CBL 3' Travel Time
AMP3.mV                       : CBL 3' Amplitude
GR.GAPI                       : Gamma Ray
~Parameter Information Block
~A  Depth       CCL         TT3         AMP3         GR     
# ...
   829.5000      0.0000    458.6728      3.5426    123.8310
   829.7500      0.0000    462.2174      3.5271    119.5577
   830.0000      0.0000    467.0482      3.5159    118.3879
   830.2500      0.0000    476.0678      3.5141    119.6238
   830.5000      0.0000    490.1672      3.5109    120.5391
   830.7500      0.0000    504.8914      3.4878    118.5291
   831.0000      0.0000    511.5729      3.4355    113.5445
   831.2500      0.0000    504.5370      3.3637    107.9632
   831.5000      0.0000    488.0959      3.2951    104.1657
   831.7500      0.0000    475.5253      3.2499    102.7263
   832.0000      0.0000    480.4102      3.2351    102.6661
   832.2500      0.0000    507.7593      3.2452    102.5164
   832.5000      0.0000    551.6876      3.2702    101.1880
   832.7500      0.0000    600.6954      3.3018     98.7323
   833.0000      0.0000    644.9608      3.3367     96.4744
   833.2500      0.0000    678.7867      3.3745     95.8913
   833.5000      0.0000    698.2416      3.4144     97.2870
   833.7500      0.0000    700.0338      3.4543     99.6903
   834.0000      0.0000    684.8414      3.4925    101.8472
   834.2500      0.0000    660.6510      3.5301    103.1351
   834.5000      0.0000    640.1926      3.5703    103.6989
   834.7500      0.0000    632.5582      3.6147    104.1564
   835.0000      0.0000    635.9950      3.6588    105.2605
   835.2500      0.0000    639.9983      3.6922    107.4172
   835.5000      0.0000    636.3477      3.7081    110.3159
   835.7500      0.0000    627.4428      3.7095    113.1398
   836.0000      0.0000    622.4354      3.7084    115.0506
   836.2500      0.0000    626.7986      3.7163    115.4841
   836.5000      0.0000    638.5926      3.7366    114.6140
   836.7500      0.0000    653.4788      3.7642    113.7122
   837.0000      0.0000    668.6377      3.7903    114.2114
   837.2500      0.0000    680.7610      3.8056    116.0459
   837.5000      0.0000    683.9542      3.8010    117.6627
   837.7500      0.0000    672.2872      3.7706    117.8078
   838.0000      0.0000    644.1553      3.7158    116.4826
   838.2500      0.0000    604.2435      3.6462    114.2844
   838.5000      0.0000    562.8304      3.5743    111.8408
   838.7500      0.0000    532.9099      3.5102    110.0256
   839.0000      0.0000    524.7823      3.4613    109.9669
   839.2500      0.0000    540.5156      3.4330    112.6169
   839.5000      0.0000    572.9145      3.4264    118.3869
   839.7500      0.0000    610.2503      3.4351    126.8569
   840.0000      0.0000    642.5008      3.4481    136.6322
   840.2500      0.0000    664.6464      3.4554    145.8323
   840.5000      0.0000    676.7817      3.4517    152.9933
   840.7500      0.0000    682.4448      3.4340    157.3882
   841.0000      0.0000    685.6413      3.3993    158.6685
   841.2500      0.0000    687.9209      3.3480    156.9253
   841.5000      0.0000    688.0350      3.2944    153.2326
   841.7500      0.0000    684.6833      3.2720    149.3111
   842.0000      0.0000    679.5410      3.3133    146.1099
   842.2500      0.0000    677.7478      3.4133    142.9783
   842.5000      0.0000    685.3961      3.5237    138.4584
   842.7500      0.0000    705.6051      3.6043    131.6438
   843.0000      0.0000    736.3168      3.6664    122.6396
   843.2500      0.0000    771.9799      3.7474    112.1945
   843.5000      0.0000    807.0145      3.8554    101.4152
   843.7500     -2.0000    836.5200      3.9610     91.8171
   844.0000      2.0000    854.5515      4.0352     85.2384
   844.2500      0.0000    855.1681      4.0800     83.2765
   844.5000      0.0000    837.1674      4.1221     86.3048
   844.7500      0.0000    806.9911      4.1719     92.6815
   845.0000      0.0000    775.3956      4.1914     99.3410
   845.2500      0.0000    750.8625      4.1224    104.0270
   845.5000      0.0000    736.3556      3.9629    107.1149
   845.7500      0.0000    730.7368      3.7947    110.8021
   846.0000      0.0000    730.6301      3.7135    116.4308
   846.2500      0.0000    731.3323      3.7422    122.9859
   846.5000      0.0000    728.5558      3.8252    128.4884
   846.7500      0.0000    720.4291      3.8931    132.4188
   847.0000      0.0000    707.5929      3.9142    135.9467
   847.2500      0.0000    690.9947      3.8929    139.6317
   847.5000      0.0000    669.2420      3.8438    141.9880
   847.7500      0.0000    638.5035      3.7785    141.3244
   848.0000      0.0000    596.9932      3.7074    138.3630
   848.2500      0.0000    550.5111      3.6412    135.7554
   848.5000      0.0000    511.5811      3.5887    135.0847
   848.7500      0.0000    491.5284      3.5583    135.3110
   849.0000      0.0000    493.9481      3.5599    134.1848
   849.2500      0.0000    515.3155      3.6018    130.4273
   849.5000      0.0000    548.8622      3.6824    124.3822
   849.7500      0.0000    586.6099      3.7836    117.2118
   850.0000      0.0000    620.5633      3.8706    110.0016
   850.2500      0.0000    645.3362      3.9086    103.5256
   850.5000      0.0000    660.0012      3.8849     98.5152
   850.7500      0.0000    666.4230      3.8140     95.9385
   851.0000      0.0000    666.5052      3.7211     96.9258
   851.2500      0.0000    661.5363      3.6253    102.2006
   851.5000      0.0000    653.2623      3.5395    111.3122
   851.7500      0.0000    645.0236      3.4737    122.2973
   852.0000      0.0000    642.0374      3.4328    132.3816
   852.2500      0.0000    649.3701      3.4144    139.4767
   852.5000      0.0000    667.6414      3.4105    143.4127
   852.7500      0.0000    690.5743      3.4128    145.8107
   853.0000      0.0000    707.7199      3.4173    148.5961
   853.2500      0.0000    710.1338      3.4251    152.4128
   853.5000      0.0000    695.5076      3.4392    156.2138
   853.7500      0.0000    671.2426      3.4608    158.2778
   854.0000      0.0000    652.3237      3.4887    157.8463
   854.2500      0.0000    651.4428      3.5187    155.9777
   854.5000      0.0000    668.4970      3.5430    154.8215
   854.7500      0.0000    691.3054      3.5534    156.1479
   855.0000      0.0000    707.2197      3.5485    160.6151
   855.2500      0.0000    712.3445      3.5319    167.6771
   855.5000      0.0000    710.5106      3.5039    175.3541
   855.7500      0.0000    706.9597      3.4599    180.6525
   856.0000      0.0000    704.4371      3.4002    181.4657
   856.2500      0.0000    703.3481      3.3388    178.2874
   856.5000      0.0000    703.3922      3.2975    173.6949
   856.7500      0.0000    704.6091      3.2909    170.1402
   857.0000      0.0000    707.4253      3.3156    168.2197
   857.2500      0.0000    712.1284      3.3535    166.6501
   857.5000      0.0000    718.4102      3.3841    163.7564
   857.7500      0.0000    725.4562      3.3972    159.2556
   858.0000      0.0000    732.3703      3.3952    154.5667
   858.2500      0.0000    738.2358      3.3860    151.1429
   858.5000      0.0000    741.8480      3.3729    148.8662
   858.7500      0.0000    742.0342      3.3558    146.6843
   859.0000      0.0000    738.6560      3.3409    144.5259
   859.2500      0.0000    732.7000      3.3415    143.5818
   859.5000      0.0000    723.8240      3.3650    144.6340
   859.7500      0.0000    707.2619      3.4035    146.8804
   860.0000      0.0000    675.4742      3.4423    148.7739
   860.2500      0.0000    625.8836      3.4753    149.5878
   860.5000      0.0000    566.7871      3.5092    149.7899
   860.7500      0.0000    513.3998      3.5523    150.1378
   861.0000      0.0000    477.5977      3.6014    150.7681
   861.2500      0.0000    461.8369      3.6404    151.0342
   861.5000      0.0000    461.1688      3.6517    150.1028
   861.7500      0.0000    468.7480      3.6327    148.0544
   862.0000      0.0000    480.1089      3.6012    146.5800
   862.2500      0.0000    494.6448      3.5818    147.9530
   862.5000      0.0000    514.1959      3.5844    152.7921
   862.7500      0.0000    540.1151      3.5985    159.1669
