~Version Information
VERS.                      2.0: CWLS Log ASCII Standard - VERSION 2.0
WRAP.                       NO: One line per depth step
~Well Information Block
STRT.FT               670.0000: 
STOP.FT              2110.0000: 
STEP.FT                 0.2500: 
NULL.                -999.2500: 
COMP.          Petrogulf Corporation: COMPANY
WELL.           Montoya 12-44R: WELL
FLD.           Purgatorie River: FIELD
LOC.           713' FSL & 798' FEL: LOCATION
PROV.                 Colorado: PROVINCE
CNTY.               Las Animas: COUNTRY
SRVC.                Patterson: SERVICE COMPANY
DATE.          Sun Oct 02 01:06:45 2005: LOG DATE
UWI.           05-071-08538               : UNIQUE WELL ID
~Curve Information Block
DEPT.FT            0 000 00 00: Depth
SP.mV                         : DIL Spontaneous Potential
RILD.Ohm-m                    : DIL Deep Resistivity
RILM.Ohm-m                    : DIL Medium Resistivity
RLL3.Ohm-m                    : DIL Shallow Resistivity
GR.GAPI                       : Gamma Ray
~Parameter Information Block
~A  Depth        SP         RILD        RILM        RLL3         GR     
# ...
  1146.0000    164.5902     27.9178     28.7755    117.9514     49.1156
  1146.2500    165.5342     27.2677     26.8892     70.8604     57.4149
  1146.5000    166.3015     26.5597     25.2786     42.7537     74.4161
  1146.7500    166.8618     25.7378     23.9327     29.1229     87.4725
  1147.0000    167.2317     24.8023     22.8049     24.1099    106.3009
  1147.2500    167.4524     23.8007     21.8377     23.3367    116.5466
  1147.5000    167.5607     22.8034     20.9805     24.2745    127.0018
  1147.7500    167.5696     21.8795     20.2008     25.5335    130.8930
  1148.0000    167.4650     21.0781     19.4881     26.2464    133.4065
  1148.2500    167.2152     20.4212     18.8497     25.9175    133.8416
  1148.5000    166.7881     19.9045     18.3021     24.5268    134.3779
  1148.7500    166.1710     19.5046     17.8615     22.5390    135.3190
  1149.0000    165.3842     19.1880     17.5351     20.6798    137.4423
  1149.2500    164.4798     18.9217     17.3172     19.6128    138.8087
  1149.5000    163.5226     18.6813     17.1878     19.7009    140.2409
  1149.7500    162.5617     18.4548     17.1159     20.9086    140.5409
  1150.0000    161.6102     18.2431     17.0653     22.8113    138.8510
  1150.2500    160.6404     18.0570     17.0036     24.7057    135.6195
  1150.5000    159.5956     17.9145     16.9115     25.8459    128.5656
  1150.7500    158.4081     17.8362     16.7887     25.7646    124.3127
  1151.0000    157.0163     17.8403     16.6533     24.5013    121.6464
  1151.2500    155.3777     17.9368     16.5359     22.5560    122.5661
  1151.5000    153.4845     18.1228     16.4707     20.5943    125.9558
  1151.7500    151.3802     18.3810     16.4877     19.1448    128.1923
  1152.0000    149.1642     18.6829     16.6076     18.4815    130.4731
  1152.2500    146.9657     18.9974     16.8401     18.6659    131.3199
  1152.5000    144.8941     19.3025     17.1845     19.6231    131.7477
  1152.7500    143.0000     19.5936     17.6316     21.2061    131.2985
  1153.0000    141.2701     19.8850     18.1670     23.2622    128.8972
  1153.2500    139.6482     20.2025     18.7746     25.6671    125.9988
  1153.5000    138.0598     20.5755     19.4395     28.2717    120.5449
  1153.7500    136.4296     21.0308     20.1512     30.8265    117.0827
  1154.0000    134.6983     21.5896     20.9048     33.0325    113.0018
  1154.2500    132.8384     22.2653     21.7012     34.7003    110.7862
  1154.5000    130.8645     23.0617     22.5462     35.8148    107.7998
  1154.7500    128.8254     23.9716     23.4487     36.4594    106.4419
  1155.0000    126.7823     24.9784     24.4180     36.8060    106.4720
  1155.2500    124.7861     26.0603     25.4616     37.2409    107.9016
  1155.5000    122.8659     27.1949     26.5825     38.3745    110.8380
  1155.7500    121.0298     28.3610     27.7778     40.7293    112.3828
  1156.0000    119.2739     29.5359     29.0394     44.3066    113.2434
  1156.2500    117.5947     30.6947     30.3572     48.4470    112.8338
  1156.5000    116.0047     31.8158     31.7228     52.1802    111.0287
  1156.7500    114.5396     32.8927     33.1341     54.8335    109.2022
  1157.0000    113.2514     33.9424     34.5966     56.4411    105.8385
  1157.2500    112.1902     34.9986     36.1219     57.6682    103.4020
  1157.5000    111.3855     36.0922     37.7231     59.3380     99.9124
  1157.7500    110.8371     37.2312     39.4094     61.9211     97.9497
  1158.0000    110.5167     38.3938     41.1814     65.4079     95.5184
  1158.2500    110.3815     39.5402     43.0293     69.7295     93.7688
  1158.5000    110.3925     40.6353     44.9331     75.2892     90.0734
  1158.7500    110.5327     41.6685     46.8658     82.8478     86.9952
  1159.0000    110.8103     42.6616     48.7972     92.6803     82.6177
  1159.2500    111.2479     43.6616     50.6993    103.8815     80.4080
  1159.5000    111.8659     44.7221     52.5502    114.5074     78.1471
  1159.7500    112.6737     45.8764     54.3367    122.2290     77.0374
  1160.0000    113.6703     47.1069     56.0533    125.0613     75.5646
  1160.2500    114.8465     48.3319     57.6946    122.3262     74.6024
  1160.5000    116.1881     49.4267     59.2441    115.5737     73.1926
  1160.7500    117.6802     50.2744     60.6624    108.2455     72.3915
  1161.0000    119.3140     50.8123     61.8790    103.5967     71.6762
  1161.2500    121.0876     51.0444     62.7961    102.4560     71.5596
  1161.5000    122.9962     51.0199     63.3044    103.0103     71.5933
  1161.7500    125.0206     50.8031     63.3077    102.8413     71.5264
  1162.0000    127.1251     50.4490     62.7516    101.0535     71.4627
  1162.2500    129.2640     49.9891     61.6407     98.3867     71.8714
  1162.5000    131.3884     49.4333     60.0425     95.7480     73.5827
  1162.7500    133.4511     48.7920     58.0745     93.3152     75.2795
  1163.0000    135.4130     48.1027     55.8818     90.9971     78.2710
  1163.2500    137.2530     47.4312     53.6155     88.8959     80.5409
  1163.5000    138.9708     46.8412     51.4159     86.7805     84.2404
  1163.7500    140.5768     46.3540     49.4013     83.5105     86.6444
  1164.0000    142.0771     45.9284     47.6610     77.6653     89.8004
  1164.2500    143.4689     45.4719     46.2476     69.0010     91.6476
  1164.5000    144.7502     44.8739     45.1690     59.1688     94.5016
  1164.7500    145.9344     44.0451     44.3802     50.8717     96.8017
  1165.0000    147.0562     42.9455     43.7777     46.2668    101.0451
  1165.2500    148.1654     41.5863     43.2043     45.9776    104.1675
  1165.5000    149.3148     40.0122     42.4719     49.1635    108.7329
  1165.7500    150.5480     38.2810     41.4064     54.0963    111.5000
  1166.0000    151.8900     36.4603     39.9046     58.7240    114.8192
  1166.2500    153.3412     34.6321     37.9743     61.2245    116.0813
  1166.5000    154.8754     32.8876     35.7315     60.5970    116.2680
  1166.7500    156.4413     31.3057     33.3559     56.9563    115.6543
  1167.0000    157.9646     29.9271     31.0304     51.2094    114.7879
  1167.2500    159.3563     28.7427     28.8979     44.4128    114.8279
  1167.5000    160.5311     27.7036     27.0444     37.4375    116.7536
  1167.7500    161.4299     26.7446     25.5027     31.0647    119.7380
  1168.0000    162.0348     25.8070     24.2640     26.0621    126.3186
  1168.2500    162.3686     24.8517     23.2907     22.9768    130.8625
  1168.5000    162.4852     23.8627     22.5266     21.9073    135.5808
  1168.7500    162.4558     22.8486     21.9050     22.5401    136.8952
  1169.0000    162.3505     21.8419     21.3587     24.3299    137.1023
  1169.2500    162.2132     20.8914     20.8296     26.5808    136.9112
  1169.5000    162.0448     20.0478     20.2793     28.4674    137.0102
  1169.7500    161.8150     19.3485     19.6956     29.2141    137.4631
  1170.0000    161.5010     18.8109     19.0913     28.4479    138.7357
  1170.2500    161.1158     18.4347     18.4971     26.4308    140.1759
  1170.5000    160.7004     18.2082     17.9499     23.9098    143.8343
  1170.7500    160.2928     18.1135     17.4844     21.6719    147.2393
  1171.0000    159.9047     18.1284     17.1268     20.1651    152.4389
  1171.2500    159.5159     18.2269     16.8937     19.4371    154.9416
  1171.5000    159.0811     18.3822     16.7931     19.3265    156.5700
  1171.7500    158.5420     18.5727     16.8258     19.7056    156.6416
  1172.0000    157.8428     18.7900     16.9877     20.6272    156.6350
  1172.2500    156.9454     19.0454     17.2723     22.3058    157.2272
  1172.5000    155.8428     19.3705     17.6739     24.8885    158.5110
  1172.7500    154.5632     19.8090     18.1919     28.0850    158.1127
  1173.0000    153.1717     20.4034     18.8356     31.0331    152.8929
  1173.2500    151.7673     21.1830     19.6286     32.9088    146.2378
  1173.5000    150.4733     22.1615     20.6109     34.3115    134.5424
  1173.7500    149.4118     23.3432     21.8388     38.6247    127.9887
