~Version Information
 VERS.                                  2.0 : CWLS LAS VERSION
 WRAP.                                   NO : WRAPING MODE
 SWARE .                 MController 2.5.0J : SOFTWARE VERSION
~Well Information
 WELL.                     McDonald 33-31 R : WELL
 COMP.  Pioneer Natural Resources USA, Inc. : COMPANY
 FLD.                      Purgatoire River : FIELD
 LOC.                NW/SE Sec 31 T32S R66W : LOCATION
 DATE.                             09/22/05 : DATE(S) LOGGED
 SRVC.       BLANCO Geological Services LLC : SERVICE COMPANY
 STAT.                                   CO : STATE
 CNTY.                           Las Animas : COUNTY
 CTRY.                                  USA : COUNTRY
 API.                       05-071-08533-00 : API NUMBER
 STRT.FT                             377.00 : START DEPTH
 STOP.FT                            2310.00 : STOP DEPTH
 STEP.FT                               1.00 : DEPTH INCREMENT
 NULL.                                -9999 : NULL VALUE
~Curve information
 DEPTH.FT                                   :
 ROP.MIN/FT                                 :
 GAS.UNITS                                  :
~ASCII Log data
# ...
       577.0         0.10         21.0 
       578.0         0.13         22.1 
       579.0         0.17         22.9 
       580.0         0.20         23.0 
       581.0         0.23         22.6 
       582.0         0.23         22.5 
       583.0         0.30         22.0 
       584.0         0.30         20.0 
       585.0         0.33         18.8 
       586.0         0.33         16.2 
       587.0         0.25         15.1 
       588.0         0.30         14.3 
       589.0         0.33         14.6 
       590.0         0.30         13.2 
       591.0         0.27         13.2 
       592.0         0.23         12.2 
       593.0         0.27         12.0 
       594.0         0.27         11.2 
       595.0         0.27         10.8 
       596.0         0.33         10.4 
       597.0         0.32         10.1 
       598.0         0.23         10.5 
       599.0         0.23         10.5 
       600.0         1.97         10.9 
       601.0         0.30          3.0 
       602.0         0.13          2.8 
       603.0         0.22          3.5 
       604.0         0.27          4.4 
       605.0         0.23          5.2 
       606.0         0.20          5.9 
       607.0         0.23          6.0 
       608.0         0.17          7.1 
       609.0         0.20          8.1 
       610.0         0.20          8.5 
       611.0         0.23          9.2 
       612.0         0.20          9.6 
       613.0         0.23          9.8 
       614.0         0.23         10.1 
       615.0         0.17          9.8 
       616.0         0.13          9.4 
       617.0         0.13          9.7 
       618.0         0.10          9.1 
       619.0         0.22          8.5 
       620.0         0.23          8.3 
       621.0         0.20          7.6 
       622.0         0.17          8.0 
       623.0         0.17          7.8 
       624.0         0.23          7.6 
       625.0         0.23          7.1 
       626.0         0.13          7.4 
       627.0         0.13          6.7 
       628.0         0.13          6.5 
       629.0         0.17          6.5 
       630.0         2.52          6.0 
       631.0         0.33          0.3 
       632.0         0.27         35.2 
       633.0         0.40        125.0 
       634.0         0.33        130.4 
       635.0         0.20        130.3 
       636.0         0.23        130.1 
       637.0         0.28        131.5 
       638.0         0.30        133.1 
       639.0         0.20        132.9 
       640.0         0.17        130.4 
       641.0         0.20        129.6 
       642.0         0.20        142.5 
       643.0         0.17        148.2 
       644.0         0.17        148.3 
       645.0         0.13        146.0 
       646.0         0.30        142.6 
       647.0         0.23        138.0 
       648.0         0.23        136.5 
       649.0         0.23        134.8 
       650.0         0.23        134.6 
       651.0         0.22        134.7 
       652.0         0.17        134.8 
       653.0         0.17        134.6 
       654.0         0.23        134.5 
       655.0         0.23        133.9 
       656.0         0.23        132.4 
       657.0         0.23        124.2 
       658.0         0.23         97.6 
       659.0         0.23         85.0 
       660.0         1.82       1115.4 
       661.0         0.30        664.8 
       662.0         0.33        536.8 
       663.0         0.30        467.3 
       664.0         0.27        442.9 
       665.0         0.27        440.0 
       666.0         0.27        139.4 
       667.0         0.32        133.8 
       668.0         0.23        132.8 
       669.0         0.23        133.0 
       670.0         0.23        132.3 
       671.0         0.27        129.8 
       672.0         0.27        126.6 
       673.0         0.23        126.3 
       674.0         0.20        125.7 
       675.0         0.23        125.9 
       676.0         0.20        125.6 
       677.0         0.23        126.2 
       678.0         0.20        126.9 
       679.0         0.17        127.2 
       680.0         0.17        127.0 
       681.0         0.38        127.3 
       682.0         0.23        127.4 
       683.0         0.20        127.4 
       684.0         0.27        127.0 
       685.0         0.23        126.7 
       686.0         0.23        126.6 
       687.0         0.27        125.7 
       688.0         0.23        109.5 
       689.0         0.23         95.8 
       690.0         2.15       1100.8 
       691.0         0.37        605.4 
       692.0         0.37        498.4 
       693.0         0.30        448.0 
       694.0         0.27        440.0 
       695.0         0.28        133.7 
       696.0         0.27        126.9 
       697.0         0.27        123.7 
       698.0         0.23        140.5 
       699.0         0.23        189.1 
       700.0         0.23        194.9 
       701.0         0.13        191.3 
       702.0         0.13        187.7 
       703.0         0.13        181.8 
       704.0         0.13        176.9 
       705.0         0.13        172.3 
       706.0         0.13        168.0 
       707.0         0.17        164.0 
       708.0         0.23        159.9 
       709.0         0.17        156.1 
       710.0         0.20        154.1 
       711.0         0.18        152.0 
       712.0         0.20        147.7 
       713.0         0.17        145.1 
       714.0         0.20        147.6 
       715.0         0.17        150.7 
       716.0         0.17        151.5 
       717.0         0.17        153.4 
       718.0         0.17        154.7 
       719.0         0.17        154.7 
       720.0         2.28        263.7 
       721.0         0.33        263.0 
       722.0         0.43        250.0 
       723.0         0.33        203.7 
       724.0         0.30        166.2 
       725.0         0.28        148.2 
       726.0         0.17        134.7 
       727.0         0.13        129.3 
       728.0         0.17        124.5 
       729.0         0.17        118.1 
       730.0         0.17        112.7 
       731.0         0.23        106.9 
       732.0         0.23         98.5 
       733.0         0.30         90.4 
       734.0         0.37         84.0 
       735.0         0.33         78.9 
       736.0         0.27         76.4 
       737.0         0.23         75.5 
       738.0         0.23         75.7 
       739.0         0.25         75.4 
       740.0         0.20         74.5 
       741.0         0.23         75.3 
       742.0         0.23         75.3 
       743.0         0.23         73.9 
       744.0         0.20         71.2 
       745.0         0.23         69.2 
       746.0         0.23         67.6 
       747.0         0.20         63.1 
       748.0         0.30         56.6 
       749.0         0.30         39.8 
       750.0         2.18         40.9 
       751.0         0.23         41.6 
       752.0         0.17         39.0 
       753.0         0.20         36.0 
       754.0         0.40         33.6 
       755.0         0.55         29.7 
       756.0         0.47         28.3 
       757.0         0.20         28.9 
       758.0         0.23         29.9 
       759.0         0.23         31.1 
       760.0         0.27         32.2 
       761.0         0.17         31.9 
       762.0         0.20         30.4 
       763.0         0.13         30.1 
       764.0         0.17         31.2 
       765.0         0.13         33.3 
       766.0         0.23         34.6 
       767.0         0.20         34.5 
       768.0         0.18         33.4 
       769.0         0.13         31.3 
       770.0         0.23         30.0 
       771.0         0.30         28.5 
       772.0         0.27         28.2 
       773.0         0.23         28.0 
       774.0         0.27         26.1 
       775.0         0.27         23.8 
       776.0         0.27         20.7 
