~Version Information
VERS.                      2.0: CWLS Log ASCII Standard - VERSION 2.0
WRAP.                       NO: One line per depth step
~Well Information Block
STRT.FT               680.0000: 
STOP.FT              1585.5000: 
STEP.FT                 0.1000: 
NULL.                -999.2500: 
COMP.          Pioneer Natural Resources: COMPANY
WELL.          Screamin' 12-29: WELL
FLD.           Purgatoire River: FIELD
LOC.           2038' FNL & 612' FWL: LOCATION
CNTY.               Las Animas: COUNTY
SRVC.                Patterson: SERVICE COMPANY
DATE.          Wed Mar 29 10:01:18 2006: LOG DATE
UWI.           05 071 08661 00: UNIQUE WELL ID
STAT.                 Colorado: STATE
~Curve Information Block
DEPT.FT            0 000 00 00: Depth
DCAL.in                       : CDL Caliper
RHOB.g/cc                     : CDL Bulk Density
RHOC.g/cc                     : CDL Density Correction
DPOR.pu                       : CDL Density Porosity
GR.GAPI                       : Gamma Ray
NPOR.pu                       : Neutron Porosity
~Parameter Information Block
~A  Depth       DCAL        RHOB        RHOC        DPOR         GR         NPOR    
# ...
   737.6000      7.9600      2.5281      0.1831      7.3902    143.7628     28.6651
   737.7000      7.9600      2.5233      0.1316      7.6814    146.7349     28.9424
   737.8000      7.9587      2.5031      0.1511      8.9041    151.3096     28.6343
   737.9000      7.9587      2.4726      0.1118     10.7488    153.6959     28.4360
   738.0000      7.9573      2.4440      0.1149     12.4864    155.7072     28.6224
   738.1000      7.9573      2.4311      0.0635     13.2680    155.0806     29.1391
   738.2000      7.9573      2.4425      0.0617     12.5733    148.9040     29.8275
   738.3000      7.9565      2.4757      0.0709     10.5651    141.9368     30.4552
   738.4000      7.9565      2.5192      0.1361      7.9254    141.6735     31.0370
   738.5000      7.9569      2.5682      0.1579      4.9602    148.8013     31.3861
   738.6000      7.9569      2.6162      0.2427      2.0475    155.9448     31.3421
   738.7000      7.9569      2.6468      0.2554      0.1966    156.9506     31.3665
   738.8000      7.9582      2.6533      0.2193     -0.1979    152.7360     31.7205
   738.9000      7.9582      2.6457      0.1927      0.2578    147.7785     32.2122
   739.0000      7.9585      2.6353      0.1349      0.8939    145.8297     32.7252
   739.1000      7.9585      2.6303      0.1101      1.1947    145.7788     33.2758
   739.2000      7.9585      2.6359      0.1073      0.8570    142.0383     33.8174
   739.3000      7.9571      2.6550      0.0831     -0.3010    133.3285     34.1240
   739.4000      7.9571      2.6877      0.0842     -2.2863    126.0277     33.9978
   739.5000      7.9563      2.7223      0.1134     -4.3798    124.5127     33.3434
   739.6000      7.9563      2.7399      0.1525     -5.4505    127.9011     32.1606
   739.7000      7.9563      2.7405      0.0743     -5.4828    131.0709     31.0279
   739.8000      7.9584      2.7396      0.0977     -5.4273    129.6658     30.6211
   739.9000      7.9584      2.7376      0.1184     -5.3085    126.2923     30.6499
   740.0000      7.9603      2.7259      0.0986     -4.6003    126.9398     30.2675
   740.1000      7.9603      2.7086      0.0847     -3.5544    130.1348     29.2980
   740.2000      7.9603      2.6902      0.0949     -2.4389    126.6018     28.1687
   740.3000      7.9574      2.6637      0.0807     -0.8311    116.8259     27.3127
   740.4000      7.9574      2.6243      0.0781      1.5557    111.8081     26.8445
   740.5000      7.9561      2.5821     -0.0035      4.1176    114.7783     26.5791
   740.6000      7.9561      2.5538      0.0178      5.8332    122.2170     26.3948
   740.7000      7.9561      2.5453      0.0324      6.3447    131.0363     26.0458
   740.8000      7.9572      2.5480      0.0831      6.1824    136.6824     25.5338
   740.9000      7.9572      2.5471      0.0887      6.2355    139.6161     25.3076
   741.0000      7.9570      2.5346      0.1035      6.9923    143.3527     25.2617
   741.1000      7.9570      2.5171      0.0983      8.0531    146.5507     24.9358
   741.2000      7.9570      2.5090      0.0672      8.5471    149.8993     24.5152
   741.3000      7.9561      2.5121      0.1149      8.3597    153.8331     24.6941
   741.4000      7.9561      2.5145      0.1111      8.2114    155.0481     25.4021
   741.5000      7.9563      2.5108      0.1315      8.4383    155.7608     25.9224
   741.6000      7.9563      2.5067      0.1411      8.6822    159.3668     26.4164
   741.7000      7.9563      2.5049      0.1184      8.7934    163.2524     27.3455
   741.8000      7.9577      2.5019      0.0999      8.9760    165.3300     28.3254
   741.9000      7.9577      2.5032      0.1009      8.8971    165.8672     29.0293
   742.0000      7.9572      2.5172      0.1183      8.0480    165.9354     29.5597
   742.1000      7.9572      2.5450      0.1591      6.3616    166.5550     29.8145
   742.2000      7.9572      2.5867      0.1605      3.8375    166.2410     29.8596
   742.3000      7.9552      2.6337      0.1979      0.9860    163.9064     30.0125
   742.4000      7.9552      2.6639      0.2248     -0.8406    162.0982     30.3632
   742.5000      7.9577      2.6705      0.1853     -1.2437    162.6288     30.7706
   742.6000      7.9577      2.6714      0.1477     -1.2976    164.0736     31.1004
   742.7000      7.9577      2.6788      0.1403     -1.7476    165.6248     31.2187
   742.8000      7.9650      2.6907      0.1329     -2.4674    162.2729     31.1936
   742.9000      7.9650      2.6981      0.1217     -2.9164    151.7584     31.3811
   743.0000      7.9696      2.6979      0.0588     -2.9024    144.9972     31.7672
   743.1000      7.9696      2.6936      0.0531     -2.6429    147.5598     31.8279
   743.2000      7.9696      2.6798      0.0676     -1.8043    152.8358     31.4101
   743.3000      7.9705      2.6551     -0.0245     -0.3083    155.9970     30.7350
   743.4000      7.9705      2.6300     -0.0127      1.2103    156.4705     30.1961
   743.5000      7.9706      2.6063     -0.0332      2.6466    151.8907     30.1429
   743.6000      7.9706      2.5787     -0.0026      4.3234    143.7051     30.2810
   743.7000      7.9706      2.5552     -0.0674      5.7466    136.0141     29.9275
   743.8000      7.9702      2.5506     -0.0200      6.0237    130.2955     29.3319
   743.9000      7.9702      2.5575     -0.0041      5.6089    129.2502     29.5755
   744.0000      7.9700      2.5593     -0.0231      5.4985    134.7428     30.1855
   744.1000      7.9700      2.5549     -0.0194      5.7638    141.3659     29.9423
   744.2000      7.9700      2.5493      0.0339      6.1022    143.0647     29.3693
   744.3000      7.9703      2.5394      0.0181      6.7010    143.3868     29.3863
   744.4000      7.9703      2.5180      0.0021      7.9988    147.7074     29.3941
   744.5000      7.9723      2.4887     -0.0019      9.7743    151.9508     28.3457
   744.6000      7.9723      2.4735     -0.0901     10.6945    148.5156     26.5452
   744.7000      7.9723      2.4829     -0.0013     10.1281    139.3412     25.0811
   744.8000      7.9744      2.4929      0.0028      9.5198    134.2781     24.2076
   744.9000      7.9744      2.4827     -0.0126     10.1409    140.1176     23.5422
   745.0000      7.9763      2.4564     -0.0137     11.7331    152.6808     23.1933
   745.1000      7.9763      2.4335     -0.0446     13.1208    160.5933     23.1423
   745.2000      7.9763      2.4317     -0.0322     13.2307    158.1440     22.8845
   745.3000      7.9779      2.4431      0.0346     12.5399    151.7981     22.3054
   745.4000      7.9779      2.4436      0.0152     12.5115    151.4384     21.9487
   745.5000      7.9776      2.4267      0.0271     13.5362    156.9990     22.3031
   745.6000      7.9776      2.4044     -0.0191     14.8829    158.0797     22.8698
   745.7000      7.9776      2.3898      0.0130     15.7703    150.4731     23.2861
   745.8000      7.9722      2.3758      0.0431     16.6153    140.6067     24.0007
   745.9000      7.9722      2.3474      0.0330     18.3380    133.0296     24.9469
   746.0000      7.9504      2.3203     -0.0034     19.9814    129.2898     25.4418
   746.1000      7.9504      2.3249      0.0685     19.7057    128.7006     25.3256
   746.2000      7.9504      2.3622      0.0493     17.4449    128.2692     24.9241
   746.3000      7.9136      2.4101      0.1145     14.5375    127.0882     24.5128
   746.4000      7.9136      2.4536      0.0836     11.9044    126.4961     24.3233
   746.5000      7.8903      2.4911      0.1166      9.6274    126.7444     24.5780
   746.6000      7.8903      2.5098      0.1872      8.4975    126.0682     24.9832
   746.7000      7.8903      2.4981      0.1347      9.2060    123.3259     25.0171
   746.8000      7.8833      2.4826      0.0915     10.1429    122.4599     24.5713
   746.9000      7.8833      2.4910      0.1653      9.6359    125.8091     24.1566
   747.0000      7.8797      2.5127      0.1485      8.3220    129.0029     24.4206
   747.1000      7.8797      2.5256      0.1258      7.5365    127.9972     25.0819
