~Version Information
VERS.                      2.0: CWLS Log ASCII Standard - VERSION 2.0
WRAP.                       NO: One line per depth step
~Well Information Block
STRT.FT                -7.7500: 
STOP.FT              1793.5000: 
STEP.FT                 0.2500: 
NULL.                -999.2500: 
COMP.          Pioneer Natural Resources: COMPANY
WELL.           Loews 41-32 Tr: WELL
FLD.           Purgatorie River: FIELD
LOC.           706' FNL & 224' FEL--: LOCATION
CNTY.               Las Animas: COUNTY
SRVC.          Patterson Wireline: SERVICE COMPANY
DATE.          Fri Feb 24 11:31:48 2006: LOG DATE
UWI.           05 071 08690 00: UNIQUE WELL ID
STAT.                       CO: STATE
~Curve Information Block
DEPT.FT            0 000 00 00: Depth
CCL.                          : Casing Collar Locator
TT3.usec                      : CBL 3' Travel Time
AMP3.mV                       : CBL 3' Amplitude
GR.GAPI                       : Gamma Ray
~Parameter Information Block
~A  Depth       CCL         TT3         AMP3         GR     
# ...
   461.2500      0.0000    570.3328     15.6526     50.0112
   461.5000      0.0000    511.2808     15.7589     50.2988
   461.7500      0.0000    455.3058     15.8919     50.8329
   462.0000      0.0000    408.8287     16.0222     53.0849
   462.2500      0.0000    376.5044     16.1489     57.4792
   462.5000      0.0000    358.3659     16.2873     62.7602
   462.7500      0.0000    350.2880     16.4434     66.6607
   463.0000      0.0000    347.3881     16.6029     67.5629
   463.2500      0.0000    346.5139     16.7421     65.7389
   463.5000      0.0000    346.4574     16.8353     62.9569
   463.7500      0.0000    347.1467     16.8569     60.9121
   464.0000      0.0000    348.8534     16.7983     60.1085
   464.2500      0.0000    351.3992     16.6903     60.1027
   464.5000      0.0000    353.7575     16.5900     60.4968
   464.7500      0.0000    354.5190     16.5402     61.4400
   465.0000      0.0000    353.1237     16.5455     63.3104
   465.2500      0.0000    350.4984     16.5845     66.2048
   465.5000      0.0000    348.5500     16.6318     69.6507
   465.7500      0.0000    349.5536     16.6651     72.6099
   466.0000      0.0000    356.4110     16.6655     73.9987
   466.2500      0.0000    372.1723     16.6214     73.4474
   466.5000      0.0000    396.8336     16.5359     71.4339
   466.7500      0.0000    424.1058     16.4321     68.8418
   467.0000      0.0000    445.3216     16.3475     66.7122
   467.2500      0.0000    460.2658     16.3119     66.0507
   467.5000      0.0000    481.2258     16.3238     67.3082
   467.7500      0.0000    521.0857     16.3488     70.0805
   468.0000      0.0000    578.3304     16.3459     73.5454
   468.2500      0.0000    637.4550     16.2972     77.0998
   468.5000      0.0000    682.8090     16.2165     80.4102
   468.7500      0.0000    709.1548     16.1301     82.9115
   469.0000      0.0000    720.9158     16.0483     83.5404
   469.2500      0.0000    725.5577     15.9532     81.3122
   469.5000      0.0000    728.3884     15.8142     76.3278
   469.7500      0.0000    731.1734     15.6146     70.0611
   470.0000      0.0000    733.5857     15.3640     64.4973
   470.2500      0.0000    735.0854     15.0886     61.0013
   470.5000      0.0000    735.7020     14.8182     59.9244
   470.7500      0.0000    735.7850     14.5830     60.9794
   471.0000      0.0000    735.6480     14.4167     63.5589
   471.2500      0.0000    735.4597     14.3484     66.4538
   471.5000      0.0000    735.2931     14.3831     67.7882
   471.7500      0.0000    735.1713     14.4895     66.1344
   472.0000      0.0000    735.0897     14.6095     61.8581
   472.2500      0.0000    735.0327     14.6845     56.9436
   472.5000      0.0000    735.0270     14.6838     53.3630
   472.7500      0.0000    735.2099     14.6186     51.7339
   473.0000      0.0000    735.8762     14.5272     51.3518
   473.2500      0.0000    737.3730     14.4419     51.0187
   473.5000      0.0000    739.7346     14.3738     49.6508
   473.7500      0.0000    742.2988     14.3272     46.5807
   474.0000      0.0000    743.9138     14.3102     42.1265
   474.2500      0.0000    743.8712     14.3230     38.0985
   474.5000      0.0000    742.6767     14.3471     37.1312
   474.7500      0.0000    741.8130     14.3549     41.0759
   475.0000      0.0000    742.7859     14.3253     50.1721
   475.2500      0.0000    746.1156     14.2487     63.3915
   475.5000      0.0000    750.6660     14.1291     78.7205
   475.7500      0.0000    753.9594     13.9839     93.2062
   476.0000      0.0000    753.8733     13.8299    103.8424
   476.2500      0.0000    750.4129     13.6683    109.1663
   476.5000      0.0000    745.5967     13.4952    109.9075
   476.7500      0.0000    741.6592     13.3253    107.9498
   477.0000      0.0000    739.7174     13.1877    104.7436
   477.2500      0.0000    739.9761     13.0986    100.6064
   477.5000      0.0000    742.5109     13.0460     95.2920
   477.7500      0.0000    747.3429     13.0024     89.0370
   478.0000      0.0000    753.6683     12.9416     82.8678
   478.2500      0.0000    759.3341     12.8467     78.0182
   478.5000      0.0000    761.7354     12.7086     75.3669
   478.7500      0.0000    759.7670     12.5249     75.1883
   479.0000      0.0000    754.9113     12.3026     77.0178
   479.2500      0.0000    750.1411     12.0657     79.8353
   479.5000      0.0000    747.5743     11.8564     82.6694
   479.7500      0.0000    747.0524     11.7169     85.0478
   480.0000      0.0000    746.8350     11.6644     86.8333
   480.2500      0.0000    745.5315     11.6826     87.8512
   480.5000      0.0000    743.2548     11.7341     87.7441
   480.7500      0.0000    741.0134     11.7808     86.1923
   481.0000      0.0000    739.3777     11.7953     83.5970
   481.2500      0.0000    737.8873     11.7657     81.5764
   481.5000      0.0000    735.5265     11.6955     82.0630
   481.7500      0.0000    731.7960     11.6061     85.4384
   482.0000      0.0000    727.8539     11.5281     89.9487
   482.2500      0.0000    726.6924     11.4591     93.3924
   482.5000      0.0000    731.1593     11.3123     95.1123
   482.7500      0.0000    740.8310     10.9544     95.8570
   483.0000      0.0000    751.4410     10.3595     96.0148
   483.2500      0.0000    758.4838      9.7010     94.9141
   483.5000      0.0000    761.1150      9.2233     92.0689
   483.7500      0.0000    761.7370      9.0348     88.3523
   484.0000      0.0000    762.9608      9.0593     85.4156
   484.2500      2.0000    766.1291      9.1515     84.2764
   484.5000      0.0000    770.8509      9.2243     84.7984
   484.7500      0.0000    772.7509      9.3294     86.2760
   485.0000      0.0000    763.2707      9.6689     88.1242
   485.2500      0.0000    737.3353     10.4480     90.0305
   485.5000      0.0000    702.8860     11.5997     91.7441
   485.7500      0.0000    677.9642     12.7029     92.9687
   486.0000      0.0000    674.9320     13.3039     93.3327
   486.2500      0.0000    690.0063     13.3046     92.2810
   486.5000      0.0000    709.7579     12.9638     89.2336
   486.7500      0.0000    724.1232     12.5919     84.2816
   487.0000      0.0000    731.2205     12.3376     78.7776
   487.2500      0.0000    733.6401     12.2017     74.9263
   487.5000      0.0000    734.0737     12.1343     74.3491
   487.7500      0.0000    733.9114     12.0951     76.8247
   488.0000      0.0000    733.6491     12.0683     80.5531
   488.2500      0.0000    733.4127     12.0559     83.7475
   488.5000      0.0000    733.2515     12.0622     85.8054
   488.7500      0.0000    733.1712     12.0832     87.0919
   489.0000      0.0000    733.1534     12.1089     88.2631
   489.2500      0.0000    733.1616     12.1365     90.1427
   489.5000      0.0000    733.1610     12.1759     93.6857
   489.7500      0.0000    733.1423     12.2417     99.2250
   490.0000      0.0000    733.1293     12.3393    105.4609
   490.2500      0.0000    733.1586     12.4587    109.6980
   490.5000      0.0000    733.2506     12.5782    109.8060
   490.7500      0.0000    733.4004     12.6783    106.2063
   491.0000      0.0000    733.5865     12.7511    101.6581
   491.2500      0.0000    733.7819     12.8003     98.9226
   491.5000      0.0000    733.9616     12.8371     98.6279
   491.7500      0.0000    734.1162     12.8739     99.3736
   492.0000      0.0000    734.2339     12.9185     99.7514
   492.2500      0.0000    734.2258     12.9693     99.8332
   492.5000      0.0000    733.6190     13.0182    100.3862
   492.7500      0.0000    730.8374     13.0568    101.1618
   493.0000      0.0000    722.3134     13.0804    100.8303
   493.2500      0.0000    702.9705     13.0895     98.6427
   493.5000      0.0000    670.5035     13.0896     95.3877
   493.7500      0.0000    632.0674     13.0858     92.3202
   494.0000      0.0000    604.9128     13.0760     89.7578
   494.2500      0.0000    604.7632     13.0535     87.3107
   494.5000      0.0000    631.5786     13.0175     84.8584
