~Version Information
 VERS.                                  2.0 : CWLS LAS VERSION
 WRAP.                                   NO : WRAPING MODE
 SWARE .                 MController 2.5.0N : SOFTWARE VERSION
~Well Information
 WELL.                       Blue Sky 44-17 : WELL
 COMP.     Pioneer Natural Resource USA Inc : COMPANY
 FLD.                      Purgatoire River : FIELD
 LOC.                 SE/SE SEC17 T33S R66W : LOCATION
 DATE.                             09/07/05 : DATE(S) LOGGED
 SRVC.       Blanco Geological Services LLC : SERVICE COMPANY
 STAT.                             Colorado : STATE
 CNTY.                           Las Animas : COUNTY
 CTRY.                                  USA : COUNTRY
 API.                       05-071-08511-00 : API NUMBER
 STRT.FT                             434.00 : START DEPTH
 STOP.FT                            1625.00 : STOP DEPTH
 STEP.FT                               1.00 : DEPTH INCREMENT
 NULL.                                -9999 : NULL VALUE
~Curve information
 DEPTH.FT                                   :
 ROP.MIN/FT                                 :
 GAS.UNITS                                  :
~ASCII Log data
# ...
      1234.0         0.35         29.6 
      1235.0         0.27         34.9 
      1236.0         0.17         36.4 
      1237.0         0.27         36.9 
      1238.0         0.20         36.0 
      1239.0         0.20         34.2 
      1240.0         0.23         34.0 
      1241.0         0.27         33.3 
      1242.0         0.27         31.9 
      1243.0         0.23         30.5 
      1244.0         0.23         28.7 
      1245.0         0.23         27.4 
      1246.0         0.33         27.5 
      1247.0         0.37         27.2 
      1248.0         0.35         26.6 
      1249.0         0.30         26.4 
      1250.0         0.23         27.3 
      1251.0         0.30         27.4 
      1252.0         0.27         23.4 
      1253.0         0.23         22.6 
      1254.0         0.23         11.8 
      1255.0         0.23         11.2 
      1256.0         8.98        441.7 
      1257.0         0.33         35.1 
      1258.0         0.33         35.6 
      1259.0         0.37         34.5 
      1260.0         0.30         32.9 
      1261.0         0.30         32.8 
      1262.0         0.30         30.2 
      1263.0         0.27         29.9 
      1264.0         0.32         27.4 
      1265.0         0.27         27.3 
      1266.0         0.23         27.9 
      1267.0         0.23         31.2 
      1268.0         0.30         41.9 
      1269.0         0.23         41.5 
      1270.0         0.33         35.8 
      1271.0         0.43         30.2 
      1272.0         0.30         25.1 
      1273.0         0.23         24.8 
      1274.0         0.30         25.8 
      1275.0         0.32         25.8 
      1276.0         0.30         26.1 
      1277.0         0.30         26.4 
      1278.0         0.30         25.9 
      1279.0         0.27         26.3 
      1280.0         0.23         29.9 
      1281.0         0.23         28.1 
      1282.0         0.23         24.7 
      1283.0         0.20         17.9 
      1284.0         0.23         14.7 
      1285.0         0.17         14.7 
      1286.0         4.90        104.8 
      1287.0         0.43         40.3 
      1288.0         0.43         40.3 
      1289.0         0.40         33.0 
      1290.0         0.33         29.2 
      1291.0         0.37         27.5 
      1292.0         0.27         25.3 
      1293.0         0.33         25.8 
      1294.0         0.32         24.0 
      1295.0         0.23         23.9 
      1296.0         0.27         23.5 
      1297.0         0.30         23.4 
      1298.0         0.27         24.3 
      1299.0         0.27         23.5 
      1300.0         0.30         24.5 
      1301.0         0.23         23.1 
      1302.0         0.30         22.1 
      1303.0         0.27         22.9 
      1304.0         0.23         22.8 
      1305.0         0.17         24.7 
      1306.0         0.17         24.7 
      1307.0         0.22         26.0 
      1308.0         0.20         26.4 
      1309.0         0.23         28.3 
      1310.0         0.27         26.8 
      1311.0         0.20         23.4 
      1312.0         0.20         17.5 
      1313.0         0.17         17.5 
      1314.0         0.13         14.1 
      1315.0         0.27         12.6 
      1316.0         4.18         79.6 
      1317.0         0.27         32.5 
      1318.0         0.37         29.4 
      1319.0         0.35         27.1 
      1320.0         0.30         27.7 
      1321.0         0.33         26.5 
      1322.0         0.30         25.5 
      1323.0         0.40         24.9 
      1324.0         0.33         22.9 
      1325.0         0.33         21.6 
      1326.0         0.33         23.0 
      1327.0         0.33         21.9 
      1328.0         0.27         21.3 
      1329.0         0.32         20.3 
      1330.0         0.27         19.6 
      1331.0         0.30         20.0 
      1332.0         0.27         18.8 
      1333.0         0.27         19.9 
      1334.0         0.27         20.1 
      1335.0         0.27         20.3 
      1336.0         0.27         19.0 
      1337.0         0.27         20.5 
      1338.0         0.33         20.3 
      1339.0         0.30         20.7 
      1340.0         0.27         20.9 
      1341.0         0.35         20.6 
      1342.0         0.30         20.3 
      1343.0         0.30         19.6 
      1344.0         0.27         14.5 
      1345.0         0.30         11.7 
      1346.0         4.65         84.4 
      1347.0         0.33         63.4 
      1348.0         0.65         47.9 
      1349.0         0.40         38.1 
      1350.0         0.27         36.5 
      1351.0         0.33         35.6 
      1352.0         0.30         33.4 
      1353.0         0.40         31.7 
      1354.0         0.30         28.0 
      1355.0         0.30         27.1 
      1356.0         0.23         27.0 
      1357.0         0.23         25.1 
      1358.0         0.38         25.2 
      1359.0         0.27         23.6 
      1360.0         0.23         23.4 
      1361.0         0.27         23.2 
      1362.0         0.27         24.9 
      1363.0         0.23         24.9 
      1364.0         0.17         24.2 
      1365.0         0.27         24.6 
      1366.0         0.20         24.5 
      1367.0         0.20         24.4 
      1368.0         0.17         23.8 
      1369.0         0.27         25.0 
      1370.0         0.27         28.3 
      1371.0         0.27         38.9 
      1372.0         0.28         39.0 
      1373.0         0.27         34.8 
      1374.0         0.20         28.5 
      1375.0         0.40         26.4 
      1376.0         3.78        128.2 
      1377.0         0.23         69.2 
      1378.0         0.37         67.6 
      1379.0         0.23         46.6 
      1380.0         0.23         41.3 
      1381.0         0.30         39.6 
      1382.0         0.37         40.2 
      1383.0         0.35         38.4 
      1384.0         0.27         37.2 
      1385.0         0.30         35.3 
      1386.0         0.27         34.6 
      1387.0         0.27         35.3 
      1388.0         0.27         35.2 
      1389.0         0.23         33.8 
      1390.0         0.17         32.1 
      1391.0         0.23         31.3 
      1392.0         0.27         31.4 
      1393.0         0.30         30.8 
      1394.0         0.30         30.6 
      1395.0         0.28         29.8 
      1396.0         0.30         29.8 
      1397.0         0.23         31.0 
      1398.0         0.20         31.0 
      1399.0         0.20         30.8 
      1400.0         0.20         28.6 
      1401.0         0.23         25.7 
      1402.0         0.17         22.0 
      1403.0         0.17         18.7 
      1404.0         0.23         14.0 
      1405.0         0.27         13.9 
      1406.0         4.42        126.7 
      1407.0         0.62         41.8 
      1408.0         0.47         50.3 
      1409.0         0.33         48.7 
      1410.0         0.63         40.3 
      1411.0         0.40         32.1 
      1412.0         0.30         26.5 
      1413.0         0.37         27.3 
      1414.0         0.35         28.1 
      1415.0         0.30         28.0 
      1416.0         0.23         28.5 
      1417.0         0.17         31.7 
      1418.0         0.33         31.9 
      1419.0         0.33         30.2 
      1420.0         0.13         28.5 
      1421.0         0.27         28.0 
      1422.0         0.33         27.6 
      1423.0         0.33         26.6 
      1424.0         0.33         26.8 
      1425.0         0.37         26.8 
      1426.0         0.38         27.3 
      1427.0         0.33         29.5 
      1428.0         0.30         28.0 
      1429.0         0.30         29.2 
      1430.0         0.17         29.2 
      1431.0         0.27         31.3 
      1432.0         0.30         31.5 
      1433.0         0.27         21.4 
