~Version Information
VERS.                      2.0: CWLS Log ASCII Standard - VERSION 2.0
WRAP.                       NO: One line per depth step
~Well Information Block
STRT.FT                 0.0000: 
STOP.FT              1871.2500: 
STEP.FT                 0.2500: 
NULL.                -999.2500: 
COMP.          Petrogulf Corporation: COMPANY
WELL.             Norton 9-14R: WELL
FLD.           Purgatorie River: FIELD
LOC.           725' FSL & 1103' FWL: LOCATION
STAT.                 Colorado: State
CNTY.               Las Animas: COUNTY
CTRY. USA : Country
SECT. 9 : Section
TOWN. 33S : Township
RANG. 67W : Range
SRVC.                Patterson: SERVICE COMPANY
DATE.          Thu Nov 10 13:05:53 2005: LOG DATE
API. 05-071-08444                         : UNIQUE WELL ID
~Curve Information Block
DEPT.FT            0 000 00 00: Depth
CCL.                          : Casing Collar Locator
TT3.usec                      : CBL 3' Travel Time
AMP3.mV                       : CBL 3' Amplitude
GR.GAPI                       : Gamma Ray
~Parameter Information Block
~A  Depth       CCL         TT3         AMP3         GR     
# ...
  1608.0000      2.0000    724.4099      3.2666    135.4274
  1608.2500      0.0000    743.7493      3.5839    136.5726
  1608.5000     -2.0000    788.4163      3.9132    137.3687
  1608.7500      0.0000    828.8444      4.2131    135.8393
  1609.0000      0.0000    823.3198      4.4537    132.1812
  1609.2500      0.0000    778.4348      4.6959    129.2937
  1609.5000      0.0000    741.9887      5.0087    130.3882
  1609.7500      0.0000    738.9338      5.3818    136.0341
  1610.0000      0.0000    749.5199      5.8163    143.4034
  1610.2500      0.0000    748.7646      6.3559    148.2843
  1610.5000      0.0000    737.8987      6.9298    148.1953
  1610.7500      0.0000    728.8627      7.3738    144.2206
  1611.0000      0.0000    723.5594      7.6274    140.2111
  1611.2500      0.0000    717.1480      7.7758    139.8572
  1611.5000      0.0000    706.7094      7.9513    143.5691
  1611.7500      0.0000    693.7787      8.2443    147.5338
  1612.0000      0.0000    684.0519      8.6722    146.3976
  1612.2500      0.0000    683.3386      9.1615    137.8552
  1612.5000      0.0000    690.7489      9.5525    124.6583
  1612.7500      0.0000    699.2322      9.7008    111.8772
  1613.0000      0.0000    703.6328      9.6106    102.7400
  1613.2500      0.0000    704.5099      9.4125     97.4949
  1613.5000      0.0000    706.0408      9.1890     95.1434
  1613.7500      0.0000    712.6998      8.9169     94.8466
  1614.0000      0.0000    724.5074      8.5783     95.9832
  1614.2500      0.0000    734.1467      8.2183     98.2072
  1614.5000      0.0000    733.3301      7.9038    101.8078
  1614.7500      0.0000    721.9722      7.6423    107.3865
  1615.0000      0.0000    707.1866      7.3658    114.9357
  1615.2500      0.0000    695.9375      7.0307    123.6566
  1615.5000      0.0000    691.2475      6.6788    132.7563
  1615.7500      0.0000    692.3115      6.3750    141.8866
  1616.0000      0.0000    694.7701      6.1393    150.6230
  1616.2500      0.0000    694.4003      5.9514    157.9920
  1616.5000      0.0000    691.3438      5.7949    162.7573
  1616.7500      0.0000    685.9103      5.6667    164.1144
  1617.0000      0.0000    677.1343      5.5482    162.3509
  1617.2500      0.0000    667.8476      5.4060    159.0141
  1617.5000      0.0000    661.7681      5.2270    155.8984
  1617.7500      0.0000    658.0000      5.0337    153.5141
  1618.0000      0.0000    653.1615      4.8619    150.9500
  1618.2500      0.0000    645.9896      4.7269    147.5086
  1618.5000      0.0000    638.0446      4.6194    144.1093
  1618.7500      0.0000    630.1841      4.5168    142.6068
  1619.0000      0.0000    622.0123      4.3835    143.7301
  1619.2500      0.0000    615.9026      4.1887    146.1204
  1619.5000      0.0000    616.6819      3.9455    147.6396
  1619.7500      0.0000    627.1613      3.6981    147.5405
  1620.0000      0.0000    645.1630      3.4759    147.2029
  1620.2500      0.0000    663.2818      3.2964    148.7950
  1620.5000      0.0000    672.7248      3.1786    153.3546
  1620.7500      0.0000    671.2283      3.1302    160.0536
  1621.0000      0.0000    666.2064      3.1542    166.6243
  1621.2500      0.0000    666.2576      3.2436    170.0436
  1621.5000      0.0000    671.8122      3.3770    167.5738
  1621.7500      0.0000    676.3778      3.5662    158.5169
  1622.0000      0.0000    677.5989      3.8702    145.3388
  1622.2500      0.0000    683.6764      4.3146    132.5674
  1622.5000      0.0000    703.3983      4.8307    124.0882
  1622.7500      0.0000    733.5104      5.3100    120.8882
  1623.0000      0.0000    759.8634      5.7117    120.8152
  1623.2500      0.0000    770.4052      6.0774    120.5278
  1623.5000      0.0000    765.2371      6.4256    118.0572
  1623.7500      0.0000    753.1781      6.6894    113.7607
  1624.0000      0.0000    742.3050      6.7944    109.1498
  1624.2500      0.0000    734.7189      6.7462    105.2760
  1624.5000      0.0000    727.4335      6.5904    102.2516
  1624.7500      0.0000    717.3734      6.3276     99.8173
  1625.0000      0.0000    706.2701      5.9292     97.8794
  1625.2500      0.0000    699.3353      5.4194     96.5175
  1625.5000      0.0000    698.1172      4.8897     95.8274
  1625.7500      0.0000    698.5396      4.4188     95.9571
  1626.0000      0.0000    698.0262      4.0103     97.0951
  1626.2500      0.0000    698.7979      3.6375     99.1255
  1626.5000      0.0000    701.3322      3.3014    101.3435
  1626.7500      0.0000    701.5842      3.0072    102.8366
  1627.0000      0.0000    697.3647      2.7416    103.1555
  1627.2500      0.0000    692.7142      2.4998    102.3195
  1627.5000      0.0000    693.6807      2.2993    100.2951
  1627.7500      0.0000    700.7371      2.1648     97.1163
  1628.0000      0.0000    707.9153      2.1064     93.6384
  1628.2500      0.0000    709.2699      2.1014     91.4174
  1628.5000      0.0000    703.7361      2.1115     91.3028
  1628.7500      0.0000    694.1480      2.1175     92.3967
  1629.0000      0.0000    681.4631      2.1193     92.6485
  1629.2500      0.0000    662.3398      2.1209     90.5165
  1629.5000      0.0000    637.7202      2.1285     86.1311
  1629.7500      0.0000    617.4432      2.1578     81.0175
  1630.0000      0.0000    611.1520      2.2334     76.8803
  1630.2500      0.0000    622.9340      2.3634     74.6761
  1630.5000      0.0000    650.5486      2.5128     74.4102
  1630.7500      0.0000    680.5312      2.6370     75.2875
  1631.0000      0.0000    695.6516      2.7407     76.1580
  1631.2500      0.0000    692.2254      2.8642     76.3610
  1631.5000      0.0000    676.8311      3.0163     76.2547
  1631.7500      0.0000    653.2202      3.1677     76.6675
  1632.0000      0.0000    627.5528      3.3078     77.8544
  1632.2500      0.0000    612.1854      3.4633     79.2278
  1632.5000      0.0000    611.7711      3.6627     80.0542
  1632.7500      0.0000    619.3620      3.9108     80.1634
  1633.0000      0.0000    629.2802      4.2027     79.9489
  1633.2500      0.0000    641.6650      4.5642     79.8397
  1633.5000      0.0000    655.3190      5.0588     79.8377
  1633.7500      0.0000    664.3792      5.7556     79.5342
  1634.0000      0.0000    659.6846      6.6932     78.4937
  1634.2500      0.0000    627.9652      7.8828     76.6537
  1634.5000      0.0000    560.1854      9.3418     74.5614
  1634.7500      0.0000    471.2999     11.0897     73.2701
  1635.0000      0.0000    395.5740     13.1019     73.7469
  1635.2500      0.0000    352.8977     15.2774     76.0868
  1635.5000      0.0000    336.6722     17.4602     79.3556
  1635.7500      0.0000    332.3663     19.5142     82.2865
  1636.0000      0.0000    331.5151     21.3556     83.9936
  1636.2500      0.0000    331.3867     22.8625     84.0680
  1636.5000      0.0000    331.4165     23.8020     82.5113
  1636.7500      0.0000    331.7565     23.8962     79.9475
  1637.0000      0.0000    333.6399     22.9625     77.6151
  1637.2500      0.0000    340.8233     21.0695     76.6239
  1637.5000      0.0000    361.3124     18.5783     76.9594
  1637.7500      0.0000    406.4994     15.9399     77.3076
  1638.0000      0.0000    480.6395     13.4430     76.0647
  1638.2500      0.0000    565.3520     11.1763     72.6684
  1638.5000      0.0000    628.7723      9.1682     68.0712
  1638.7500      0.0000    657.9348      7.4671     64.0671
  1639.0000      0.0000    665.6103      6.0815     62.2791
  1639.2500      0.0000    666.1738      4.9598     63.3929
  1639.5000      0.0000    662.5361      4.0587     66.7124
  1639.7500      0.0000    655.9156      3.3564     70.3119
  1640.0000      0.0000    652.8699      2.8190     72.0829
  1640.2500      0.0000    658.2982      2.4086     71.1165
  1640.5000      0.0000    669.6669      2.0987     68.3929
  1640.7500      0.0000    680.4157      1.8502     66.2622
  1641.0000      0.0000    684.3474      1.6200     66.9416
  1641.2500      0.0000    678.8761      1.4082     70.9146
