~Version Information
VERS.                      2.0: CWLS Log ASCII Standard - VERSION 2.0
WRAP.                       NO: One line per depth step
~Well Information Block
STRT.FT                -8.7500: 
STOP.FT              1860.5000: 
STEP.FT                 0.2500: 
NULL.                -999.2500: 
COMP.          Pioneer Natural Resources: COMPANY
WELL.          Cortina 23-25 Tr: WELL
FLD.           Purgatorie River: FIELD
LOC.           --2521' FSL & 2345' FWL------: LOCATION
STAT.                       CO: PROVINCE
CNTY.               Las Animas: COUNTY
CTRY. USA : country
SECT. 25 : Section
TOWN. 32S : Township
RANG. 67W : Range
SRVC.          Patterson Wireline: SERVICE COMPANY
DATE.          Thu Sep 29 11:30:45 2005: LOG DATE
API.           05 071 08534 00: UNIQUE WELL ID
~Curve Information Block
DEPT.FT            0 000 00 00: Depth
CCL.                          : Casing Collar Locator
TT3.usec                      : CBL 3' Travel Time
AMP3.mV                       : CBL 3' Amplitude
GR.GAPI                       : Gamma Ray
~Parameter Information Block
~A  Depth       CCL         TT3         AMP3         GR     
# ...
   125.2500      0.0000    280.0193     74.5680     44.4315
   125.5000      0.0000    280.0427     74.6219     44.9052
   125.7500      0.0000    280.0641     74.6918     44.9928
   126.0000      0.0000    280.0782     74.7425     44.5788
   126.2500      0.0000    280.0828     74.7540     44.1804
   126.5000      0.0000    280.0766     74.7326     44.4190
   126.7500      0.0000    280.0598     74.6979     45.2453
   127.0000      0.0000    280.0365     74.6668     45.8746
   127.2500      0.0000    280.0149     74.6489     45.5625
   127.5000      0.0000    280.0032     74.6512     44.3960
   127.7500      0.0000    280.0067     74.6792     43.2167
   128.0000      0.0000    280.0260     74.7327     42.9072
   128.2500      0.0000    280.0578     74.8002     44.0870
   128.5000      0.0000    280.0947     74.8597     47.3676
   128.7500      0.0000    280.1275     74.8883     53.1530
   129.0000      0.0000    280.1485     74.8773     60.7011
   129.2500      0.0000    280.1560     74.8391     67.6059
   129.5000      0.0000    280.1544     74.7969     70.8624
   129.7500      0.0000    280.1500     74.7647     69.0458
   130.0000      0.0000    280.1481     74.7409     63.6072
   130.2500      0.0000    280.1516     74.7175     57.8001
   130.5000      0.0000    280.1606     74.6894     54.1311
   130.7500      0.0000    280.1724     74.6556     52.7758
   131.0000      0.0000    280.1818     74.6165     52.2039
   131.2500      0.0000    280.1838     74.5723     50.8232
   131.5000      0.0000    280.1770     74.5255     47.9396
   131.7500      0.0000    280.1645     74.4860     43.8113
   132.0000      0.0000    280.1507     74.4726     39.3636
   132.2500      0.0000    280.1387     74.5007     35.6814
   132.5000      0.0000    280.1292     74.5672     33.4338
   132.7500      0.0000    280.1228     74.6491     32.7509
   133.0000      0.0000    280.1211     74.7209     33.5800
   133.2500      0.0000    280.1255     74.7683     35.7995
   133.5000      0.0000    280.1358     74.7896     38.8834
   133.7500      0.0000    280.1490     74.7860     41.7939
   134.0000      0.0000    280.1611     74.7560     43.4762
   134.2500      0.0000    280.1686     74.6936     43.4527
   134.5000      0.0000    280.1705     74.5951     42.0274
   134.7500      0.0000    280.1673     74.4708     40.1633
   135.0000      0.0000    280.1591     74.3522     39.1052
   135.2500      0.0000    280.1456     74.2814     39.8303
   135.5000      0.0000    280.1279     74.2841     42.7293
   135.7500      0.0000    280.1086     74.3511     47.7287
   136.0000      0.0000    280.0900     74.4449     54.4219
   136.2500      0.0000    280.0736     74.5263     61.9017
   136.5000      0.0000    280.0610     74.5779     68.6690
   136.7500      0.0000    280.0551     74.6042     73.1069
   137.0000      0.0000    280.0579     74.6108     74.3884
   137.2500      0.0000    280.0663     74.5892     72.9390
   137.5000      0.0000    280.0735     74.5252     69.9206
   137.7500      0.0000    280.0731     74.4191     66.2847
   138.0000      0.0000    280.0645     74.2936     62.3402
   138.2500      0.0000    280.0534     74.1827     58.1569
   138.5000      0.0000    280.0464     74.1109     54.1674
   138.7500      0.0000    280.0434     74.0767     51.1142
   139.0000      0.0000    280.0377     74.0563     49.3994
   139.2500      0.0000    280.0240     74.0306     48.7325
   139.5000      0.0000    280.0051     74.0080     48.5514
   139.7500      0.0000    279.9903     74.0124     48.6603
   140.0000      0.0000    279.9862     74.0516     49.3111
   140.2500      0.0000    279.9914     74.1081     50.6729
   140.5000      0.0000    279.9984     74.1594     52.3851
   140.7500      0.0000    280.0003     74.1954     53.7316
   141.0000      0.0000    279.9954     74.2181     54.1624
   141.2500      0.0000    279.9874     74.2341     53.5280
   141.5000      0.0000    279.9808     74.2435     51.9631
   141.7500      0.0000    279.9758     74.2307     49.8447
   142.0000      0.0000    279.9688     74.1771     47.8267
   142.2500      0.0000    279.9584     74.0900     46.4652
   142.5000      0.0000    279.9472     74.0105     45.6698
   142.7500      0.0000    279.9391     73.9812     44.8909
   143.0000      0.0000    279.9342     74.0111     44.0026
   143.2500      0.0000    279.9289     74.0764     43.6441
   143.5000      0.0000    279.9205     74.1466     44.4644
   143.7500      0.0000    279.9110     74.2073     46.2475
   144.0000      0.0000    279.9051     74.2631     48.0284
   144.2500      0.0000    279.9059     74.3278     48.9687
   144.5000      0.0000    279.9117     74.4098     49.0466
   144.7500      0.0000    279.9176     74.5021     49.0389
   145.0000      0.0000    279.9196     74.5854     49.8663
   145.2500      0.0000    279.9160     74.6422     51.8215
   145.5000      0.0000    279.9070     74.6725     54.2630
   145.7500      0.0000    279.8937     74.6907     55.9545
   146.0000      0.0000    279.8785     74.7117     55.9184
   146.2500      0.0000    279.8651     74.7403     54.2601
   146.5000      0.0000    279.8578     74.7716     52.0720
   146.7500      0.0000    279.8584     74.7947     50.3776
   147.0000      0.0000    279.8658     74.7986     49.4411
   147.2500      0.0000    279.8762     74.7814     49.2116
   147.5000      0.0000    279.8852     74.7537     49.8937
   147.7500      0.0000    279.8896     74.7277     51.6984
   148.0000      0.0000    279.8879     74.7053     54.3982
   148.2500      0.0000    279.8815     74.6815     57.3949
   148.5000      0.0000    279.8752     74.6582     59.8710
   148.7500      0.0000    279.8782     74.6477     60.7379
   149.0000      0.0000    279.9089     74.6490     59.1142
   149.2500      0.0000    280.0090     74.5958     55.4277
   149.5000      0.0000    280.2593     74.2693     51.6231
   149.7500      0.0000    280.7678     73.2418     49.7087
   150.0000      0.0000    281.6048     71.0314     50.2032
   150.2500      0.0000    282.7238     67.5135     52.2068
   150.5000      0.0000    283.9521     63.2234     54.6345
   150.7500      0.0000    285.0793     59.1210     56.9039
   151.0000      0.0000    285.9621     55.9869     58.5814
   151.2500      0.0000    286.5609     54.0482     59.0731
   151.5000      0.0000    286.9110     53.0865     58.0367
   151.7500      0.0000    287.0770     52.7439     55.7698
   152.0000      2.0000    287.0961     52.7341     52.7922
   152.2500      0.0000    286.9173     52.8897     49.1607
   152.5000      0.0000    286.3500     53.1712     44.5981
   152.7500      0.0000    285.1126     53.7484     39.3590
   153.0000      0.0000    283.0962     55.0390     34.6399
   153.2500      0.0000    280.7071     57.4432     31.8808
   153.5000      0.0000    278.8023     60.8848     31.7397
   153.7500      0.0000    278.0356     64.7206     33.7409
   154.0000      0.0000    278.3037     68.1726     36.6985
   154.2500      0.0000    278.9714     70.7661     39.5011
   154.5000      0.0000    279.5093     72.4139     41.7005
   154.7500      0.0000    279.7759     73.2812     43.3953
   155.0000      0.0000    279.8593     73.6251     44.5821
   155.2500      0.0000    279.8657     73.6799     44.9083
   155.5000      0.0000    279.8509     73.6099     44.1913
   155.7500      0.0000    279.8353     73.5071     42.9359
   156.0000      0.0000    279.8235     73.4080     42.1512
   156.2500      0.0000    279.8162     73.3111     42.7558
   156.5000      0.0000    279.8122     73.2054     45.1309
   156.7500      0.0000    279.8108     73.0856     48.8854
   157.0000      0.0000    279.8112     72.9548     52.8437
   157.2500      0.0000    279.8118     72.8201     55.5283
   157.5000      0.0000    279.8110     72.6842     56.0762
   157.7500      0.0000    279.8071     72.5402     54.8482
   158.0000      0.0000    279.7997     72.3736     53.0601
   158.2500      0.0000    279.7891     72.1766     51.7468
   158.5000      0.0000    279.7758     71.9620     51.1662
