~Version Information
VERS.                      2.0: CWLS Log ASCII Standard - VERSION 2.0
WRAP.                       NO: One line per depth step
~Well Information Block
STRT.FT               -10.0000: 
STOP.FT              1935.0000: 
STEP.FT                 0.2500: 
NULL.                -999.2500: 
COMP.          Pioneer Natural Resources: COMPANY
WELL.           Willys 32-8 Tr: WELL
FLD.           Purgatorie River: FIELD
LOC.           1843' FNL & 2355' FEL--: LOCATION
CNTY.               Las Animas: COUNTY
SRVC.          Patterson Wireline: SERVICE COMPANY
DATE.          Wed Feb 15 13:29:41 2006: LOG DATE
UWI.           05 071 08688 00: UNIQUE WELL ID
STAT.                       CO: STATE
~Curve Information Block
DEPT.FT            0 000 00 00: Depth
CCL.                          : Casing Collar Locator
TT3.usec                      : CBL 3' Travel Time
AMP3.mV                       : CBL 3' Amplitude
GR.GAPI                       : Gamma Ray
~Parameter Information Block
~A  Depth       CCL         TT3         AMP3         GR     
# ...
   358.5000      0.0000    694.6970     10.5071     73.6088
   358.7500      0.0000    694.8283     10.5525     72.9314
   359.0000      0.0000    695.0207     10.6077     69.9712
   359.2500      0.0000    695.3132     10.6481     65.5489
   359.5000      0.0000    695.6603     10.6607     60.8476
   359.7500      0.0000    695.9432     10.6495     56.7066
   360.0000      0.0000    696.0752     10.6312     53.5964
   360.2500      0.0000    696.1436     10.6259     51.9848
   360.5000      0.0000    696.5079     10.6476     52.2469
   360.7500      0.0000    697.8257     10.6939     54.1254
   361.0000      0.0000    700.7946     10.7379     56.5978
   361.2500      0.0000    705.4462     10.7303     58.5218
   361.5000      0.0000    710.5779     10.6115     59.4046
   361.7500      0.0000    714.6158     10.3369     59.6099
   362.0000      0.0000    717.6608      9.9083     60.0022
   362.2500      0.0000    721.9929      9.3843     61.2720
   362.5000      0.0000    729.6197      8.8514     63.2389
   362.7500      0.0000    739.6553      8.3903     64.7648
   363.0000      0.0000    748.8766      8.0638     64.6792
   363.2500      0.0000    754.7418      7.9017     62.9935
   363.5000      0.0000    757.5605      7.8758     60.9496
   363.7500      0.0000    759.7950      7.9107     59.6724
   364.0000      0.0000    763.3448      7.9425     59.1537
   364.2500      2.0000    767.6701      7.9702     58.7598
   364.5000      0.0000    770.6346      8.0692     58.1411
   364.7500      0.0000    770.8928      8.3690     57.2434
   365.0000      0.0000    769.3932      8.9638     55.9901
   365.2500      0.0000    768.8364      9.7768     54.3988
   365.5000      0.0000    771.4010     10.5356     52.6522
   365.7500      0.0000    776.6329     10.9683     50.8257
   366.0000      0.0000    781.8492     11.0300     48.8848
   366.2500      0.0000    784.8937     10.8986     47.0617
   366.5000      0.0000    786.0285     10.7793     45.9349
   366.7500      0.0000    786.8325     10.7614     46.0605
   367.0000      0.0000    787.8987     10.8278     47.7473
   367.2500      0.0000    788.2852     10.9298     51.2357
   367.5000      0.0000    787.0375     11.0329     56.9896
   367.7500      0.0000    784.5123     11.1234     65.7746
   368.0000      0.0000    781.9538     11.2047     78.1381
   368.2500      0.0000    780.2299     11.2971     93.2607
   368.5000      0.0000    779.3102     11.4288    108.2347
   368.7500      0.0000    778.6864     11.6131    119.1217
   369.0000      0.0000    777.9727     11.8304    123.3955
   369.2500      0.0000    777.1472     12.0325    121.6518
   369.5000      0.0000    776.4222     12.1684    117.0321
   369.7500      0.0000    775.9579     12.2134    112.8295
   370.0000      0.0000    775.6432     12.1801    110.3348
   370.2500      0.0000    775.0699     12.1038    108.8008
   370.5000      0.0000    773.7679     12.0159    107.2765
   370.7500      0.0000    771.7054     11.9277    106.0467
   371.0000      0.0000    769.6756     11.8341    106.2495
   371.2500      0.0000    768.9132     11.7241    108.6606
   371.5000      0.0000    770.0167     11.5894    113.2541
   371.7500      0.0000    772.3495     11.4312    119.4292
   372.0000      0.0000    774.6700     11.2653    126.1177
   372.2500      0.0000    776.1758     11.1161    132.0558
   372.5000      0.0000    776.8401     11.0020    136.4000
   372.7500      0.0000    777.0379     10.9209    138.7225
   373.0000      0.0000    777.1211     10.8541    138.2906
   373.2500      0.0000    777.2730     10.7849    134.2837
   373.5000      0.0000    777.5538     10.7183    127.3135
   373.7500      0.0000    777.9634     10.6785    120.0207
   374.0000      0.0000    778.4620     10.6852    115.2030
   374.2500      0.0000    778.9753     10.7350    113.4417
   374.5000      0.0000    779.4249     10.8079    113.1382
   374.7500      0.0000    779.7545     10.8887    112.9566
   375.0000      0.0000    779.9329     10.9746    113.7514
   375.2500      0.0000    779.9561     11.0663    117.3731
   375.5000      0.0000    779.8376     11.1579    123.6222
   375.7500      0.0000    779.5453     11.2351    129.5410
   376.0000      0.0000    778.9342     11.2864    132.5149
   376.2500      0.0000    777.8676     11.3156    133.0569
   376.5000      0.0000    776.6602     11.3406    133.3016
   376.7500      0.0000    776.3812     11.3742    133.6159
   377.0000      0.0000    778.2083     11.4115    132.3656
   377.2500      0.0000    782.1229     11.4410    128.5894
   377.5000      0.0000    786.7609     11.4602    123.1282
   377.7500      0.0000    791.0481     11.4740    117.1151
   378.0000      0.0000    795.3464     11.4828    110.9845
   378.2500      0.0000    800.2214     11.4767    105.5205
   378.5000      0.0000    804.5599     11.4432    102.6787
   378.7500      0.0000    805.8717     11.3781    104.3219
   379.0000      0.0000    802.5397     11.2896    110.0785
   379.2500      0.0000    795.3595     11.1918    116.8929
   379.5000      0.0000    786.9489     11.0957    121.2494
   379.7500      0.0000    780.0858     11.0070    122.1567
   380.0000      0.0000    776.4306     10.9278    121.8622
   380.2500      0.0000    776.0279     10.8585    123.6391
   380.5000      0.0000    777.5985     10.7971    129.0599
   380.7500      0.0000    779.5325     10.7419    137.1347
   381.0000      0.0000    780.8706     10.6952    145.4393
   381.2500      0.0000    781.4996     10.6625    151.8279
   381.5000      0.0000    781.7237     10.6473    155.1671
   381.7500      0.0000    781.8442     10.6457    154.8723
   382.0000      0.0000    782.0186     10.6468    150.7044
   382.2500      0.0000    782.3123     10.6377    143.6403
   382.5000      0.0000    782.8603     10.6090    136.4867
   382.7500      0.0000    784.0579     10.5593    132.8100
   383.0000      0.0000    786.5708     10.4986    134.7003
   383.2500      0.0000    790.8712     10.4476    141.1267
   383.5000      0.0000    796.4833     10.4300    148.3556
   383.7500      0.0000    801.8594     10.4584    152.5231
   384.0000      0.0000    805.5064     10.5244    152.2754
   384.2500      0.0000    807.3245     10.6001    149.1254
   384.5000      0.0000    808.5292     10.6565    145.7093
   384.7500      0.0000    810.2189     10.6869    143.8398
   385.0000      0.0000    812.2830     10.7136    143.3023
   385.2500      0.0000    813.8476     10.7699    142.0477
   385.5000      0.0000    814.6241     10.8753    138.1701
   385.7500      0.0000    815.3826     11.0281    131.7881
   386.0000      0.0000    816.8785     11.2142    124.6026
   386.2500      0.0000    818.7097     11.4129    118.2188
   386.5000      0.0000    819.6303     11.5962    113.5197
   386.7500      0.0000    818.8243     11.7293    110.8340
   387.0000      0.0000    816.5513     11.7824    109.6897
   387.2500      0.0000    813.5028     11.7469    108.6623
   387.5000      0.0000    809.8038     11.6410    106.3015
   387.7500      0.0000    805.0687     11.4997    102.4431
   388.0000      0.0000    799.4573     11.3569     98.2216
   388.2500      0.0000    794.0559     11.2332     94.5901
   388.5000      0.0000    789.9269     11.1333     91.0610
   388.7500      0.0000    787.1411     11.0521     86.1555
   389.0000      0.0000    784.7844     10.9798     78.9158
   389.2500      0.0000    781.4301     10.9042     69.9214
   389.5000      0.0000    775.6481     10.8139     61.0230
   389.7500      0.0000    766.9126     10.7032     54.1159
   390.0000      0.0000    756.8876     10.5766     49.8574
   390.2500      0.0000    749.8370     10.4483     47.4007
   390.5000      0.0000    750.7563     10.3381     45.4024
   390.7500      0.0000    761.7116     10.2631     43.2960
   391.0000      0.0000    779.5435     10.2323     41.5909
   391.2500      0.0000    797.8096     10.2428     41.0569
   391.5000      0.0000    811.3633     10.2822     41.7806
   391.7500      0.0000    818.9765     10.3344     43.0238
