~Version Information
 VERS.                                  2.0 : CWLS LAS VERSION
 WRAP.                                   NO : WRAPING MODE
 SWARE .                 MController 2.5.0N : SOFTWARE VERSION
~Well Information
 WELL.                         Mahalo 12-20 : WELL
 COMP.    Pioneer Natural Resources USA Inc : COMPANY
 FLD.                      Purgatoire River : FIELD
 LOC.                  SWNW Sec20 T33S R65W : LOCATION
 DATE.                             02/23/06 : DATE(S) LOGGED
 SRVC.       Blanco Geological Services LLC : SERVICE COMPANY
 STAT.                             Colorado : STATE
 CNTY.                           Las Animas : COUNTY
 CTRY.                                  USA : COUNTRY
 API.                       05-071-08700-00 : API NUMBER
 STRT.FT                             198.00 : START DEPTH
 STOP.FT                            1220.00 : STOP DEPTH
 STEP.FT                               1.00 : DEPTH INCREMENT
 NULL.                                -9999 : NULL VALUE
~Curve information
 DEPTH.FT                                   :
 ROP.MIN/FT                                 :
 GAS.UNITS                                  :
~ASCII Log data
# ...
       398.0         0.23          7.3 
       399.0         0.27          6.8 
       400.0         0.27          7.0 
       401.0         0.30          6.9 
       402.0         0.30          6.7 
       403.0         0.27          6.9 
       404.0         0.30          6.9 
       405.0         0.27          7.1 
       406.0         0.27          6.9 
       407.0         0.30          6.6 
       408.0         0.32          6.4 
       409.0         0.30          6.9 
       410.0         0.30          6.7 
       411.0         2.55          7.8 
       412.0         0.20          7.8 
       413.0         0.23          9.3 
       414.0         0.30          8.2 
       415.0         0.30          7.1 
       416.0         0.37          6.5 
       417.0         0.33          6.2 
       418.0         0.33          6.5 
       419.0         0.37          6.3 
       420.0         0.37          6.1 
       421.0         0.30          6.3 
       422.0         0.32          6.7 
       423.0         0.37          6.2 
       424.0         0.33          6.1 
       425.0         0.33          6.5 
       426.0         0.33          6.3 
       427.0         0.20          6.1 
       428.0         0.23          6.2 
       429.0         0.30          6.3 
       430.0         0.30          6.6 
       431.0         0.27          7.0 
       432.0         0.27          6.3 
       433.0         0.25          6.6 
       434.0         0.23          6.1 
       435.0         0.27          6.6 
       436.0         0.27          6.0 
       437.0         0.23          6.3 
       438.0         0.33          6.2 
       439.0         0.27          6.2 
       440.0         0.27          6.4 
       441.0         2.62          8.2 
       442.0         0.37         49.9 
       443.0         0.30        554.0 
       444.0         0.23        590.1 
       445.0         0.23        440.0 
       446.0         0.23         39.5 
       447.0         0.27         22.3 
       448.0         0.27         12.0 
       449.0         0.28         28.8 
       450.0         0.23         28.8 
       451.0         0.27        104.2 
       452.0         0.27        112.3 
       453.0         0.30        101.2 
       454.0         0.30         64.0 
       455.0         0.30         39.6 
       456.0         0.33         38.0 
       457.0         0.30         27.5 
       458.0         0.33         18.8 
       459.0         0.33         16.3 
       460.0         0.33         13.9 
       461.0         0.35         12.2 
       462.0         0.33         10.7 
       463.0         0.30         12.9 
       464.0         0.33         13.1 
       465.0         0.33         12.3 
       466.0         0.33         11.2 
       467.0         0.37         10.6 
       468.0         0.33         12.0 
       469.0         0.30         10.8 
       470.0         0.27         10.6 
       471.0         2.75         57.2 
       472.0         0.40          7.8 
       473.0         0.52          6.0 
       474.0         0.60          6.6 
       475.0         0.77          6.2 
       476.0         0.87          7.6 
       477.0         0.50         10.8 
       478.0         0.37         10.6 
       479.0         0.42          9.2 
       480.0         0.43          8.4 
       481.0         0.27          7.5 
       482.0         0.30          9.0 
       483.0         0.30          7.9 
       484.0         0.30          8.7 
       485.0         0.30         10.6 
       486.0         0.30         10.3 
       487.0         0.30          9.0 
       488.0         0.33          9.9 
       489.0         0.32          7.4 
       490.0         0.27          7.3 
       491.0         0.30         11.6 
       492.0         0.27         13.4 
       493.0         0.27          9.9 
       494.0         0.27          9.2 
       495.0         0.27         12.5 
       496.0         0.33         12.3 
       497.0         0.43         11.2 
       498.0         0.43          6.2 
       499.0         0.45          6.5 
       500.0         0.40          6.9 
       501.0         3.85         51.5 
       502.0         0.50          6.4 
       503.0         0.47          5.8 
       504.0         0.70          6.5 
       505.0         0.60          6.9 
       506.0         0.38          6.8 
       507.0         0.37          6.4 
       508.0         0.30          7.0 
       509.0         0.37          6.7 
       510.0         0.33          6.5 
       511.0         0.30          6.5 
       512.0         0.23          6.1 
       513.0         0.27          7.1 
       514.0         0.30          8.4 
       515.0         0.30          7.2 
       516.0         0.32          6.8 
       517.0         0.30          7.0 
       518.0         0.30          7.0 
       519.0         0.33          7.8 
       520.0         0.33          7.9 
       521.0         0.33          7.4 
       522.0         0.33          7.0 
       523.0         0.37          6.8 
       524.0         0.33          6.4 
       525.0         0.33          6.8 
       526.0         0.27          9.2 
       527.0         0.32          9.7 
       528.0         0.27          8.7 
       529.0         0.37          8.5 
       530.0         0.27         12.3 
       531.0         3.58         49.6 
       532.0         0.57          6.3 
       533.0         0.43          0.0 
       534.0         0.30          1.6 
       535.0         0.37          2.7 
       536.0         0.20          3.4 
       537.0         0.25          3.4 
       538.0         0.27          1.3 
       539.0         0.27          0.9 
       540.0         0.27          0.4 
       541.0         0.27          1.7 
       542.0         0.27          1.0 
       543.0         0.23          0.5 
       544.0         0.23          1.0 
       545.0         0.23          0.9 
       546.0         0.20          0.1 
       547.0         0.20          0.7 
       548.0         0.23          0.4 
       549.0         0.23          1.0 
       550.0         0.23          0.7 
       551.0         0.22          4.3 
       552.0         0.23          5.2 
       553.0         0.20          5.5 
       554.0         0.27          5.8 
       555.0         0.23          6.0 
       556.0         0.23          6.0 
       557.0         0.23          8.1 
       558.0         0.30          8.6 
       559.0         0.27          9.5 
       560.0         0.27         11.1 
       561.0         2.72         45.3 
       562.0         0.30         17.5 
       563.0         0.30         12.9 
       564.0         0.20         12.1 
       565.0         0.27         11.0 
       566.0         0.23          9.4 
       567.0         0.23          7.0 
       568.0         0.38          6.2 
       569.0         0.33          5.1 
       570.0         0.40          4.8 
       571.0         0.27          4.8 
       572.0         0.27          4.7 
       573.0         0.20          4.7 
       574.0         0.23          3.9 
       575.0         0.20          3.9 
       576.0         0.23          4.2 
       577.0         0.20          4.6 
       578.0         0.23          4.6 
       579.0         0.20          4.5 
       580.0         0.20          3.9 
       581.0         0.18          3.9 
       582.0         0.17          5.5 
       583.0         0.20          4.9 
       584.0         0.23          5.4 
       585.0         0.23          5.1 
       586.0         0.23          4.3 
       587.0         0.23          5.0 
       588.0         0.23          5.0 
       589.0         0.27          5.2 
       590.0         0.27          4.8 
       591.0         2.92         28.7 
       592.0         0.13          5.4 
       593.0         0.27          5.0 
       594.0         0.37          4.4 
       595.0         0.40          5.1 
       596.0         0.40          3.9 
       597.0         0.38          4.7 
