~Version Information
 VERS.                                  2.0 : CWLS LAS VERSION
 WRAP.                                   NO : WRAPING MODE
 SWARE .                 MController 2.5.0J : SOFTWARE VERSION
~Well Information
 WELL.                       Cooper 11-13Tr : WELL
 COMP.    Pioneer Natural Resources USA Inc : COMPANY
 FLD.                      Purgatoire River : FIELD
 LOC.                 NW/NW SEC13 T32S R67W : LOCATION
 DATE.                             09/24/05 : DATE(S) LOGGED
 SRVC.       Blanco Geological Services LLC : SERVICE COMPANY
 STAT.                             Colorado : STATE
 CNTY.                           Las Animas : COUNTY
 CTRY.                                  USA : COUNTRY
 API.                       05-071-08525-00 : API NUMBER
 STRT.FT                             327.00 : START DEPTH
 STOP.FT                            1876.00 : STOP DEPTH
 STEP.FT                               1.00 : DEPTH INCREMENT
 NULL.                                -9999 : NULL VALUE
~Curve information
 DEPTH.FT                                   :
 ROP.MIN/FT                                 :
 GAS.UNITS                                  :
~ASCII Log data
# ...
      1327.0         0.27         12.8 
      1328.0         0.27         12.7 
      1329.0         0.23         12.8 
      1330.0         0.30         12.5 
      1331.0         0.33         12.6 
      1332.0         0.23         12.8 
      1333.0         0.27         12.9 
      1334.0         0.23         12.5 
      1335.0         0.23         12.7 
      1336.0         0.22         13.5 
      1337.0         0.23         13.4 
      1338.0         0.17         13.1 
      1339.0         0.13         13.1 
      1340.0         0.13         13.5 
      1341.0         0.20         13.5 
      1342.0         0.23         12.8 
      1343.0         0.17         13.8 
      1344.0         0.27         13.4 
      1345.0         0.27         13.2 
      1346.0         2.12         13.1 
      1347.0         0.53         13.8 
      1348.0         0.43         13.0 
      1349.0         0.47         14.3 
      1350.0         0.37         14.6 
      1351.0         0.17         14.6 
      1352.0         0.33         60.9 
      1353.0         0.35         60.2 
      1354.0         0.37         33.2 
      1355.0         0.40         29.1 
      1356.0         0.43         24.7 
      1357.0         0.43         24.1 
      1358.0         0.63         23.4 
      1359.0         0.57         24.0 
      1360.0         0.40         23.6 
      1361.0         0.32         23.7 
      1362.0         0.37         24.4 
      1363.0         0.33         25.4 
      1364.0         0.27         25.3 
      1365.0         0.33         24.8 
      1366.0         0.30         24.8 
      1367.0         0.33         27.8 
      1368.0         0.37         31.9 
      1369.0         0.27         32.3 
      1370.0         0.27         29.0 
      1371.0         0.38         30.5 
      1372.0         0.30         29.5 
      1373.0         0.27         29.2 
      1374.0         0.40         29.0 
      1375.0         0.33         20.9 
      1376.0         1.98         90.2 
      1377.0         0.63         75.6 
      1378.0         0.53         53.3 
      1379.0         0.50         37.9 
      1380.0         0.47         30.3 
      1381.0         0.40         28.7 
      1382.0         0.33         27.4 
      1383.0         0.37         25.8 
      1384.0         0.42         24.3 
      1385.0         0.53         23.0 
      1386.0         0.40         23.3 
      1387.0         0.50         23.1 
      1388.0         0.43         24.0 
      1389.0         0.40         24.8 
      1390.0         0.40         24.2 
      1391.0         0.52         23.6 
      1392.0         0.60         23.7 
      1393.0         0.60         24.3 
      1394.0         0.47         23.1 
      1395.0         0.53         22.7 
      1396.0         0.43         22.9 
      1397.0         0.47         22.9 
      1398.0         0.72         22.2 
      1399.0         0.43         21.0 
      1400.0         0.43         21.0 
      1401.0         0.47         21.8 
      1402.0         0.37         23.8 
      1403.0         0.23         20.1 
      1404.0         0.33         17.6 
      1405.0         0.37         17.6 
      1406.0         3.80        135.8 
      1407.0         0.70         27.4 
      1408.0         0.60         29.0 
      1409.0         0.53         29.1 
      1410.0         0.50         26.7 
      1411.0         0.47         25.3 
      1412.0         0.45         25.0 
      1413.0         0.97         24.6 
      1414.0         0.73         23.8 
      1415.0         0.43         23.3 
      1416.0         0.63         23.4 
      1417.0         0.65         22.7 
      1418.0         0.50         22.5 
      1419.0         0.50         23.0 
      1420.0         0.53         23.0 
      1421.0         0.47         23.7 
      1422.0         0.50         23.3 
      1423.0         0.47         22.9 
      1424.0         0.45         23.0 
      1425.0         0.43         23.2 
      1426.0         0.37         24.6 
      1427.0         0.43         29.4 
      1428.0         0.40         30.5 
      1429.0         0.50         30.4 
      1430.0         0.33         30.2 
      1431.0         0.33         29.7 
      1432.0         0.38         30.0 
      1433.0         0.40         29.2 
      1434.0         0.33         26.3 
      1435.0         0.33         20.6 
      1436.0         3.52         67.1 
      1437.0         0.37         46.7 
      1438.0         0.33         43.0 
      1439.0         0.33         40.2 
      1440.0         0.30         42.9 
      1441.0         0.33         44.7 
      1442.0         0.42         38.7 
      1443.0         0.47         38.1 
      1444.0         0.47         32.0 
      1445.0         0.60         31.5 
      1446.0         0.37         30.4 
      1447.0         0.30         33.2 
      1448.0         0.23         35.7 
      1449.0         0.20         44.2 
      1450.0         0.20         44.6 
      1451.0         0.30         43.4 
      1452.0         0.25         49.2 
      1453.0         0.20         65.7 
      1454.0         0.23         71.3 
      1455.0         0.33         71.2 
      1456.0         0.37         68.5 
      1457.0         0.33         64.8 
      1458.0         0.50         62.4 
      1459.0         0.43         58.8 
      1460.0         0.33         55.5 
      1461.0         0.45         53.1 
      1462.0         0.40         49.4 
      1463.0         0.40         36.6 
      1464.0         0.30         32.3 
      1465.0         0.30         32.8 
      1466.0         3.35        111.4 
      1467.0         0.27         79.9 
      1468.0         0.50         78.6 
      1469.0         0.40         64.5 
      1470.0         0.47         57.8 
      1471.0         0.35         52.0 
      1472.0         0.33         50.5 
      1473.0         0.37         47.8 
      1474.0         0.30         46.5 
      1475.0         0.33         43.4 
      1476.0         0.27         42.6 
      1477.0         0.37         41.8 
      1478.0         0.37         39.1 
      1479.0         0.20         40.1 
      1480.0         0.17         40.1 
      1481.0         0.27         39.6 
      1482.0         0.35         40.9 
      1483.0         0.47         39.7 
      1484.0         0.30         39.4 
      1485.0         0.37         39.3 
      1486.0         0.37         38.7 
      1487.0         0.43         39.3 
      1488.0         0.40         37.2 
      1489.0         0.33         37.6 
      1490.0         0.30         38.0 
      1491.0         0.30         38.7 
      1492.0         0.35         39.0 
      1493.0         0.30         38.5 
      1494.0         0.40         34.4 
      1495.0         0.27         27.7 
      1496.0         3.38         97.7 
      1497.0         0.57         70.0 
      1498.0         0.43         64.7 
      1499.0         0.37         61.3 
      1500.0         0.33         56.0 
      1501.0         0.45         52.1 
      1502.0         0.33         45.9 
      1503.0         0.33         40.5 
      1504.0         0.33         40.2 
      1505.0         0.33         38.1 
      1506.0         0.30         36.3 
      1507.0         0.30         35.9 
      1508.0         0.30         35.4 
      1509.0         0.30         34.4 
      1510.0         0.33         34.6 
      1511.0         0.33         34.0 
      1512.0         0.32         34.8 
      1513.0         0.40         45.0 
      1514.0         0.27         56.4 
      1515.0         0.23         65.5 
      1516.0         0.23         74.7 
      1517.0         0.23         81.6 
      1518.0         0.27         85.1 
      1519.0         0.23         84.6 
      1520.0         0.27         84.0 
      1521.0         0.23         80.5 
      1522.0         0.17         77.8 
      1523.0         0.23         74.9 
      1524.0         0.42         74.2 
      1525.0         0.27         65.5 
      1526.0         4.08        177.2 
