~Version Information
 VERS.                                  2.0 : CWLS LAS VERSION
 WRAP.                                   NO : WRAPING MODE
 SWARE .                 MController 2.5.0N : SOFTWARE VERSION
~Well Information
 WELL.                            AMX 13-13 : WELL
 COMP.  Pioneer Natural Resources USA, Inc. : COMPANY
 FLD.                      Purgatoire River : FIELD
 LOC.                      NW/SW 13-32S-68W : LOCATION
 DATE.                          12/18-19/05 : DATE(S) LOGGED
 SRVC.       BLANCO Geological Services LLC : SERVICE COMPANY
 STAT.                                   CO : STATE
 CNTY.                           Las Animas : COUNTY
 CTRY.                                  USA : COUNTRY
 API.                          05-071-08630 : API NUMBER
 STRT.FT                             496.00 : START DEPTH
 STOP.FT                            2875.00 : STOP DEPTH
 STEP.FT                               1.00 : DEPTH INCREMENT
 NULL.                                -9999 : NULL VALUE
~Curve information
 DEPTH.FT                                   :
 ROP.MIN/FT                                 :
 GAS.UNITS                                  :
~ASCII Log data
# ...
      2696.0         4.22       2155.2 
      2697.0         0.53       1371.7 
      2698.0         0.52       1401.7 
      2699.0         0.43       1359.5 
      2700.0         0.43       1136.7 
      2701.0         0.40        892.0 
      2702.0         0.40        758.0 
      2703.0         0.33        671.4 
      2704.0         0.37        625.8 
      2705.0         0.37        613.9 
      2706.0         0.42        618.6 
      2707.0         0.33        616.1 
      2708.0         0.30        604.8 
      2709.0         0.37        596.1 
      2710.0         0.33        584.8 
      2711.0         0.33        576.4 
      2712.0         0.33        565.5 
      2713.0         0.27        558.9 
      2714.0         0.30        556.1 
      2715.0         0.30        555.5 
      2716.0         0.23        547.3 
      2717.0         0.25        538.0 
      2718.0         0.20        535.2 
      2719.0         0.27        545.8 
      2720.0         0.27        557.3 
      2721.0         0.30        557.7 
      2722.0         0.27        543.6 
      2723.0         0.27        516.1 
      2724.0         0.20        488.6 
      2725.0         0.33        470.8 
      2726.0         5.13       2728.0 
      2727.0         0.37       1312.0 
      2728.0         0.33       1260.8 
      2729.0         0.37       1193.6 
      2730.0         0.67       1091.1 
      2731.0         0.33        831.7 
      2732.0         0.33        739.8 
      2733.0         0.45        676.1 
      2734.0         0.47        618.9 
      2735.0         0.27        582.7 
      2736.0         0.23        580.5 
      2737.0         0.27        583.0 
      2738.0         0.27        581.1 
      2739.0         0.27        579.8 
      2740.0         0.30        583.9 
      2741.0         0.33        589.5 
      2742.0         0.33        589.8 
      2743.0         0.30        588.6 
      2744.0         0.35        585.2 
      2745.0         0.37        584.5 
      2746.0         0.33        602.3 
      2747.0         0.37        617.0 
      2748.0         0.37        616.4 
      2749.0         0.40        603.3 
      2750.0         0.37        579.2 
      2751.0         0.40        561.7 
      2752.0         0.37        553.6 
      2753.0         0.35        558.3 
      2754.0         0.33        585.8 
      2755.0         0.47        594.8 
      2756.0         4.32       1323.3 
      2757.0         0.70       1536.1 
      2758.0         0.68       1536.4 
      2759.0         0.53       1290.5 
      2760.0         0.43        958.6 
      2761.0         0.33        769.2 
      2762.0         0.37        680.2 
      2763.0         0.37        620.2 
      2764.0         0.37        578.9 
      2765.0         0.33        598.0 
      2766.0         0.30        615.5 
      2767.0         0.32        618.0 
      2768.0         0.30        618.3 
      2769.0         0.30        625.5 
      2770.0         0.40        633.3 
      2771.0         0.33        628.9 
      2772.0         0.30        613.0 
      2773.0         0.30        593.3 
      2774.0         0.30        597.0 
      2775.0         0.30        632.7 
      2776.0         0.33        677.7 
      2777.0         0.37        706.4 
      2778.0         0.38        707.0 
      2779.0         0.33        667.3 
      2780.0         0.33        614.8 
      2781.0         0.37        580.2 
      2782.0         0.37        561.1 
      2783.0         0.43        553.6 
      2784.0         0.33        553.9 
      2785.0         0.33        538.0 
      2786.0         3.22       1058.6 
      2787.0         0.47       1325.2 
      2788.0         0.45       1428.3 
      2789.0         0.40       1421.4 
      2790.0         0.37       1287.3 
      2791.0         0.37       1109.8 
      2792.0         0.37        968.9 
      2793.0         0.33        825.2 
      2794.0         0.30        735.5 
      2795.0         0.30        672.3 
      2796.0         0.30        632.0 
      2797.0         0.32        601.7 
      2798.0         0.27        593.6 
      2799.0         0.30        633.6 
      2800.0         0.33        669.2 
      2801.0         0.37        669.2 
      2802.0         0.27        642.3 
      2803.0         0.30        620.8 
      2804.0         0.27        593.3 
      2805.0         0.33        617.3 
      2806.0         0.43        703.3 
      2807.0         0.37        731.1 
      2808.0         0.32        740.2 
      2809.0         0.30        756.1 
      2810.0         0.33        758.3 
      2811.0         0.30        753.0 
      2812.0         0.30        742.7 
      2813.0         0.33        712.7 
      2814.0         0.30        654.5 
      2815.0         0.33        603.6 
      2816.0         3.85       1140.5 
      2817.0         0.23       1214.2 
      2818.0         0.42       1362.3 
      2819.0         0.33       1373.6 
      2820.0         0.27       1332.3 
      2821.0         0.27       1233.6 
      2822.0         0.23       1125.8 
      2823.0         0.27       1047.7 
      2824.0         0.27        973.6 
      2825.0         0.23        901.7 
      2826.0         0.27        837.7 
      2827.0         0.23        762.3 
      2828.0         0.27        703.6 
      2829.0         0.27        654.2 
      2830.0         0.28        618.0 
      2831.0         0.27        608.0 
      2832.0         0.23        637.0 
      2833.0         0.30        672.7 
      2834.0         0.27        682.7 
      2835.0         0.27        679.5 
      2836.0         0.27        661.7 
      2837.0         0.23        655.2 
      2838.0         0.30        685.8 
      2839.0         0.33        743.3 
      2840.0         0.30        781.1 
      2841.0         0.33        807.0 
      2842.0         0.35        816.7 
      2843.0         0.43        813.6 
      2844.0         0.37        763.6 
      2845.0         0.33        669.8 
      2846.0         5.60       1571.1 
      2847.0         0.43       1127.3 
      2848.0         0.40       1274.5 
      2849.0         0.33       1305.5 
      2850.0         0.40       1298.0 
      2851.0         0.40       1201.4 
      2852.0         0.30       1006.1 
      2853.0         0.47        854.5 
      2854.0         0.33        712.7 
      2855.0         0.42        659.2 
      2856.0         0.47        634.8 
      2857.0         0.57        634.8 
      2858.0         0.33        621.7 
      2859.0         0.33        603.6 
      2860.0         0.33        589.5 
      2861.0         0.57        583.9 
      2862.0         0.42        574.5 
      2863.0         0.40        567.7 
      2864.0         0.47        570.2 
      2865.0         0.37        564.2 
      2866.0         0.37        556.7 
      2867.0         0.37        554.8 
      2868.0         0.37        553.0 
      2869.0         0.40        575.8 
      2870.0         0.47        596.4 
      2871.0         0.38        595.5 
      2872.0         0.37        565.8 
      2873.0         0.40        542.0 
      2874.0         0.47        523.6 
      2875.0         0.60        554.2 
