~Version Information
 VERS.                                  2.0 : CWLS LAS VERSION
 WRAP.                                   NO : WRAPING MODE
 SWARE .                 MController 2.5.0N : SOFTWARE VERSION
~Well Information
 WELL.                     CORTINA 23-25 TR : WELL
 COMP.    PIONEER NATURAL RESOURCES USA INC : COMPANY
 FLD.                      PURGATOIRE RIVER : FIELD
 LOC.                NE/SW SEC 25 T32S R67W : LOCATION
 DATE.                             09/24/05 : DATE(S) LOGGED
 SRVC.       BLANCO GEOLOGICAL SERVICES LLC : SERVICE COMPANY
 STAT.                             COLORADO : STATE
 CNTY.                           LAS ANIMAS : COUNTY
 CTRY.                                  USA : COUNTRY
 API.                       05-071-08534-00 : API NUMBER
 STRT.FT                             388.00 : START DEPTH
 STOP.FT                            1890.00 : STOP DEPTH
 STEP.FT                               1.00 : DEPTH INCREMENT
 NULL.                                -9999 : NULL VALUE
~Curve information
 DEPTH.FT                                   :
 ROP.MIN/FT                                 :
 GAS.UNITS                                  :
~ASCII Log data
# ...
      1188.0         1.93         19.4 
      1189.0         0.33         12.2 
      1190.0         0.37         12.4 
      1191.0         0.35         14.5 
      1192.0         0.27         18.4 
      1193.0         0.30         20.9 
      1194.0         0.13         22.2 
      1195.0         0.07         22.2 
      1196.0         0.23         23.4 
      1197.0         0.27         23.6 
      1198.0         0.30         21.3 
      1199.0         0.23         22.8 
      1200.0         0.27         21.3 
      1201.0         0.27         19.6 
      1202.0         0.23         17.1 
      1203.0         0.27         16.9 
      1204.0         0.32         16.3 
      1205.0         0.27         14.4 
      1206.0         0.43         12.6 
      1207.0         0.27         11.8 
      1208.0         0.27         11.6 
      1209.0         0.43         20.8 
      1210.0         0.43         31.8 
      1211.0         0.40         34.5 
      1212.0         0.13         35.2 
      1213.0         0.20         34.9 
      1214.0         0.30         34.3 
      1215.0         0.32         33.0 
      1216.0         0.37         29.6 
      1217.0         0.33         25.9 
      1218.0         1.40         23.1 
      1219.0         1.72         18.3 
      1220.0         0.50         15.5 
      1221.0         0.20         14.7 
      1222.0         0.20         15.4 
      1223.0         0.20         14.7 
      1224.0         0.23         14.3 
      1225.0         0.23         13.9 
      1226.0         0.20         12.4 
      1227.0         0.27         11.4 
      1228.0         0.33          9.5 
      1229.0         0.27          8.4 
      1230.0         0.28          7.5 
      1231.0         0.40          7.3 
      1232.0         0.27          7.7 
      1233.0         0.37          9.0 
      1234.0         0.47         17.0 
      1235.0         0.50         24.8 
      1236.0         0.27         25.2 
      1237.0         0.27         22.2 
      1238.0         0.27         17.0 
      1239.0         0.42         16.4 
      1240.0         0.27         12.8 
      1241.0         0.27         12.0 
      1242.0         0.57         11.3 
      1243.0         0.37          9.1 
      1244.0         0.33          9.2 
      1245.0         0.53          8.1 
      1246.0         0.43          7.1 
      1247.0         1.28          9.6 
      1248.0         1.97         11.0 
      1249.0         0.23          8.1 
      1250.0         0.25          7.5 
      1251.0         0.20          7.4 
      1252.0         0.20          8.5 
      1253.0         0.27         11.8 
      1254.0         0.13         14.5 
      1255.0         0.10         17.5 
      1256.0         0.10         17.5 
      1257.0         0.07         19.7 
      1258.0         0.10         24.5 
      1259.0         0.10         24.5 
      1260.0         0.27         30.6 
      1261.0         0.20         34.0 
      1262.0         0.23         35.3 
      1263.0         0.33         36.2 
      1264.0         0.30         33.8 
      1265.0         0.30         32.5 
      1266.0         0.33         32.1 
      1267.0         0.32         31.5 
      1268.0         0.33         21.2 
      1269.0         0.73         16.8 
      1270.0         0.27         10.0 
      1271.0         0.27         11.0 
      1272.0         0.43         14.0 
      1273.0         0.53         29.3 
      1274.0         0.37         31.2 
      1275.0         0.45         29.8 
      1276.0         0.27         27.8 
      1277.0         1.10         26.2 
      1278.0         2.05         25.2 
      1279.0         0.30         25.0 
      1280.0         0.33         25.3 
      1281.0         0.27         24.8 
      1282.0         0.27         24.6 
      1283.0         0.33         26.0 
      1284.0         0.30         26.3 
      1285.0         0.33         26.2 
      1286.0         0.30         23.3 
      1287.0         0.30         22.2 
      1288.0         0.35         20.1 
      1289.0         0.30         18.4 
      1290.0         0.27         16.3 
      1291.0         0.30         15.4 
      1292.0         0.27         13.2 
      1293.0         0.37         13.2 
      1294.0         0.33         13.0 
      1295.0         0.37         13.0 
      1296.0         0.27         12.6 
      1297.0         0.27         12.3 
      1298.0         0.33         12.2 
      1299.0         0.28         12.1 
      1300.0         0.30         12.1 
      1301.0         0.30         12.2 
      1302.0         0.27         11.8 
      1303.0         0.27         11.3 
      1304.0         0.30         10.7 
      1305.0         0.57          6.3 
      1306.0         0.27          6.1 
      1307.0         1.32         22.5 
      1308.0         1.83         25.1 
      1309.0         0.33         20.4 
      1310.0         0.37         20.6 
      1311.0         0.37         22.3 
      1312.0         0.32         22.8 
      1313.0         0.27         22.5 
      1314.0         0.33         23.1 
      1315.0         0.33         23.1 
      1316.0         0.33         24.0 
      1317.0         0.27         23.6 
      1318.0         0.27         22.4 
      1319.0         0.27         16.9 
      1320.0         0.27         17.2 
      1321.0         0.37         16.9 
      1322.0         0.37         14.6 
      1323.0         0.32         13.3 
      1324.0         0.30          8.7 
      1325.0         0.23          9.3 
      1326.0         0.10          9.3 
      1327.0         0.10          8.7 
      1328.0         0.07          8.7 
      1329.0         0.13          6.0 
      1330.0         0.10          1.9 
      1331.0         0.13          1.9 
      1332.0         0.30          1.3 
      1333.0         0.30          0.3 
      1334.0         0.30          0.2 
      1335.0         0.33          3.3 
      1336.0         0.37          7.5 
      1337.0         1.45         10.5 
      1338.0         2.38         33.7 
      1339.0         0.27         36.8 
      1340.0         0.37         38.6 
      1341.0         0.33         38.3 
      1342.0         0.37         39.2 
      1343.0         0.30         39.0 
      1344.0         0.27         38.3 
      1345.0         0.30         37.4 
      1346.0         0.30         35.6 
      1347.0         0.27         32.9 
      1348.0         0.20         30.1 
      1349.0         0.10         30.1 
      1350.0         0.12         30.1 
      1351.0         0.17         29.8 
      1352.0         0.23         28.0 
      1353.0         0.23         28.9 
      1354.0         0.13         28.9 
      1355.0         0.30         29.6 
      1356.0         0.27         29.6 
      1357.0         0.30         29.7 
      1358.0         0.30         32.5 
      1359.0         0.30         32.9 
      1360.0         0.27         32.0 
      1361.0         0.37         29.7 
      1362.0         0.40         26.8 
      1363.0         0.38         26.2 
      1364.0         0.20         23.2 
      1365.0         0.40         21.6 
      1366.0         0.47         16.0 
      1367.0         1.30          3.1 
      1368.0         1.78          1.9 
      1369.0         0.17         11.1 
      1370.0         0.40         20.9 
      1371.0         0.53         22.5 
      1372.0         0.33         23.1 
      1373.0         0.30         23.3 
      1374.0         0.20         23.7 
      1375.0         0.07         23.1 
      1376.0         0.18         22.9 
      1377.0         0.43         22.9 
      1378.0         0.13         22.7 
      1379.0         0.20         22.7 
      1380.0         0.13         23.8 
      1381.0         0.17         24.6 
      1382.0         0.20         24.6 
      1383.0         0.30         26.3 
      1384.0         0.30         25.4 
      1385.0         0.27         25.8 
      1386.0         0.27         26.0 
      1387.0         0.53         26.3 
