~Version Information
VERS.                      2.0: CWLS Log ASCII Standard - VERSION 2.0
WRAP.                       NO: One line per depth step
~Well Information Block
STRT.FT               410.0000: 
STOP.FT              1252.0000: 
STEP.FT                 0.2500: 
NULL.                -999.2500: 
COMP.          Petrogulf Corporation: COMPANY
WELL.           Parsons 15-23R: WELL
FLD.           Purgatorie River: FIELD
LOC.           2244' FSL & 1932' FWL: LOCATION
PROV.                 Colorado: PROVINCE
CNTY.               Las Animas: COUNTRY
SRVC.                Patterson: SERVICE COMPANY
DATE.          Mon Sep 12 10:30:11 2005: LOG DATE
UWI.                          : UNIQUE WELL ID
~Curve Information Block
DEPT.FT            0 000 00 00: Depth
SP.mV                         : DIL Spontaneous Potential
RILD.Ohm-m                    : DIL Deep Resistivity
RILM.Ohm-m                    : DIL Medium Resistivity
RLL3.Ohm-m                    : DIL Shallow Resistivity
GR.GAPI                       : Gamma Ray
~Parameter Information Block
~A  Depth        SP         RILD        RILM        RLL3         GR     
# ...
  1222.0000    193.2456      8.1105      7.6353      9.0464    118.3355
  1222.2500    192.2909      8.2137      7.7305      8.6063    112.6578
  1222.5000    191.1727      8.6240      7.8998      8.3959    136.0116
  1222.7500    190.6783      8.9119      8.2503      8.0169    142.3600
  1223.0000    190.1048      9.0419      8.8283      8.2475    116.6694
  1223.2500    189.8279      9.1550      9.7314     11.9698     87.6671
  1223.5000    190.8204      9.1072     10.4873     26.6547     79.6820
  1223.7500    192.6035      8.9937     11.2835     58.5390     69.4542
  1224.0000    194.3823      9.0453     11.8396     70.0630     68.1297
  1224.2500    196.2811      9.1751     11.5978     45.8622     73.3076
  1224.5000    198.2371      9.1979     11.4497     25.0745    106.3277
  1224.7500    199.4018      9.3428     11.0124     15.6901    117.0403
  1225.0000    200.0364      9.5542     10.5772     12.0852    119.4855
  1225.2500    200.3864      9.6823     10.3662     10.7569    123.4887
  1225.5000    200.2988     10.1311     10.2104     10.3102    136.0999
  1225.7500    199.8034     10.3559     10.2412     10.3167    137.8485
  1226.0000    199.1045     10.3317     10.4464     10.4441    152.9312
  1226.2500    198.3133     10.4007     10.0933     10.5813    148.2549
  1226.5000    197.6803     10.4431     10.1177     10.6846    148.3862
  1226.7500    196.8303     10.3543     10.1798     10.5846    130.2912
  1227.0000    196.1832     10.3728     10.3023     10.8154    136.8276
  1227.2500    195.7793     10.3706     10.5379     11.1701    152.8872
  1227.5000    195.3323     10.4214     11.0482     11.9011    117.3573
  1227.7500    195.1566     10.4045     11.4904     13.4292    103.9602
  1228.0000    194.8891     10.5052     11.7006     16.0419     62.7178
  1228.2500    194.4833     10.6968     12.2465     18.0248     10.0370
  1228.5000    194.1150     11.1484     12.5302     18.3418      0.0097
  1228.7500    193.7388     11.3102     12.7491     17.6014   -999.2500
  1229.0000    192.9452     11.6793     12.9819     16.5568   -999.2500
  1229.2500    191.7519     12.0850     13.0871     15.6822   -999.2500
  1229.5000    190.4915     12.2271     13.0895     14.9713   -999.2500
  1229.7500    188.7894     12.3676     13.5201     14.3364   -999.2500
  1230.0000    186.3473     12.4403     13.7797     14.3225   -999.2500
  1230.2500    183.6031     12.8213     13.8683     14.0375   -999.2500
  1230.5000    179.8495     12.9485     14.0930     14.2859   -999.2500
  1230.7500    176.8948     13.1029     14.1779     15.1625   -999.2500
  1231.0000    174.5092     12.9465     14.0285     15.4206   -999.2500
  1231.2500    172.7253     12.9657     13.8458     15.2078   -999.2500
  1231.5000    171.0889     12.7769     13.7360     15.2767   -999.2500
  1231.7500    169.3749     12.6440     13.5827     15.1431   -999.2500
  1232.0000    167.3559     12.6753     13.5123     14.2859   -999.2500
  1232.2500    165.9241     12.7190     13.3635     14.0622   -999.2500
  1232.5000    164.5183     12.7050     13.5021     14.6344   -999.2500
  1232.7500    163.4862     12.4916     13.6167     15.4646   -999.2500
  1233.0000    162.5982     12.6146     13.4729     16.0944   -999.2500
  1233.2500    162.3461     12.3537     13.5482     15.8553   -999.2500
  1233.5000    161.8247     12.2514     13.6820     15.5907   -999.2500
  1233.7500    160.7787     12.4621     13.7594     15.5086   -999.2500
  1234.0000    159.2760     12.2159     13.4594     15.5452   -999.2500
  1234.2500    157.6401     11.8948     13.3347     14.7860   -999.2500
  1234.5000    156.2870     12.2203     13.4559     14.2227   -999.2500
  1234.7500    154.9658     12.0020     13.5125     14.0340   -999.2500
  1235.0000    153.7171     12.2701     13.7871     14.9731   -999.2500
  1235.2500    152.4222     12.2661     14.3324     15.7040   -999.2500
  1235.5000    151.6977     12.3651     14.4579     16.5889   -999.2500
  1235.7500    151.1661     12.4360     14.7565     19.1151   -999.2500
  1236.0000    150.8214     12.4467     14.6919     20.5783   -999.2500
  1236.2500    150.5911     12.2981     14.5245     19.0549   -999.2500
  1236.5000    150.2557     12.5394     14.8039     19.8184   -999.2500
  1236.7500    150.2421     12.6033     14.5303     20.4745   -999.2500
  1237.0000    150.4631     12.6842     14.7659     18.0903   -999.2500
  1237.2500    151.3143     13.0179     14.8686     15.3293   -999.2500
  1237.5000    151.5581     13.7996     14.8210     15.4467   -999.2500
  1237.7500    151.6644     14.0889     15.2985     18.1918   -999.2500
  1238.0000    151.3139     14.6297     15.9072     19.5853   -999.2500
  1238.2500    150.6248     14.7504     15.8509     17.8329   -999.2500
  1238.5000    150.0556     15.6472     16.9817     17.0130   -999.2500
  1238.7500    149.5449     15.9379     17.8525     17.8215   -999.2500
  1239.0000    148.8765     16.4285     19.2704     18.6871   -999.2500
  1239.2500    148.7228     16.9881     21.3409     21.9447   -999.2500
  1239.5000    148.1435     17.7104     23.1409     37.6109   -999.2500
  1239.7500    147.8238     18.5751     26.4290     68.3606   -999.2500
  1240.0000    146.6315     19.2879     29.6656    100.3579   -999.2500
  1240.2500    131.3088     21.9107     31.3282    104.4990   -999.2500
  1240.5000     15.6944     59.4216     34.5814     97.4687   -999.2500
  1240.7500      0.0388     76.8925     38.0633     94.4273   -999.2500
  1241.0000   -999.2500    271.0081     41.7137     94.7590   -999.2500
  1241.2500   -999.2500    273.3317     45.0215     97.0469   -999.2500
  1241.5000   -999.2500    290.3983     46.8880    101.9954   -999.2500
  1241.7500   -999.2500    295.8550     51.8405    108.4267   -999.2500
  1242.0000   -999.2500    305.3495     52.5115    113.4918   -999.2500
  1242.2500   -999.2500    316.5258     47.0882    114.4198   -999.2500
  1242.5000   -999.2500    330.0930     46.3571    103.7170   -999.2500
  1242.7500   -999.2500    347.0085     40.5074     81.0832   -999.2500
  1243.0000   -999.2500    360.8951     34.5481     52.5067   -999.2500
  1243.2500   -999.2500    412.2905     28.9606     29.9644   -999.2500
  1243.5000   -999.2500   1297.9501     25.4008     19.4812   -999.2500
  1243.7500   -999.2500   1820.1730     23.0199     16.4410   -999.2500
  1244.0000   -999.2500 100000.0000     23.1525     15.5798   -999.2500
  1244.2500   -999.2500 100000.0000     74.7426     15.3602   -999.2500
  1244.5000   -999.2500 100000.0000    108.2219     15.6629   -999.2500
  1244.7500   -999.2500 100000.0000   1354.7773     16.0727   -999.2500
  1245.0000   -999.2500 100000.0000   1524.6776     16.7334   -999.2500
  1245.2500   -999.2500 100000.0000   1610.1600     16.7858   -999.2500
  1245.5000   -999.2500 100000.0000   1783.2460     15.9370   -999.2500
  1245.7500   -999.2500 100000.0000   1969.8235     14.9957   -999.2500
  1246.0000   -999.2500 100000.0000   2170.1973     14.2469   -999.2500
  1246.2500   -999.2500 100000.0000   2359.1089     13.9068   -999.2500
  1246.5000   -999.2500 100000.0000   2497.5405     13.8267   -999.2500
  1246.7500   -999.2500 100000.0000   2748.4944     13.7400   -999.2500
  1247.0000   -999.2500 100000.0000   2790.2375     13.6584   -999.2500
  1247.2500   -999.2500 100000.0000   2470.1895     13.7022   -999.2500
  1247.5000   -999.2500   -999.2500   2430.0420     14.1080   -999.2500
  1247.7500   -999.2500   -999.2500   2102.9087     14.2091   -999.2500
  1248.0000   -999.2500   -999.2500   1776.7942     13.9950   -999.2500
  1248.2500   -999.2500   -999.2500   1479.9576     13.6126   -999.2500
  1248.5000   -999.2500   -999.2500   1289.9980     13.3508   -999.2500
  1248.7500   -999.2500   -999.2500   1164.7397     13.5979   -999.2500
  1249.0000   -999.2500   -999.2500   1169.2434     13.8489   -999.2500
  1249.2500   -999.2500   -999.2500   3942.2319     12.3256   -999.2500
  1249.5000   -999.2500   -999.2500   5848.5000      0.5925   -999.2500
  1249.7500   -999.2500   -999.2500 100000.0000     -0.9961   -999.2500
