~Version Information
VERS.                      2.0: CWLS Log ASCII Standard - VERSION 2.0
WRAP.                       NO: One line per depth step
~Well Information Block
STRT.FT                -6.5000: 
STOP.FT              1467.0000: 
STEP.FT                 0.2500: 
NULL.                -999.2500: 
COMP.          Pioneer Natural Resources: COMPANY
WELL.          Surtees 23-34 Tr: WELL
FLD.           Purgatorie River: FIELD
LOC.           1559' FSL & 1997' FWL--: LOCATION
PROV.                       CO: PROVINCE
CNTY.               Las Animas: COUNTRY
SRVC.          Patterson Wireline: SERVICE COMPANY
DATE.          Tue Aug 02 13:04:45 2005: LOG DATE
UWI.           05 071 08449 00: UNIQUE WELL ID
~Curve Information Block
DEPT.FT            0 000 00 00: Depth
CCL.                          : Casing Collar Locator
TT3.usec                      : CBL 3' Travel Time
AMP3.mV                       : CBL 3' Amplitude
GR.GAPI                       : Gamma Ray
~Parameter Information Block
~A  Depth       CCL         TT3         AMP3         GR     
# ...
  1065.5000      0.0000    797.1175      6.0825    139.4257
  1065.7500      0.0000    789.5331      6.0509    139.0891
  1066.0000      0.0000    780.9957      6.0191    138.3129
  1066.2500      0.0000    773.5384      5.9882    136.7563
  1066.5000      0.0000    768.5434      5.9611    133.6062
  1066.7500      0.0000    766.1745      5.9388    128.0500
  1067.0000      0.0000    765.9647      5.9188    120.7485
  1067.2500      0.0000    767.6170      5.8956    114.2261
  1067.5000      0.0000    771.1151      5.8597    111.0831
  1067.7500      0.0000    776.2883      5.8021    111.8606
  1068.0000      0.0000    782.5909      5.7238    114.9567
  1068.2500      0.0000    789.3125      5.6404    118.3651
  1068.5000      0.0000    795.7382      5.5747    121.0302
  1068.7500      0.0000    801.1349      5.5419    122.6072
  1069.0000      0.0000    804.9495      5.5439    122.6149
  1069.2500      0.0000    807.1332      5.5733    120.4682
  1069.5000      0.0000    808.0712      5.6162    116.3997
  1069.7500      0.0000    808.1439      5.6546    111.8954
  1070.0000      0.0000    807.3940      5.6718    108.9739
  1070.2500      0.0000    805.6367      5.6604    109.0964
  1070.5000      0.0000    803.0000      5.6275    112.6081
  1070.7500      0.0000    800.4024      5.5920    118.6048
  1071.0000      0.0000    799.2058      5.5776    124.9331
  1071.2500      0.0000    800.0316      5.6008    128.6633
  1071.5000      0.0000    802.0034      5.6616    127.5393
  1071.7500      0.0000    803.2822      5.7455    121.7129
  1072.0000      0.0000    802.2023      5.8324    113.9303
  1072.2500      0.0000    798.1016      5.9056    107.6238
  1072.5000      0.0000    791.8292      5.9538    104.7875
  1072.7500      0.0000    785.7495      5.9734    105.5553
  1073.0000      0.0000    782.5109      5.9743    109.2205
  1073.2500      0.0000    783.0601      5.9810    114.9967
  1073.5000      0.0000    785.8322      6.0224    121.5555
  1073.7500      0.0000    788.0142      6.1117    126.3077
  1074.0000      0.0000    787.2195      6.2330    126.1258
  1074.2500      0.0000    782.3037      6.3463    119.3107
  1074.5000      0.0000    774.3070      6.4079    106.7777
  1074.7500      0.0000    767.4197      6.3896     91.4334
  1075.0000      0.0000    767.0015      6.2931     76.5998
  1075.2500      0.0000    774.4971      6.1544     64.6072
  1075.5000      0.0000    785.1431      6.0315     56.2350
  1075.7500      0.0000    792.3858      5.9769     51.1713
  1076.0000      0.0000    794.1766      6.0090     48.9227
  1076.2500      0.0000    793.8065      6.1048     49.2779
  1076.5000      0.0000    795.1539      6.2141     52.1257
  1076.7500      0.0000    798.6723      6.2847     57.2332
  1077.0000      0.0000    802.0446      6.2829     64.3638
  1077.2500      0.0000    803.1145      6.2046     73.2775
  1077.5000      0.0000    801.4126      6.0725     83.4415
  1077.7500      0.0000    797.7710      5.9281     93.8899
  1078.0000      0.0000    793.3559      5.8198    103.1765
  1078.2500      0.0000    789.1770      5.7829    109.2051
  1078.5000      0.0000    786.2990      5.8203    109.8072
  1078.7500      0.0000    785.8238      5.9012    104.5962
  1079.0000      0.0000    787.8421      5.9830     96.4230
  1079.2500      0.0000    790.7482      6.0356     90.3697
  1079.5000      0.0000    792.4314      6.0487     90.7239
  1079.7500      0.0000    791.8122      6.0274     98.3351
  1080.0000      0.0000    789.0142      5.9879    110.2060
  1080.2500      0.0000    785.2900      5.9531    121.4741
  1080.5000      0.0000    783.3763      5.9433    128.3547
  1080.7500      0.0000    786.3320      5.9665    129.9293
  1081.0000      0.0000    794.8644      6.0143    127.5587
  1081.2500      0.0000    806.9370      6.0680    122.7175
  1081.5000      0.0000    820.9882      6.1087    115.5313
  1081.7500      0.0000    838.4200      6.1278    105.5331
  1082.0000      0.0000    861.3804      6.1291     93.6415
  1082.2500      0.0000    888.2795      6.1249     82.7297
  1082.5000      0.0000    912.8040      6.1261     75.6216
  1082.7500      0.0000    928.1874      6.1360     72.6007
  1083.0000      0.0000    931.9410      6.1507     71.4512
  1083.2500      0.0000    925.9905      6.1669     69.9856
  1083.5000      0.0000    913.4326      6.1839     68.0741
  1083.7500      0.0000    896.3503      6.2018     67.3201
  1084.0000      0.0000    876.2022      6.2174     69.3677
  1084.2500      0.0000    855.1570      6.2243     74.5349
  1084.5000      0.0000    836.1557      6.2175     81.5500
  1084.7500      0.0000    821.3065      6.1972     88.4460
  1085.0000      0.0000    810.7197      6.1692     93.9050
  1085.2500      0.0000    803.1142      6.1422     97.9390
  1085.5000      0.0000    796.7000      6.1231    101.5238
  1085.7500      0.0000    789.3618      6.1129    105.7038
  1086.0000      0.0000    780.0353      6.1078    110.8297
  1086.2500      0.0000    771.3233      6.1026    116.3426
  1086.5000      0.0000    768.8093      6.0941    121.2327
  1086.7500      0.0000    775.7196      6.0806    124.9201
  1087.0000      0.0000    788.8947      6.0621    127.8852
  1087.2500      0.0000    801.2495      6.0410    131.4483
  1087.5000      0.0000    807.4355      6.0207    136.7572
  1087.7500      0.0000    806.2224      6.0036    143.8047
  1088.0000      0.0000    799.0366      5.9913    151.3415
  1088.2500      0.0000    788.7927      5.9817    157.6431
  1088.5000      0.0000    779.8507      5.9606    161.2100
  1088.7500      0.0000    776.1285      5.8973    160.7519
  1089.0000      0.0000    777.9077      5.7596    154.9463
  1089.2500      0.0000    782.0326      5.5474    143.0230
  1089.5000      0.0000    786.3209      5.3167    126.0398
  1089.7500      0.0000    792.6447      5.1503    107.2398
  1090.0000      0.0000    805.5038      5.0810     90.4576
  1090.2500      0.0000    828.7004      5.0536     77.7729
  1090.5000      0.0000    862.9139      4.9925     68.5839
  1090.7500      0.0000    904.3254      4.8915     60.8375
  1091.0000      0.0000    944.6691      4.8073     53.0305
  1091.2500     -2.0000    973.3986      4.7805     45.2458
  1091.5000      2.0000    981.5846      4.7997     38.8508
  1091.7500      0.0000    968.1300      4.8372     35.6872
  1092.0000      0.0000    944.8264      4.9024     37.2104
  1092.2500      0.0000    930.6923      5.0535     43.5553
  1092.5000      0.0000    935.4781      5.3422     53.0581
  1092.7500      0.0000    949.8201      5.7301     62.9407
  1093.0000      0.0000    955.2396      6.0769     70.8344
  1093.2500      0.0000    943.5834      6.2496     76.0452
  1093.5000      0.0000    925.2127      6.2371     79.7844
  1093.7500      0.0000    918.8458      6.1359     84.3006
  1094.0000      0.0000    933.6658      6.0448     91.3364
  1094.2500      0.0000    959.4553      5.9985    100.8087
  1094.5000      0.0000    973.7461      5.9819    110.7270
  1094.7500      0.0000    960.6661      5.9732    118.6888
  1095.0000      0.0000    924.0778      5.9644    123.8041
  1095.2500      0.0000    882.3254      5.9542    127.0425
  1095.5000      0.0000    851.6560      5.9360    129.5782
  1095.7500      0.0000    836.5576      5.9002    131.3038
  1096.0000      0.0000    833.3600      5.8464    131.3689
  1096.2500      0.0000    837.3824      5.7867    129.8031
  1096.5000      0.0000    844.3542      5.7359    127.9519
  1096.7500      0.0000    848.7560      5.6995    127.1345
  1097.0000      0.0000    845.5781      5.6715    127.1454
  1097.2500      0.0000    834.1172      5.6433    126.4280
  1097.5000      0.0000    817.9977      5.6118    123.7335
  1097.7500      0.0000    801.5735      5.5800    119.2711
  1098.0000      0.0000    787.3707      5.5522    114.2800
  1098.2500      0.0000    776.2741      5.5320    110.1513
  1098.5000      0.0000    768.5660      5.5239    108.2044
  1098.7500      0.0000    764.3407      5.5330    109.4454
