~Version Information
VERS.                      2.0: CWLS Log ASCII Standard - VERSION 2.0
WRAP.                       NO: One line per depth step
~Well Information Block
STRT.FT               196.3000: 
STOP.FT              1631.0000: 
STEP.FT                 0.1000: 
NULL.                -999.2500: 
COMP.          Petrogulf Corporation: COMPANY
WELL.             State 16-44R: WELL
FLD.           Purgatoire River: FIELD
LOC.           632' FSL & 223' FEL--: LOCATION
PROV.                 Colorado: PROVINCE
CNTY.               Las Animas: COUNTRY
SRVC.                Patterson: SERVICE COMPANY
DATE.          Fri Oct 21 14:20:18 2005: LOG DATE
UWI.           05 071 08457 00: UNIQUE WELL ID
~Curve Information Block
DEPT.FT            0 000 00 00: Depth
DCAL.in                       : CDL Caliper
RHOB.g/cc                     : CDL Bulk Density
RHOC.g/cc                     : CDL Density Correction
DPOR.pu                       : CDL Density Porosity
NPOR.pu                       : Neutron Porosity
GR.GAPI                       : Gamma Ray
~Parameter Information Block
~A  Depth       DCAL        RHOB        RHOC        DPOR        NPOR         GR     
# ...
  1127.5000      7.9258      2.5543      0.0454      5.8026     17.7768     57.5691
  1127.6000      7.9258      2.5458      0.0692      6.3181     17.5533     58.2444
  1127.7000      7.9258      2.5401      0.0428      6.6614     17.8737     57.7027
  1127.8000      7.9227      2.5404      0.0263      6.6434     17.8771     55.9663
  1127.9000      7.9227      2.5451      0.0445      6.3565     17.3979     56.4063
  1128.0000      7.9211      2.5575      0.0336      5.6086     17.4335     58.6058
  1128.1000      7.9211      2.5817      0.0395      4.1377     18.0202     57.8902
  1128.2000      7.9211      2.6057      0.0878      2.6829     18.3526     53.2906
  1128.3000      7.9210      2.6114      0.0674      2.3420     17.9653     49.2940
  1128.4000      7.9210      2.6038      0.0652      2.7990     17.0496     50.1443
  1128.5000      7.9205      2.6008      0.0620      2.9839     16.5291     53.6002
  1128.6000      7.9205      2.6038      0.0848      2.7985     16.8265     53.6923
  1128.7000      7.9205      2.5961      0.0863      3.2661     17.5153     50.5534
  1128.8000      7.9216      2.5703      0.0492      4.8314     18.1947     49.1176
  1128.9000      7.9216      2.5516      0.0473      5.9630     18.8210     50.9257
  1129.0000      7.9246      2.5606      0.0561      5.4174     19.2772     52.6174
  1129.1000      7.9246      2.5822      0.0793      4.1075     19.1721     51.0925
  1129.2000      7.9246      2.5896      0.0984      3.6630     18.6530     48.1182
  1129.3000      7.9264      2.5734      0.0510      4.6448     18.2421     47.1914
  1129.4000      7.9264      2.5464      0.0332      6.2764     18.3478     48.7582
  1129.5000      7.9267      2.5272      0.0279      7.4406     19.1080     50.0667
  1129.6000      7.9267      2.5277      0.0392      7.4127     19.9365     49.5688
  1129.7000      7.9267      2.5460      0.0636      6.3027     20.0025     49.2439
  1129.8000      7.9267      2.5708      0.0469      4.7986     19.9005     50.5151
  1129.9000      7.9267      2.5948      0.0627      3.3440     20.8357     52.8839
  1130.0000      7.9258      2.6139      0.0942      2.1880     22.3563     57.5649
  1130.1000      7.9258      2.6179      0.1279      1.9483     23.3594     64.9721
  1130.2000      7.9258      2.5962      0.0853      3.2586     24.2647     71.4143
  1130.3000      7.9235      2.5576      0.0495      5.5973     25.6860     76.1512
  1130.4000      7.9235      2.5250      0.0503      7.5783     26.4875     83.4894
  1130.5000      7.9232      2.5086      0.0506      8.5691     25.9101     95.1369
  1130.6000      7.9232      2.5026      0.0411      8.9355     25.2022    107.6371
  1130.7000      7.9232      2.5027      0.0466      8.9276     25.3122    118.8622
  1130.8000      7.9268      2.5082      0.0565      8.5953     26.0803    128.3423
  1130.9000      7.9268      2.5163      0.0441      8.1037     27.0274    138.7349
  1131.0000      7.9342      2.5241      0.0673      7.6308     27.8147    150.7328
  1131.1000      7.9342      2.5258      0.0573      7.5259     28.2072    159.2504
  1131.2000      7.9342      2.5221      0.0437      7.7503     28.1158    163.2173
  1131.3000      7.9421      2.5237      0.0823      7.6574     27.9419    167.1424
  1131.4000      7.9421      2.5325      0.1370      7.1214     27.8500    170.8004
  1131.5000      7.9423      2.5413      0.1172      6.5860     27.7625    167.5206
  1131.6000      7.9423      2.5477      0.1216      6.2020     27.7096    158.7050
  1131.7000      7.9423      2.5525      0.1130      5.9121     27.6684    152.7268
  1131.8000      7.9370      2.5544      0.1240      5.7910     27.6085    148.0140
  1131.9000      7.9370      2.5526      0.0845      5.9054     27.2872    141.3120
  1132.0000      7.9317      2.5497      0.1050      6.0817     26.7846    135.4816
  1132.1000      7.9317      2.5504      0.0876      6.0391     26.5739    131.3395
  1132.2000      7.9317      2.5605      0.0698      5.4245     26.3181    126.7533
  1132.3000      7.9257      2.5785      0.0821      4.3309     25.6016    123.4988
  1132.4000      7.9257      2.5888      0.0790      3.7114     24.9410    123.2485
  1132.5000      7.9211      2.5784      0.0701      4.3374     25.0405    122.9354
  1132.6000      7.9211      2.5643      0.0316      5.1954     25.7689    123.4271
  1132.7000      7.9211      2.5737      0.0433      4.6261     26.3752    124.8862
  1132.8000      7.9202      2.5965      0.1044      3.2407     26.7719    123.0850
  1132.9000      7.9202      2.6030      0.0707      2.8514     27.3641    120.8455
  1133.0000      7.9231      2.5919      0.0545      3.5228     27.9086    122.5381
  1133.1000      7.9231      2.5792      0.0694      4.2892     28.2765    126.0825
  1133.2000      7.9231      2.5630      0.0751      5.2739     28.6353    130.2778
  1133.3000      7.9262      2.5336      0.0289      7.0533     28.5354    135.5098
  1133.4000      7.9262      2.5027      0.0444      8.9288     27.8754    142.8149
  1133.5000      7.9258      2.4901      0.0323      9.6925     27.3389    154.6780
  1133.6000      7.9258      2.4926      0.0813      9.5403     27.4680    165.7351
  1133.7000      7.9258      2.4931      0.0610      9.5082     28.1148    167.3333
  1133.8000      7.9238      2.4921      0.0626      9.5690     28.4394    162.8313
  1133.9000      7.9238      2.4967      0.0700      9.2939     28.0231    161.9741
  1134.0000      7.9213      2.5002      0.0924      9.0813     27.6543    164.4307
  1134.1000      7.9213      2.4951      0.0470      9.3874     27.8703    165.3931
  1134.2000      7.9213      2.4884      0.0341      9.7931     28.3794    163.1322
  1134.3000      7.9212      2.4875      0.0316      9.8496     28.9896    157.2217
  1134.4000      7.9212      2.4901      0.0599      9.6899     29.6105    154.4069
  1134.5000      7.9269      2.4961      0.0511      9.3246     29.8879    159.4030
  1134.6000      7.9269      2.5063      0.1075      8.7082     29.7506    163.8179
  1134.7000      7.9269      2.5149      0.0684      8.1894     29.5518    164.0103
  1134.8000      7.9377      2.5145      0.0962      8.2097     29.4448    166.6705
  1134.9000      7.9377      2.5021      0.0697      8.9634     29.2116    172.5763
  1135.0000      7.9459      2.4829      0.0338     10.1260     28.9751    176.4010
  1135.1000      7.9459      2.4612      0.0793     11.4406     29.0289    178.8943
  1135.2000      7.9459      2.4412      0.0058     12.6557     29.3314    180.1751
  1135.3000      7.9485      2.4367      0.0104     12.9263     29.5959    174.6511
  1135.4000      7.9485      2.4531      0.0446     11.9334     29.2341    162.5734
  1135.5000      7.9427      2.4832      0.0872     10.1118     28.2799    150.8714
  1135.6000      7.9427      2.5237      0.0910      7.6550     27.5415    143.7059
  1135.7000      7.9427      2.5796      0.0921      4.2676     27.3634    139.0419
  1135.8000      7.9258      2.6454      0.1492      0.2790     27.5431    136.5577
  1135.9000      7.9258      2.6990      0.1894     -2.9707     27.7928    138.0024
  1136.0000      7.9065      2.7292      0.1469     -4.7980     27.8040    140.7136
  1136.1000      7.9065      2.7324      0.1891     -4.9944     27.4964    140.2843
  1136.2000      7.9065      2.7062      0.1079     -3.4075     27.0647    136.7717
  1136.3000      7.8986      2.6734      0.0176     -1.4165     26.8158    132.6842
  1136.4000      7.8986      2.6512      0.0580     -0.0712     26.9161    127.7796
  1136.5000      7.9053      2.6279     -0.0445      1.3408     27.1319    123.1985
  1136.6000      7.9053      2.6030     -0.0678      2.8513     27.2322    122.2511
  1136.7000      7.9053      2.5864     -0.0822      3.8527     27.2136    126.2225
  1136.8000      7.9173      2.5810     -0.1163      4.1796     27.1741    132.9785
  1136.9000      7.9173      2.5873     -0.0780      3.7975     27.2610    139.3075
  1137.0000      7.9247      2.5926      0.0333      3.4812     27.5150    143.0448
