~Version Information
 VERS.                                  2.0 : CWLS LAS VERSION
 WRAP.                                   NO : WRAPING MODE
 SWARE .                 MController 2.5.0N : SOFTWARE VERSION
~Well Information
 WELL.                            AMX 13-13 : WELL
 COMP.  Pioneer Natural Resources USA, Inc. : COMPANY
 FLD.                      Purgatoire River : FIELD
 LOC.                      NW/SW 13-32S-68W : LOCATION
 DATE.                          12/18-19/05 : DATE(S) LOGGED
 SRVC.       BLANCO Geological Services LLC : SERVICE COMPANY
 STAT.                                   CO : STATE
 CNTY.                           Las Animas : COUNTY
 CTRY.                                  USA : COUNTRY
 API.                          05-071-08630 : API NUMBER
 STRT.FT                             496.00 : START DEPTH
 STOP.FT                            2875.00 : STOP DEPTH
 STEP.FT                               1.00 : DEPTH INCREMENT
 NULL.                                -9999 : NULL VALUE
~Curve information
 DEPTH.FT                                   :
 ROP.MIN/FT                                 :
 GAS.UNITS                                  :
~ASCII Log data
# ...
      1096.0         0.27         18.1 
      1097.0         0.33         17.7 
      1098.0         0.38         17.3 
      1099.0         0.30         17.1 
      1100.0         0.23         17.2 
      1101.0         0.30         16.8 
      1102.0         0.30         15.6 
      1103.0         0.27         14.4 
      1104.0         0.20         14.1 
      1105.0         0.33         17.8 
      1106.0         1.38         47.0 
      1107.0         0.20         40.8 
      1108.0         0.40         35.9 
      1109.0         0.40         26.1 
      1110.0         0.43         24.3 
      1111.0         0.37         24.6 
      1112.0         0.13         25.2 
      1113.0         0.23         26.1 
      1114.0         0.17         26.5 
      1115.0         0.17         26.2 
      1116.0         0.13         25.7 
      1117.0         0.13         24.3 
      1118.0         0.23         24.1 
      1119.0         0.22         22.2 
      1120.0         0.20         20.7 
      1121.0         0.13         20.0 
      1122.0         0.20         19.3 
      1123.0         0.20         19.1 
      1124.0         0.23         19.1 
      1125.0         0.20         19.0 
      1126.0         0.17         18.2 
      1127.0         0.17         18.4 
      1128.0         0.10         17.8 
      1129.0         0.20         17.9 
      1130.0         0.20         18.2 
      1131.0         0.17         18.0 
      1132.0         0.23         17.8 
      1133.0         0.20         17.3 
      1134.0         0.10         16.5 
      1135.0         0.20         16.3 
      1136.0         1.65         70.1 
      1137.0         0.30         65.4 
      1138.0         0.30         63.5 
      1139.0         0.23         62.1 
      1140.0         0.10         59.1 
      1141.0         0.20         57.1 
      1142.0         0.27         52.3 
      1143.0         0.27         46.2 
      1144.0         0.23         40.8 
      1145.0         0.32         37.7 
      1146.0         0.27         33.3 
      1147.0         0.23         30.2 
      1148.0         0.43         28.8 
      1149.0         0.30         27.0 
      1150.0         0.23         26.1 
      1151.0         0.23         25.6 
      1152.0         0.23         27.2 
      1153.0         0.23         44.6 
      1154.0         0.20         64.8 
      1155.0         0.23         78.3 
      1156.0         0.27         80.3 
      1157.0         0.27         79.0 
      1158.0         0.25         72.3 
      1159.0         0.27         64.4 
      1160.0         0.17         57.4 
      1161.0         0.20         54.1 
      1162.0         0.17         50.6 
      1163.0         0.23         47.2 
      1164.0         0.23         42.1 
      1165.0         0.20         40.6 
      1166.0         2.25        156.2 
      1167.0         0.37        116.2 
      1168.0         0.33         96.2 
      1169.0         0.33         78.2 
      1170.0         0.63         70.2 
      1171.0         0.37         66.1 
      1172.0         0.20         63.1 
      1173.0         0.30         61.1 
      1174.0         0.28         56.7 
      1175.0         0.23         51.3 
      1176.0         0.27         45.4 
      1177.0         0.23         38.3 
      1178.0         0.67         35.1 
      1179.0         0.33         38.9 
      1180.0         0.47         43.9 
      1181.0         0.43         44.1 
      1182.0         0.40         42.9 
      1183.0         0.62         43.2 
      1184.0         0.50         46.1 
      1185.0         0.37         45.9 
      1186.0         0.37         43.8 
      1187.0         0.30         40.7 
      1188.0         0.30         38.3 
      1189.0         0.23         36.4 
      1190.0         0.23         34.8 
      1191.0         0.17         35.1 
      1192.0         0.20         35.5 
      1193.0         0.20         36.6 
      1194.0         0.22         37.5 
      1195.0         0.37         37.8 
      1196.0         2.88        141.3 
      1197.0         0.57        132.0 
      1198.0         0.57         93.1 
      1199.0         0.47         65.5 
      1200.0         0.53         56.7 
      1201.0         0.57         49.9 
      1202.0         0.37         44.1 
      1203.0         0.45         40.5 
      1204.0         0.40         37.2 
      1205.0         0.43         34.1 
      1206.0         0.37         30.3 
      1207.0         0.30         28.5 
      1208.0         0.17         28.0 
      1209.0         0.23         27.5 
      1210.0         0.27         26.9 
      1211.0         0.30         26.0 
      1212.0         0.27         24.9 
      1213.0         0.25         24.4 
      1214.0         0.30         24.2 
      1215.0         0.27         23.7 
      1216.0         0.30         23.3 
      1217.0         0.27         22.7 
      1218.0         0.33         23.3 
      1219.0         0.27         23.9 
      1220.0         0.30         24.1 
      1221.0         0.23         24.1 
      1222.0         0.23         21.3 
      1223.0         0.23         18.0 
      1224.0         0.20         16.8 
      1225.0         0.42         24.7 
      1226.0         3.52        198.2 
      1227.0         0.27         62.9 
      1228.0         0.30         51.0 
      1229.0         0.23         42.2 
      1230.0         0.23         38.4 
      1231.0         0.27         36.3 
      1232.0         0.27         33.7 
      1233.0         0.27         30.5 
      1234.0         0.23         27.1 
      1235.0         0.20         24.9 
      1236.0         0.23         23.1 
      1237.0         0.23         21.6 
      1238.0         0.23         20.6 
      1239.0         0.25         20.1 
      1240.0         0.23         19.3 
      1241.0         0.23         18.0 
      1242.0         0.20         17.4 
      1243.0         0.30         17.2 
      1244.0         0.30         17.1 
      1245.0         0.27         18.0 
      1246.0         0.27         18.7 
      1247.0         0.23         19.4 
      1248.0         0.20         19.5 
      1249.0         0.20         19.4 
      1250.0         0.23         19.1 
      1251.0         0.23         18.8 
      1252.0         0.23         18.3 
      1253.0         0.28         17.7 
      1254.0         0.23         16.0 
      1255.0         0.27         13.2 
      1256.0        14.13         76.8 
      1257.0         0.27         24.6 
      1258.0         0.30         24.4 
      1259.0         0.27         23.5 
      1260.0         0.27         21.7 
      1261.0         0.30         41.8 
      1262.0         0.27        501.3 
      1263.0         0.28       2651.7 
      1264.0         0.47       3677.3 
      1265.0         0.93       3599.5 
      1266.0         0.63       1799.2 
      1267.0         1.17       2993.3 
      1268.0         0.48       2996.4 
      1269.0         0.43       2730.8 
      1270.0         0.70       2496.4 
      1271.0         0.63       1925.2 
      1272.0         0.60       1293.0 
      1273.0         0.72        972.7 
      1274.0         0.57        823.0 
      1275.0         0.47       1308.9 
      1276.0         0.63       2306.4 
      1277.0         0.60       2653.6 
      1278.0         0.50       2648.9 
      1279.0         0.55       2383.3 
      1280.0         0.50       1781.1 
      1281.0         0.47       1190.2 
      1282.0         0.57        617.7 
      1283.0         0.53        440.0 
      1284.0         0.37        280.1 
      1285.0         0.37       2591.7 
      1286.0         2.32       7412.7 
      1287.0         0.37       1991.7 
      1288.0         0.53       1338.6 
      1289.0         0.40       1210.2 
      1290.0         0.35       1233.6 
      1291.0         0.30       1270.8 
      1292.0         0.30       1310.5 
      1293.0         0.20       1333.3 
      1294.0         0.27       1350.2 
      1295.0         0.27       1376.4 
