~Version Information
VERS.                      2.0: CWLS Log ASCII Standard - VERSION 2.0
WRAP.                       NO: One line per depth step
~Well Information Block
STRT.FT                10.0000: 
STOP.FT               743.5000: 
STEP.FT                 0.1000: 
NULL.                -999.2500: 
COMP.          Pioneer Natural Resources: COMPANY
WELL.                Mia 21-18: WELL
FLD.           Purgatorie River: FIELD
LOC.           1067' FNL & 1824' FWL: LOCATION
PROV.                 Colorado: PROVINCE
CNTY.               Las Animas: COUNTRY
SRVC.                Patterson: SERVICE COMPANY
DATE.          Tue Nov 22 15:40:03 2005: LOG DATE
UWI.           05-071-08559               : UNIQUE WELL ID
~Curve Information Block
DEPT.FT            0 000 00 00: Depth
DCAL.in                       : CDL Caliper
RHOB.g/cc                     : CDL Bulk Density
RHOC.g/cc                     : CDL Density Correction
DPOR.pu                       : CDL Density Porosity
GR.GAPI                       : Gamma Ray
NPOR.pu                       : Neutron Porosity
~Parameter Information Block
~A  Depth       DCAL        RHOB        RHOC        DPOR         GR         NPOR    
# ...
   346.0000      7.9876      2.8280     -0.1602    -10.7876     67.0230     31.4860
   346.1000      7.9876      2.7403     -0.0879     -5.4735     70.2105     30.0409
   346.2000      7.9876      2.6842     -0.0211     -2.0730     74.4782     28.6819
   346.3000      8.0002      2.6521     -0.0083     -0.1255     80.3968     27.0992
   346.4000      8.0002      2.6380      0.0936      0.7262     88.2138     25.1515
   346.5000      8.0068      2.6265      0.1269      1.4254     97.4215     23.4599
   346.6000      8.0068      2.6012      0.1438      2.9564    104.2710     22.2684
   346.7000      8.0068      2.5584      0.1464      5.5514    105.6194     21.1028
   346.8000      8.0221      2.5100      0.0482      8.4862    104.4262     19.7602
   346.9000      8.0221      2.4798      0.0401     10.3125    107.0627     18.7184
   347.0000      8.0562      2.4771      0.0932     10.4760    115.3543     18.4060
   347.1000      8.0562      2.4854      0.1216      9.9740    124.6722     18.7012
   347.2000      8.0562      2.4846      0.1045     10.0262    129.9932     19.2219
   347.3000      8.0687      2.4694      0.1193     10.9433    132.3708     19.7032
   347.4000      8.0687      2.4560      0.0589     11.7567    136.0366     20.2286
   347.5000      8.0935      2.4574      0.1547     11.6713    141.0239     20.9340
   347.6000      8.0935      2.4652      0.1046     11.1992    146.2021     21.6739
   347.7000      8.0935      2.4776      0.0970     10.4455    150.6381     22.3482
   347.8000      8.1164      2.4940      0.1595      9.4561    152.1631     23.0173
   347.9000      8.1164      2.5023      0.0977      8.9524    151.0878     23.5003
   348.0000      8.1190      2.4984      0.0947      9.1878    148.0839     23.7004
   348.1000      8.1190      2.4766      0.1257     10.5098    143.6177     23.8731
   348.2000      8.1190      2.4327      0.0844     13.1719    140.7208     24.1060
   348.3000      8.1837      2.3822      0.0403     16.2315    140.7846     24.0527
   348.4000      8.1837      2.3452      0.0466     18.4728    141.3720     23.3788
   348.5000      8.1843      2.3273      0.0366     19.5599    141.8719     22.4724
   348.6000      8.1843      2.3226      0.0340     19.8406    143.5173     22.0085
   348.7000      8.1843      2.3228      0.0486     19.8317    146.7258     21.9381
   348.8000      8.1508      2.3285      0.0375     19.4875    152.0096     21.9434
   348.9000      8.1508      2.3491      0.0745     18.2370    158.0136     22.0031
   349.0000      8.2107      2.3803      0.1578     16.3472    161.1719     22.2306
   349.1000      8.2107      2.4092      0.1342     14.5960    159.2088     22.8164
   349.2000      8.2107      2.4358      0.1833     12.9818    152.7253     23.6983
   349.3000      8.2000      2.4629      0.1698     11.3416    144.4223     24.4217
   349.4000      8.2000      2.4891      0.1267      9.7514    137.3553     24.6947
   349.5000      8.2359      2.5055      0.2106      8.7591    134.2601     24.8200
   349.6000      8.2359      2.4962      0.1704      9.3195    136.6956     25.1410
   349.7000      8.2359      2.4663      0.1198     11.1318    141.1723     25.3821
   349.8000      8.2555      2.4290      0.1351     13.3919    142.3840     25.2868
   349.9000      8.2555      2.3795      0.1006     16.3967    141.2453     25.0535
   350.0000      8.3220      2.3199      0.0130     20.0064    141.4044     24.6011
   350.1000      8.3220      2.2630      0.0316     23.4561    143.3601     23.6618
   350.2000      8.3220      2.2067      0.0010     26.8697    144.2447     22.5154
   350.3000      8.3251      2.1484      0.0341     30.3977    142.1267     21.5676
   350.4000      8.3251      2.0968      0.0562     33.5284    138.2071     20.5809
   350.5000      8.3917      2.0577      0.0607     35.8979    132.6055     19.2504
   350.6000      8.3917      2.0199      0.2004     38.1873    125.9206     17.7762
   350.7000      8.3917      1.9682      0.1810     41.3186    121.6726     16.6512
   350.8000      8.4305      1.9185      0.1415     44.3334    121.4693     16.1068
   350.9000      8.4305      1.9040      0.1716     45.2100    122.7367     15.9333
   351.0000      8.3058      1.9399      0.1703     43.0353    122.2364     16.0152
   351.1000      8.3058      2.0131      0.2249     38.5996    118.5193     16.4805
   351.2000      8.3058      2.0947      0.2337     33.6565    112.8578     17.5506
   351.3000      8.2097      2.1731      0.1412     28.9005    109.3611     19.2341
   351.4000      8.2097      2.2559      0.1591     23.8829    109.4235     21.1823
   351.5000      8.2506      2.3407      0.1725     18.7458    109.5644     23.0738
   351.6000      8.2506      2.4173      0.1668     14.1015    108.8078     24.7220
   351.7000      8.2506      2.4806      0.0901     10.2684    110.5181     25.9358
   351.8000      8.3431      2.5320      0.0435      7.1507    113.8864     26.5001
   351.9000      8.3431      2.5681      0.1033      4.9644    115.0122     26.4422
   352.0000      8.1746      2.5795      0.0590      4.2702    115.1218     26.0743
   352.1000      8.1746      2.5750      0.0289      4.5447    116.4831     25.7811
   352.2000      8.1746      2.5703      0.0662      4.8312    117.8368     25.7624
   352.3000      8.1740      2.5663      0.0748      5.0707    118.1110     25.8259
   352.4000      8.1740      2.5636      0.0537      5.2341    118.3368     25.6551
   352.5000      8.1671      2.5647      0.0577      5.1686    119.4120     25.4155
   352.6000      8.1671      2.5658      0.0771      5.1016    120.3971     25.3951
   352.7000      8.1671      2.5724      0.0325      4.7055    121.2659     25.3597
   352.8000      8.1202      2.5913      0.0727      3.5567    123.3524     25.1418
   352.9000      8.1202      2.6022      0.1348      2.8944    125.8713     25.1042
   353.0000      8.1113      2.5904      0.0413      3.6097    128.2860     25.3969
   353.1000      8.1113      2.5757      0.0376      4.5001    132.8642     25.7175
   353.2000      8.1113      2.5663      0.0658      5.0706    138.9984     25.7817
   353.3000      8.0832      2.5482      0.0387      6.1716    139.4494     25.6540
   353.4000      8.0832      2.5204      0.0290      7.8574    133.0666     25.5384
   353.5000      8.0902      2.4959      0.0090      9.3403    128.4377     25.4951
   353.6000      8.0902      2.4828      0.0048     10.1326    129.2751     25.4592
   353.7000      8.0902      2.4816     -0.0101     10.2066    133.8891     25.4046
   353.8000      8.1220      2.4893      0.0489      9.7422    140.6927     25.2233
   353.9000      8.1220      2.5003      0.0493      9.0698    145.7667     24.8179
   354.0000      8.1239      2.5042      0.0899      8.8351    145.8095     24.4462
   354.1000      8.1239      2.4897      0.0324      9.7172    142.3315     24.4343
   354.2000      8.1239      2.4657      0.0035     11.1676    138.7079     24.6550
   354.3000      8.1594      2.4501      0.0146     12.1173    136.8150     24.6666
   354.4000      8.1594      2.4486     -0.0095     12.2047    138.1923     24.4339
   354.5000      8.1987      2.4594      0.0004     11.5512    143.7121     24.3070
   354.6000      8.1987      2.4673      0.0668     11.0728    150.6314     24.4498
   354.7000      8.1987      2.4571      0.0342     11.6899    154.8986     24.7119
   354.8000      8.1330      2.4412     -0.0165     12.6520    156.4815     24.9863
   354.9000      8.1330      2.4407      0.0228     12.6857    156.3993     25.2993
   355.0000      8.0660      2.4479      0.1132     12.2487    153.9492     25.6094
   355.1000      8.0660      2.4491      0.0621     12.1752    148.6866     25.9288
   355.2000      8.0660      2.4555      0.0677     11.7870    143.2119     26.2167
   355.3000      8.0577      2.4781      0.0723     10.4171    143.0142     26.1752
   355.4000      8.0577      2.5067      0.1458      8.6863    147.4206     25.7764
   355.5000      8.0570      2.5210      0.1852      7.8196    148.5556     25.3617
