~Version Information
VERS.                      2.0: CWLS Log ASCII Standard - VERSION 2.0
WRAP.                       NO: One line per depth step
~Well Information Block
STRT.FT                -5.2500: 
STOP.FT              1184.2500: 
STEP.FT                 0.2500: 
NULL.                -999.2500: 
COMP.          Pioneer Natural Resources: COMPANY
WELL.          Lucky Lady 42-29: WELL
FLD.           Purgatoire River: FIELD
LOC.           2482' FNL & 662' FEL: LOCATION
CNTY.               Las Animas: COUNTY
SRVC.                         : SERVICE COMPANY
DATE.          Tue Mar 14 14:47:22 2006: LOG DATE
UWI.           05 071 08659 00: UNIQUE WELL ID
STAT.                       CO: STATE
~Curve Information Block
DEPT.FT            0 000 00 00: Depth
GR.GAPI                       : Gamma Ray
CCL.                          : Casing Collar Locator
TT3.usec                      : CBL 3' Travel Time
AMP3.mV                       : CBL 3' Amplitude
~Parameter Information Block
~A  Depth        GR         CCL         TT3         AMP3    
# ...
  1100.2500     70.7552      0.0000    375.3235      7.8742
  1100.5000     69.0212      0.0000    375.1063      7.8514
  1100.7500     67.1662      0.0000    374.9789      7.7883
  1101.0000     65.0301      0.0000    374.9819      7.7003
  1101.2500     63.1366      0.0000    375.2562      7.6104
  1101.5000     62.4765      0.0000    376.0659      7.5463
  1101.7500     63.8228      0.0000    377.6579      7.5298
  1102.0000     67.4154      0.0000    379.8990      7.5618
  1102.2500     73.0600      0.0000    381.9905      7.6215
  1102.5000     79.9672      0.0000    382.8198      7.6884
  1102.7500     86.2859      0.0000    381.9050      7.7618
  1103.0000     89.5736      0.0000    379.9040      7.8560
  1103.2500     88.7954      0.0000    378.0117      7.9802
  1103.5000     85.7425      0.0000    376.9964      8.1292
  1103.7500     83.5764      0.0000    376.9452      8.2903
  1104.0000     83.8892      0.0000    377.7288      8.4479
  1104.2500     85.8277      0.0000    379.5502      8.5815
  1104.5000     87.9182      0.0000    383.1080      8.6676
  1104.7500     89.6949      0.0000    389.1656      8.6919
  1105.0000     91.2016      0.0000    397.6862      8.6602
  1105.2500     91.8518      0.0000    407.3246      8.5916
  1105.5000     90.6448      0.0000    416.0482      8.4999
  1105.7500     87.3782      0.0000    422.4254      8.3776
  1106.0000     83.1924      0.0000    426.2668      8.2042
  1106.2500     79.7692      0.0000    428.1272      7.9760
  1106.5000     78.0885      0.0000    428.5071      7.7264
  1106.7500     78.0503      0.0000    427.8244      7.5032
  1107.0000     79.0849      0.0000    427.5937      7.3255
  1107.2500     80.5303      0.0000    431.8970      7.1667
  1107.5000     81.4434      0.0000    446.6665      6.9765
  1107.7500     80.9500      0.0000    475.1314      6.7172
  1108.0000     79.1641      0.0000    512.7560      6.3936
  1108.2500     77.2619      0.0000    548.4768      6.0640
  1108.5000     76.3884      0.0000    573.1791      5.8158
  1108.7500     76.6969      0.0000    586.3105      5.7053
  1109.0000     77.4269      0.0000    592.6315      5.7156
  1109.2500     77.7897      0.0000    594.6185      5.7747
  1109.5000     77.7578      0.0000    591.8768      5.8142
  1109.7500     77.8729     -2.0000    586.8990      5.8024
  1110.0000     78.3163      0.0000    586.3331      5.7394
  1110.2500     78.5923      0.0000    595.1843      5.6507
  1110.5000     78.2899      0.0000    612.4089      5.5947
  1110.7500     77.8234      0.0000    632.4685      5.6437
  1111.0000     78.1314      0.0000    649.3269      5.8306
  1111.2500     79.7213      0.0000    659.7614      6.1244
  1111.5000     82.2483      0.0000    665.1879      6.4659
  1111.7500     85.0573      0.0000    670.3644      6.8094
  1112.0000     87.8454      0.0000    679.3046      7.1231
  1112.2500     90.6140      0.0000    692.1115      7.3746
  1112.5000     93.2944      0.0000    705.2198      7.5296
  1112.7500     95.6668      0.0000    714.3468      7.5669
  1113.0000     97.3926      0.0000    717.6784      7.4971
  1113.2500     97.9237      0.0000    716.8232      7.3667
  1113.5000     96.5914      0.0000    715.0157      7.2307
  1113.7500     93.2314      0.0000    714.7615      7.1165
  1114.0000     88.8509      0.0000    716.9888      7.0188
  1114.2500     85.2936      0.0000    721.5701      6.9271
  1114.5000     83.7525      0.0000    727.7383      6.8468
  1114.7500     83.5889      0.0000    733.6240      6.7909
  1115.0000     82.9335      0.0000    736.2907      6.7633
  1115.2500     80.4836      0.0000    733.6850      6.7564
  1115.5000     76.5906      0.0000    726.9098      6.7600
  1115.7500     72.9499      0.0000    719.6523      6.7699
  1116.0000     71.6248      0.0000    714.5472      6.7867
  1116.2500     74.0101      0.0000    710.2230      6.8066
  1116.5000     80.0305      0.0000    702.6191      6.8154
  1116.7500     87.9873      0.0000    689.2444      6.7941
  1117.0000     95.2496      0.0000    671.4983      6.7319
  1117.2500     99.3815      0.0000    653.1709      6.6331
  1117.5000     99.3539      0.0000    637.7315      6.5146
  1117.7500     96.4093      0.0000    627.1570      6.3986
  1118.0000     93.4676      0.0000    622.0952      6.3049
  1118.2500     93.0950      0.0000    622.1686      6.2421
  1118.5000     95.9901      0.0000    626.4628      6.2041
  1118.7500    101.0941      0.0000    634.4636      6.1763
  1119.0000    106.5226      0.0000    646.3372      6.1462
  1119.2500    110.6339      0.0000    661.6177      6.1106
  1119.5000    113.0743      0.0000    677.7742      6.0775
  1119.7500    114.9795      0.0000    690.9885      6.0617
  1120.0000    117.6211      0.0000    698.8034      6.0780
  1120.2500    120.6414      0.0000    701.7490      6.1328
  1120.5000    121.9738      0.0000    702.2458      6.2169
  1120.7500    119.6764      0.0000    702.2690      6.3064
  1121.0000    113.7505      0.0000    702.3582      6.3778
  1121.2500    106.2436      0.0000    702.5340      6.4304
  1121.5000     99.7530      0.0000    703.2322      6.4907
  1121.7500     95.7537      0.0000    704.8947      6.5932
  1122.0000     94.0842      0.0000    707.2914      6.7556
  1122.2500     93.8552      0.0000    709.9611      6.9686
  1122.5000     94.6572      0.0000    713.2366      7.2014
  1122.7500     96.5513      0.0000    718.3953      7.4170
  1123.0000     98.9827      0.0000    726.3761      7.5901
  1123.2500    100.5765      0.0000    736.0096      7.7169
  1123.5000    100.5479      0.0000    743.7618      7.8090
  1123.7500     99.6307      0.0000    746.0779      7.8798
  1124.0000     98.9554      0.0000    742.2477      7.9336
  1124.2500     98.4946      0.0000    734.7049      7.9626
  1124.5000     97.2616      0.0000    726.8609      7.9539
  1124.7500     94.6892      0.0000    721.1732      7.9003
  1125.0000     91.1472      0.0000    718.6701      7.8064
  1125.2500     87.1658      0.0000    719.1521      7.6860
  1125.5000     82.6956      0.0000    721.3987      7.5522
  1125.7500     77.5178      0.0000    723.5635      7.4097
  1126.0000     72.2749      0.0000    724.0091      7.2554
  1126.2500     68.6179      0.0000    722.2599      7.0812
  1126.5000     68.0213      0.0000    719.4651      6.8795
  1126.7500     70.5234      0.0000    717.9431      6.6493
  1127.0000     74.6286      0.0000    719.9011      6.4018
  1127.2500     78.3070      0.0000    726.0512      6.1565
  1127.5000     80.2253      0.0000    735.1345      5.9333
  1127.7500     80.4150      0.0000    745.0198      5.7441
  1128.0000     80.0174      0.0000    755.0010      5.5905
  1128.2500     80.2725      0.0000    767.2971      5.4654
  1128.5000     81.4526      0.0000    784.9901      5.3592
  1128.7500     82.6707      0.0000    806.7813      5.2644
  1129.0000     82.8306      0.0000    824.3907      5.1780
  1129.2500     81.6335      0.0000    827.9966      5.1028
  1129.5000     79.4370      0.0000    815.3832      5.0468
  1129.7500     76.5763      0.0000    794.1228      5.0189
  1130.0000     73.4893      0.0000    774.2743      5.0203
  1130.2500     71.2082      0.0000    760.7111      5.0409
  1130.5000     70.9404      0.0000    752.6274      5.0648
  1130.7500     73.0378      0.0000    747.6204      5.0808
  1131.0000     76.7142      0.0000    744.3473      5.0900
  1131.2500     80.7545      0.0000    742.3765      5.1037
  1131.5000     84.2824      0.0000    741.3920      5.1357
  1131.7500     86.8125      0.0000    741.0358      5.1928
  1132.0000     87.8537      0.0000    741.0859      5.2717
  1132.2500     86.9271      0.0000    741.4979      5.3649
  1132.5000     84.1782      0.0000    742.2825      5.4688
  1132.7500     80.6014      0.0000    743.4066      5.5871
  1133.0000     77.1520      0.0000    744.7489      5.7237
  1133.2500     73.8154      0.0000    746.0249      5.8773
  1133.5000     70.0864      0.0000    746.6100      6.0438
