~Version Information
VERS.                      2.0: CWLS Log ASCII Standard - VERSION 2.0
WRAP.                       NO: One line per depth step
~Well Information Block
STRT.FT                -7.0000: 
STOP.FT              3030.2500: 
STEP.FT                 0.2500: 
NULL.                -999.2500: 
COMP.          Pioneer Natural Resources: COMPANY
WELL.            Cleaver 24-12: WELL
FLD.           Purgatorie River: FIELD
LOC.           204' FSL & 2351' FWL--: LOCATION
CNTY.               Las Animas: COUNTY
SRVC.          Patterson Wireline: SERVICE COMPANY
DATE.          Thu Feb 02 12:17:57 2006: LOG DATE
UWI.           05 071 08634 00: UNIQUE WELL ID
STAT.                       CO: STATE
~Curve Information Block
DEPT.FT            0 000 00 00: Depth
CCL.                          : Casing Collar Locator
TT3.usec                      : CBL 3' Travel Time
AMP3.mV                       : CBL 3' Amplitude
GR.GAPI                       : Gamma Ray
~Parameter Information Block
~A  Depth       CCL         TT3         AMP3         GR     
# ...
   194.0000      0.0000    262.5370     78.4679     80.9611
   194.2500      0.0000    262.5416     78.4666     82.7887
   194.5000      0.0000    262.5413     78.5003     82.6989
   194.7500      0.0000    262.5382     78.5292     80.6179
   195.0000      0.0000    262.5346     78.5592     77.7170
   195.2500      0.0000    262.5325     78.6287     74.9924
   195.5000      0.0000    262.5343     78.7487     72.3795
   195.7500      0.0000    262.5403     78.8849     69.2750
   196.0000      0.0000    262.5458     78.9961     65.7276
   196.2500      0.0000    262.5448     79.0638     62.7548
   196.5000      0.0000    262.5355     79.0876     61.2181
   196.7500      0.0000    262.5206     79.0765     60.6689
   197.0000      0.0000    262.5045     79.0457     59.8687
   197.2500      0.0000    262.4917     79.0039     58.2919
   197.5000      0.0000    262.4854     78.9424     56.4511
   197.7500      0.0000    262.4855     78.8517     54.9070
   198.0000      0.0000    262.4884     78.7442     53.8483
   198.2500      0.0000    262.4898     78.6494     53.6821
   198.5000      0.0000    262.4883     78.5958     55.0607
   198.7500      0.0000    262.4849     78.6057     57.8353
   199.0000      0.0000    262.4794     78.6849     60.6287
   199.2500      0.0000    262.4695     78.8057     62.2007
   199.5000      0.0000    262.4525     78.9127     62.9454
   199.7500      0.0000    262.4297     78.9556     64.2730
   200.0000      0.0000    262.4073     78.9171     66.7002
   200.2500      0.0000    262.3940     78.8151     69.3016
   200.5000      0.0000    262.3949     78.6883     70.8797
   200.7500      0.0000    262.4087     78.5804     71.0140
   201.0000      0.0000    262.4274     78.5285     70.1127
   201.2500      0.0000    262.4427     78.5525     69.0017
   201.5000      0.0000    262.4497     78.6434     68.3914
   201.7500      0.0000    262.4487     78.7659     68.3349
   202.0000      0.0000    262.4420     78.8845     68.2118
   202.2500      0.0000    262.4329     78.9871     67.4721
   202.5000      0.0000    262.4242     79.0726     66.3516
   202.7500      0.0000    262.4185     79.1265     65.7988
   203.0000      0.0000    262.4178     79.1264     66.9244
   203.2500      0.0000    262.4221     79.0732     70.6568
   203.5000      0.0000    262.4286     79.0011     77.5064
   203.7500      0.0000    262.4333     78.9483     87.0713
   204.0000      0.0000    262.4356     78.9205     97.7653
   204.2500      0.0000    262.4391     78.8897    107.3765
   204.5000      0.0000    262.4490     78.8311    113.9447
   204.7500      0.0000    262.4653     78.7628    116.3421
   205.0000      0.0000    262.4809     78.7387    114.6105
   205.2500      0.0000    262.4870     78.7979    109.9182
   205.5000      0.0000    262.4797     78.9271    104.0519
   205.7500      0.0000    262.4632     79.0798     98.9704
   206.0000      0.0000    262.4450     79.2201     96.3790
   206.2500      0.0000    262.4313     79.3378     96.9454
   206.5000      0.0000    262.4231     79.4279    100.0767
   206.7500      0.0000    262.4188     79.4675    104.8177
   207.0000      0.0000    262.4189     79.4229    110.2606
   207.2500      0.0000    262.4267     79.2823    114.9699
   207.5000      0.0000    262.4449     79.0796    117.5084
   207.7500      0.0000    262.4709     78.8860    118.1152
   208.0000      0.0000    262.4965     78.7774    118.5660
   208.2500      0.0000    262.5135     78.7950    120.0107
   208.5000      0.0000    262.5190     78.9226    122.1644
   208.7500      0.0000    262.5159     79.0967    124.5911
   209.0000      0.0000    262.5087     79.2388    127.2740
   209.2500      0.0000    262.4998     79.2906    129.8245
   209.5000      0.0000    262.4891     79.2342    131.2608
   209.7500      0.0000    262.4779     79.0963    130.6069
   210.0000      0.0000    262.4701     78.9397    127.2060
   210.2500      0.0000    262.4697     78.8364    120.9427
   210.5000      0.0000    262.4776     78.8334    112.7578
   210.7500      0.0000    262.4896     78.9300    104.5271
   211.0000      0.0000    262.4998     79.0841     97.9761
   211.2500      0.0000    262.5052     79.2388     93.8224
   211.5000      0.0000    262.5077     79.3505     91.8763
   211.7500      0.0000    262.5116     79.4023     91.5903
   212.0000      0.0000    262.5182     79.4008     92.3841
   212.2500      0.0000    262.5254     79.3651     93.4737
   212.5000      0.0000    262.5307     79.3145     93.5703
   212.7500      0.0000    262.5349     79.2609     91.4742
   213.0000      0.0000    262.5388     79.2120     87.5464
   213.2500      0.0000    262.5418     79.1736     84.1499
   213.5000      0.0000    262.5422     79.1436     83.7926
   213.7500      0.0000    262.5382     79.1107     86.6971
   214.0000      0.0000    262.5287     79.0673     90.3661
   214.2500      0.0000    262.5145     79.0154     91.4902
   214.5000      0.0000    262.4994     78.9553     88.3367
   214.7500      0.0000    262.4893     78.8755     81.6212
   215.0000      0.0000    262.4875     78.7700     73.5076
   215.2500      0.0000    262.4909     78.6512     66.1400
   215.5000      0.0000    262.4940     78.4976     61.0949
   215.7500      0.0000    262.5044     78.1490     59.3650
   216.0000      0.0000    262.5626     77.2778     60.9179
   216.2500      0.0000    262.7539     75.5824     64.3248
   216.5000      0.0000    263.1973     73.0738     67.3686
   216.7500      0.0000    263.9901     70.0761     68.3352
   217.0000      0.0000    265.1194     66.8792     67.0626
   217.2500      0.0000    266.4145     63.5690     64.9466
   217.5000      0.0000    267.6177     60.3098     63.6320
   217.7500      0.0000    268.5337     57.5322     63.4993
   218.0000      0.0000    269.1173     55.6323     63.6322
   218.2500      2.0000    269.4392     54.6335     63.2547
   218.5000     -2.0000    269.6029     54.2473     62.6300
   218.7500     -2.0000    269.6891     54.1185     62.3162
   219.0000      0.0000    269.7239     54.0092     62.2021
   219.2500      0.0000    269.6375     53.9570     61.8679
   219.5000      0.0000    269.2516     54.3732     61.3699
   219.7500      0.0000    268.3787     55.8652     60.8836
   220.0000      0.0000    267.0161     58.8256     59.9637
   220.2500      0.0000    265.4421     63.1284     58.0847
   220.5000      0.0000    264.0605     68.0972     55.7710
   220.7500      0.0000    263.1280     72.7447     54.4011
   221.0000      0.0000    262.6412     76.2456     54.8209
   221.2500      0.0000    262.4424     78.3535     56.5649
   221.5000      0.0000    262.3764     79.3742     58.3582
   221.7500      0.0000    262.3583     79.7831     59.0464
   222.0000      0.0000    262.3589     79.9154     58.2230
   222.2500      0.0000    262.3692     79.9210     56.3249
   222.5000      0.0000    262.3809     79.8578     54.1781
   222.7500      0.0000    262.3862     79.7587     52.3669
   223.0000      0.0000    262.3842     79.6574     50.9707
   223.2500      0.0000    262.3789     79.5946     49.7291
   223.5000      0.0000    262.3734     79.6102     48.2913
   223.7500      0.0000    262.3683     79.7094     46.4702
   224.0000      0.0000    262.3652     79.8431     44.5963
   224.2500      0.0000    262.3675     79.9412     43.6147
   224.5000      0.0000    262.3778     79.9665     44.4796
   224.7500      0.0000    262.3954     79.9267     47.2513
   225.0000      0.0000    262.4150     79.8505     50.9856
   225.2500      0.0000    262.4305     79.7650     54.6266
   225.5000      0.0000    262.4395     79.6874     57.7321
   225.7500      0.0000    262.4444     79.6237     60.1715
   226.0000      0.0000    262.4486     79.5751     61.5259
   226.2500      0.0000    262.4516     79.5473     61.1350
   226.5000      0.0000    262.4505     79.5508     58.6037
   226.7500      0.0000    262.4438     79.5887     54.2348
   227.0000      0.0000    262.4328     79.6451     49.3160
   227.2500      0.0000    262.4199     79.6908     45.8289
