~Version Information
VERS.                      2.0: CWLS Log ASCII Standard - VERSION 2.0
WRAP.                       NO: One line per depth step
~Well Information Block
STRT.FT               555.0000: 
STOP.FT              2322.2000: 
STEP.FT                 0.1000: 
NULL.                -999.2500: 
COMP.          Pioneer Natural Resources: COMPANY
WELL.          Fittipaldi 21-12: WELL
FLD.           Purgatoire River: FIELD
LOC.           207' FNL & 2110' FWL--: LOCATION
CNTY.               Las Animas: COUNTY
SRVC.                Patterson: SERVICE COMPANY
DATE.          Wed Mar 22 07:11:06 2006: LOG DATE
UWI.           05 071 08492 00: UNIQUE WELL ID
STAT.                 Colorado: STATE
~Curve Information Block
DEPT.FT            0 000 00 00: Depth
DCAL.in                       : CDL Caliper
RHOB.g/cc                     : CDL Bulk Density
RHOC.g/cc                     : CDL Density Correction
DPOR.pu                       : CDL Density Porosity
NPOR.pu                       : Neutron Porosity
GR.GAPI                       : Gamma Ray
~Parameter Information Block
~A  Depth       DCAL        RHOB        RHOC        DPOR        NPOR         GR     
# ...
  1716.6000      7.9893      2.6440      0.1523      0.3608     27.3616    106.9238
  1716.7000      7.9893      2.6247      0.1077      1.5326     27.5380     97.0063
  1716.8000      7.9896      2.5925      0.0801      3.4826     27.0612     92.8996
  1716.9000      7.9896      2.5647      0.0774      5.1684     26.6094     95.8784
  1717.0000      7.9890      2.5429      0.0720      6.4900     26.9156    100.8796
  1717.1000      7.9890      2.5182      0.0436      7.9865     27.7973    102.9404
  1717.2000      7.9890      2.4907     -0.0249      9.6548     28.6013    102.6036
  1717.3000      7.9933      2.4644     -0.0288     11.2484     28.9407    101.4725
  1717.4000      7.9933      2.4257      0.0023     13.5920     29.1017     99.9318
  1717.5000      8.0064      2.3669     -0.0596     17.1580     29.3204     99.3523
  1717.6000      8.0064      2.3198     -0.0938     20.0113     29.5734     99.6703
  1717.7000      8.0064      2.3165     -0.0524     20.2115     30.0145     98.5636
  1717.8000      8.0258      2.3414     -0.0009     18.7007     30.2579     96.0503
  1717.9000      8.0258      2.3606      0.0068     17.5365     30.0115     95.6618
  1718.0000      8.0488      2.3669      0.0344     17.1562     29.7152     97.7205
  1718.1000      8.0488      2.3766      0.1053     16.5690     29.6082     99.7618
  1718.2000      8.0488      2.3932      0.2132     15.5644     29.7617    101.8133
  1718.3000      8.0632      2.4001      0.1932     15.1475     30.2107    103.3868
  1718.4000      8.0632      2.3998      0.1682     15.1657     30.7625    103.7980
  1718.5000      8.0738      2.4068      0.2446     14.7368     31.2954    103.7721
  1718.6000      8.0738      2.4053      0.1708     14.8315     31.6904    103.7532
  1718.7000      8.0738      2.3726      0.0897     16.8096     31.6495    104.8962
  1718.8000      8.1463      2.3178      0.0508     20.1326     31.3747    107.1215
  1718.9000      8.1463      2.2824     -0.0037     22.2805     31.5109    107.4238
  1719.0000      8.3862      2.3079      0.0499     20.7328     31.9382    106.7213
  1719.1000      8.3862      2.3808      0.2593     16.3129     31.9290    108.8978
  1719.2000      8.3862      2.4402      0.3236     12.7166     31.3138    112.1387
  1719.3000      8.7234      2.4472      0.3135     12.2889     30.5534    112.6799
  1719.4000      8.7234      2.4183      0.2416     14.0451     30.0391    110.8882
  1719.5000      8.8359      2.3914      0.2147     15.6752     29.8275    108.3067
  1719.6000      8.8359      2.3827      0.2184     16.1998     29.7044    106.1926
  1719.7000      8.8359      2.3885      0.1907     15.8476     29.6232    104.0827
  1719.8000      8.6464      2.3984      0.1778     15.2483     29.8637    103.1431
  1719.9000      8.6464      2.4048      0.1235     14.8617     30.3276    106.1739
  1720.0000      8.3731      2.4143      0.1763     14.2863     30.4483    110.0478
  1720.1000      8.3731      2.4374      0.2146     12.8858     29.9129    110.9872
  1720.2000      8.3731      2.4761      0.2914     10.5373     29.1215    111.4278
  1720.3000      8.1777      2.5174      0.3116      8.0353     28.2706    115.0416
  1720.4000      8.1777      2.5451      0.3147      6.3558     27.1030    118.3857
  1720.5000      8.0868      2.5593      0.2598      5.4971     25.9873    116.0547
  1720.6000      8.0868      2.5764      0.2114      4.4628     25.3411    111.8379
  1720.7000      8.0868      2.6021      0.2108      2.9056     24.9291    109.6196
  1720.8000      8.0239      2.6183      0.1625      1.9195     24.6053    106.4255
  1720.9000      8.0239      2.6134      0.0960      2.2210     24.3567    100.3019
  1721.0000      7.9478      2.5965      0.0956      3.2412     24.2658     92.5817
  1721.1000      7.9478      2.5834      0.0506      4.0391     24.3368     86.0624
  1721.2000      7.9478      2.5844      0.0780      3.9769     24.1720     83.0970
  1721.3000      7.8977      2.5991      0.0684      3.0875     23.6536     83.5673
  1721.4000      7.8977      2.6205      0.0725      1.7867     23.2382     86.2537
  1721.5000      7.8830      2.6378      0.0783      0.7374     23.2665     87.9893
  1721.6000      7.8830      2.6401      0.0825      0.5986     23.6777     86.5946
  1721.7000      7.8830      2.6250      0.0878      1.5163     24.2254     85.3591
  1721.8000      7.8814      2.5976      0.0518      3.1736     24.6678     84.4124
  1721.9000      7.8814      2.5746      0.0185      4.5691     24.6988     80.6010
  1722.0000      7.8808      2.5697      0.0383      4.8682     24.0972     75.6484
  1722.1000      7.8808      2.5731      0.0540      4.6615     23.3169     72.5422
  1722.2000      7.8808      2.5774     -0.0083      4.4017     23.1234     70.7285
  1722.3000      7.8800      2.5859      0.0708      3.8853     23.6710     68.0916
  1722.4000      7.8800      2.5961      0.0568      3.2655     24.0327     65.4493
  1722.5000      7.8811      2.6216      0.0283      1.7211     23.2667     65.4584
  1722.6000      7.8811      2.6737      0.0980     -1.4386     22.0397     68.0219
  1722.7000      7.8811      2.7256      0.1498     -4.5798     21.8903     70.4306
  1722.8000      7.8834      2.7445      0.1295     -5.7268     22.9631     71.3570
  1722.9000      7.8834      2.7376      0.0978     -5.3085     23.9237     69.6059
  1723.0000      7.8859      2.7346      0.0540     -5.1248     24.1510     65.1780
  1723.1000      7.8859      2.7419      0.0893     -5.5674     24.1291     61.3199
  1723.2000      7.8859      2.7422      0.0801     -5.5869     24.1556     60.8057
  1723.3000      7.8879      2.7300      0.0612     -4.8476     24.3056     62.7533
  1723.4000      7.8879      2.7234      0.0094     -4.4509     24.5490     62.8955
  1723.5000      7.8872      2.7369      0.0609     -5.2662     24.6842     58.8669
  1723.6000      7.8872      2.7553      0.0772     -6.3841     24.4905     53.4519
  1723.7000      7.8872      2.7539      0.0827     -6.2974     23.8051     51.5017
  1723.8000      7.8788      2.7298      0.0520     -4.8358     22.9957     53.9147
  1723.9000      7.8788      2.6996     -0.0059     -3.0074     22.3128     57.1639
  1724.0000      7.8692      2.6698      0.0256     -1.2003     21.5007     59.7074
  1724.1000      7.8692      2.6337      0.0083      0.9904     20.6201     61.2338
  1724.2000      7.8692      2.5964     -0.0072      3.2486     20.1187     60.0804
  1724.3000      7.8653      2.5701      0.0609      4.8444     20.2752     56.9010
  1724.4000      7.8653      2.5575      0.0074      5.6050     20.9021     55.8838
  1724.5000      7.8648      2.5609      0.0030      5.4008     21.4947     59.9762
  1724.6000      7.8648      2.5725      0.0562      4.6957     21.7490     65.6995
  1724.7000      7.8648      2.5755      0.0322      4.5155     21.8519     67.4226
  1724.8000      7.8671      2.5732      0.0296      4.6545     21.9341     66.2546
  1724.9000      7.8671      2.5787      0.0627      4.3203     21.9112     65.4262
  1725.0000      7.8717      2.5857      0.0538      3.8988     22.0273     65.0714
  1725.1000      7.8717      2.5801      0.0694      4.2341     22.2293     65.5623
  1725.2000      7.8717      2.5634      0.0247      5.2486     21.9932     65.9552
  1725.3000      7.8785      2.5469      0.0583      6.2464     21.5887     64.2923
  1725.4000      7.8785      2.5319      0.0521      7.1570     21.7417     62.1084
  1725.5000      7.8920      2.5163      0.0391      8.1060     22.3047     62.2511
  1725.6000      7.8920      2.5077      0.0234      8.6257     22.6012     61.5092
  1725.7000      7.8920      2.5121      0.0344      8.3574     22.5319     56.7821
  1725.8000      7.9019      2.5266      0.0336      7.4784     22.4848     52.4395
  1725.9000      7.9019      2.5450      0.1052      6.3657     22.3965     50.7143
  1726.0000      7.9054      2.5566      0.1082      5.6601     21.9841     48.5809
  1726.1000      7.9054      2.5552      0.0965      5.7460     21.7704     45.3456
