~Version Information
VERS.                      2.0: CWLS Log ASCII Standard - VERSION 2.0
WRAP.                       NO: One line per depth step
~Well Information Block
STRT.FT               680.0000: 
STOP.FT              1585.5000: 
STEP.FT                 0.1000: 
NULL.                -999.2500: 
COMP.          Pioneer Natural Resources: COMPANY
WELL.          Screamin' 12-29: WELL
FLD.           Purgatoire River: FIELD
LOC.           2038' FNL & 612' FWL: LOCATION
CNTY.               Las Animas: COUNTY
SRVC.                Patterson: SERVICE COMPANY
DATE.          Wed Mar 29 10:01:18 2006: LOG DATE
UWI.           05 071 08661 00: UNIQUE WELL ID
STAT.                 Colorado: STATE
~Curve Information Block
DEPT.FT            0 000 00 00: Depth
DCAL.in                       : CDL Caliper
RHOB.g/cc                     : CDL Bulk Density
RHOC.g/cc                     : CDL Density Correction
DPOR.pu                       : CDL Density Porosity
GR.GAPI                       : Gamma Ray
NPOR.pu                       : Neutron Porosity
~Parameter Information Block
~A  Depth       DCAL        RHOB        RHOC        DPOR         GR         NPOR    
# ...
  1217.6000      7.8894      2.5762      0.0389      4.4737     96.1749     24.2793
  1217.7000      7.8894      2.5631      0.0005      5.2670    103.7050     24.5788
  1217.8000      7.8913      2.5491      0.0096      6.1159    110.6560     24.9069
  1217.9000      7.8913      2.5411     -0.0172      6.5972    114.1382     24.9205
  1218.0000      7.8914      2.5415     -0.0023      6.5737    113.2849     24.6313
  1218.1000      7.8914      2.5493      0.0318      6.1060    111.8272     24.0249
  1218.2000      7.8914      2.5570      0.0522      5.6347    113.8363     23.0787
  1218.3000      7.8912      2.5604      0.0248      5.4282    116.7373     21.8576
  1218.4000      7.8912      2.5683      0.0584      4.9543    115.7016     20.5708
  1218.5000      7.8907      2.5812      0.0697      4.1683    112.4751     20.0189
  1218.6000      7.8907      2.5840      0.0748      4.0005    108.0799     20.6236
  1218.7000      7.8907      2.5689      0.0580      4.9162    102.4689     21.6944
  1218.8000      7.8901      2.5456      0.0703      6.3266     99.4373     22.0181
  1218.9000      7.8901      2.5229      0.0702      7.7050     99.2986     21.4472
  1219.0000      7.8913      2.5075      0.0094      8.6335     97.8159     20.8216
  1219.1000      7.8913      2.5102      0.0594      8.4730     92.7555     20.8305
  1219.2000      7.8913      2.5273      0.0927      7.4378     85.8887     21.5397
  1219.3000      7.8962      2.5415      0.0908      6.5728     79.8161     22.1796
  1219.4000      7.8962      2.5413      0.0789      6.5850     76.2074     21.8653
  1219.5000      7.9020      2.5357      0.0554      6.9301     76.0682     20.6488
  1219.6000      7.9020      2.5397      0.0788      6.6852     77.6170     19.5650
  1219.7000      7.9020      2.5525      0.0787      5.9091     76.8311     19.3566
  1219.8000      7.9025      2.5655      0.1032      5.1212     71.8513     19.6610
  1219.9000      7.9025      2.5718      0.0920      4.7383     66.5788     19.9048
  1220.0000      7.9021      2.5662      0.1119      5.0817     64.1996     20.1055
  1220.1000      7.9021      2.5525      0.0773      5.9091     64.2489     20.4460
  1220.2000      7.9021      2.5473      0.0298      6.2212     64.4884     20.9258
  1220.3000      7.9031      2.5527      0.1051      5.8999     65.0947     21.0378
  1220.4000      7.9031      2.5528      0.0155      5.8883     68.0821     20.6482
  1220.5000      7.9035      2.5452      0.0274      6.3499     70.6899     20.6259
  1220.6000      7.9035      2.5397      0.0046      6.6822     70.2357     21.5167
  1220.7000      7.9035      2.5447      0.0427      6.3832     69.3956     22.7254
  1220.8000      7.9028      2.5547      0.0489      5.7764     72.4211     23.5071
  1220.9000      7.9028      2.5580      0.0528      5.5768     75.4734     23.9605
  1221.0000      7.9024      2.5515      0.0489      5.9698     72.5397     24.5567
  1221.1000      7.9024      2.5408      0.0242      6.6161     70.2766     25.6185
  1221.2000      7.9024      2.5311      0.0333      7.2051     76.8761     26.5439
  1221.3000      7.9017      2.5238      0.0165      7.6464     88.3990     26.1723
  1221.4000      7.9017      2.5228      0.0057      7.7119     98.1923     24.8466
  1221.5000      7.9009      2.5285      0.0092      7.3611    105.2560     24.0654
  1221.6000      7.9009      2.5333      0.0510      7.0733    111.0692     23.9519
  1221.7000      7.9009      2.5308      0.0521      7.2231    118.1814     23.7438
  1221.8000      7.9012      2.5255      0.0332      7.5452    128.2507     23.5433
  1221.9000      7.9012      2.5239      0.0143      7.6395    138.4313     23.6991
  1222.0000      7.9022      2.5278      0.0389      7.4052    141.2285     24.3228
  1222.1000      7.9022      2.5327      0.0380      7.1097    135.6231     25.2723
  1222.2000      7.9022      2.5337      0.0387      7.0514    131.7475     25.7932
  1222.3000      7.9026      2.5323      0.0156      7.1335    134.1928     25.6588
  1222.4000      7.9026      2.5288      0.0417      7.3483    136.9891     25.5544
  1222.5000      7.9023      2.5163      0.0351      8.1022    137.1709     25.5985
  1222.6000      7.9023      2.4980     -0.0111      9.2118    134.7492     25.2437
  1222.7000      7.9023      2.4933     -0.0438      9.4984    129.0837     24.6775
  1222.8000      7.9023      2.5130      0.0266      8.3004    126.5715     24.6871
  1222.9000      7.9023      2.5429      0.0368      6.4909    133.8387     25.0930
  1223.0000      7.9028      2.5646      0.0475      5.1756    144.5439     25.1194
  1223.1000      7.9028      2.5708      0.0789      4.8030    151.3378     24.7818
  1223.2000      7.9028      2.5636      0.0369      5.2346    153.1931     24.7266
  1223.3000      7.9030      2.5499      0.0715      6.0646    147.7861     25.0092
  1223.4000      7.9030      2.5307      0.0484      7.2318    137.7942     25.0259
  1223.5000      7.9023      2.5144      0.0063      8.2167    131.9826     24.9245
  1223.6000      7.9023      2.5161      0.0080      8.1171    131.3046     25.6322
  1223.7000      7.9023      2.5315      0.0353      7.1789    130.8299     26.9980
  1223.8000      7.9015      2.5395      0.0519      6.6976    132.1292     27.5536
  1223.9000      7.9015      2.5317      0.0141      7.1676    136.4260     26.7605
  1224.0000      7.9016      2.5164      0.0341      8.0956    138.6182     25.5478
  1224.1000      7.9016      2.5022     -0.0204      8.9577    137.4842     24.8254
  1224.2000      7.9016      2.4982      0.0001      9.1991    137.3927     24.7593
  1224.3000      7.9017      2.5088      0.0198      8.5575    139.9258     24.9522
  1224.4000      7.9017      2.5301      0.0257      7.2636    142.7670     25.3131
  1224.5000      7.9019      2.5546      0.0522      5.7793    144.0713     25.6456
  1224.6000      7.9019      2.5701      0.0579      4.8421    142.3316     25.3951
  1224.7000      7.9019      2.5738      0.0181      4.6186    138.2416     24.9597
  1224.8000      7.9025      2.5762      0.0300      4.4704    136.0229     24.9416
  1224.9000      7.9025      2.5758      0.0719      4.4973    136.5673     25.0003
  1225.0000      7.9013      2.5590      0.0467      5.5152    136.0840     24.6212
  1225.1000      7.9013      2.5309     -0.0114      7.2171    135.1726     24.1523
  1225.2000      7.9013      2.5143     -0.0132      8.2264    134.6164     23.8521
  1225.3000      7.9000      2.5125      0.0341      8.3353    128.3839     23.3908
  1225.4000      7.9000      2.5109      0.0210      8.4319    113.8424     22.8435
  1225.5000      7.9005      2.5108      0.0011      8.4365     98.7050     22.7368
  1225.6000      7.9005      2.5228      0.0109      7.7061     89.2633     23.2300
  1225.7000      7.9005      2.5404      0.0409      6.6408     83.3993     23.6693
  1225.8000      7.9015      2.5478      0.0357      6.1964     77.9675     23.3029
  1225.9000      7.9015      2.5411      0.0502      6.5971     73.4122     22.2054
  1226.0000      7.9019      2.5228      0.0248      7.7101     68.9949     21.1632
  1226.1000      7.9019      2.4936      0.0346      9.4800     62.8232     20.5804
  1226.2000      7.9019      2.4633     -0.0134     11.3140     56.5508     20.0824
  1226.3000      7.9020      2.4479      0.0009     12.2506     52.1428     19.3357
  1226.4000      7.9020      2.4454      0.0554     12.3995     48.3910     18.8095
  1226.5000      7.9026      2.4388      0.0473     12.7984     46.5450     19.1441
  1226.6000      7.9026      2.4275     -0.0306     13.4824     49.3945     19.8879
  1226.7000      7.9026      2.4260      0.0277     13.5756     52.7493     20.3342
  1226.8000      7.9030      2.4336      0.0506     13.1143     51.0843     20.4197
  1226.9000      7.9030      2.4426      0.0246     12.5669     47.0242     20.2843
  1227.0000      7.9026      2.4477      0.0918     12.2631     45.4014     19.8510
  1227.1000      7.9026      2.4384      0.0661     12.8230     45.0229     19.0920
