~Version Information
VERS.                      2.0: CWLS Log ASCII Standard - VERSION 2.0
WRAP.                       NO: One line per depth step
~Well Information Block
STRT.FT               240.0000: 
STOP.FT              1342.0000: 
STEP.FT                 0.1000: 
NULL.                -999.2500: 
COMP.          Pioneer Natural Resources: COMPANY
WELL.          Lorencito 9-4-34-66: WELL
FLD.           Purgatoire River: FIELD
LOC.           2540' FSL & 438' FEL: LOCATION
STAT.                 Colorado: State
CNTY.               Las Animas: COUNTY
CTRY. USA : Country
SECT. 4 : Section
TOWN. 34S : Township
RANG. 68W : range
SRVC.                Patterson: SERVICE COMPANY
DATE.          Thu Sep 15 13:16:59 2005: LOG DATE
API.           05 071 08498 00: UNIQUE WELL ID
~Curve Information Block
DEPT.FT            0 000 00 00: Depth
DCAL.in                       : CDL Caliper
RHOB.g/cc                     : CDL Bulk Density
RHOC.g/cc                     : CDL Density Correction
DPOR.pu                       : CDL Density Porosity
GR.GAPI                       : Gamma Ray
NPOR.pu                       : Neutron Porosity
~Parameter Information Block
~A  Depth       DCAL        RHOB        RHOC        DPOR         GR         NPOR    
# ...
  1180.8000      8.0612      2.4273      0.0215     13.4995     99.3000     20.7039
  1180.9000      8.0612      2.4151      0.0664     14.2339    101.2852     20.3744
  1181.0000      8.0512      2.4156      0.0471     14.2068    103.7015     20.0151
  1181.1000      8.0512      2.4293      0.0960     13.3782    106.9378     19.4040
  1181.2000      8.0512      2.4499      0.1219     12.1271    108.4550     18.8374
  1181.3000      8.0296      2.4633      0.1133     11.3131    107.0961     19.0023
  1181.4000      8.0296      2.4682      0.0944     11.0154    107.9602     20.0311
  1181.5000      8.0264      2.4677      0.1467     11.0512    110.0726     21.1478
  1181.6000      8.0264      2.4532      0.1066     11.9290    108.8512     21.6429
  1181.7000      8.0264      2.4261      0.0952     13.5718    105.6344     21.6251
  1181.8000      8.0129      2.3964      0.1095     15.3693    104.4709     21.6068
  1181.9000      8.0129      2.3646      0.0662     17.2951    104.6439     21.7566
  1182.0000      8.0360      2.3345      0.0502     19.1229    103.7851     21.6922
  1182.1000      8.0360      2.3203      0.0421     19.9821    104.4276     21.2494
  1182.2000      8.0360      2.3269      0.0648     19.5824    105.2476     20.7409
  1182.3000      8.0333      2.3387      0.1100     18.8657    101.2432     20.5491
  1182.4000      8.0333      2.3382      0.0821     18.8971     96.8869     20.9101
  1182.5000      8.0568      2.3225      0.0959     19.8513    100.6007     21.5129
  1182.6000      8.0568      2.3015      0.0466     21.1217    109.6936     21.6154
  1182.7000      8.0568      2.2919      0.0291     21.7043    114.7393     21.3419
  1182.8000      8.0485      2.2950      0.0876     21.5173    112.9907     21.1509
  1182.9000      8.0485      2.2881      0.0708     21.9328    109.2687     21.1366
  1183.0000      8.0625      2.2574      0.0459     23.7926    106.3203     21.5973
  1183.1000      8.0625      2.2249      0.0079     25.7626    103.9873     22.3909
  1183.2000      8.0625      2.2199      0.0594     26.0672    104.2818     23.0966
  1183.3000      8.0655      2.2437      0.0486     24.6235    105.4132     23.8295
  1183.4000      8.0655      2.2835      0.1246     22.2133    104.8163     24.5305
  1183.5000      8.0432      2.3282      0.1981     19.5047    103.7231     25.1406
  1183.6000      8.0432      2.3748      0.1418     16.6814    103.6524     25.5470
  1183.7000      8.0432      2.4301      0.1784     13.3293    103.0929     25.4323
  1183.8000      8.0026      2.4883      0.2595      9.8001    101.2953     25.2211
  1183.9000      8.0026      2.5281      0.2627      7.3854    102.6630     25.2834
  1184.0000      7.9915      2.5397      0.1771      6.6855    107.2061     25.1489
  1184.1000      7.9915      2.5331      0.1093      7.0841    111.4290     24.4881
  1184.2000      7.9915      2.5210      0.0681      7.8194    113.6520     23.7957
  1184.3000      8.0756      2.5109      0.0460      8.4324    108.8439     23.5715
  1184.4000      8.0756      2.5072      0.0479      8.6566     98.1748     23.8137
  1184.5000      8.0270      2.5035      0.0809      8.8788     91.8763     24.0382
  1184.6000      8.0270      2.4870      0.0534      9.8758     93.2284     23.7598
  1184.7000      8.0270      2.4564      0.0475     11.7325     96.0805     23.1028
  1184.8000      8.0528      2.4311     -0.0071     13.2695     96.1085     22.6831
  1184.9000      8.0528      2.4286      0.0457     13.4190     95.7727     22.7336
  1185.0000      8.0397      2.4389      0.0498     12.7955     95.3312     22.8352
  1185.1000      8.0397      2.4491      0.0401     12.1764     92.5209     22.6631
  1185.2000      8.0397      2.4635      0.0636     11.3059     92.9165     22.6812
  1185.3000      8.0484      2.4891      0.0957      9.7516     97.6955     23.2231
  1185.4000      8.0484      2.5194      0.1178      7.9124    100.8840     23.9146
  1185.5000      8.0467      2.5351      0.1451      6.9615    103.2300     24.3722
  1185.6000      8.0467      2.5292      0.1201      7.3191    106.3059     24.2504
  1185.7000      8.0467      2.5165      0.1286      8.0923    109.0590     23.5559
  1185.8000      8.0238      2.5104      0.1525      8.4577    111.7717     22.9854
  1185.9000      8.0238      2.5066      0.1402      8.6918    113.4715     22.5689
  1186.0000      8.0434      2.4916      0.1159      9.6005    110.5503     21.8845
  1186.1000      8.0434      2.4671      0.0864     11.0825    102.1392     21.5232
  1186.2000      8.0434      2.4471      0.0868     12.2942     91.6195     22.0059
  1186.3000      7.9906      2.4361      0.0518     12.9619     86.2477     22.7054
  1186.4000      7.9906      2.4304      0.0544     13.3069     90.1236     22.9410
  1186.5000      8.0096      2.4273      0.0383     13.4940     96.8841     22.7357
  1186.6000      8.0096      2.4188      0.0933     14.0112     99.3658     22.3691
  1186.7000      8.0096      2.3957      0.0597     15.4105     97.4452     21.8118
  1186.8000      8.0271      2.3718      0.0463     16.8632     94.1988     21.2409
  1186.9000      8.0271      2.3705      0.0595     16.9373     95.9424     21.4117
  1187.0000      8.0536      2.3906      0.0739     15.7235    105.5666     22.1113
  1187.1000      8.0536      2.4041      0.1372     14.9055    117.7685     22.4744
  1187.2000      8.0536      2.3961      0.1036     15.3874    124.3927     22.3874
  1187.3000      8.0357      2.3822      0.1189     16.2306    122.6937     22.4453
  1187.4000      8.0357      2.3764      0.1551     16.5816    117.6325     23.0161
  1187.5000      8.0154      2.3773      0.1519     16.5257    112.0005     23.3650
  1187.6000      8.0154      2.3790      0.1359     16.4228    109.0786     23.2343
  1187.7000      8.0154      2.3785      0.1302     16.4553    112.6498     23.5150
  1187.8000      8.0154      2.3829      0.0847     16.1891    118.6457     24.4931
  1187.9000      8.0154      2.4000      0.1181     15.1529    123.1185     25.7444
  1188.0000      8.0308      2.4246      0.0721     13.6624    126.8870     27.0846
  1188.1000      8.0308      2.4476      0.1204     12.2695    129.8530     27.9729
  1188.2000      8.0308      2.4611      0.1497     11.4495    132.5771     27.6305
  1188.3000      8.0434      2.4637      0.1277     11.2899    136.6331     26.3859
  1188.4000      8.0434      2.4627      0.1293     11.3540    140.1300     25.7558
  1188.5000      8.0805      2.4666      0.0757     11.1174    141.2810     26.5841
  1188.6000      8.0805      2.4833      0.0927     10.1027    140.9342     27.6463
  1188.7000      8.0805      2.5123      0.1157      8.3480    138.0942     27.6983
  1188.8000      8.0706      2.5336      0.1491      7.0544    131.7833     27.2456
  1188.9000      8.0706      2.5337      0.0661      7.0482    123.1295     27.0512
  1189.0000      8.0288      2.5243      0.0844      7.6209    117.9212     27.3455
  1189.1000      8.0288      2.5098      0.0969      8.4988    120.5987     27.7964
  1189.2000      8.0288      2.4865      0.0744      9.9076    126.4400     27.4304
  1189.3000      8.0253      2.4671      0.0570     11.0853    131.9619     25.9223
  1189.4000      8.0253      2.4683      0.0301     11.0131    137.5430     24.3499
  1189.5000      8.0288      2.4825      0.0610     10.1494    142.6354     23.8428
  1189.6000      8.0288      2.4808      0.0884     10.2570    148.4720     24.4430
  1189.7000      8.0288      2.4533      0.0605     11.9228    151.5541     25.1833
  1189.8000      8.0434      2.4227      0.0250     13.7781    148.8754     25.0947
  1189.9000      8.0434      2.4082      0.0196     14.6570    143.9773     24.3816
  1190.0000      8.0541      2.4045      0.0496     14.8786    138.9188     23.6594
  1190.1000      8.0541      2.4000      0.0368     15.1534    134.8201     22.8821
  1190.2000      8.0541      2.3974      0.0458     15.3116    133.9285     22.2331
  1190.3000      8.0475      2.4006      0.0751     15.1160    138.2022     22.1105
