~Version Information
VERS.                      2.0: CWLS Log ASCII Standard - VERSION 2.0
WRAP.                       NO: One line per depth step
~Well Information Block
STRT.FT               875.0000: 
STOP.FT              2947.2500: 
STEP.FT                 0.2500: 
NULL.                -999.2500: 
COMP.          Pioneer Natural Resources: COMPANY
WELL.          Hanginstone 21-27: WELL
FLD.           Purgatoire River: FIELD
LOC.           1186' FNL & 1606' FWL--: LOCATION
PROV.                 Colorado: PROVINCE
CNTY.               Las Animas: COUNTRY
SRVC.                Patterson: SERVICE COMPANY
DATE.          Sat Jan 07 09:06:14 2006: LOG DATE
UWI.           05 071 08632 00: UNIQUE WELL ID
~Curve Information Block
DEPT.FT            0 000 00 00: Depth
SN.Ohm-m                      : IEL Short Normal
SP.mV                         : IEL Spontaneous Potential
DIR.Ohm-m                     : IEL Induction Resistivity
GR.GAPI                       : Gamma Ray
~Parameter Information Block
~A  Depth        SN          SP         DIR          GR     
# ...
  2918.5000     32.0914     90.0020     31.5376   -999.2500
  2918.7500     32.1285     89.9867     31.6425   -999.2500
  2919.0000     32.1149     90.0814     31.6323   -999.2500
  2919.2500     32.0433     90.2725     31.5152   -999.2500
  2919.5000     31.9111     90.5376     31.3132   -999.2500
  2919.7500     31.7254     90.8487     31.0643   -999.2500
  2920.0000     31.4990     91.1750     30.8119   -999.2500
  2920.2500     31.2420     91.4870     30.5863   -999.2500
  2920.5000     30.9594     91.7589     30.3958   -999.2500
  2920.7500     30.6611     91.9719     30.2297   -999.2500
  2921.0000     30.3720     92.1152     30.0696   -999.2500
  2921.2500     30.1291     92.1866     29.9023   -999.2500
  2921.5000     29.9681     92.1904     29.7298   -999.2500
  2921.7500     29.9108     92.1354     29.5685   -999.2500
  2922.0000     29.9572     92.0312     29.4399   -999.2500
  2922.2500     30.0855     91.8852     29.3629   -999.2500
  2922.5000     30.2624     91.7008     29.3554   -999.2500
  2922.7500     30.4584     91.4771     29.4391   -999.2500
  2923.0000     30.6597     91.2094     29.6357   -999.2500
  2923.2500     30.8703     90.8917     29.9522   -999.2500
  2923.5000     31.1050     90.5183     30.3692   -999.2500
  2923.7500     31.3788     90.0860     30.8477   -999.2500
  2924.0000     31.6969     89.5961     31.3513   -999.2500
  2924.2500     32.0506     89.0559     31.8657   -999.2500
  2924.5000     32.4190     88.4791     32.3982   -999.2500
  2924.7500     32.7734     87.8871     32.9564   -999.2500
  2925.0000     33.0834     87.3083     33.5282   -999.2500
  2925.2500     33.3226     86.7775     34.0816   -999.2500
  2925.5000     33.4722     86.3342     34.5851   -999.2500
  2925.7500     33.5213     86.0197     35.0236   -999.2500
  2926.0000     33.4650     85.8734     35.3903   -999.2500
  2926.2500     33.3024     85.9293     35.6605   -999.2500
  2926.5000     33.0351     86.2113     35.7727   -999.2500
  2926.7500     32.6690     86.7288     35.6387   -999.2500
  2927.0000     32.2166     87.4735     35.1830   -999.2500
  2927.2500     31.6974     88.4175     34.3934   -999.2500
  2927.5000     31.1340     89.5132     33.3433   -999.2500
  2927.7500     30.5477     90.6962     32.1633   -999.2500
  2928.0000     29.9580     91.8919     30.9861   -999.2500
  2928.2500     29.3844     93.0239     29.9069   -999.2500
  2928.5000     28.8458     94.0246     28.9781   -999.2500
  2928.7500     28.3572     94.8457     28.2225   -999.2500
  2929.0000     27.9230     95.4653     27.6404   -999.2500
  2929.2500     27.5300     95.8919     27.2076   -999.2500
  2929.5000     27.1460     96.1621     26.8704   -999.2500
  2929.7500     26.7279     96.3338     26.5514   -999.2500
  2930.0000     26.2392     96.4754     26.1678   -999.2500
  2930.2500     25.6707     96.6538     25.6586   -999.2500
  2930.5000     25.0542     96.9213     25.0065   -999.2500
  2930.7500     24.4539     97.3073     24.2418   -999.2500
  2931.0000     23.9316     97.8115     23.4266   -999.2500
  2931.2500     23.5065     98.4045     22.6291   -999.2500
  2931.5000     23.1468     99.0312     21.9027   -999.2500
  2931.7500     22.8035     99.6203     21.2778   -999.2500
  2932.0000     22.4552    100.0952     20.7665   -999.2500
  2932.2500     22.1319    100.3866     20.3739   -999.2500
  2932.5000     21.9108    100.4434     20.1090   -999.2500
  2932.7500     21.8965    100.2405     19.9937   -999.2500
  2933.0000     22.1866     99.7826     20.0659   -999.2500
  2933.2500     22.8199     99.1034     20.3740   -999.2500
  2933.5000     23.7401     98.2607     20.9604   -999.2500
  2933.7500     24.8209     97.3285     21.8389   -999.2500
  2934.0000     25.9439     96.3872     22.9784   -999.2500
  2934.2500     27.0560     95.5128     24.5406   -999.2500
  2934.5000     28.1502     94.7670     25.9736   -999.2500
  2934.7500     29.2050     94.1895     27.3839   -999.2500
  2935.0000     30.1576     93.7943     28.6713   -999.2500
  2935.2500     30.9336     93.5693     29.7408   -999.2500
  2935.5000     31.4940     93.4808     30.5114   -999.2500
  2935.7500     31.8515     93.4804     30.9491   -999.2500
  2936.0000     32.0552     93.5140     31.0914   -999.2500
  2936.2500     32.1632     93.5297     31.0466   -999.2500
  2936.5000     32.2250     93.4846     30.9768   -999.2500
  2936.7500     32.2743     93.3491     31.1088   -999.2500
  2937.0000     32.3327     93.1084     31.7933   -999.2500
  2937.2500     32.4191     92.7608     33.6189   -999.2500
  2937.5000     32.5554     92.3155     37.6427   -999.2500
  2937.7500     32.7627     91.7881     45.0609   -999.2500
  2938.0000     33.0539     91.1965     62.4248   -999.2500
  2938.2500     33.4317     90.5574    106.6383   -999.2500
  2938.5000     33.8915     89.8819    301.0415   -999.2500
  2938.7500     34.4230     89.1772 100000.0000   -999.2500
  2939.0000     35.0086     88.4433 100000.0000   -999.2500
  2939.2500     35.6206     87.6730 100000.0000   -999.2500
  2939.5000     36.2244     86.8498 100000.0000   -999.2500
  2939.7500     36.7866     85.9437 100000.0000   -999.2500
  2940.0000     37.2823     84.9057 100000.0000   -999.2500
  2940.2500     37.6993     83.6606 100000.0000   -999.2500
  2940.5000     38.0349     82.1030 100000.0000   -999.2500
  2940.7500     38.2921     80.1002 100000.0000   -999.2500
  2941.0000     38.4756     77.5055 100000.0000   -999.2500
  2941.2500     38.5866     74.1863 100000.0000   -999.2500
  2941.5000     38.5844     70.0607 100000.0000   -999.2500
  2941.7500     38.2913     65.1358 100000.0000   -999.2500
  2942.0000     37.2516     59.5337 100000.0000   -999.2500
  2942.2500     34.7012     53.4916 100000.0000   -999.2500
  2942.5000     29.9236     47.3330 100000.0000   -999.2500
  2942.7500     22.9786     41.4126 100000.0000   -999.2500
  2943.0000     15.1191     36.0519 100000.0000   -999.2500
  2943.2500      8.1904     31.4840 100000.0000   -999.2500
  2943.5000      3.4321     27.8231 100000.0000   -999.2500
  2943.7500      0.8865     25.0645 100000.0000   -999.2500
  2944.0000     -0.1742     23.1107 100000.0000   -999.2500
  2944.2500     -0.5185     21.8102 100000.0000   -999.2500
  2944.5000     -0.6055     20.9967 100000.0000   -999.2500
  2944.7500     -0.6226     20.5187 100000.0000   -999.2500
  2945.0000   -999.2500     20.2547 100000.0000   -999.2500
  2945.2500   -999.2500     20.1178  20322.7012   -999.2500
  2945.5000   -999.2500     20.0510   4823.5234   -999.2500
  2945.7500   -999.2500     20.0205   3358.9343   -999.2500
  2946.0000   -999.2500     20.0073   2926.4558   -999.2500
  2946.2500   -999.2500     20.0020   2778.1743   -999.2500
  2946.5000   -999.2500   -999.2500   2729.3342   -999.2500
  2946.7500   -999.2500   -999.2500   2714.9609   -999.2500
  2947.0000   -999.2500   -999.2500   2711.3005   -999.2500
  2947.2500   -999.2500   -999.2500 100000.0000   -999.2500
