~Version Information
VERS.                      2.0: CWLS Log ASCII Standard - VERSION 2.0
WRAP.                       NO: One line per depth step
~Well Information Block
STRT.FT                -4.0000: 
STOP.FT               675.2500: 
STEP.FT                 0.2500: 
NULL.                -999.2500: 
COMP.          Pioneer Natural Resources: COMPANY
WELL.          Razor Clam 23-27: WELL
FLD.           Purgatoire River: FIELD
LOC.           2499' FSL & 2636' FWL: LOCATION
CNTY.               Las Animas: COUNTY
SRVC.                         : SERVICE COMPANY
DATE.          Thu Mar 09 13:15:19 2006: LOG DATE
UWI.           05 071 08667 00: UNIQUE WELL ID
STAT.                       CO: STATE
~Curve Information Block
DEPT.FT            0 000 00 00: Depth
GR.GAPI                       : Gamma Ray
CCL.                          : Casing Collar Locator
TT3.usec                      : CBL 3' Travel Time
AMP3.mV                       : CBL 3' Amplitude
~Parameter Information Block
~A  Depth        GR         CCL         TT3         AMP3    
# ...
    29.5000    105.2500      0.0000    305.5207     24.9648
    29.7500    103.1011      0.0000    305.4905     24.8544
    30.0000    101.1295      0.0000    305.4595     24.6672
    30.2500     98.3928      0.0000    305.4330     24.4490
    30.5000     94.3567      0.0000    305.4058     24.2677
    30.7500     89.6575      0.0000    305.3693     24.2051
    31.0000     85.5774      0.0000    305.3230     24.3014
    31.2500     82.8313      0.0000    305.2760     24.4909
    31.5000     80.9787      0.0000    305.2337     24.6244
    31.7500     79.0204      0.0000    305.1882     24.5962
    32.0000     76.3270      0.0000    305.1240     24.4537
    32.2500     72.9488      0.0000    305.0348     24.3579
    32.5000     69.4512      0.0000    304.9329     24.4179
    32.7500     66.7681      0.0000    304.8464     24.5645
    33.0000     65.9403      0.0000    304.8054     24.6021
    33.2500     67.5236      0.0000    304.8207     24.3978
    33.5000     71.0329      0.0000    304.8712     24.0069
    33.7500     75.0726      0.0000    304.9152     23.6151
    34.0000     78.2343      0.0000    304.9202     23.3972
    34.2500     79.9594      0.0000    304.8783     23.4414
    34.5000     80.5246      0.0000    304.7975     23.7478
    34.7500     80.3910      0.0000    304.6909     24.2439
    35.0000     79.8728      0.0000    304.5801     24.8033
    35.2500     79.4074      0.0000    304.4930     25.2745
    35.5000     79.7057      0.0000    304.4386     25.5292
    35.7500     81.2708      0.0000    304.3796     25.5321
    36.0000     83.8507      0.0000    304.2514     25.3780
    36.2500     86.6640      0.0000    304.0253     25.2349
    36.5000     89.2395      0.0000    303.7498     25.2218
    36.7500     91.8245      0.0000    303.5164     25.3282
    37.0000     94.7575      0.0000    303.3852     25.4452
    37.2500     97.5966      0.0000    303.3495     25.4615
    37.5000     99.2661      0.0000    303.3640     25.3378
    37.7500     99.2165      0.0000    303.3912     25.1156
    38.0000     98.2860      0.0000    303.4217     24.8781
    38.2500     98.1834      0.0000    303.4580     24.7063
    38.5000    100.0617      0.0000    303.5017     24.6517
    38.7500    103.7024      0.0000    303.5593     24.7087
    39.0000    107.9620      0.0000    303.6454     24.7845
    39.2500    111.5872      0.0000    303.7682     24.7303
    39.5000    113.7374      0.0000    303.9209     24.4554
    39.7500    114.3384      0.0000    304.0944     24.0179
    40.0000    114.0142      0.0000    304.2864     23.5886
    40.2500    113.3387      0.0000    304.4881     23.3279
    40.5000    112.2895      0.0000    304.6705     23.2856
    40.7500    110.5810      0.0000    304.7939     23.3815
    41.0000    108.0694      0.0000    304.8343     23.4750
    41.2500    104.6007      0.0000    304.7971     23.4742
    41.5000     99.8576      0.0000    304.7099     23.3988
    41.7500     93.6341      0.0000    304.6010     23.3455
    42.0000     86.2174      0.0000    304.4832     23.4034
    42.2500     78.4817      0.0000    304.3556     23.5980
    42.5000     71.5732      0.0000    304.2216     23.8936
    42.7500     66.4017      0.0000    304.1011     24.2269
    43.0000     63.3712      0.0000    304.0240     24.5400
    43.2500     62.4446      0.0000    304.0102     24.8100
    43.5000     63.1941      0.0000    304.0553     25.0580
    43.7500     64.7649      0.0000    304.1315     25.3139
    44.0000     66.1437      0.0000    304.2040     25.5674
    44.2500     66.7483      0.0000    304.2501     25.7644
    44.5000     66.7826      0.0000    304.2679     25.8436
    44.7500     66.9174      0.0000    304.2671     25.7676
    45.0000     67.5332      0.0000    304.2544     25.5423
    45.2500     68.3954      0.0000    304.2302     25.2390
    45.5000     69.2440      0.0000    304.1973     24.9841
    45.7500     70.4328      0.0000    304.1656     24.8850
    46.0000     72.5976      0.0000    304.1494     24.9568
    46.2500     75.8405      0.0000    304.1608     25.1373
    46.5000     79.5894      0.0000    304.2052     25.3534
    46.7500     83.1570      0.0000    304.2744     25.5355
    47.0000     86.0626      0.0000    304.3457     25.6029
    47.2500     87.8566      0.0000    304.3873     25.5182
    47.5000     88.1747      0.0000    304.3695     25.3763
    47.7500     87.2237      0.0000    304.2776     25.3846
    48.0000     85.7997      0.0000    304.1194     25.7022
    48.2500     84.5709      0.0000    303.9237     26.2957
    48.5000     83.7659      0.0000    303.7325     26.9591
    48.7500     83.7354      0.0000    303.5918     27.4618
    49.0000     85.1586      0.0000    303.5377     27.6820
    49.2500     88.3525      0.0000    303.5781     27.6415
    49.5000     92.8124      0.0000    303.6899     27.4515
    49.7500     97.4903      0.0000    303.8365     27.2264
    50.0000    101.0396      0.0000    303.9856     27.0280
    50.2500    101.9882      0.0000    304.1101     26.8652
    50.5000     99.5690      0.0000    304.1863     26.7170
    50.7500     94.6806      0.0000    304.2107     26.5408
    51.0000     89.7064      0.0000    304.2164     26.2817
    51.2500     87.2335      0.0000    304.2971     25.9140
    51.5000     88.8197      0.0000    304.6560     25.4831
    51.7500     94.3961      0.0000    306.0203     25.0845
    52.0000    102.2731      0.0000    310.7983     24.7864
    52.2500    109.8614      0.0000    324.9153     24.5787
    52.5000    115.1131      0.0000    358.2699     24.3956
    52.7500    117.7431      0.0000    420.0866     24.1672
    53.0000    119.0430      0.0000    509.3830     23.8616
    53.2500    120.4771      0.0000    609.6721     23.5128
    53.5000    122.5747      0.0000    696.8234     23.2024
    53.7500    125.1716      0.0000    753.7797     22.9842
    54.0000    128.2101      0.0000    776.5850     22.8329
    54.2500    131.6355      0.0000    768.8757     22.6821
    54.5000    134.4805      0.0000    737.1194     22.4693
    54.7500    134.9399      0.0000    693.7015     22.1114
    55.0000    132.2242      0.0000    658.4700     21.4986
    55.2500    128.1907      0.0000    648.4612     20.5890
    55.5000    126.2365      0.0000    664.6831     19.5009
    55.7500    128.0493      0.0000    694.1319     18.4718
    56.0000    131.7640      0.0000    724.4409     17.7202
    56.2500    133.6953      0.0000    750.8047     17.3271
    56.5000    131.8194      0.0000    769.7275     17.2164
    56.7500    127.5209      0.0000    773.7759     17.2415
    57.0000    124.1006      2.0000    756.3897     17.3088
    57.2500    123.6660      2.0000    720.6387     17.4473
    57.5000    125.3549      0.0000    679.1453     17.8200
    57.7500    126.3787      0.0000    640.9067     18.6676
    58.0000    124.4376      0.0000    600.0002     20.1399
    58.2500    118.8871      0.0000    543.9274     22.0879
    58.5000    110.1987      0.0000    472.6493     24.0574
    58.7500     99.5754      0.0000    402.3921     25.5818
    59.0000     89.2901      0.0000    350.2704     26.4859
    59.2500     82.2296      0.0000    320.9872     26.9077
    59.5000     80.1559      0.0000    308.4068     27.1031
    59.7500     82.3760      0.0000    304.2346     27.2563
    60.0000     86.2228      0.0000    303.1395     27.4012
    60.2500     88.8659      0.0000    302.8786     27.4815
    60.5000     89.0550      0.0000    302.7841     27.4786
    60.7500     87.6694      0.0000    302.7094     27.4586
    61.0000     86.7085      0.0000    302.6316     27.4941
    61.2500     87.6166      0.0000    302.5658     27.5832
    61.5000     90.4426      0.0000    302.5232     27.6713
    61.7500     94.4517      0.0000    302.5004     27.7251
    62.0000     99.2932      0.0000    302.4817     27.7691
    62.2500    105.2878      0.0000    302.4522     27.8577
    62.5000    112.4478      0.0000    302.4067     28.0144
    62.7500    119.3261      0.0000    302.3492     28.1970
