~Version Information
VERS.                      2.0: CWLS Log ASCII Standard - VERSION 2.0
WRAP.                       NO: One line per depth step
~Well Information Block
STRT.FT               -10.0000: 
STOP.FT              2073.0000: 
STEP.FT                 0.2500: 
NULL.                -999.2500: 
COMP.          Pioneer Natural Resources: COMPANY
WELL.              Joplin 44-5: WELL
FLD.           Purgatorie River: FIELD
LOC.           262' FSL & 418' FEL--: LOCATION
PROV.                       CO: PROVINCE
CNTY.               Las Animas: COUNTRY
SRVC.          Patterson Wireline: SERVICE COMPANY
DATE.          Mon Dec 19 09:21:33 2005: LOG DATE
UWI.           05 071 08623 00: UNIQUE WELL ID
~Curve Information Block
DEPT.FT            0 000 00 00: Depth
CCL.                          : Casing Collar Locator
TT3.usec                      : CBL 3' Travel Time
AMP3.mV                       : CBL 3' Amplitude
GR.GAPI                       : Gamma Ray
~Parameter Information Block
~A  Depth       CCL         TT3         AMP3         GR     
# ...
  1229.5000      0.0000    714.1627      7.9993    139.1389
  1229.7500      0.0000    714.1104      8.0254    136.3346
  1230.0000      0.0000    713.7187      8.0750    133.0643
  1230.2500      0.0000    712.6295      8.1392    128.1225
  1230.5000      0.0000    710.8277      8.1987    121.2847
  1230.7500      0.0000    708.9991      8.2286    113.1016
  1231.0000      0.0000    708.2598      8.2096    104.8285
  1231.2500      0.0000    709.1932      8.1366     98.2200
  1231.5000      0.0000    711.2539      8.0219     94.4343
  1231.7500      0.0000    713.3356      7.8913     92.9489
  1232.0000      0.0000    714.7417      7.7739     92.1230
  1232.2500      0.0000    715.4381      7.6929     91.0046
  1232.5000      0.0000    715.6559      7.6626     90.0757
  1232.7500      0.0000    715.5693      7.6904     90.0252
  1233.0000      0.0000    715.2908      7.7770     90.3540
  1233.2500      0.0000    714.9443      7.9093     89.7120
  1233.5000      0.0000    714.6513      8.0575     87.3224
  1233.7500      0.0000    714.4592      8.1856     83.5276
  1234.0000      0.0000    714.2267      8.2711     79.1437
  1234.2500      0.0000    713.4767      8.3153     74.9290
  1234.5000      0.0000    711.3595      8.3341     71.5852
  1234.7500      0.0000    707.0364      8.3411     69.6245
  1235.0000      0.0000    700.4611      8.3420     69.0808
  1235.2500      0.0000    692.8265      8.3400     69.6253
  1235.5000      0.0000    685.9663      8.3405     71.0067
  1235.7500      0.0000    681.1589      8.3463     73.1680
  1236.0000      0.0000    678.5396      8.3526     75.8170
  1236.2500      0.0000    677.5187      8.3536     78.0986
  1236.5000      0.0000    677.5341      8.3528     79.0132
  1236.7500      0.0000    678.4849      8.3624     78.2995
  1237.0000      0.0000    680.6964      8.3923     76.7754
  1237.2500      0.0000    684.3760      8.4446     75.8060
  1237.5000      0.0000    688.7971      8.5190     76.4240
  1237.7500      0.0000    692.1218      8.6169     78.6643
  1238.0000      0.0000    692.5938      8.7322     81.4640
  1238.2500      0.0000    690.1006      8.8426     83.3617
  1238.5000      0.0000    686.2635      8.9133     83.5443
  1238.7500      0.0000    682.9539      8.9185     82.1790
  1239.0000      0.0000    681.0405      8.8628     79.9210
  1239.2500      0.0000    680.4872      8.7780     77.6098
  1239.5000      0.0000    681.1825      8.6993     76.3571
  1239.7500      0.0000    683.4417      8.6455     77.1197
  1240.0000      0.0000    687.7440      8.6212     79.7323
  1240.2500      0.0000    693.9739      8.6242     82.7101
  1240.5000      0.0000    700.9803      8.6472     84.4523
  1240.7500      0.0000    707.1206      8.6757     84.5945
  1241.0000      0.0000    711.3546      8.6923     83.8893
  1241.2500      0.0000    713.7338      8.6825     82.9912
  1241.5000      0.0000    714.9411      8.6404     82.0406
  1241.7500      0.0000    715.6071      8.5730     81.4501
  1242.0000      0.0000    716.0475      8.4967     82.0244
  1242.2500      0.0000    716.3541      8.4257     83.7512
  1242.5000      0.0000    716.5270      8.3647     85.4020
  1242.7500      0.0000    716.5573      8.3112     85.9096
  1243.0000      0.0000    716.4766      8.2586     85.3366
  1243.2500      0.0000    716.3467      8.1961     84.0139
  1243.5000      0.0000    716.1946      8.1111     81.6932
  1243.7500      0.0000    715.9883      8.0000     78.3484
  1244.0000      0.0000    715.7036      7.8757     75.0570
  1244.2500      0.0000    715.4253      7.7620     73.0247
  1244.5000      0.0000    715.3900      7.6783     72.0182
  1244.7500      0.0000    715.9498      7.6281     70.7273
  1245.0000      0.0000    717.3985      7.6027     68.6971
  1245.2500      0.0000    719.6232      7.5935     67.2297
  1245.5000      0.0000    721.8365      7.5980     68.2607
  1245.7500      0.0000    722.9166      7.6162     72.6163
  1246.0000      0.0000    722.3256      7.6466     79.2817
  1246.2500      0.0000    720.6296      7.6878     86.1074
  1246.5000      0.0000    718.9320      7.7422     91.2553
  1246.7500      0.0000    717.9111      7.8121     94.1621
  1247.0000      0.0000    717.5087      7.8941     95.4351
  1247.2500      0.0000    717.3185      7.9753     96.1164
  1247.5000      0.0000    717.0304      8.0369     96.9375
  1247.7500      0.0000    716.5286      8.0666     97.9548
  1248.0000      0.0000    715.7409      8.0686     98.8378
  1248.2500      0.0000    714.5044      8.0557     99.4829
  1248.5000      0.0000    712.6423      8.0320    100.1484
  1248.7500      0.0000    710.3043      7.9926    101.1362
  1249.0000      0.0000    708.2698      7.9467    102.7324
  1249.2500      0.0000    707.6271      7.9250    105.2883
  1249.5000      0.0000    708.7757      7.9513    108.9936
  1249.7500      0.0000    710.8027      8.0108    113.8002
  1250.0000      0.0000    712.0192      8.0605    119.9479
  1250.2500      0.0000    710.9885      8.0733    128.0489
  1250.5000      0.0000    707.1767      8.0653    137.8626
  1250.7500      0.0000    701.3145      8.0784    147.1152
  1251.0000      0.0000    695.5593      8.1401    152.4811
  1251.2500      0.0000    692.5972      8.2361    152.3494
  1251.5000      0.0000    693.3733      8.3167    148.3625
  1251.7500      0.0000    694.9304      8.3309    143.8990
  1252.0000      0.0000    691.4174      8.2579    141.3906
  1252.2500      0.0000    679.4655      8.1099    141.4953
  1252.5000      0.0000    663.2688      7.9208    144.0491
  1252.7500      0.0000    652.3061      7.7506    148.4256
  1253.0000      0.0000    653.0456      7.6779    153.0273
  1253.2500      0.0000    664.4893      7.7460    155.7786
  1253.5000      0.0000    681.4624      7.9176    155.8148
  1253.7500      0.0000    698.9672      8.1187    154.2890
  1254.0000      0.0000    712.8719      8.3192    153.0379
  1254.2500      0.0000    719.3871      8.5432    152.5985
  1254.5000      2.0000    716.4453      8.8204    152.1008
  1254.7500     -2.0000    706.8254      9.1689    151.3000
  1255.0000      0.0000    699.1111      9.6130    151.8384
  1255.2500      0.0000    702.2213     10.1968    155.6439
  1255.5000      0.0000    717.3050     10.9651    162.6750
  1255.7500      0.0000    736.8000     11.8918    170.9682
  1256.0000      0.0000    751.9276     12.8070    178.0816
  1256.2500      0.0000    758.9560     13.4605    181.9592
  1256.5000      0.0000    758.5630     13.7304    181.5904
  1256.7500      0.0000    752.3724     13.7190    177.7633
  1257.0000      0.0000    741.5701     13.5942    172.5282
  1257.2500      0.0000    727.8557     13.4136    167.2041
  1257.5000      0.0000    714.4304     13.1448    161.1468
  1257.7500      0.0000    705.0269     12.7744    152.5291
  1258.0000      0.0000    701.4456     12.3358    140.0032
  1258.2500      0.0000    702.1473     11.8750    124.0596
  1258.5000      0.0000    703.4892     11.4273    107.4091
  1258.7500      0.0000    702.1033     11.0200     93.7292
  1259.0000      0.0000    695.9736     10.6733     85.2452
  1259.2500      0.0000    683.3849     10.3963     81.3570
  1259.5000      0.0000    661.3008     10.1858     79.6382
  1259.7500      0.0000    626.0789     10.0299     77.9229
  1260.0000      0.0000    577.4848      9.9099     75.3680
  1260.2500      0.0000    522.0958      9.8052     72.2537
  1260.5000      0.0000    471.2143      9.7008     69.5176
  1260.7500      0.0000    434.8747      9.5889     68.2412
  1261.0000      0.0000    418.6182      9.4634     68.9303
  1261.2500      0.0000    425.0307      9.3162     71.1770
  1261.5000      0.0000    454.8529      9.1395     74.0391
  1261.7500      0.0000    504.0381      8.9330     76.6162
  1262.0000      0.0000    560.9852      8.7100     78.5032
  1262.2500      0.0000    610.1922      8.4969     80.0233
  1262.5000      0.0000    640.0930      8.3239     81.7823
  1262.7500      0.0000    647.1331      8.2144     83.8109
