~Version Information
VERS.                      2.0: CWLS Log ASCII Standard - VERSION 2.0
WRAP.                       NO: One line per depth step
~Well Information Block
STRT.FT               555.0000: 
STOP.FT              1159.0000: 
STEP.FT                 0.2500: 
NULL.                -999.2500: 
COMP.          Pioneer Natural Resources: COMPANY
WELL.              Draco 31-21: WELL
FLD.           Purgatoire River: FIELD
LOC.           491' FNL & 2446' FEL: LOCATION
CNTY.               Las Animas: COUNTY
SRVC.                Patterson: SERVICE COMPANY
DATE.          Tue Jan 31 17:48:38 2006: LOG DATE
UWI.           05 071 08672 00: UNIQUE WELL ID
STAT.                 Colorado: STATE
~Curve Information Block
DEPT.FT            0 000 00 00: Depth
SN.Ohm-m                      : IEL Short Normal
SP.mV                         : IEL Spontaneous Potential
DIR.Ohm-m                     : IEL Induction Resistivity
GR.GAPI                       : Gamma Ray
~Parameter Information Block
~A  Depth        SN          SP         DIR          GR     
# ...
   823.0000     15.4448     -7.8964     14.0471     92.6081
   823.2500     15.9342     -8.1253     14.5864     93.5989
   823.5000     16.5646     -8.3719     15.0784     94.4298
   823.7500     17.1660     -8.6179     15.4987     93.6584
   824.0000     17.5291     -8.8443     15.8366     90.3008
   824.2500     17.6244     -9.0397     16.0978     87.2863
   824.5000     17.6080     -9.1976     16.2982     83.3526
   824.7500     17.6488     -9.3063     16.4588     81.7850
   825.0000     17.8071     -9.3473     16.6032     80.9449
   825.2500     18.0554     -9.3104     16.7581     80.8493
   825.5000     18.3242     -9.2057     16.9503     80.4621
   825.7500     18.5315     -9.0572     17.1979     79.8079
   826.0000     18.6566     -8.8894     17.5018     78.4102
   826.2500     18.7576     -8.7225     17.8409     77.4735
   826.5000     18.8878     -8.5733     18.1762     76.4753
   826.7500     19.0730     -8.4538     18.4630     76.1239
   827.0000     19.3361     -8.3637     18.6658     75.6059
   827.2500     19.6587     -8.2866     18.7690     74.8337
   827.5000     20.0114     -8.1954     18.7784     72.6738
   827.7500     20.3889     -8.0716     18.7161     70.7689
   828.0000     20.7230     -7.9246     18.6121     68.0366
   828.2500     20.9147     -7.7914     18.4922     66.8152
   828.5000     20.9947     -7.7167     18.3675     66.4711
   828.7500     21.0696     -7.7309     18.2299     67.2759
   829.0000     21.0983     -7.8442     18.0600     69.6256
   829.2500     20.8989     -8.0512     17.8350     71.6727
   829.5000     20.3938     -8.3350     17.5300     75.3532
   829.7500     19.6783     -8.6679     17.1177     78.3000
   830.0000     18.8611     -9.0163     16.5822     83.3017
   830.2500     18.0401     -9.3479     15.9440     86.6416
   830.5000     17.3729     -9.6383     15.2690     91.0726
   830.7500     16.9221     -9.8788     14.6413     93.6579
   831.0000     16.5246    -10.0823     14.1222     97.4730
   831.2500     16.0020    -10.2856     13.7299    100.0675
   831.5000     15.4024    -10.5406     13.4497    103.3070
   831.7500     14.9351    -10.8974     13.2586    104.3385
   832.0000     14.7020    -11.3877     13.1435    103.7402
   832.2500     14.6192    -12.0122     13.1052    102.4653
   832.5000     14.6052    -12.7365     13.1490    100.9811
   832.7500     14.6610    -13.4992     13.2760    100.9239
   833.0000     14.7849    -14.2320     13.4804    101.6441
   833.2500     14.9722    -14.8816     13.7532    101.5603
   833.5000     15.2526    -15.4226     14.0891     99.0178
   833.7500     15.6536    -15.8557     14.4898     95.6851
   834.0000     16.1859    -16.1935     14.9650     89.5465
   834.2500     16.8743    -16.4473     15.5284     85.5898
   834.5000     17.7335    -16.6228     16.1941     80.5575
   834.7500     18.7778    -16.7237     16.9738     77.7596
   835.0000     20.0401    -16.7537     17.8771     74.3832
   835.2500     21.4371    -16.7172     18.9138     72.9314
   835.5000     22.7183    -16.6190     20.0929     72.2626
   835.7500     23.6921    -16.4649     21.4124     72.6313
   836.0000     24.4293    -16.2614     22.8432     73.8200
   836.2500     25.2561    -16.0125     24.3172     74.9021
   836.5000     26.4650    -15.7159     25.7348     76.9057
   836.7500     27.9307    -15.3610     26.9950     78.2275
   837.0000     29.2930    -14.9335     28.0309     79.3438
   837.2500     30.4365    -14.4238     28.8280     79.2633
   837.5000     31.4242    -13.8339     29.4152     78.6163
   837.7500     32.2138    -13.1777     29.8360     78.6456
   838.0000     32.7011    -12.4772     30.1172     80.0068
   838.2500     32.8521    -11.7583     30.2563     81.2737
   838.5000     32.6926    -11.0449     30.2411     82.1590
   838.7500     32.2746    -10.3537     30.0825     81.5718
   839.0000     31.6866     -9.6897     29.8222     79.2831
   839.2500     31.0061     -9.0491     29.5045     77.4480
   839.5000     30.2310     -8.4267     29.1382     75.1454
   839.7500     29.3579     -7.8218     28.6907     74.0006
   840.0000     28.4826     -7.2371     28.1173     72.2957
   840.2500     27.6962     -6.6777     27.4026     70.8084
   840.5000     26.9967     -6.1523     26.5777     68.1799
   840.7500     26.3901     -5.6745     25.7059     66.7385
   841.0000     25.9286     -5.2580     24.8534     66.1144
   841.2500     25.6048     -4.9069     24.0670     66.8511
   841.5000     25.3093     -4.6108     23.3711     68.9156
   841.7500     24.9334     -4.3497     22.7764     70.4000
   842.0000     24.4519     -4.1065     22.2870     72.5295
   842.2500     23.9097     -3.8764     21.8977     73.9980
   842.5000     23.3445     -3.6681     21.5879     76.3329
   842.7500     22.7653     -3.4977     21.3269     77.9069
   843.0000     22.2471     -3.3801     21.0899     80.0692
   843.2500     21.9038     -3.3206     20.8688     80.9951
   843.5000     21.7234     -3.3115     20.6662     80.4960
   843.7500     21.5857     -3.3368     20.4806     78.5286
   844.0000     21.4478     -3.3826     20.3059     73.9668
   844.2500     21.3631     -3.4474     20.1447     71.0363
   844.5000     21.3468     -3.5440     20.0181     68.4694
   844.7500     21.3242     -3.6897     19.9572     68.0409
   845.0000     21.2102     -3.8922     19.9875     68.1534
   845.2500     21.0477     -4.1417     20.1171     68.0939
   845.5000     20.9754     -4.4132     20.3329     67.7894
   845.7500     21.0677     -4.6772     20.5995     67.8650
   846.0000     21.3105     -4.9090     20.8673     68.6795
   846.2500     21.6348     -5.0928     21.0905     69.2204
   846.5000     21.9288     -5.2242     21.2466     68.6582
   846.7500     22.0851     -5.3077     21.3379     66.9558
   847.0000     22.0613     -5.3519     21.3768     63.1847
   847.2500     21.9236     -5.3625     21.3738     60.8402
   847.5000     21.8389     -5.3391     21.3389     58.7099
   847.7500     21.9704     -5.2737     21.2867     58.1232
   848.0000     22.2935     -5.1516     21.2320     57.5855
   848.2500     22.5787     -4.9547     21.1788     57.0543
   848.5000     22.6617     -4.6699     21.1136     55.9975
   848.7500     22.6180     -4.2968     21.0133     55.3707
   849.0000     22.6168     -3.8495     20.8696     54.9274
   849.2500     22.7670     -3.3515     20.7111     54.9849
   849.5000     23.0618     -2.8294     20.5995     55.2910
   849.7500     23.3703     -2.3095     20.5940     55.3834
   850.0000     23.5514     -1.8152     20.7085     55.0329
   850.2500     23.5457     -1.3600     20.8940     54.3891
   850.5000     23.3620     -0.9407     21.0617     52.7849
   850.7500     23.0899     -0.5393     21.1327     51.3181
   851.0000     22.8623     -0.1353     21.0784     48.7512
   851.2500     22.7506      0.2806     20.9280     47.1514
   851.5000     22.7469      0.7000     20.7453     45.9601
   851.7500     22.7963      1.0998     20.5987     46.6312
   852.0000     22.7917      1.4508     20.5382     50.4568
   852.2500     22.6460      1.7248     20.5856     54.6881
   852.5000     22.4043      1.9012     20.7365     62.1585
   852.7500     22.1758      1.9705     20.9677     66.6965
   853.0000     22.0007      1.9374     21.2466     71.0310
   853.2500     21.8976      1.8182     21.5341     71.7842
   853.5000     21.9395      1.6328     21.7876     70.0653
   853.7500     22.1715      1.3959     21.9672     67.6981
   854.0000     22.5452      1.1136     22.0513     63.5768
   854.2500     22.9580      0.7890     22.0544     60.9890
   854.5000     23.2925      0.4308     22.0286     57.8457
   854.7500     23.5137      0.0579     22.0408     56.3250
   855.0000     23.7364     -0.3053     22.1421     54.8098
   855.2500     24.0916     -0.6384     22.3514     54.2429
   855.5000     24.5822     -0.9338     22.6611     54.0427
   855.7500     25.0961     -1.1998     23.0523     54.2306
   856.0000     25.5104     -1.4550     23.5045     54.4458
   856.2500     25.8182     -1.7185     23.9949     54.3204
