~Version Information
VERS.                      2.0: CWLS Log ASCII Standard - VERSION 2.0
WRAP.                       NO: One line per depth step
~Well Information Block
STRT.FT               525.0000: 
STOP.FT              2377.2500: 
STEP.FT                 0.2500: 
NULL.                -999.2500: 
COMP.          Pioneer Natural Resources: COMPANY
WELL.          Sparrowhawk 22-12: WELL
FLD.           Purgatoire River: FIELD
LOC.           2049' FNL & 2060' FWL--: LOCATION
CNTY.               Las Animas: COUNTY
SRVC.                Patterson: SERVICE COMPANY
DATE.          Thu Mar 23 10:52:44 2006: LOG DATE
UWI.           05 071 08484 00: UNIQUE WELL ID
STAT.                 Colorado: STATE
~Curve Information Block
DEPT.FT            0 000 00 00: Depth
SN.Ohm-m                      : IEL Short Normal
SP.mV                         : IEL Spontaneous Potential
DIR.Ohm-m                     : IEL Induction Resistivity
GR.GAPI                       : Gamma Ray
~Parameter Information Block
~A  Depth        SN          SP         DIR          GR     
# ...
  2200.0000     34.0297    109.1820     31.8869     46.4501
  2200.2500     32.9576    108.9059     31.3478     46.5454
  2200.5000     31.7452    108.8202     30.6298     49.2326
  2200.7500     30.4391    108.9146     29.6991     52.3954
  2201.0000     29.0908    109.1620     28.5586     58.3745
  2201.2500     27.7488    109.5218     27.2669     62.9836
  2201.5000     26.4528    109.9476     25.9258     71.1055
  2201.7500     25.2313    110.3954     24.6372     77.4508
  2202.0000     24.0972    110.8304     23.4595     87.7914
  2202.2500     23.0445    111.2309     22.3924     94.4406
  2202.5000     22.0549    111.5889     21.3956    102.4282
  2202.7500     21.1140    111.9073     20.4255    105.6940
  2203.0000     20.2232    112.1960     19.4665    107.1682
  2203.2500     19.3968    112.4681     18.5362    106.3410
  2203.5000     18.6479    112.7369     17.6660    104.0748
  2203.7500     17.9792    113.0134     16.8770    102.9720
  2204.0000     17.3856    113.3056     16.1702    103.0935
  2204.2500     16.8633    113.6173     15.5332    104.4425
  2204.5000     16.4104    113.9479     14.9532    108.0558
  2204.7500     16.0199    114.2928     14.4247    111.3966
  2205.0000     15.6747    114.6445     13.9472    117.3819
  2205.2500     15.3540    114.9941     13.5174    121.2794
  2205.5000     15.0449    115.3336     13.1257    125.1441
  2205.7500     14.7488    115.6574     12.7594    125.7259
  2206.0000     14.4796    115.9637     12.4095    124.1500
  2206.2500     14.2536    116.2542     12.0755    122.4836
  2206.5000     14.0790    116.5331     11.7650    120.5292
  2206.7500     13.9512    116.8053     11.4885    119.7742
  2207.0000     13.8578    117.0740     11.2542    118.8849
  2207.2500     13.7901    117.3382     11.0647    118.0680
  2207.5000     13.7508    117.5904     10.9181    116.4907
  2207.7500     13.7506    117.8153     10.8120    115.6343
  2208.0000     13.7988    117.9892     10.7479    115.3557
  2208.2500     13.9016    118.0811     10.7344    115.6794
  2208.5000     14.0672    118.0546     10.7871    115.6522
  2208.7500     14.3138    117.8715     10.9264    114.5853
  2209.0000     14.6727    117.4949     11.1744    111.0795
  2209.2500     15.1919    116.8937     11.5526    107.5707
  2209.5000     15.9434    116.0467     12.0807    100.5536
  2209.7500     17.0403    114.9459     12.7769     94.5985
  2210.0000     18.6575    113.6011     13.6617     83.7931
  2210.2500     21.0282    112.0423     14.7603     75.7129
  2210.5000     24.3836    110.3225     16.1054     63.6242
  2210.7500     28.8267    108.5174     17.7337     56.5733
  2211.0000     34.1937    106.7236     19.6757     48.8325
  2211.2500     40.0218    105.0524     21.9372     45.8198
  2211.5000     45.6975    103.6204     24.4760     43.8110
  2211.7500     50.6968    102.5374     27.1808     43.1980
  2212.0000     54.7250    101.8936     29.8585     41.9331
  2212.2500     57.6810    101.7486     32.2383     40.8398
  2212.5000     59.5467    102.1260     34.0218     40.3417
  2212.7500     60.3228    103.0132     34.9975     41.9409
  2213.0000     60.0300    104.3677     35.1622     48.5612
  2213.2500     58.7383    106.1260     34.7272     56.0235
  2213.5000     56.5819    108.2130     33.9850     71.3859
  2213.7500     53.7435    110.5499     33.1548     83.6549
  2214.0000     50.4322    113.0589     32.3162    102.8660
  2214.2500     46.8826    115.6654     31.4332    114.6386
  2214.5000     43.3575    118.2998     30.4242    128.6272
  2214.7500     40.1167    120.8977     29.2405    135.1470
  2215.0000     37.3610    123.4005     27.9124    141.9088
  2215.2500     35.1862    125.7554     26.5370    145.6778
  2215.5000     33.5725    127.9147     25.2270    151.6405
  2215.7500     32.4107    129.8352     24.0618    155.4822
  2216.0000     31.5553    131.4795     23.0728    158.9261
  2216.2500     30.8788    132.8199     22.2555    158.6192
  2216.5000     30.2989    133.8435     21.5904    154.2149
  2216.7500     29.7709    134.5596     21.0575    149.3484
  2217.0000     29.2627    135.0048     20.6394    139.8664
  2217.2500     28.7423    135.2449     20.3173    131.8625
  2217.5000     28.1872    135.3713     20.0681    116.9942
  2217.7500     27.6102    135.4921     19.8655    105.8153
  2218.0000     27.0726    135.7189     19.6857     89.8432
  2218.2500     26.6563    136.1523     19.5102     81.5887
  2218.5000     26.3884    136.8681     19.3244     75.1977
  2218.7500     26.1673    137.9076     19.1129     75.5797
  2219.0000     25.7779    139.2734     18.8541     82.7689
  2219.2500     25.0186    140.9308     18.5196     90.8955
  2219.5000     23.8436    142.8156     18.0817    105.2172
  2219.7500     22.3940    144.8446     17.5278    114.4882
  2220.0000     20.9034    146.9276     16.8711    126.0320
  2220.2500     19.5742    148.9788     16.1506    131.7901
  2220.5000     18.5081    150.9244     15.4174    137.9983
  2220.7500     17.7063    152.7076     14.7183    140.9965
  2221.0000     17.1100    154.2889     14.0841    143.9725
  2221.2500     16.6456    155.6432     13.5250    144.5400
  2221.5000     16.2555    156.7566     13.0357    142.8607
  2221.7500     15.9083    157.6221     12.6050    140.8195
  2222.0000     15.5954    158.2385     12.2254    139.1642
  2222.2500     15.3259    158.6116     11.8993    140.2198
  2222.5000     15.1235    158.7568     11.6384    144.5885
  2222.7500     15.0200    158.7019     11.4604    147.9416
  2223.0000     15.0430    158.4861     11.3829    151.3244
  2223.2500     15.2003    158.1550     11.4190    151.9078
  2223.5000     15.4744    157.7500     11.5740    150.4015
  2223.7500     15.8341    157.2976     11.8456    148.0485
  2224.0000     16.2556    156.8022     12.2277    142.5234
  2224.2500     16.7440    156.2467     12.7149    137.3250
  2224.5000     17.3486    155.6022     13.3081    127.1540
  2224.7500     18.1693    154.8446     14.0189    119.1126
  2225.0000     19.3347    153.9698     14.8697    106.3087
  2225.2500     20.9376    153.0028     15.8888     98.1077
  2225.5000     22.9539    151.9948     17.0998     87.7569
  2225.7500     25.2141    151.0077     18.5058     82.8947
  2226.0000     27.4697    150.0938     20.0741     79.1889
  2226.2500     29.5010    149.2751     21.7254     78.6460
  2226.5000     31.1774    148.5334     23.3384     78.7518
  2226.7500     32.4465    147.8132     24.7755     78.3445
  2227.0000     33.2969    147.0376     25.9260     76.6267
  2227.2500     33.7365    146.1328     26.7399     75.3325
  2227.5000     33.7873    145.0503     27.2287     74.3495
  2227.7500     33.4883    143.7823     27.4389     74.6598
  2228.0000     32.9045    142.3638     27.4256     76.5868
  2228.2500     32.1274    140.8615     27.2418     78.7572
  2228.5000     31.2514    139.3548     26.9358     83.3323
  2228.7500     30.3362    137.9161     26.5434     87.3133
  2229.0000     29.3876    136.5946     26.0779     94.3332
  2229.2500     28.3765    135.4103     25.5315     99.0376
  2229.5000     27.2816    134.3555     24.8896    104.8133
  2229.7500     26.1241    133.4060     24.1510    107.6552
  2230.0000     24.9694    132.5352     23.3396    111.4918
  2230.2500     23.8998    131.7292     22.5005    114.4286
  2230.5000     22.9801    130.9953     21.6851    119.0526
  2230.7500     22.2368    130.3628     20.9353    121.2470
  2231.0000     21.6552    129.8725     20.2754    121.7122
  2231.2500     21.1928    129.5580     19.7144    120.3187
  2231.5000     20.8013    129.4250     19.2531    117.6539
  2231.7500     20.4475    129.4381     18.8890    116.6998
  2232.0000     20.1230    129.5202     18.6179    117.3297
  2232.2500     19.8375    129.5686     18.4323    118.9320
  2232.5000     19.6056    129.4823     18.3203    121.9189
  2232.7500     19.4326    129.1901     18.2650    123.1147
  2233.0000     19.3084    128.6690     18.2464    121.8797
  2233.2500     19.2154    127.9468     18.2459    119.0857
