~Version Information
VERS.                      2.0: CWLS Log ASCII Standard - VERSION 2.0
WRAP.                       NO: One line per depth step
~Well Information Block
STRT.FT                 0.0000: 
STOP.FT               878.0000: 
STEP.FT                 0.2500: 
NULL.                -999.2500: 
COMP.          Pioneer Natural Resources: COMPANY
WELL.           Hartford 31-18: WELL
FLD.           Purgatorie River: FIELD
LOC.           375' FNL & 1660' FEL: LOCATION
PROV.                 Colorado: PROVINCE
CNTY.               Las Animas: COUNTRY
SRVC.                Patterson: SERVICE COMPANY
DATE.          Mon Nov 28 12:10:49 2005: LOG DATE
UWI.             05-071-08555             : UNIQUE WELL ID
~Curve Information Block
DEPT.FT            0 000 00 00: Depth
CCL.                          : Casing Collar Locator
TT3.usec                      : CBL 3' Travel Time
AMP3.mV                       : CBL 3' Amplitude
GR.GAPI                       : Gamma Ray
~Parameter Information Block
~A  Depth       CCL         TT3         AMP3         GR     
# ...
   837.5000      0.0000    784.1339     11.4333     54.2552
   837.7500      0.0000    783.3179     12.0334     52.3181
   838.0000      0.0000    769.2926     13.0944     51.0909
   838.2500      0.0000    724.5948     14.5565     51.5192
   838.5000      0.0000    637.1020     16.2202     54.0285
   838.7500      0.0000    527.5101     17.8630     57.8276
   839.0000      0.0000    438.4512     19.3171     61.4503
   839.2500      0.0000    388.8275     20.5588     63.8640
   839.5000      0.0000    364.7115     21.7367     64.8504
   839.7500      0.0000    348.9985     23.0130     64.6028
   840.0000      0.0000    335.9449     24.3285     63.3608
   840.2500      0.0000    324.8135     25.4034     61.4000
   840.5000      0.0000    315.6915     25.9961     59.1552
   840.7500      0.0000    310.0747     26.0014     57.2890
   841.0000      0.0000    310.5475     25.2421     56.5514
   841.2500      0.0000    322.1808     23.4604     57.3692
   841.5000      0.0000    354.1718     20.6829     59.4898
   841.7500      0.0000    415.1756     17.3112     62.1030
   842.0000      0.0000    502.7421     13.9119     64.3898
   842.2500      0.0000    595.6843     11.1443     66.0539
   842.5000      0.0000    663.3434      9.4150     67.4231
   842.7500      0.0000    690.1605      8.5023     68.9703
   843.0000     -2.0000    686.9933      7.9017     70.7682
   843.2500     -2.0000    675.4857      7.3423     72.4918
   843.5000      0.0000    669.9648      6.8016     73.7909
   843.7500      0.0000    675.0605      6.3307     74.4864
   844.0000      0.0000    684.4995      6.0704     74.6866
   844.2500      0.0000    682.5107      6.2649     74.9883
   844.5000      0.0000    662.9778      6.9235     76.2379
   844.7500      0.0000    640.8463      7.5765     78.6390
   845.0000      0.0000    634.1522      7.7878     81.1908
   845.2500      0.0000    643.3870      7.6380     82.3358
   845.5000      0.0000    655.9094      7.3931     81.1444
   845.7500      0.0000    663.1812      7.1503     77.8529
   846.0000      0.0000    665.5374      6.9265     73.5530
   846.2500      0.0000    665.5288      6.7693     69.5400
   846.5000      0.0000    663.0463      6.7309     66.6649
   846.7500      0.0000    654.9109      6.8166     65.0198
   847.0000      0.0000    638.7690      6.9738     64.1938
   847.2500      0.0000    619.3218      7.1254     63.7183
   847.5000      0.0000    607.0659      7.2029     63.1751
   847.7500      0.0000    608.1780      7.1536     62.0876
   848.0000      0.0000    618.4147      6.9682     60.1430
   848.2500      0.0000    628.2720      6.7167     57.7063
   848.5000      0.0000    634.2077      6.5075     55.8432
   848.7500      0.0000    640.9504      6.4091     55.5117
   849.0000      0.0000    650.7735      6.4246     56.7748
   849.2500      0.0000    658.5153      6.5159     58.8851
   849.5000      0.0000    658.8076      6.6354     60.9656
   849.7500      0.0000    652.1804      6.7543     62.4746
   850.0000      0.0000    645.2450      6.8571     63.1861
   850.2500      0.0000    645.4006      6.9058     63.1094
   850.5000      0.0000    652.8147      6.8642     62.5549
   850.7500      0.0000    660.3510      6.7723     62.1378
   851.0000      0.0000    660.1860      6.7214     62.5816
   851.2500      0.0000    645.9061      6.7321     64.4684
   851.5000      0.0000    614.9919      6.7327     68.0158
   851.7500      0.0000    576.1865      6.6755     72.9097
   852.0000      0.0000    545.4240      6.6147     78.3105
   852.2500      0.0000    529.9723      6.6318     83.2123
   852.5000      0.0000    525.1611      6.7147     87.0788
   852.7500      0.0000    524.3010      6.7747     90.2428
   853.0000      0.0000    524.1668      6.7661     93.5429
   853.2500      0.0000    523.9576      6.7198     97.3103
   853.5000      0.0000    523.7272      6.6643    100.6201
   853.7500      0.0000    523.8504      6.5740    101.6627
   854.0000      0.0000    524.9995      6.4354     99.0851
   854.2500      0.0000    527.9301      6.3104     93.1471
   854.5000      0.0000    531.8406      6.2588     85.5784
   854.7500      0.0000    533.3483      6.2618     78.3518
   855.0000      0.0000    530.2972      6.2884     72.5301
   855.2500      0.0000    525.1582      6.3497     67.9150
   855.5000      0.0000    521.2767      6.4396     63.5446
   855.7500      0.0000    518.7167      6.5171     58.7780
   856.0000      0.0000    514.5717      6.5617     54.1442
   856.2500      0.0000    504.5678      6.5774     51.0282
   856.5000      0.0000    488.0792      6.5776     50.3879
   856.7500      0.0000    475.5645      6.5938     51.8098
   857.0000      0.0000    483.1602      6.6464     53.7750
   857.2500      0.0000    514.0352      6.7253     54.7902
   857.5000      0.0000    553.2926      6.8247     54.4303
   857.7500      0.0000    582.8245      6.9435     53.5082
   858.0000      0.0000    594.5457      7.0702     53.2067
   858.2500      0.0000    590.7992      7.1986     53.9164
   858.5000      0.0000    577.1511      7.3161     54.9117
   858.7500      0.0000    559.6227      7.3946     55.1442
   859.0000      0.0000    546.6288      7.4145     54.2353
   859.2500      0.0000    545.6020      7.3863     52.6599
   859.5000      0.0000    558.5433      7.3464     51.0782
   859.7500      0.0000    581.7499      7.3131     49.7288
   860.0000      0.0000    608.2335      7.2648     48.5979
   860.2500      0.0000    632.2352      7.1695     47.9804
   860.5000      0.0000    650.8655      7.0453     48.5096
   860.7500      0.0000    662.7453      6.9710     50.5217
   861.0000      0.0000    668.4780      6.9973     53.5760
   861.2500      0.0000    670.4768      7.1074     56.4402
   861.5000      0.0000    670.8913      7.2581     57.1074
   861.7500      0.0000    670.8019      7.4017     53.2512
   862.0000      0.0000    670.6989      7.5054     43.8514
   862.2500      0.0000    670.7961      7.5744     30.7538
   862.5000      0.0000    671.1256      7.6240     17.8815
   862.7500      0.0000    671.6067      7.6368      8.4610
   863.0000      0.0000    672.0742      7.5948      3.2167
   863.2500      0.0000    672.3752      7.5421      0.9741
   863.5000      0.0000    672.6168      7.5486      0.2334
   863.7500      0.0000    673.2505      7.6361      0.0437
   864.0000      0.0000    673.8755      7.7780      0.0059
   864.2500      0.0000    670.7290      7.9222      0.0000
   864.5000      0.0000    659.2831      8.0122   -999.2500
   864.7500      0.0000    644.4579      8.0153   -999.2500
   865.0000      0.0000    639.5377      7.9291   -999.2500
   865.2500      0.0000    648.1710      7.7714   -999.2500
   865.5000      0.0000    660.3151      7.5754   -999.2500
   865.7500      0.0000    667.5897      7.3897   -999.2500
   866.0000      0.0000    670.0131      7.2613   -999.2500
   866.2500      0.0000    670.2449      7.1972   -999.2500
   866.5000      0.0000    669.2128      7.1600   -999.2500
   866.7500      0.0000    663.6525      7.0983   -999.2500
   867.0000      0.0000    639.1609      6.8712   -999.2500
   867.2500      0.0000    565.7870      6.1068   -999.2500
   867.5000      0.0000    423.2929      4.4756   -999.2500
   867.7500      0.0000    245.4404      2.3341   -999.2500
   868.0000      0.0000    103.0283      0.5759   -999.2500
   868.2500      0.0000     29.9039     -0.3380   -999.2500
   868.5000      0.0000      5.8293     -0.6407   -999.2500
   868.7500      0.0000      0.7475     -0.7048   -999.2500
   869.0000      0.0000      0.0597     -0.7135   -999.2500
   869.2500      0.0000   -999.2500   -999.2500   -999.2500
   869.5000      0.0000   -999.2500   -999.2500   -999.2500
   869.7500      0.0000   -999.2500   -999.2500   -999.2500
   870.0000      0.0000   -999.2500   -999.2500   -999.2500
   870.2500      0.0000   -999.2500   -999.2500   -999.2500
   870.5000      0.0000   -999.2500   -999.2500   -999.2500
   870.7500      0.0000   -999.2500   -999.2500   -999.2500
