~Version Information
VERS.                      2.0: CWLS Log ASCII Standard - VERSION 2.0
WRAP.                       NO: One line per depth step
~Well Information Block
STRT.FT               660.0000: 
STOP.FT              2491.0000: 
STEP.FT                 0.2500: 
NULL.                -999.2500: 
COMP.          Petrogulf Corporation: COMPANY
WELL.          Montoya 18-11V-B: WELL
FLD.           Purgatorie River: FIELD
LOC.           848' FNL & 619' FWL: LOCATION
PROV.                 Colorado: PROVINCE
CNTY.               Las Animas: COUNTRY
SRVC.                Patterson: SERVICE COMPANY
DATE.          Wed Oct 05 04:34:17 2005: LOG DATE
UWI.                          : UNIQUE WELL ID
~Curve Information Block
DEPT.FT            0 000 00 00: Depth
SP.mV                         : DIL Spontaneous Potential
RILD.Ohm-m                    : DIL Deep Resistivity
RILM.Ohm-m                    : DIL Medium Resistivity
RLL3.Ohm-m                    : DIL Shallow Resistivity
GR.GAPI                       : Gamma Ray
~Parameter Information Block
~A  Depth        SP         RILD        RILM        RLL3         GR     
# ...
  2340.0000    231.7103     14.2782     15.1436     17.2113     78.5147
  2340.2500    229.6573     14.3791     15.2530     17.2333     77.5685
  2340.5000    227.6999     14.4872     15.3679     17.2512     76.6727
  2340.7500    225.7717     14.6068     15.4884     17.2804     76.7876
  2341.0000    223.8313     14.7404     15.6161     17.3400     78.2920
  2341.2500    221.8633     14.8873     15.7537     17.4540     79.9833
  2341.5000    219.8692     15.0431     15.9041     17.6379     82.8970
  2341.7500    217.8630     15.2006     16.0696     17.8896     84.8002
  2342.0000    215.8731     15.3533     16.2520     18.1937     87.4045
  2342.2500    213.9434     15.4986     16.4529     18.5270     88.8600
  2342.5000    212.1213     15.6383     16.6735     18.8551     89.9945
  2342.7500    210.4405     15.7783     16.9163     19.1293     89.4292
  2343.0000    208.9174     15.9246     17.1841     19.3001     85.8470
  2343.2500    207.5710     16.0795     17.4805     19.3379     81.9540
  2343.5000    206.4482     16.2357     17.8075     19.2499     75.9839
  2343.7500    205.6398     16.3741     18.1625     19.1059     73.5557
  2344.0000    205.2757     16.4648     18.5343     19.0921     74.2511
  2344.2500    205.5021     16.4741     18.8976     19.5716     77.7977
  2344.5000    206.4496     16.3725     19.2086     21.0641     86.3439
  2344.7500    208.2019     16.1416     19.4047     24.0015     92.7746
  2345.0000    210.7734     15.7785     19.4116     28.2511    101.0877
  2345.2500    214.1052     15.2976     19.1617     32.8042    104.6376
  2345.5000    218.0783     14.7307     18.6186     36.1745    105.7648
  2345.7500    222.5361     14.1238     17.7980     37.3691    103.6145
  2346.0000    227.3017     13.5281     16.7693     36.4448     97.4570
  2346.2500    232.1829     12.9873     15.6356     34.0459     92.9236
  2346.5000    236.9679     12.5270     14.5037     30.6122     87.6342
  2346.7500    241.4277     12.1507     13.4585     26.2740     85.4444
  2347.0000    245.3413     11.8426     12.5531     21.3805     83.7496
  2347.2500    248.5453     11.5753     11.8100     16.7654     83.6106
  2347.5000    250.9850     11.3204     11.2285     13.3414     85.2550
  2347.7500    252.7337     11.0566     10.7929     11.5386     87.5673
  2348.0000    253.9607     10.7754     10.4782     11.1927     91.8649
  2348.2500    254.8660     10.4815     10.2552     11.8454     94.3835
  2348.5000    255.6201     10.1911     10.0937     13.0514     96.5231
  2348.7500    256.3347      9.9276      9.9668     14.4674     96.6899
  2349.0000    257.0639      9.7160      9.8545     15.7941     94.9843
  2349.2500    257.8146      9.5765      9.7468     16.7194     92.2902
  2349.5000    258.5582      9.5198      9.6439     16.9562     85.9244
  2349.7500    259.2471      9.5443      9.5546     16.3791     81.1850
  2350.0000    259.8389      9.6350      9.4918     15.1515     76.5480
  2350.2500    260.3189      9.7635      9.4677     13.6986     76.4837
  2350.5000    260.7158      9.8906      9.4889     12.5317     80.5474
  2350.7500    261.1111      9.9727      9.5528     12.1277     84.4657
  2351.0000    261.6420      9.9737      9.6448     13.0078     89.0806
  2351.2500    262.4911      9.8764      9.7384     15.8111     90.0295
  2351.5000    263.8536      9.6897      9.7986     20.9389     87.2397
  2351.7500    265.8766      9.4433      9.7905     27.7270     82.6065
  2352.0000    268.5840      9.1758      9.6906     33.9445     72.7755
  2352.2500    271.8262      8.9217      9.4970     36.6593     65.8987
  2352.5000    275.2994      8.7026      9.2301     34.2551     58.8325
  2352.7500    278.6367      8.5250      8.9239     27.7740     58.1730
  2353.0000    281.5240      8.3812      8.6142     20.1307     64.2501
  2353.2500    283.7850      8.2538      8.3275     14.0104     72.0440
  2353.5000    285.3983      8.1213      8.0770     10.4835     86.1473
  2353.7500    286.4526      7.9640      7.8628      9.1718     95.1897
  2354.0000    287.0766      7.7701      7.6756      9.1589    105.4020
  2354.2500    287.3848      7.5391      7.5015      9.6533    108.7616
  2354.5000    287.4573      7.2813      7.3264     10.1735    107.8610
  2354.7500    287.3487      7.0141      7.1404     10.4901    104.0264
  2355.0000    287.1052      6.7560      6.9395     10.5270     96.2751
  2355.2500    286.7747      6.5222      6.7253     10.2985     91.4949
  2355.5000    286.4012      6.3216      6.5039      9.8857     86.7611
  2355.7500    286.0113      6.1577      6.2831      9.4062     85.6763
  2356.0000    285.6075      6.0302      6.0711      8.9542     87.1220
  2356.2500    285.1752      5.9370      5.8752      8.5553     89.6917
  2356.5000    284.6954      5.8763      5.7022      8.1863     94.8716
  2356.7500    284.1513      5.8469      5.5583      7.8334     98.7457
  2357.0000    283.5247      5.8485      5.4490      7.5233    104.4897
  2357.2500    282.7885      5.8812      5.3800      7.2993    107.5329
  2357.5000    281.9012      5.9449      5.3568      7.1768    109.5257
  2357.7500    280.8087      6.0389      5.3850      7.1342    109.2135
  2358.0000    279.4566      6.1613      5.4706      7.1689    108.6573
  2358.2500    277.8203      6.3105      5.6195      7.3849    110.0213
  2358.5000    275.9442      6.4861      5.8370      8.0244    115.7525
  2358.7500    273.9703      6.6896      6.1277      9.3795    120.7637
  2359.0000    272.1296      6.9251      6.4937     11.6181    125.7567
  2359.2500    270.6838      7.1981      6.9341     14.6428    125.1557
  2359.5000    269.8380      7.5153      7.4435     18.0595    117.2715
  2359.7500    269.6650      7.8839      8.0119     21.2273    108.4432
  2360.0000    270.0790      8.3117      8.6260     23.3851     93.2619
  2360.2500    270.8665      8.8059      9.2716     23.9419     83.8753
  2360.5000    271.7580      9.3707      9.9364     22.8621     73.1451
  2360.7500    272.5048     10.0024     10.6126     20.7803     68.5014
  2361.0000    272.9372     10.6853     11.2965     18.6281     64.4679
  2361.2500    272.9930     11.3888     11.9866     17.0957     63.0110
  2361.5000    272.7072     12.0696     12.6793     16.3994     61.5658
  2361.7500    272.1661     12.6797     13.3653     16.4113     60.5567
  2362.0000    271.4540     13.1788     14.0280     16.8858     58.4217
  2362.2500    270.6255     13.5454     14.6444     17.5920     56.5828
  2362.5000    269.7120     13.7815     15.1894     18.3483     53.6350
  2362.7500    268.7381     13.9100     15.6419     19.0167     51.8836
  2363.0000    267.7284     13.9664     15.9902     19.4978     50.0624
  2363.2500    266.7052     13.9885     16.2349     19.7394     49.4702
  2363.5000    265.6874     14.0083     16.3877     19.7465     49.0690
  2363.7500    264.6882     14.0466     16.4673     19.5710     48.6591
  2364.0000    263.7142     14.1129     16.4947     19.2865     47.4595
  2364.2500    262.7669     14.2072     16.4891     18.9640     46.5741
  2364.5000    261.8434     14.3224     16.4654     18.6625     46.2041
  2364.7500    260.9305     14.4456     16.4341     18.4284     47.0999
  2365.0000    259.9973     14.5604     16.4013     18.2916     50.1523
  2365.2500    258.9989     14.6516     16.3696     18.2558     52.8308
  2365.5000    257.8944     14.7103     16.3396     18.2932     56.7161
  2365.7500    256.6697     14.7380     16.3113     18.3452     58.7974
  2366.0000    255.3484     14.7459     16.2851     18.3296     61.0508
  2366.2500    253.9877     14.7483     16.2633     18.1670     62.0954
  2366.5000    252.6630     14.7564     16.2498     17.8334     63.0288
  2366.7500    251.4487     14.7743     16.2494     17.3972     63.1194
  2367.0000    250.4037     14.8006     16.2660     16.9901     62.4621
  2367.2500    249.5620     14.8317     16.3005     16.7380     61.7715
  2367.5000    248.9322     14.8637     16.3497     16.7238     61.0340
  2367.7500    248.4982     14.8917     16.4052     16.9831     60.9905
