~Version Information
VERS.                      2.0: CWLS Log ASCII Standard - VERSION 2.0
WRAP.                       NO: One line per depth step
~Well Information Block
STRT.FT                -6.2500: 
STOP.FT              2245.0000: 
STEP.FT                 0.0500: 
NULL.                -999.2500: 
COMP.          Pioneer Natural Resources: COMPANY
WELL.          Roadster 41-33 Kv: WELL
FLD.           Purgatoire River: FIELD
LOC.           903' FNL & 248' FEL--: LOCATION
PROV.                 Colorado: PROVINCE
CNTY.               Las Animas: COUNTRY
SRVC.                Patterson: SERVICE COMPANY
DATE.          Tue Jan 17 11:20:00 2006: LOG DATE
UWI.           05 071 08615 00: UNIQUE WELL ID
~Curve Information Block
DEPT.FT            0 000 00 00: Depth
CCL.                          : Casing Collar Locator
TT3.usec                      : CBL 3' Travel Time
AMP3.mV                       : CBL 3' Amplitude
GR.GAPI                       : Gamma Ray
~Parameter Information Block
~A  Depth       CCL         TT3         AMP3         GR     
# ...
  1340.4500      0.0000    717.5383      4.5165    141.1813
  1340.5000      0.0000    717.5136      4.5571    141.5557
  1340.5500      0.0000    717.5136      4.5571    141.5557
  1340.6000      0.0000    717.5136      4.5571    141.5557
  1340.6500      0.0000    717.5136      4.5571    141.5557
  1340.7000      0.0000    717.5136      4.5571    141.5557
  1340.7500      0.0000    718.4462      4.6335    139.6560
  1340.8000      0.0000    718.4462      4.6335    139.6560
  1340.8500      0.0000    718.4462      4.6335    139.6560
  1340.9000      0.0000    718.4462      4.6335    139.6560
  1340.9500      0.0000    718.4462      4.6335    139.6560
  1341.0000      0.0000    718.3350      4.7348    137.0830
  1341.0500      0.0000    718.3350      4.7348    137.0830
  1341.1000      0.0000    718.3350      4.7348    137.0830
  1341.1500      0.0000    718.3350      4.7348    137.0830
  1341.2000      0.0000    718.3350      4.7348    137.0830
  1341.2500      0.0000    716.9259      4.8062    135.2200
  1341.3000      0.0000    716.9259      4.8062    135.2200
  1341.3500      0.0000    716.9259      4.8062    135.2200
  1341.4000      0.0000    716.9259      4.8062    135.2200
  1341.4500      0.0000    716.9259      4.8062    135.2200
  1341.5000      0.0000    715.8067      4.7974    134.5922
  1341.5500      0.0000    715.8067      4.7974    134.5922
  1341.6000      0.0000    715.8067      4.7974    134.5922
  1341.6500      0.0000    715.8067      4.7974    134.5922
  1341.7000      0.0000    715.8067      4.7974    134.5922
  1341.7500      0.0000    716.4987      4.7072    134.1132
  1341.8000      0.0000    716.4987      4.7072    134.1132
  1341.8500      0.0000    716.4987      4.7072    134.1132
  1341.9000      0.0000    716.4987      4.7072    134.1132
  1341.9500      0.0000    716.4987      4.7072    134.1132
  1342.0000      0.0000    719.0214      4.5855    131.5306
  1342.0500      0.0000    719.0214      4.5855    131.5306
  1342.1000      0.0000    719.0214      4.5855    131.5306
  1342.1500      0.0000    719.0214      4.5855    131.5306
  1342.2000      0.0000    719.0214      4.5855    131.5306
  1342.2500      0.0000    722.1448      4.4995    125.3655
  1342.3000      0.0000    722.1448      4.4995    125.3655
  1342.3500      0.0000    722.1448      4.4995    125.3655
  1342.4000      0.0000    722.1448      4.4995    125.3655
  1342.4500      0.0000    722.1448      4.4995    125.3655
  1342.5000      0.0000    724.3443      4.4878    116.0773
  1342.5500      0.0000    724.3443      4.4878    116.0773
  1342.6000      0.0000    724.3443      4.4878    116.0773
  1342.6500      0.0000    724.3443      4.4878    116.0773
  1342.7000      0.0000    724.3443      4.4878    116.0773
  1342.7500      0.0000    724.6125      4.5292    105.1100
  1342.8000      0.0000    724.6125      4.5292    105.1100
  1342.8500      0.0000    724.6125      4.5292    105.1100
  1342.9000      0.0000    724.6125      4.5292    105.1100
  1342.9500      0.0000    724.6125      4.5292    105.1100
  1343.0000      0.0000    723.1750      4.5689     93.7410
  1343.0500      0.0000    723.1750      4.5689     93.7410
  1343.1000      0.0000    723.1750      4.5689     93.7410
  1343.1500      0.0000    723.1750      4.5689     93.7410
  1343.2000      0.0000    723.1750      4.5689     93.7410
  1343.2500      0.0000    721.6163      4.6018     83.3740
  1343.3000      0.0000    721.6163      4.6018     83.3740
  1343.3500      0.0000    721.6163      4.6018     83.3740
  1343.4000      0.0000    721.6163      4.6018     83.3740
  1343.4500      0.0000    721.6163      4.6018     83.3740
  1343.5000      0.0000    721.7139      4.7119     75.8182
  1343.5500      0.0000    721.7139      4.7119     75.8182
  1343.6000      0.0000    721.7139      4.7119     75.8182
  1343.6500      0.0000    721.7139      4.7119     75.8182
  1343.7000      0.0000    721.7139      4.7119     75.8182
  1343.7500      0.0000    723.8860      4.9828     72.1017
  1343.8000      0.0000    723.8860      4.9828     72.1017
  1343.8500      0.0000    723.8860      4.9828     72.1017
  1343.9000      0.0000    723.8860      4.9828     72.1017
  1343.9500      0.0000    723.8860      4.9828     72.1017
  1344.0000      0.0000    727.0061      5.3695     71.4843
  1344.0500      0.0000    727.0061      5.3695     71.4843
  1344.1000      0.0000    727.0061      5.3695     71.4843
  1344.1500      0.0000    727.0061      5.3695     71.4843
  1344.2000      0.0000    727.0061      5.3695     71.4843
  1344.2500      0.0000    729.6544      5.6927     72.5400
  1344.3000      0.0000    729.6544      5.6927     72.5400
  1344.3500      0.0000    729.6544      5.6927     72.5400
  1344.4000      0.0000    729.6544      5.6927     72.5400
  1344.4500      0.0000    729.6544      5.6927     72.5400
  1344.5000      0.0000    731.2131      5.7629     74.7479
  1344.5500      0.0000    731.2131      5.7629     74.7479
  1344.6000      0.0000    731.2131      5.7629     74.7479
  1344.6500      0.0000    731.2131      5.7629     74.7479
  1344.7000      0.0000    731.2131      5.7629     74.7479
  1344.7500      0.0000    731.8685      5.5143     78.0847
  1344.8000      0.0000    731.8685      5.5143     78.0847
  1344.8500      0.0000    731.8685      5.5143     78.0847
  1344.9000      0.0000    731.8685      5.5143     78.0847
  1344.9500      0.0000    731.8685      5.5143     78.0847
  1345.0000      0.0000    732.0667      5.0597     81.4400
  1345.0500      0.0000    732.0667      5.0597     81.4400
  1345.1000      0.0000    732.0667      5.0597     81.4400
  1345.1500      0.0000    732.0667      5.0597     81.4400
  1345.2000      0.0000    732.0667      5.0597     81.4400
  1345.2500      0.0000    732.1439      4.6389     82.5489
  1345.3000      0.0000    732.1439      4.6389     82.5489
  1345.3500      0.0000    732.1439      4.6389     82.5489
  1345.4000      0.0000    732.1439      4.6389     82.5489
  1345.4500      0.0000    732.1439      4.6389     82.5489
  1345.5000      0.0000    732.2505      4.4594     79.6940
  1345.5500      0.0000    732.2505      4.4594     79.6940
  1345.6000      0.0000    732.2505      4.4594     79.6940
  1345.6500      0.0000    732.2505      4.4594     79.6940
  1345.7000      0.0000    732.2505      4.4594     79.6940
  1345.7500      0.0000    732.3939      4.5291     73.0170
  1345.8000      0.0000    732.3939      4.5291     73.0170
  1345.8500      0.0000    732.3939      4.5291     73.0170
  1345.9000      0.0000    732.3939      4.5291     73.0170
  1345.9500      0.0000    732.3939      4.5291     73.0170
  1346.0000      0.0000    732.5185      4.6557     64.2195
  1346.0500      0.0000    732.5185      4.6557     64.2195
  1346.1000      0.0000    732.5185      4.6557     64.2195
  1346.1500      0.0000    732.5185      4.6557     64.2195
  1346.2000      0.0000    732.5185      4.6557     64.2195
  1346.2500      0.0000    732.5822      4.6431     55.3123
  1346.3000      0.0000    732.5822      4.6431     55.3123
  1346.3500      0.0000    732.5822      4.6431     55.3123
  1346.4000      0.0000    732.5822      4.6431     55.3123
  1346.4500      0.0000    732.5822      4.6431     55.3123
  1346.5000      0.0000    732.5552      4.4858     47.5958
  1346.5500      0.0000    732.5552      4.4858     47.5958
  1346.6000      0.0000    732.5552      4.4858     47.5958
  1346.6500      0.0000    732.5552      4.4858     47.5958
  1346.7000      0.0000    732.5552      4.4858     47.5958
  1346.7500      0.0000    732.3296      4.3603     41.6316
  1346.8000      0.0000    732.3296      4.3603     41.6316
  1346.8500      0.0000    732.3296      4.3603     41.6316
  1346.9000      0.0000    732.3296      4.3603     41.6316
  1346.9500      0.0000    732.3296      4.3603     41.6316
  1347.0000      0.0000    731.6131      4.4416     37.9344
  1347.0500      0.0000    731.6131      4.4416     37.9344
  1347.1000      0.0000    731.6131      4.4416     37.9344
