~Version Information
VERS.                      2.0: CWLS Log ASCII Standard - VERSION 2.0
WRAP.                       NO: One line per depth step
~Well Information Block
STRT.FT                -6.7500: 
STOP.FT              2256.0000: 
STEP.FT                 0.2500: 
NULL.                -999.2500: 
COMP.          Pioneer Natural Resources: COMPANY
WELL.               Relay 12-7: WELL
FLD.           Purgatorie River: FIELD
LOC.           1999' FNL & 848' FWL--: LOCATION
PROV.                       CO: PROVINCE
CNTY.               Las Animas: COUNTRY
SRVC.          Patterson Wireline: SERVICE COMPANY
DATE.          Thu Dec 22 09:06:31 2005: LOG DATE
UWI.           05 071 08453 00: UNIQUE WELL ID
~Curve Information Block
DEPT.FT            0 000 00 00: Depth
CCL.                          : Casing Collar Locator
TT3.usec                      : CBL 3' Travel Time
AMP3.mV                       : CBL 3' Amplitude
GR.GAPI                       : Gamma Ray
~Parameter Information Block
~A  Depth       CCL         TT3         AMP3         GR     
# ...
  1199.2500      0.0000    686.6085      8.0975    133.7264
  1199.5000      0.0000    678.9503      8.0602    130.2778
  1199.7500      0.0000    681.3284      7.9978    126.4712
  1200.0000      0.0000    690.9363      7.9166    121.5443
  1200.2500      0.0000    702.4020      7.8370    115.7392
  1200.5000      0.0000    710.3983      7.7841    110.4624
  1200.7500      0.0000    711.0529      7.7715    107.4662
  1201.0000      0.0000    702.9904      7.7896    107.6639
  1201.2500      0.0000    688.0512      7.8127    110.5215
  1201.5000      0.0000    671.0555      7.8185    114.7284
  1201.7500      0.0000    658.4607      7.8033    119.3616
  1202.0000      0.0000    656.5688      7.7779    123.9280
  1202.2500      0.0000    668.9105      7.7522    127.5242
  1202.5000      0.0000    693.3612      7.7261    129.0760
  1202.7500      0.0000    722.4487      7.6983    128.6399
  1203.0000      0.0000    748.0031      7.6797    127.5002
  1203.2500      0.0000    765.5715      7.6939    126.4163
  1203.5000      0.0000    774.4929      7.7598    124.4201
  1203.7500      0.0000    774.8080      7.8667    120.0573
  1204.0000      0.0000    765.3206      7.9612    113.6370
  1204.2500      0.0000    745.7696      7.9672    107.7360
  1204.5000      0.0000    720.9620      7.8460    105.3710
  1204.7500      0.0000    700.9598      7.6513    107.8826
  1205.0000      0.0000    695.2277      7.4968    114.6470
  1205.2500      0.0000    706.8825      7.4370    124.1777
  1205.5000      0.0000    731.9868      7.4090    134.4895
  1205.7500      0.0000    761.1326      7.3311    142.6237
  1206.0000      0.0000    781.2859      7.2214    145.3349
  1206.2500      0.0000    781.0802      7.1708    140.9279
  1206.5000      0.0000    758.7596      7.2317    130.2496
  1206.7500      0.0000    724.6340      7.3778    116.3483
  1207.0000      0.0000    694.0995      7.5514    103.5808
  1207.2500      0.0000    677.3189      7.7208     96.1223
  1207.5000      0.0000    674.3940      7.9008     95.8933
  1207.7500      0.0000    679.4384      8.1187    101.3661
  1208.0000      0.0000    687.7841      8.3573    108.6542
  1208.2500      0.0000    696.5459      8.5534    114.3218
  1208.5000      0.0000    699.8434      8.6782    117.5045
  1208.7500      0.0000    690.0989      8.7744    119.5470
  1209.0000      0.0000    666.2491      8.8826    121.9974
  1209.2500      0.0000    635.8226      8.9792    125.3061
  1209.5000      0.0000    605.9057      9.0193    129.1791
  1209.7500      0.0000    576.0313      8.9986    133.3940
  1210.0000      0.0000    543.8235      8.9477    137.7422
  1210.2500      0.0000    514.4093      8.8910    141.6464
  1210.5000      0.0000    498.3004      8.8317    144.7047
  1210.7500      0.0000    499.8764      8.7630    147.5660
  1211.0000      0.0000    512.6019      8.6768    151.4272
  1211.2500      0.0000    527.2149      8.5656    156.2624
  1211.5000      0.0000    541.7804      8.4218    159.9942
  1211.7500      0.0000    561.9846      8.2454    160.0034
  1212.0000      0.0000    593.1525      8.0547    155.3048
  1212.2500      0.0000    633.6000      7.8896    146.8608
  1212.5000      0.0000    675.1727      7.7936    136.1463
  1212.7500      0.0000    708.6219      7.7832    124.2561
  1213.0000      0.0000    728.3360      7.8322    112.1697
  1213.2500      0.0000    733.9858      7.8899    100.7403
  1213.5000      0.0000    729.9859      7.9126     90.2457
  1213.7500      0.0000    723.4545      7.8843     80.7297
  1214.0000      0.0000    720.6081      7.8134     72.7010
  1214.2500      0.0000    723.2324      7.7173     66.7836
  1214.5000      0.0000    728.4477      7.6150     62.9551
  1214.7500      0.0000    732.2679      7.5357     60.8972
  1215.0000      0.0000    733.0679      7.5210     60.7836
  1215.2500      0.0000    731.5299      7.5979     62.7820
  1215.5000      0.0000    728.3568      7.7437     66.0170
  1215.7500      0.0000    723.2698      7.8876     68.9750
  1216.0000      0.0000    716.0029      7.9555     70.8636
  1216.2500      0.0000    707.3786      7.9169     71.9802
  1216.5000      0.0000    699.2355      7.7975     73.0383
  1216.7500      0.0000    693.4044      7.6546     74.6700
  1217.0000      0.0000    690.3428      7.5400     77.1994
  1217.2500      0.0000    688.1852      7.4782     80.3612
  1217.5000      0.0000    682.8861      7.4723     83.4328
  1217.7500      0.0000    669.7428      7.5177     85.9190
  1218.0000      0.0000    646.3276      7.6044     87.8557
  1218.2500      0.0000    615.6771      7.7119     89.3122
  1218.5000      0.0000    586.3605      7.8129     89.9560
  1218.7500      0.0000    567.1865      7.8839     89.4261
  1219.0000      0.0000    560.9683      7.9143     88.0401
  1219.2500      0.0000    564.4048      7.9061     86.7705
  1219.5000      0.0000    573.3313      7.8667     86.4191
  1219.7500      0.0000    586.0655      7.8021     87.0692
  1220.0000      0.0000    602.2592      7.7192     88.3974
  1220.2500      0.0000    621.2839      7.6272     90.2205
  1220.5000      0.0000    642.6226      7.5330     92.5879
  1220.7500      0.0000    666.0078      7.4372     95.3573
  1221.0000      0.0000    689.5671      7.3398     97.8115
  1221.2500      0.0000    708.4719      7.2463     99.0909
  1221.5000      0.0000    717.2630      7.1637     99.1285
  1221.7500      0.0000    714.5970      7.0931     98.6465
  1222.0000      0.0000    705.4388      7.0307     98.1272
  1222.2500      0.0000    697.3647      6.9755     97.3538
  1222.5000      0.0000    693.5321      6.9334     96.0551
  1222.7500      0.0000    688.6106      6.9129     94.4198
  1223.0000      0.0000    671.9409      6.9173     92.8302
  1223.2500      0.0000    636.1368      6.9431     91.5841
  1223.5000      0.0000    585.2303      6.9826     90.9694
  1223.7500      0.0000    535.2862      7.0278     91.1644
  1224.0000      0.0000    504.8055      7.0733     91.9461
  1224.2500      0.0000    501.4126      7.1170     92.7025
  1224.5000      0.0000    517.1833      7.1608     92.7731
  1224.7500      0.0000    536.8448      7.2088     91.7675
  1225.0000      0.0000    550.0666      7.2619     89.6460
  1225.2500      0.0000    557.1915      7.3144     86.6416
  1225.5000      0.0000    565.9648      7.3593     83.4210
  1225.7500      0.0000    583.5336      7.3961     81.4456
  1226.0000      0.0000    610.0105      7.4330     82.5987
  1226.2500      0.0000    638.5634      7.4760     87.5595
  1226.5000      0.0000    661.5385      7.5195     94.6459
  1226.7500      0.0000    676.1599      7.5464    101.0179
  1227.0000      0.0000    684.6442      7.5401    104.8605
  1227.2500      0.0000    690.1425      7.4992    105.9304
  1227.5000      0.0000    693.2174      7.4415    104.7675
  1227.7500      0.0000    691.5853      7.3906    102.5355
  1228.0000      0.0000    682.7170      7.3569    101.0358
  1228.2500      0.0000    666.6053      7.3321    101.4042
  1228.5000      0.0000    646.7751      7.3023    102.6812
  1228.7500      0.0000    628.8622      7.2628    102.4787
  1229.0000      0.0000    616.2938      7.2183     99.1274
  1229.2500      0.0000    605.0663      7.1766     92.8688
  1229.5000      0.0000    584.5615      7.1451     85.4241
  1229.7500      0.0000    547.5607      7.1296     79.0975
  1230.0000      0.0000    500.0534      7.1308     75.9303
  1230.2500      0.0000    459.3362      7.1408     76.5973
  1230.5000      0.0000    442.1528      7.1469     79.7691
  1230.7500      0.0000    453.8322      7.1410     83.2467
  1231.0000      0.0000    485.3305      7.1280     86.1905
  1231.2500      0.0000    519.6481      7.1246     89.9755
  1231.5000      0.0000    544.8765      7.1455     96.5775
  1231.7500      0.0000    563.0590      7.1899    106.2058
  1232.0000      0.0000    583.7615      7.2435    116.5911
  1232.2500      0.0000    609.0123      7.2948    124.6011
  1232.5000      0.0000    628.5501      7.3472    128.5321
