~Version Information
VERS.                      2.0: CWLS Log ASCII Standard - VERSION 2.0
WRAP.                       NO: One line per depth step
~Well Information Block
STRT.FT                -7.7500: 
STOP.FT              1485.2500: 
STEP.FT                 0.2500: 
NULL.                -999.2500: 
COMP.          Pioneer Natural Resources: COMPANY
WELL.          Hammerhead 24-24 Tr: WELL
FLD.           Purgatorie River: FIELD
LOC.           953' FSL & 1922' FWL--: LOCATION
CNTY.               Las Animas: COUNTY
SRVC.          Patterson Wireline: SERVICE COMPANY
DATE.          Thu Feb 02 15:03:23 2006: LOG DATE
UWI.           05 071 08669 00: UNIQUE WELL ID
STAT.                       CO: STATE
~Curve Information Block
DEPT.FT            0 000 00 00: Depth
CCL.                          : Casing Collar Locator
TT3.usec                      : CBL 3' Travel Time
AMP3.mV                       : CBL 3' Amplitude
GR.GAPI                       : Gamma Ray
~Parameter Information Block
~A  Depth       CCL         TT3         AMP3         GR     
# ...
   762.7500      0.0000    370.5845      8.5474     52.3055
   763.0000      0.0000    359.3685      8.5203     53.8388
   763.2500      0.0000    360.3416      8.4807     56.2379
   763.5000      0.0000    374.0244      8.4440     60.3739
   763.7500      0.0000    400.6805      8.4250     66.9880
   764.0000      0.0000    435.2579      8.4291     76.4025
   764.2500      0.0000    464.6635      8.4529     88.2561
   764.5000      0.0000    474.2261      8.4898    101.2087
   764.7500      0.0000    459.8178      8.5335    113.3291
   765.0000      0.0000    431.9446      8.5764    123.2044
   765.2500      0.0000    406.1774      8.6102    130.5620
   765.5000      0.0000    391.1385      8.6311    135.7633
   765.7500      0.0000    386.0623      8.6418    139.0352
   766.0000      0.0000    386.5566      8.6504    140.3043
   766.2500      0.0000    390.4781      8.6648    139.6001
   766.5000      0.0000    400.3185      8.6849    137.3723
   766.7500      0.0000    422.3290      8.6983    134.1367
   767.0000      0.0000    461.9338      8.6858    129.9355
   767.2500      0.0000    516.2661      8.6354    124.7026
   767.5000      0.0000    570.8237      8.5535    119.1457
   767.7500      0.0000    607.8264      8.4641    114.6428
   768.0000      0.0000    621.4874      8.3958    112.1330
   768.2500      0.0000    623.4230      8.3648    111.6550
   768.5000      0.0000    630.2410      8.3625    113.3117
   768.7500      0.0000    646.7278      8.3575    118.0004
   769.0000      0.0000    663.5649      8.3097    126.1471
   769.2500      0.0000    670.2083      8.1881    135.7598
   769.5000      0.0000    666.5063      7.9829    142.7681
   769.7500      0.0000    661.2013      7.7079    143.6970
   770.0000      0.0000    661.9564      7.3933    137.7497
   770.2500      0.0000    669.1846      7.0722    126.6994
   770.5000      0.0000    678.5644      6.7676    113.3479
   770.7500      0.0000    686.3305      6.4919     99.7478
   771.0000      0.0000    691.0752      6.2576     86.3102
   771.2500      0.0000    692.6764      6.0872     72.7220
   771.5000      0.0000    691.6453      6.0051     59.7554
   771.7500      0.0000    689.2695      6.0145     49.6507
   772.0000      0.0000    687.2436      6.0807     44.5158
   772.2500      0.0000    686.9415      6.1447     44.8500
   772.5000      0.0000    689.1860      6.1628     49.8392
   772.7500      0.0000    694.2759      6.1346     58.4299
   773.0000      0.0000    701.7224      6.0943     69.6623
   773.2500      0.0000    710.0292      6.0842     82.5339
   773.5000      0.0000    717.2421      6.1380     96.0792
   773.7500      0.0000    721.9668      6.2744    109.2635
   774.0000      0.0000    723.6050      6.4924    120.7592
   774.2500      0.0000    721.4479      6.7721    129.4859
   774.5000      0.0000    713.6904      7.0862    135.3439
   774.7500      0.0000    697.8331      7.4070    138.7035
   775.0000      0.0000    673.4099      7.7029    139.3280
   775.2500      0.0000    645.4835      7.9420    136.5918
   775.5000      0.0000    624.0873      8.1085    130.7023
   775.7500      0.0000    616.6296      8.2125    123.3274
   776.0000      0.0000    620.4612      8.2821    117.1086
   776.2500      0.0000    626.5847      8.3467    114.1647
   776.5000      0.0000    631.3321      8.4225    114.2716
   776.7500      0.0000    639.7230      8.5040    114.7041
   777.0000      0.0000    655.3120      8.5691    112.4916
   777.2500      0.0000    670.6072      8.5960    106.7424
   777.5000      0.0000    670.3026      8.5789     98.7970
   777.7500      0.0000    642.8829      8.5289     90.9915
   778.0000      0.0000    589.7449      8.4664     85.6165
   778.2500      0.0000    526.0994      8.4151     84.3919
   778.5000      0.0000    473.2404      8.3963     88.1532
   778.7500      0.0000    447.7171      8.4213     96.4830
   779.0000      0.0000    455.4329      8.4826    107.4155
   779.2500      0.0000    491.8696      8.5549    118.0598
   779.5000      0.0000    543.7834      8.6079    126.4082
   779.7500      0.0000    592.1315      8.6204    132.6512
   780.0000      0.0000    620.6649      8.5858    138.3561
   780.2500      0.0000    627.1633      8.5095    144.5017
   780.5000      0.0000    625.4311      8.4067    150.5233
   780.7500      0.0000    632.7246      8.3044    154.9114
   781.0000      0.0000    654.5767      8.2352    156.3190
   781.2500      0.0000    682.8187      8.2197    154.3368
   781.5000      0.0000    706.2950      8.2514    149.9695
   781.7500      0.0000    720.2051      8.3018    145.7342
   782.0000      0.0000    726.2475      8.3411    144.5640
   782.2500      0.0000    728.0593      8.3527    147.5398
   782.5000      0.0000    728.2191      8.3340    152.6175
   782.7500      0.0000    727.9462      8.2897    156.1524
   783.0000      0.0000    727.7239      8.2272    155.7390
   783.2500      0.0000    727.7407      8.1577    151.4278
   783.5000      0.0000    728.0224      8.0975    144.7646
   783.7500      0.0000    728.4620      8.0629    137.5883
   784.0000      0.0000    728.9014      8.0599    131.7256
   784.2500      0.0000    729.2320      8.0807    128.6893
   784.5000      0.0000    729.4474      8.1115    128.8098
   784.7500      0.0000    729.5826      8.1446    131.1285
   785.0000      0.0000    729.5786      8.1814    134.6204
   785.2500      0.0000    728.9530      8.2241    139.0262
   785.5000      0.0000    726.0700      8.2680    144.0484
   785.7500      0.0000    717.0079      8.3043    148.2678
   786.0000      0.0000    695.3712      8.3286    149.5178
   786.2500      0.0000    655.4886      8.3408    146.3896
   786.5000      0.0000    598.7222      8.3387    139.5728
   786.7500      0.0000    536.4869      8.3166    131.9252
   787.0000      0.0000    483.8093      8.2721    126.8334
   787.2500      0.0000    448.4205      8.2114    125.9821
   787.5000      0.0000    427.4333      8.1421    128.6821
   787.7500      0.0000    414.2019      8.0612    133.0074
   788.0000      0.0000    405.9519      7.9515    137.0021
   788.2500      0.0000    405.1066      7.7825    139.2780
   788.5000      0.0000    416.0598      7.5187    139.5586
   788.7500      0.0000    440.4414      7.1454    138.7247
   789.0000      0.0000    472.3652      6.7040    137.7639
   789.2500      0.0000    498.3134      6.2919    136.8673
   789.5000      0.0000    505.8541      6.0042    135.7904
   789.7500      0.0000    494.4579      5.8700    134.4703
   790.0000      0.0000    476.1406      5.8495    133.0660
   790.2500      0.0000    466.1118      5.8838    131.9466
   790.5000      0.0000    475.0702      5.9364    131.8883
   790.7500     -2.0000    507.5490      5.9961    133.8410
   791.0000      2.0000    560.4477      6.0571    137.9522
   791.2500      0.0000    620.0392      6.1021    142.6791
   791.5000      0.0000    663.8920      6.1100    145.3924
   791.7500      0.0000    671.1837      6.0880    144.3518
   792.0000      0.0000    635.2516      6.1002    140.1017
   792.2500      0.0000    568.2319      6.2514    134.8748
   792.5000      0.0000    493.2454      6.6160    130.7149
   792.7500      0.0000    430.3846      7.1666    128.0150
   793.0000      0.0000    388.0410      7.7798    125.6878
   793.2500      0.0000    364.2209      8.3214    122.6775
   793.5000      0.0000    352.7650      8.7235    119.1727
   793.7500      0.0000    348.0719      8.9880    116.2618
   794.0000      0.0000    346.6327      9.1447    114.6199
   794.2500      0.0000    346.8332      9.2218    113.6307
   794.5000      0.0000    348.3339      9.2409    111.5755
   794.7500      0.0000    351.4713      9.2205    106.6514
   795.0000      0.0000    356.5319      9.1795     98.3099
   795.2500      0.0000    362.8549      9.1362     88.0165
   795.5000      0.0000    368.4125      9.1044     78.5532
   795.7500      0.0000    370.7195      9.0889     72.3694
   796.0000      0.0000    368.7351      9.0857     70.5062
