~Version Information
VERS.                      2.0: CWLS Log ASCII Standard - VERSION 2.0
WRAP.                       NO: One line per depth step
~Well Information Block
STRT.FT                -5.0000: 
STOP.FT              1761.2500: 
STEP.FT                 0.2500: 
NULL.                -999.2500: 
COMP.          Pioneer Natural Resources: COMPANY
WELL.          Manville 42-14 Tr: WELL
FLD.           Purgatoire River: FIELD
LOC.           2018'FNL & 562' FEL: LOCATION
STAT.                 Colorado: State
CNTY.               Las Animas: COUNTY
CTRY. USA : Country
SECT. 14 : Section
TOWN. 32S : Township
RANG. 66W : Range
SRVC.                Patterson: SERVICE COMPANY
DATE.          Fri Sep 23 10:37:02 2005: LOG DATE
API. 05-071-08522             : UNIQUE WELL ID
~Curve Information Block
DEPT.FT            0 000 00 00: Depth
CCL.                          : Casing Collar Locator
TT3.usec                      : CBL 3' Travel Time
AMP3.mV                       : CBL 3' Amplitude
AMP5.mV                       : CBL 5' Amplitude
GR.GAPI                       : Gamma Ray
~Parameter Information Block
~A  Depth       CCL         TT3         AMP3        AMP5         GR     
# ...
   919.0000      0.0000    485.0332     14.5589      4.0430    155.3852
   919.2500      0.0000    405.6895     16.3275      4.4782    159.1626
   919.5000      0.0000    350.3875     17.7485      5.4358    162.1807
   919.7500      0.0000    320.4538     18.6485      5.8710    164.1692
   920.0000      0.0000    307.8912     18.9226      6.3933    164.5945
   920.2500      0.0000    303.9348     18.5710      6.8285    163.1960
   920.5000      0.0000    303.3875     17.7149      6.7415    160.3114
   920.7500      0.0000    304.6793     16.5605      6.9156    156.6853
   921.0000      0.0000    309.3314     15.3224      6.3933    153.0865
   921.2500      0.0000    322.6766     14.1502      6.2192    150.0221
   921.5000      0.0000    354.0368     13.0882      4.8264    147.5770
   921.7500      0.0000    412.5421     12.0943      4.5653    145.4279
   922.0000      0.0000    498.1661     11.1190      4.6523    143.0983
   922.2500      0.0000    596.0552     10.1874      4.9135    140.4741
   922.5000      0.0000    683.0712      9.3997      4.7394    138.1353
   922.7500      0.0000    742.3333      8.8426      4.1301    136.8423
   923.0000      0.0000    771.4341      8.5074      3.3466    136.6533
   923.2500      0.0000    778.6231      8.3014      3.1725    136.9238
   923.5000      0.0000    774.6124      8.1316      2.7373    137.2790
   923.7500      0.0000    767.7309      7.9742      3.3466    138.0470
   924.0000      0.0000    762.6135      7.8792      3.0855    139.3318
   924.2500      0.0000    759.7817      7.9181      2.9984    140.0607
   924.5000      0.0000    755.3553      8.1280      2.8244    138.7332
   924.7500      0.0000    741.4367      8.5032      2.9984    135.3637
   925.0000      0.0000    708.1750      9.0290      3.6078    132.0680
   925.2500      0.0000    648.9904      9.7049      3.6078    131.2129
   925.5000      0.0000    567.4015     10.5218      4.5653    133.3430
   925.7500      0.0000    478.8316     11.4196      4.5653    137.1714
   926.0000      0.0000    402.7069     12.2890      4.8264    140.9832
   926.2500      0.0000    350.7951     13.0357      4.9135    143.6283
   926.5000      0.0000    322.6326     13.6446      5.3487    144.5018
   926.7500      0.0000    310.3711     14.1739      5.7839    143.1858
   927.0000      0.0000    305.9380     14.6800      6.5674    139.6047
   927.2500      0.0000    304.4754     15.1423      6.2192    134.6692
   927.5000      0.0000    304.1003     15.4505      5.2617    130.4024
   927.7500      0.0000    304.8839     15.4662      5.2617    128.9837
   928.0000      0.0000    308.8458     15.1167      5.0876    131.3958
   928.2500      0.0000    321.0503     14.4355      3.7819    136.7508
   928.5000      0.0000    349.8060     13.5059      3.5207    142.7629
   928.7500      0.0000    402.6370     12.3730      2.3021    146.8908
   929.0000      0.0000    478.3406     11.0314      2.1280    147.3917
   929.2500      0.0000    562.9195      9.4973      1.4316    143.7828
   929.5000      0.0000    636.6966      7.8651      0.9964    136.5332
   929.7500      0.0000    686.9902      6.2763      0.4741    126.5450
   930.0000      0.0000    713.3157      4.8472      0.2130    115.2219
   930.2500      0.0000    722.1912      3.6308      0.3870    104.4297
   930.5000      0.0000    720.0521      2.6324      0.0389     95.3147
   930.7500      0.0000    710.6980      1.8388      0.2130     87.3478
   931.0000      0.0000    696.4068      1.2330     -0.0482     79.4383
   931.2500      0.0000    679.6135      0.7955     -0.3093     71.7842
   931.5000      0.0000    663.6196      0.5062     -0.6575     65.8519
   931.7500      0.0000    652.2064      0.3519     -0.3093     62.6804
   932.0000      0.0000    648.4457      0.3302      0.1259     61.8489
   932.2500      0.0000    653.2479      0.4479     -0.0482     62.2998
   932.5000      0.0000    664.3385      0.7133      0.2130     63.9456
   932.7500      0.0000    676.8226      1.1292     -0.1352     68.0706
   933.0000      0.0000    685.9362      1.6889     -0.2223     75.9020
   933.2500      0.0000    690.4862      2.3768      0.3000     86.9834
   933.5000      0.0000    693.6863      3.1757      0.2130     99.0956
   933.7500      0.0000    699.7899      4.0712      0.0389    109.5356
   934.0000      0.0000    709.1747      5.0484      0.2130    116.5155
   934.2500      0.0000    715.4103      6.0848      0.3000    119.9747
   934.5000      0.0000    706.0967      7.1475      1.2575    121.4268
   934.7500      0.0000    668.7457      8.1938      1.2575    122.8362
   935.0000      0.0000    600.7343      9.1723      1.6057    125.2600
   935.2500      0.0000    515.2867     10.0346      2.7373    128.2915
   935.5000      0.0000    434.7302     10.7582      3.4337    130.4939
   935.7500      0.0000    375.5898     11.3610      4.0430    130.2176
   936.0000      0.0000    340.4162     11.8902      3.8689    126.5233
   936.2500      0.0000    322.2174     12.3876      4.7394    119.9570
   936.5000      0.0000    313.1043     12.8654      4.6523    112.1452
   936.7500      0.0000    308.3887     13.3224      5.4358    104.2016
   937.0000      0.0000    305.9536     13.7732      5.6969     96.0605
   937.2500      0.0000    304.7314     14.2389      5.9580     87.7829
   937.5000      0.0000    304.0842     14.7049      6.4803     80.7945
   937.7500      0.0000    303.6877     15.1143      6.5674     77.0473
   938.0000      0.0000    303.4378     15.4153      6.6544     77.1683
   938.2500      0.0000    303.2912     15.6047      6.8285     79.9982
   938.5000      0.0000    303.2003     15.7240      7.7860     83.8727
   938.7500      0.0000    303.1140     15.8214      7.4378     87.8188
   939.0000      0.0000    303.0155     15.9123      7.0896     91.3944
   939.2500      0.0000    302.9372     15.9643      7.0896     94.1011
   939.5000      0.0000    302.9295     15.9262      6.7415     95.5861
   939.7500      0.0000    303.0083     15.7783      6.7415     96.2021
   940.0000      0.0000    303.1766     15.5496      6.6544     96.8905
   940.2500      0.0000    303.5380     15.2838      7.3508     98.5073
   940.5000      0.0000    304.6956     14.9990      6.5674    101.4460
   940.7500      0.0000    308.6844     14.6829      6.3933    105.8609
   941.0000      0.0000    320.4454     14.3117      5.6969    112.0202
   941.2500      0.0000    348.2327     13.8640      5.3487    120.1497
   941.5000      0.0000    399.9206     13.3296      5.3487    129.6812
   941.7500      0.0000    475.2863     12.7218      4.9135    138.7763
   942.0000      0.0000    561.4639     12.0889      4.5653    145.0478
   942.2500      0.0000    638.8871     11.5155      4.7394    147.0756
   942.5000      0.0000    693.2618     11.0948      4.7394    145.3018
   942.7500      0.0000    721.6885     10.8780      4.3041    141.5077
   943.0000      0.0000    729.2909     10.8420      4.3912    137.5386
   943.2500      0.0000    722.7955     10.9095      5.0005    134.4415
   943.5000      0.0000    706.2865     10.9965      3.0855    132.4394
   943.7500      0.0000    680.4760     11.0341      1.2575    131.3893
   944.0000      0.0000    646.4897     10.9610      4.9135    131.1269
   944.2500      0.0000    611.4158     10.7313      1.6057    131.4702
   944.5000      0.0000    587.9382     10.3579      3.0855    132.0662
   944.7500      0.0000    585.8768      9.9403      3.4337    132.2998
   945.0000      0.0000    604.8734      9.6328      2.7373    131.3585
   945.2500      0.0000    635.3619      9.5745      3.8689    128.5229
   945.5000      0.0000    662.9142      9.8187      3.7819    123.7161
   945.7500     -2.0000    671.4427     10.2972      3.8689    118.0949
   946.0000      0.0000    649.0517     10.8597      4.7394    114.0974
   946.2500      2.0000    597.5297     11.3727      5.2617    114.3742
   946.5000      0.0000    535.3433     11.7961      4.7394    119.9369
   946.7500      0.0000    485.1357     12.2189      5.3487    129.1498
