~Version Information
VERS.                      2.0: CWLS Log ASCII Standard - VERSION 2.0
WRAP.                       NO: One line per depth step
~Well Information Block
STRT.FT               295.7500: 
STOP.FT              1461.0000: 
STEP.FT                 0.2500: 
NULL.                -999.2500: 
COMP.          Pioneer Natural Resources: COMPANY
WELL.              Lucky 21-36: WELL
FLD.           Purgatoire River: FIELD
LOC.           799' FNL & 1578' FWL--: LOCATION
CDN. :
PROV. :
UWI. :
STAT. :
CNTY. :
CTRY. :
API. :
COMP. :
WELL. :
FLD. :
LOC. :
DATE. :
SRVC. :
CNTY.               Las Animas: COUNTY
SRVC.          Superior Well Services: SERVICE COMPANY
DATE.          Mon Jul 07 19-13-01 2008: LOG DATE
UWI.           05 071 08456 00: UNIQUE WELL ID
STAT.                 Colorado: STATE
~Curve Information Block
DEPT.FT            0 000 00 00: Depth
SN.Ohm-m                      : IEL Short Normal
SP.mV                         : IEL Spontaneous Potential
DIR.Ohm-m                     : IEL Induction Resistivity
GR.GAPI                       : Gamma Ray
~Parameter Information Block
~A  Depth        SN          SP         DIR          GR     
# ...
   563.7500   2000.0000   1980.0000     26.2349     84.6472
   564.0000   2000.0000   1980.0000     25.8108     84.8805
   564.2500   2000.0000   1980.0000     25.0281     88.5788
   564.5000   2000.0000   1980.0000     23.9882     93.5919
   564.7500   2000.0000   1980.0000     22.8002    104.2613
   565.0000   2000.0000   1980.0000     21.5515    112.2837
   565.2500   2000.0000   1980.0000     20.3036    122.9949
   565.5000   2000.0000   1980.0000     19.1005    128.1758
   565.7500   2000.0000   1980.0000     17.9751    132.9674
   566.0000   2000.0000   1980.0000     16.9511    134.7881
   566.2500   2000.0000   1980.0000     16.0451    136.1371
   566.5000   2000.0000   1980.0000     15.2707    136.0793
   566.7500   2000.0000   1980.0000     14.6410    134.5471
   567.0000   2000.0000   1980.0000     14.1665    132.9348
   567.2500   2000.0000   1980.0000     13.8505    130.5663
   567.5000   2000.0000   1980.0000     13.6845    129.2854
   567.7500   2000.0000   1980.0000     13.6458    127.4574
   568.0000   2000.0000   1980.0000     13.6983    125.8543
   568.2500   2000.0000   1980.0000     13.7972    122.4013
   568.5000   2000.0000   1980.0000     13.8974    119.5837
   568.7500   2000.0000   1980.0000     13.9638    115.7319
   569.0000   2000.0000   1980.0000     13.9779    114.2697
   569.2500   2000.0000   1980.0000     13.9379    114.6714
   569.5000   2000.0000   1980.0000     13.8544    116.5852
   569.7500   2000.0000   1980.0000     13.7450    120.7568
   570.0000   2000.0000   1980.0000     13.6277    123.4890
   570.2500   2000.0000   1980.0000     13.5166    126.3818
   570.5000   2000.0000   1980.0000     13.4194    127.2778
   570.7500   2000.0000   1980.0000     13.3396    127.1065
   571.0000   2000.0000   1980.0000     13.2813    126.1107
   571.2500   2000.0000   1980.0000     13.2546    123.6864
   571.5000   2000.0000   1980.0000     13.2747    121.6589
   571.7500   2000.0000   1980.0000     13.3565    117.9663
   572.0000   2000.0000   1980.0000     13.5065    114.8809
   572.2500   2000.0000   1980.0000     13.7170    109.3529
   572.5000   2000.0000   1980.0000     13.9684    105.6330
   572.7500   2000.0000   1980.0000     14.2378    101.7504
   573.0000   2000.0000   1980.0000     14.5098    101.0620
   573.2500   2000.0000   1980.0000     14.7814    102.3754
   573.5000   2000.0000   1980.0000     15.0595    103.6336
   573.7500   2000.0000   1980.0000     15.3535    104.4636
   574.0000   2000.0000   1980.0000     15.6682    104.2976
   574.2500   2000.0000   1980.0000     15.9998    103.8750
   574.5000   2000.0000   1980.0000     16.3371    103.7570
   574.7500   2000.0000   1980.0000     16.6659    103.4557
   575.0000   2000.0000   1980.0000     16.9735    102.9000
   575.2500   2000.0000   1980.0000     17.2511    101.6653
   575.5000   2000.0000   1980.0000     17.4889    100.8326
   575.7500   2000.0000   1980.0000     17.6671     99.6817
   576.0000   2000.0000   1980.0000     17.7432     98.8410
   576.2500   2000.0000   1980.0000     17.6437     97.3498
   576.5000   2000.0000   1980.0000     17.2736     96.3507
   576.7500   2000.0000   1980.0000     16.5543     95.3376
   577.0000   2000.0000   1980.0000     15.4821     95.2976
   577.2500   2000.0000   1980.0000     14.1631     96.6605
   577.5000   2000.0000   1980.0000     12.7827     98.6560
   577.7500   2000.0000   1980.0000     11.5315    102.9597
   578.0000   2000.0000   1980.0000     10.5597    106.1992
   578.2500   2000.0000   1980.0000      9.9941    110.8274
   578.5000   2000.0000   1980.0000     10.0236    113.6473
   578.7500   2000.0000   1980.0000     11.1186    117.7735
   579.0000   2000.0000   1980.0000     14.9659    120.6107
   579.2500   2000.0000   1980.0000     34.4793    124.7952
   579.5000   2000.0000   1980.0000 100000.0000    127.1593
   579.7500   2000.0000   1980.0000 100000.0000    129.4030
   580.0000   2000.0000   1980.0000 100000.0000    129.8147
   580.2500   2000.0000   1980.0000 100000.0000    128.6566
   580.5000   2000.0000   1980.0000 100000.0000    126.6972
   580.7500   2000.0000   1980.0000 100000.0000    122.3187
   581.0000   2000.0000   1980.0000 100000.0000    118.9397
   581.2500   2000.0000   1980.0000 100000.0000    114.4096
   581.5000   2000.0000   1980.0000 100000.0000    112.5012
   581.7500   2000.0000   1980.0000 100000.0000    112.3389
   582.0000   2000.0000   1980.0000 100000.0000    114.3420
   582.2500   2000.0000   1980.0000 100000.0000    120.2611
   582.5000   2000.0000   1980.0000 100000.0000    125.4470
   582.7500   2000.0000   1980.0000     15.5981    133.2974
   583.0000   2000.0000   1980.0000      7.5575    137.6781
   583.2500   2000.0000   1980.0000      5.5048    142.3345
   583.5000   2000.0000   1980.0000      5.2338    144.1453
   583.7500   2000.0000   1980.0000      6.8669    144.6773
   584.0000   2000.0000   1980.0000     19.8812    143.1959
   584.2500   2000.0000   1980.0000 100000.0000    137.8698
   584.5000   2000.0000   1980.0000 100000.0000    132.5489
   584.7500   2000.0000   1980.0000 100000.0000    123.1448
   585.0000   2000.0000   1980.0000 100000.0000    116.8265
   585.2500   2000.0000   1980.0000      9.8602    108.8634
   585.5000   2000.0000   1980.0000      1.3006    105.3982
   585.7500   2000.0000   1980.0000      0.4343    103.7307
   586.0000   2000.0000   1980.0000      0.1529    104.5902
   586.2500   2000.0000   1980.0000      0.0511    106.3662
   586.5000   2000.0000   1980.0000      0.0198    105.9974
   586.7500   2000.0000   1980.0000      0.0102    101.4000
   587.0000   2000.0000   1980.0000      0.0069     96.1784
   587.2500   2000.0000   1980.0000      0.0059     87.6281
   587.5000   2000.0000   1980.0000      0.0061     82.7434
   587.7500   2000.0000   1980.0000      0.0069     77.3578
   588.0000   2000.0000   1980.0000      0.0085     74.7279
   588.2500   2000.0000   1980.0000      0.0114     71.5144
   588.5000   2000.0000   1980.0000      0.0170     69.9710
   588.7500   2000.0000   1980.0000      0.0277     69.7894
   589.0000   2000.0000   1980.0000      0.0458     71.9512
   589.2500   2000.0000   1980.0000      0.0685     79.3092
   589.5000   2000.0000   1980.0000      0.0856     86.6250
   589.7500   2000.0000   1980.0000      0.0883     99.4133
   590.0000   2000.0000   1980.0000      0.0770    107.6642
   590.2500   2000.0000   1980.0000      0.0584    117.4129
   590.5000   2000.0000   1980.0000      0.0399    121.6436
   590.7500   2000.0000   1980.0000      0.0266    125.0945
   591.0000   2000.0000   1980.0000      0.0193    126.0236
   591.2500   2000.0000   1980.0000      0.0174    125.9940
   591.5000   2000.0000   1980.0000      0.0210    125.3095
   591.7500   2000.0000   1980.0000      0.0354    123.9909
   592.0000   2000.0000   1980.0000      0.0803    123.3647
   592.2500   2000.0000   1980.0000      0.2121    123.2419
   592.5000   2000.0000   1980.0000      0.5655    123.6627
   592.7500   2000.0000   1980.0000      1.9251    124.4678
   593.0000   2000.0000   1980.0000 100000.0000    124.6456
   593.2500   2000.0000   1980.0000 100000.0000    123.8243
   593.5000   2000.0000   1980.0000 100000.0000    122.5221
   593.7500   2000.0000   1980.0000 100000.0000    119.7265
   594.0000   2000.0000   1980.0000 100000.0000    117.5499
   594.2500   2000.0000   1980.0000 100000.0000    114.2503
   594.5000   2000.0000   1980.0000    151.1026    112.1792
   594.7500   2000.0000   1980.0000     19.9728    109.2227
   595.0000   2000.0000   1980.0000     16.7251    107.2777
   595.2500   2000.0000   1980.0000     20.3115    104.4564
   595.5000   2000.0000   1980.0000     32.0136    102.7470
   595.7500   2000.0000   1980.0000     79.9229    100.6545
   596.0000   2000.0000   1980.0000 100000.0000     99.8468
   596.2500   2000.0000   1980.0000 100000.0000    100.2947
   596.5000   2000.0000   1980.0000 100000.0000    101.9589
   596.7500   2000.0000   1980.0000 100000.0000    105.8677
   597.0000   2000.0000   1980.0000 100000.0000    108.5390
