~Version Information
VERS.                      2.0: CWLS Log ASCII Standard - VERSION 2.0
WRAP.                       NO: One line per depth step
~Well Information Block
STRT.FT                -8.7500: 
STOP.FT              1860.5000: 
STEP.FT                 0.2500: 
NULL.                -999.2500: 
COMP.          Pioneer Natural Resources: COMPANY
WELL.          Cortina 23-25 Tr: WELL
FLD.           Purgatorie River: FIELD
LOC.           --2521' FSL & 2345' FWL------: LOCATION
STAT.                       CO: PROVINCE
CNTY.               Las Animas: COUNTY
CTRY. USA : country
SECT. 25 : Section
TOWN. 32S : Township
RANG. 67W : Range
SRVC.          Patterson Wireline: SERVICE COMPANY
DATE.          Thu Sep 29 11:30:45 2005: LOG DATE
API.           05 071 08534 00: UNIQUE WELL ID
~Curve Information Block
DEPT.FT            0 000 00 00: Depth
CCL.                          : Casing Collar Locator
TT3.usec                      : CBL 3' Travel Time
AMP3.mV                       : CBL 3' Amplitude
GR.GAPI                       : Gamma Ray
~Parameter Information Block
~A  Depth       CCL         TT3         AMP3         GR     
# ...
  1096.7500      0.0000    710.6348      7.5707    110.8065
  1097.0000      0.0000    719.1529      6.9784    109.9953
  1097.2500      0.0000    730.4918      6.4256    106.9807
  1097.5000      0.0000    742.1728      5.9470    104.0448
  1097.7500      0.0000    751.0524      5.5805    103.6276
  1098.0000      0.0000    755.3438      5.3519    106.1097
  1098.2500      0.0000    755.6533      5.2760    109.6575
  1098.5000      0.0000    753.8815      5.3685    112.3233
  1098.7500      0.0000    751.3853      5.6490    114.0838
  1099.0000      0.0000    748.6000      6.1345    116.5916
  1099.2500      0.0000    745.8945      6.8289    121.2042
  1099.5000      0.0000    743.8657      7.7027    127.5442
  1099.7500      0.0000    742.8217      8.6740    133.6325
  1100.0000      0.0000    742.4935      9.6302    137.2316
  1100.2500      0.0000    742.3063     10.4856    137.4611
  1100.5000      0.0000    741.6843     11.2077    135.3573
  1100.7500      0.0000    740.2520     11.7789    132.7565
  1101.0000      0.0000    738.2001     12.1538    130.6181
  1101.2500      0.0000    736.6511     12.2729    128.6528
  1101.5000      0.0000    737.1790     12.1116    126.5958
  1101.7500      0.0000    740.3113     11.7091    125.2900
  1102.0000      0.0000    744.5244     11.1573    126.0231
  1102.2500      0.0000    747.3165     10.5667    128.9045
  1102.5000      0.0000    747.4854     10.0330    132.2518
  1102.7500      0.0000    746.1071      9.6134    133.5721
  1103.0000      0.0000    745.2580      9.3184    131.2472
  1103.2500      0.0000    746.0423      9.1279    125.8940
  1103.5000      0.0000    747.8433      9.0223    120.3328
  1103.7500      0.0000    749.2477      8.9992    117.6053
  1104.0000      0.0000    749.4744      9.0695    118.5344
  1104.2500      0.0000    748.4066      9.2475    121.2832
  1104.5000      0.0000    745.0210      9.5443    123.2236
  1104.7500      0.0000    736.6064      9.9640    123.0811
  1105.0000      0.0000    720.8812     10.4994    121.5151
  1105.2500      0.0000    699.6097     11.1223    120.2031
  1105.5000      0.0000    679.7361     11.7687    120.6945
  1105.7500      0.0000    669.6110     12.3533    123.7570
  1106.0000      0.0000    672.7650     12.8157    129.0226
  1106.2500      0.0000    685.3823     13.1482    134.7480
  1106.5000      0.0000    700.1147     13.3678    138.2707
  1106.7500      0.0000    711.7156     13.4813    137.5700
  1107.0000      0.0000    719.1281     13.4986    132.9028
  1107.2500      0.0000    723.9164     13.4654    126.8751
  1107.5000      0.0000    727.8541     13.4538    122.8860
  1107.7500      0.0000    731.4667     13.5185    123.2269
  1108.0000      0.0000    734.0426     13.6756    127.8885
  1108.2500      0.0000    734.8583     13.9134    134.6804
  1108.5000      0.0000    734.4177     14.1981    140.4402
  1108.7500      0.0000    734.2015     14.4677    142.4840
  1109.0000      0.0000    735.1464     14.6439    139.9871
  1109.2500      0.0000    736.5822     14.6681    134.8409
  1109.5000      0.0000    736.8159     14.5253    130.4962
  1109.7500      0.0000    734.3570     14.2454    129.0551
  1110.0000      0.0000    728.2839     13.8944    129.8460
  1110.2500      0.0000    717.6140     13.5595    131.0464
  1110.5000      0.0000    701.5067     13.3167    131.6458
  1110.7500      0.0000    681.8891     13.1925    131.5609
  1111.0000      0.0000    665.9438     13.1549    131.0289
  1111.2500      0.0000    662.9172     13.1425    130.2554
  1111.5000      0.0000    675.8410     13.1048    128.8178
  1111.7500      0.0000    697.6736     13.0210    125.3619
  1112.0000      0.0000    717.2136     12.8951    118.7901
  1112.2500      0.0000    727.2022     12.7455    109.9616
  1112.5000      0.0000    725.9958     12.6052    101.4765
  1112.7500      0.0000    713.9693     12.5259     95.5227
  1113.0000      0.0000    690.8473     12.5654     92.3605
  1113.2500      0.0000    656.6824     12.7430     90.8219
  1113.5000      0.0000    614.7098     13.0035     89.5606
  1113.7500      0.0000    572.4963     13.2369     87.8175
  1114.0000      0.0000    539.9892     13.3445     85.7472
  1114.2500      0.0000    525.1967     13.2885     84.3773
  1114.5000      0.0000    528.7682     13.0949     84.7031
  1114.7500      0.0000    541.1569     12.8344     86.4042
  1115.0000      0.0000    548.1895     12.6049     87.7973
  1115.2500      0.0000    542.0190     12.5196     87.4459
  1115.5000      0.0000    526.6946     12.6894     85.7711
  1115.7500      0.0000    514.9005     13.1854     84.8974
  1116.0000      0.0000    519.9203     13.9881     86.6373
  1116.2500      0.0000    545.8986     14.9605     90.5186
  1116.5000      0.0000    581.9628     15.8787     94.1665
  1116.7500      0.0000    607.7535     16.5111     95.7219
  1117.0000      0.0000    608.9294     16.7210     95.3427
  1117.2500      0.0000    589.6990     16.5328     94.3215
  1117.5000      0.0000    570.1998     16.0988     93.4317
  1117.7500      0.0000    568.7196     15.5843     92.2758
  1118.0000      0.0000    584.5315     15.0735     89.6701
  1118.2500      0.0000    599.4330     14.5640     84.7175
  1118.5000      0.0000    596.8729     14.0066     77.9791
  1118.7500      0.0000    577.6638     13.3296     71.3603
  1119.0000      0.0000    556.5178     12.4672     66.4741
  1119.2500      0.0000    546.1002     11.4414     63.6167
  1119.5000      0.0000    547.8192     10.4214     62.5194
  1119.7500      0.0000    557.6386      9.6251     62.9347
  1120.0000      0.0000    574.9511      9.1429     63.7648
  1120.2500      0.0000    600.9539      8.9026     62.7954
  1120.5000      0.0000    631.8782      8.7749     58.6205
  1120.7500      0.0000    659.9590      8.6350     52.4727
  1121.0000      0.0000    680.3754      8.3613     47.3882
  1121.2500     -2.0000    693.6455      7.8730     45.9200
  1121.5000      0.0000    702.4735      7.1822     49.0145
  1121.7500      0.0000    709.6913      6.3753     56.2268
  1122.0000      0.0000    719.1967      5.5500     65.9392
  1122.2500      0.0000    736.4371      4.7809     75.6199
  1122.5000      0.0000    766.6567      4.1155     82.8539
  1122.7500      0.0000    811.4058      3.5818     86.4136
  1123.0000      0.0000    865.1661      3.2129     86.3483
  1123.2500      0.0000    916.1178      3.0543     83.5273
  1123.5000      0.0000    952.1084      3.1230     79.3912
  1123.7500      0.0000    966.6591      3.3731     75.7359
  1124.0000      0.0000    960.0538      3.7329     74.2501
  1124.2500      0.0000    937.3199      4.1696     75.9560
  1124.5000      0.0000    906.1453      4.7036     80.6989
  1124.7500      0.0000    874.0828      5.3712     87.0408
  1125.0000      0.0000    845.5184      6.1989     93.0897
  1125.2500      0.0000    821.3602      7.2200     97.6570
  1125.5000      0.0000    801.3824      8.4872    100.4634
  1125.7500      0.0000    785.9163     10.0301    101.5954
  1126.0000      0.0000    775.0248     11.7769    101.4107
  1126.2500      0.0000    767.2278     13.5208    100.8623
  1126.5000      0.0000    760.4536     14.9823    101.3424
  1126.7500      0.0000    754.0420     15.9388    103.9725
  1127.0000      0.0000    748.8048     16.3262    109.0018
  1127.2500      0.0000    745.3895     16.2358    115.5535
  1127.5000      0.0000    743.3069     15.8285    121.5499
  1127.7500      0.0000    741.3208     15.2547    124.3148
  1128.0000      0.0000    738.1013     14.6320    122.4296
  1128.2500      0.0000    732.7612     14.0545    117.3741
  1128.5000      0.0000    725.5027     13.5924    112.5587
  1128.7500      0.0000    718.0131     13.2778    110.2598
  1129.0000      0.0000    712.8191     13.1008    109.8410
  1129.2500      0.0000    711.6812     13.0316    108.9248
  1129.5000      0.0000    714.3148     13.0408    105.7094
  1129.7500      0.0000    718.7452     13.0850    100.0986
  1130.0000      0.0000    723.0600     13.0810     93.3100
