~Version Information
VERS.                      2.0: CWLS Log ASCII Standard - VERSION 2.0
WRAP.                       NO: One line per depth step
~Well Information Block
STRT.FT               550.0000: 
STOP.FT              1981.5000: 
STEP.FT                 0.2500: 
NULL.                -999.2500: 
COMP.          Pioneer Natural Resources: COMPANY
WELL.          Flying Horse 12-11 Tr: WELL
FLD.           Purgatoire River: FIELD
LOC.           2459' FNL & 410' FWL: LOCATION
STAT.                 Colorado: State
CNTY.               Las Animas: COUNTY
CTRY. USA : Country
SECT. 11 : Section
TOWN. 32S : Township
RANG. 66W : Range
SRVC.                Patterson: SERVICE COMPANY
DATE.          Sat Sep 03 20:17:31 2005: LOG DATE
API.           05 071 08485 00: UNIQUE WELL ID
~Curve Information Block
DEPT.FT            0 000 00 00: Depth
SN.Ohm-m                      : IEL Short Normal
SP.mV                         : IEL Spontaneous Potential
DIR.Ohm-m                     : IEL Induction Resistivity
GR.GAPI                       : Gamma Ray
~Parameter Information Block
~A  Depth        SN          SP         DIR          GR     
# ...
  1019.0000   2000.0000   2000.0000     30.0442     86.0220
  1019.2500   2000.0000   2000.0000     32.0472     88.6284
  1019.5000   2000.0000   2000.0000     34.3559     92.4228
  1019.7500   2000.0000   2000.0000     36.9181     94.2538
  1020.0000   2000.0000   2000.0000     39.5420     94.9820
  1020.2500   2000.0000   2000.0000     41.9283     93.8063
  1020.5000   2000.0000   2000.0000     43.7881     89.6913
  1020.7500   2000.0000   2000.0000     44.9851     85.7997
  1021.0000   2000.0000   2000.0000     45.5987     79.2635
  1021.2500   2000.0000   2000.0000     45.8735     75.0816
  1021.5000   2000.0000   2000.0000     46.1013     70.0714
  1021.7500   2000.0000   2000.0000     46.5094     68.0246
  1022.0000   2000.0000   2000.0000     47.2014     67.2935
  1022.2500   2000.0000   2000.0000     48.1548     68.2302
  1022.5000   2000.0000   2000.0000     49.2549     70.7635
  1022.7500   2000.0000   2000.0000     50.2875     72.3548
  1023.0000   2000.0000   2000.0000     50.8698     73.3280
  1023.2500   2000.0000   2000.0000     50.4593     72.6667
  1023.5000   2000.0000   2000.0000     48.6419     70.0522
  1023.7500   2000.0000   2000.0000     45.5468     67.9939
  1024.0000   2000.0000   2000.0000     41.8422     65.9511
  1024.2500   2000.0000   2000.0000     38.2458     65.7493
  1024.5000   2000.0000   2000.0000     35.1338     67.3265
  1024.7500   2000.0000   2000.0000     32.5328     69.8426
  1025.0000   2000.0000   2000.0000     30.3079     76.7746
  1025.2500   2000.0000   2000.0000     28.3260     84.0046
  1025.5000   2000.0000   2000.0000     26.5196     98.6730
  1025.7500   2000.0000   2000.0000     24.8702    110.3246
  1026.0000   2000.0000   2000.0000     23.3712    128.6757
  1026.2500   2000.0000   2000.0000     22.0101    140.0574
  1026.5000   2000.0000   2000.0000     20.7739    153.5174
  1026.7500   2000.0000   2000.0000     19.6580    159.4108
  1027.0000   2000.0000   2000.0000     18.6694    164.2347
  1027.2500   2000.0000   2000.0000     17.8216    165.7162
  1027.5000   2000.0000   2000.0000     17.1280    166.6352
  1027.7500   2000.0000   2000.0000     16.5962    166.6998
  1028.0000   2000.0000   2000.0000     16.2259    166.2987
  1028.2500   2000.0000   2000.0000     16.0121    165.9970
  1028.5000   2000.0000   2000.0000     15.9489    165.7764
  1028.7500   2000.0000   2000.0000     16.0319    165.4562
  1029.0000   2000.0000   2000.0000     16.2557    163.3725
  1029.2500   2000.0000   2000.0000     16.6107    160.0322
  1029.5000   2000.0000   2000.0000     17.0830    150.9306
  1029.7500   2000.0000   2000.0000     17.6575    141.9590
  1030.0000   2000.0000   2000.0000     18.3219    125.5611
  1030.2500   2000.0000   2000.0000     19.0658    114.5666
  1030.5000   2000.0000   2000.0000     19.8780    101.6406
  1030.7500   2000.0000   2000.0000     20.7405     96.7321
  1031.0000   2000.0000   2000.0000     21.6269     95.1632
  1031.2500   2000.0000   2000.0000     22.5092     97.2961
  1031.5000   2000.0000   2000.0000     23.3715    103.6794
  1031.7500   2000.0000   2000.0000     24.2169    109.2286
  1032.0000   2000.0000   2000.0000     25.0524    118.3030
  1032.2500   2000.0000   2000.0000     25.8581    124.1625
  1032.5000   2000.0000   2000.0000     26.5678    131.4499
  1032.7500   2000.0000   2000.0000     27.0878    134.7249
  1033.0000   2000.0000   2000.0000     27.3507    136.6557
  1033.2500   2000.0000   2000.0000     27.3592    135.8511
  1033.5000   2000.0000   2000.0000     27.1831    132.0276
  1033.7500   2000.0000   2000.0000     26.9212    128.5549
  1034.0000   2000.0000   2000.0000     26.6692    123.8212
  1034.2500   2000.0000   2000.0000     26.5127    121.8108
  1034.5000   2000.0000   2000.0000     26.5279    120.6561
  1034.7500   2000.0000   2000.0000     26.7807    120.4943
  1035.0000   2000.0000   2000.0000     27.3221    120.1725
  1035.2500   2000.0000   2000.0000     28.1810    120.1290
  1035.5000   2000.0000   2000.0000     29.3445    121.5523
  1035.7500   2000.0000   2000.0000     30.7295    123.4724
  1036.0000   2000.0000   2000.0000     32.1777    125.3490
  1036.2500   2000.0000   2000.0000     33.5110    124.0123
  1036.5000   2000.0000   2000.0000     34.6361    116.9765
  1036.7500   2000.0000   2000.0000     35.6054    110.1926
  1037.0000   2000.0000   2000.0000     36.5604    100.8791
  1037.2500   2000.0000   2000.0000     37.5960     97.1688
  1037.5000   2000.0000   2000.0000     38.6428     96.0180
  1037.7500   2000.0000   2000.0000     39.4558     97.0556
  1038.0000   2000.0000   2000.0000     39.7539     98.4850
  1038.2500   2000.0000   2000.0000     39.4259     98.3187
  1038.5000   2000.0000   2000.0000     38.5966     96.4792
  1038.7500   2000.0000   2000.0000     37.4969     94.8745
  1039.0000   2000.0000   2000.0000     36.3080     92.9575
  1039.2500   2000.0000   2000.0000     35.1183     92.3063
  1039.5000   2000.0000   2000.0000     33.9542     92.3754
  1039.7500   2000.0000   2000.0000     32.8157     93.0996
  1040.0000   2000.0000   2000.0000     31.6949     95.4516
  1040.2500   2000.0000   2000.0000     30.5844     98.3247
  1040.5000   2000.0000   2000.0000     29.4754    105.4556
  1040.7500   2000.0000   2000.0000     28.3501    112.0605
  1041.0000   2000.0000   2000.0000     27.1855    123.2523
  1041.2500   2000.0000   2000.0000     25.9753    130.2643
  1041.5000   2000.0000   2000.0000     24.7414    138.5437
  1041.7500   2000.0000   2000.0000     23.5199    142.4572
  1042.0000   2000.0000   2000.0000     22.3385    146.6643
  1042.2500   2000.0000   2000.0000     21.2069    148.8971
  1042.5000   2000.0000   2000.0000     20.1289    152.1735
  1042.7500   2000.0000   2000.0000     19.1185    154.7041
  1043.0000   2000.0000   2000.0000     18.2062    159.3713
  1043.2500   2000.0000   2000.0000     17.4310    162.8999
  1043.5000   2000.0000   2000.0000     16.8228    168.0136
  1043.7500   2000.0000   2000.0000     16.3896    170.7216
  1044.0000   2000.0000   2000.0000     16.1121    172.7925
  1044.2500   2000.0000   2000.0000     15.9496    172.5064
  1044.5000   2000.0000   2000.0000     15.8500    169.7715
  1044.7500   2000.0000   2000.0000     15.7603    166.8853
  1045.0000   2000.0000   2000.0000     15.6367    161.5457
  1045.2500   2000.0000   2000.0000     15.4552    157.3373
  1045.5000   2000.0000   2000.0000     15.2182    150.3718
  1045.7500   2000.0000   2000.0000     14.9544    146.0961
  1046.0000   2000.0000   2000.0000     14.7065    142.2699
  1046.2500   2000.0000   2000.0000     14.5157    142.3463
  1046.5000   2000.0000   2000.0000     14.4098    146.4203
  1046.7500   2000.0000   2000.0000     14.3980    150.8320
  1047.0000   2000.0000   2000.0000     14.4724    157.5917
  1047.2500   2000.0000   2000.0000     14.6120    161.0219
  1047.5000   2000.0000   2000.0000     14.7885    163.8281
  1047.7500   2000.0000   2000.0000     14.9691    164.4452
  1048.0000   2000.0000   2000.0000     15.1192    164.1785
  1048.2500   2000.0000   2000.0000     15.2078    162.9631
  1048.5000   2000.0000   2000.0000     15.2200    158.0628
  1048.7500   2000.0000   2000.0000     15.1678    152.0907
  1049.0000   2000.0000   2000.0000     15.0873    139.6843
  1049.2500   2000.0000   2000.0000     15.0221    130.3643
  1049.5000   2000.0000   2000.0000     15.0053    117.6942
  1049.7500   2000.0000   2000.0000     15.0529    111.9639
  1050.0000   2000.0000   2000.0000     15.1648    109.9049
  1050.2500   2000.0000   2000.0000     15.3297    113.0831
  1050.5000   2000.0000   2000.0000     15.5283    122.4314
  1050.7500   2000.0000   2000.0000     15.7353    129.6817
  1051.0000   2000.0000   2000.0000     15.9248    139.1165
  1051.2500   2000.0000   2000.0000     16.0773    143.4122
  1051.5000   2000.0000   2000.0000     16.1885    146.3645
  1051.7500   2000.0000   2000.0000     16.2724    146.4378
  1052.0000   2000.0000   2000.0000     16.3541    145.1821
  1052.2500   2000.0000   2000.0000     16.4516    144.1621
