~Version Information
VERS.                      2.0: CWLS Log ASCII Standard - VERSION 2.0
WRAP.                       NO: One line per depth step
~Well Information Block
STRT.FT               890.0000: 
STOP.FT              2097.0000: 
STEP.FT                 0.2500: 
NULL.                -999.2500: 
COMP.          Pioneer Natural Resources: COMPANY
WELL.          Greenwood 43-29 Tr: WELL
FLD.           Purgatoire River: FIELD
LOC.           1478' FSL & 744' FEL: LOCATION
STAT.                 Colorado: State
CNTY.               Las Animas: COUNTY
CTRY. USA : Country
SECT. 29 : Section
TOWN. 32S : Township
RANG. 67W : Range
SRVC.                Patterson: SERVICE COMPANY
DATE.          Wed Aug 31 08:07:28 2005: LOG DATE
API.           05 071 08478 00: UNIQUE WELL ID
~Curve Information Block
DEPT.FT            0 000 00 00: Depth
SN.Ohm-m                      : IEL Short Normal
SP.mV                         : IEL Spontaneous Potential
DIR.Ohm-m                     : IEL Induction Resistivity
GR.GAPI                       : Gamma Ray
~Parameter Information Block
~A  Depth        SN          SP         DIR          GR     
# ...
  1593.5000     33.1770   -192.7025     26.8813     86.3711
  1593.7500     34.2125   -192.7197     27.3373     83.1620
  1594.0000     35.2751   -192.7415     27.8201     79.1935
  1594.2500     36.4186   -192.7991     28.2609     76.5534
  1594.5000     37.5881   -192.9078     28.5973     72.8471
  1594.7500     38.6336   -193.0475     28.7754     71.1129
  1595.0000     39.3949   -193.1759     28.7408     70.1133
  1595.2500     39.8057   -193.2639     28.4342     70.3200
  1595.5000     39.8591   -193.3208     27.8115     71.3287
  1595.7500     39.4865   -193.3855     26.8784     72.2728
  1596.0000     38.5966   -193.4973     25.7101     74.2709
  1596.2500     37.1543   -193.6787     24.4306     76.3722
  1596.5000     35.1527   -193.9352     23.1644     81.6155
  1596.7500     32.6606   -194.2576     21.9947     86.9901
  1597.0000     29.8876   -194.6214     20.9489     97.9702
  1597.2500     27.1343   -194.9917     20.0082    106.5906
  1597.5000     24.7047   -195.3352     19.1307    119.3484
  1597.7500     22.7477   -195.6305     18.2752    126.3876
  1598.0000     21.1078   -195.8710     17.4191    133.1887
  1598.2500     19.5182   -196.0616     16.5627    135.0666
  1598.5000     17.9763   -196.2080     15.7223    134.9901
  1598.7500     16.6685   -196.3020     14.9175    134.0372
  1599.0000     15.6172   -196.3131     14.1641    132.4135
  1599.2500     14.7032   -196.2014     13.4720    131.1637
  1599.5000     13.8785   -195.9487     12.8471    128.4858
  1599.7500     13.1837   -195.5833     12.2935    126.2906
  1600.0000     12.6919   -195.1721     11.8147    123.7501
  1600.2500     12.4707   -194.7846     11.4138    123.5120
  1600.5000     12.4882   -194.4610     11.0928    125.9860
  1600.7500     12.5386   -194.2056     10.8497    129.0086
  1601.0000     12.3769   -194.0010     10.6781    133.6032
  1601.2500     11.9596   -193.8260     10.5698    135.6004
  1601.5000     11.4376   -193.6689     10.5192    136.4355
  1601.7500     10.9925   -193.5321     10.5246    135.9869
  1602.0000     10.7802   -193.4275     10.5833    134.8501
  1602.2500     10.9028   -193.3678     10.6844    134.1688
  1602.5000     11.3666   -193.3591     10.8053    133.4875
  1602.7500     12.0472   -193.3969     10.9178    133.1553
  1603.0000     12.6973   -193.4636     10.9996    132.2632
  1603.2500     13.1133   -193.5333     11.0461    131.0838
  1603.5000     13.3046   -193.5869     11.0713    128.6394
  1603.7500     13.4230   -193.6268     11.0999    127.1205
  1604.0000     13.6081   -193.6709     11.1549    125.6838
  1604.2500     13.8851   -193.7237     11.2502    125.0976
  1604.5000     14.0935   -193.7570     11.3879    124.0647
  1604.7500     14.0343   -193.7223     11.5588    123.2645
  1605.0000     13.7412   -193.5777     11.7458    122.8449
  1605.2500     13.4390   -193.3046     11.9289    123.7061
  1605.5000     13.2725   -192.9135     12.0917    126.8670
  1605.7500     13.2008   -192.4474     12.2240    129.7192
  1606.0000     13.1332   -191.9780     12.3219    133.8270
  1606.2500     13.0877   -191.5809     12.3863    135.7576
  1606.5000     13.1319   -191.3002     12.4230    136.7126
  1606.7500     13.2605   -191.1306     12.4435    136.0575
  1607.0000     13.4500   -191.0321     12.4608    133.7959
  1607.2500     13.7196   -190.9618     12.4828    131.9724
  1607.5000     14.0403   -190.8972     12.5085    129.7063
  1607.7500     14.2954   -190.8375     12.5314    128.9889
  1608.0000     14.3968   -190.7943     12.5452    129.4883
  1608.2500     14.3765   -190.7848     12.5484    130.8761
  1608.5000     14.3185   -190.8301     12.5436    134.5921
  1608.7500     14.2534   -190.9521     12.5332    138.1166
  1609.0000     14.1773   -191.1652     12.5163    144.0755
  1609.2500     14.0990   -191.4682     12.4892    147.6414
  1609.5000     14.0147   -191.8395     12.4490    151.4924
  1609.7500     13.9178   -192.2410     12.3982    153.1163
  1610.0000     13.8366   -192.6292     12.3473    154.5399
  1610.2500     13.7715   -192.9708     12.3130    154.9159
  1610.5000     13.6714   -193.2547     12.3146    154.7435
  1610.7500     13.5280   -193.4944     12.3683    154.3210
  1611.0000     13.3835   -193.7206     12.4824    153.5182
  1611.2500     13.2461   -193.9689     12.6553    152.8941
  1611.5000     13.1126   -194.2697     12.8775    151.7798
  1611.7500     13.0556   -194.6454     13.1379    150.9290
  1612.0000     13.1921   -195.1120     13.4281    149.5170
  1612.2500     13.5536   -195.6743     13.7412    148.5507
  1612.5000     14.0615   -196.3172     14.0670    147.4350
  1612.7500     14.6503   -197.0083     14.3920    147.1917
  1613.0000     15.3265   -197.7160     14.7072    147.7719
  1613.2500     16.1092   -198.4285     15.0228    148.4724
  1613.5000     16.9994   -199.1550     15.3744    148.4956
  1613.7500     17.9773   -199.9089     15.8153    146.8573
  1614.0000     18.9773   -200.6941     16.3981    141.7539
  1614.2500     19.9195   -201.5020     17.1539    137.7479
  1614.5000     20.7542   -202.3128     18.0785    133.7302
  1614.7500     21.4621   -203.0880     19.1251    133.4867
  1615.0000     22.0707   -203.7646     20.2077    136.4018
  1615.2500     22.6439   -204.2753     21.2135    139.0003
  1615.5000     23.2125   -204.5882     22.0225    140.3365
  1615.7500     23.7509   -204.7310     22.5345    138.1317
  1616.0000     24.2261   -204.7702     22.7019    130.6765
  1616.2500     24.6344   -204.7640     22.5534    124.6798
  1616.5000     24.9767   -204.7354     22.1896    117.3430
  1616.7500     25.2236   -204.6838     21.7432    114.5212
  1617.0000     25.3424   -204.6029     21.3304    113.5183
  1617.2500     25.3587   -204.4766     21.0195    114.7858
  1617.5000     25.3441   -204.2614     20.8262    119.1658
  1617.7500     25.3410   -203.8879     20.7282    123.1927
  1618.0000     25.3221   -203.2924     20.6859    129.3640
  1618.2500     25.1808   -202.4587     20.6648    132.7413
  1618.5000     24.8033   -201.4438     20.6513    135.8132
  1618.7500     24.2372   -200.3649     20.6586    136.0453
  1619.0000     23.7190   -199.3527     20.7240    132.7066
  1619.2500     23.4846   -198.4980     20.8914    127.7979
  1619.5000     23.6551   -197.8258     21.1875    117.0424
  1619.7500     24.3039   -197.3103     21.6030    108.2411
  1620.0000     25.5572   -196.9081     22.0989     93.4395
  1620.2500     27.6620   -196.5836     22.6433     82.8910
  1620.5000     30.9293   -196.3162     23.2526     66.8217
  1620.7500     35.5758   -196.0929     24.0047     56.5188
  1621.0000     41.5666   -195.8977     25.0128     42.8318
  1621.2500     48.4164   -195.7059     26.3820     35.4979
  1621.5000     55.1845   -195.4907     28.1770     27.6753
  1621.7500     60.8935   -195.2441     30.4069     24.5013
  1622.0000     64.9218   -194.9921     33.0200     22.5001
  1622.2500     67.0293   -194.7843     35.8874     22.9483
  1622.5000     67.3521   -194.6599     38.7665     26.3822
  1622.7500     66.4189   -194.6173     41.2869     30.5666
  1623.0000     64.9002   -194.6159     43.0442     39.6762
  1623.2500     63.2766   -194.6092     43.7912     47.5113
  1623.5000     61.7491   -194.5793     43.5409     61.1844
  1623.7500     60.2519   -194.5415     42.4678     70.6464
  1624.0000     58.4562   -194.5207     40.7499     82.8465
  1624.2500     56.0467   -194.5247     38.5381     88.0796
  1624.5000     53.0974   -194.5425     36.0281     90.1989
  1624.7500     50.0222   -194.5616     33.4853     88.4543
  1625.0000     47.1682   -194.5782     31.1645     84.5931
  1625.2500     44.5273   -194.5936     29.2073     83.5118
  1625.5000     41.7950   -194.6076     27.6079     86.1783
  1625.7500     38.7115   -194.6203     26.2571     90.4577
  1626.0000     35.3850   -194.6305     25.0276     98.6080
  1626.2500     32.2381   -194.6230     23.8419    104.0514
  1626.5000     29.6180   -194.5590     22.6881    110.8471
  1626.7500     27.5353   -194.3943     21.5907    113.9245
