~Version Information
VERS.                      2.0: CWLS Log ASCII Standard - VERSION 2.0
WRAP.                       NO: One line per depth step
~Well Information Block
STRT.FT               197.7500: 
STOP.FT              1631.0000: 
STEP.FT                 0.2500: 
NULL.                -999.2500: 
COMP.          Petrogulf Corporation: COMPANY
WELL.             State 16-44R: WELL
FLD.           Purgatoire River: FIELD
LOC.           632' FSL & 223' FEL--: LOCATION
PROV.                 Colorado: PROVINCE
CNTY.               Las Animas: COUNTRY
SRVC.                Patterson: SERVICE COMPANY
DATE.          Fri Oct 21 11:31:17 2005: LOG DATE
UWI.           05 071 08457 00: UNIQUE WELL ID
~Curve Information Block
DEPT.FT            0 000 00 00: Depth
SP.mV                         : DIL Spontaneous Potential
RILD.Ohm-m                    : DIL Deep Resistivity
RILM.Ohm-m                    : DIL Medium Resistivity
RLL3.Ohm-m                    : DIL Shallow Resistivity
GR.GAPI                       : Gamma Ray
~Parameter Information Block
~A  Depth        SP         RILD        RILM        RLL3         GR     
# ...
  1513.7500    129.9540     10.4550     13.3912     27.4832     79.0876
  1514.0000    129.8746     10.5490     13.7837     30.0338     79.4337
  1514.2500    129.7733     10.6038     13.9284     30.3663     82.9369
  1514.5000    129.6442     10.6250     13.8205     28.3944     91.3949
  1514.7500    129.4857     10.6173     13.5044     24.7638     98.0327
  1515.0000    129.3558     10.5842     13.0489     20.5594    107.7361
  1515.2500    129.4271     10.5281     12.5221     16.8070    113.3833
  1515.5000    129.9593     10.4516     11.9771     14.0567    120.4215
  1515.7500    131.1409     10.3586     11.4526     12.3073    124.5063
  1516.0000    132.8758     10.2529     10.9772     11.2321    130.4727
  1516.2500    134.7056     10.1384     10.5744     10.4844    134.3378
  1516.5000    136.0161     10.0196     10.2632      9.8997    138.6525
  1516.7500    136.4095      9.9046     10.0564      9.5402    139.3958
  1517.0000    135.9163      9.8065      9.9583      9.6087    136.4127
  1517.2500    134.8864      9.7410      9.9639     10.3029    132.4368
  1517.5000    133.7212      9.7234     10.0599     11.6614    126.3071
  1517.7500    132.6895      9.7650     10.2280     13.4303    123.6106
  1518.0000    131.8976      9.8723     10.4514     15.0523    122.5953
  1518.2500    131.3461     10.0475     10.7220     15.9244    123.5662
  1518.5000    130.9915     10.2894     11.0456     15.8494    126.0548
  1518.7500    130.7830     10.5934     11.4428     15.3004    127.3833
  1519.0000    130.6749     10.9511     11.9424     15.2161    126.9083
  1519.2500    130.6262     11.3501     12.5707     16.4783    123.8133
  1519.5000    130.6002     11.7749     13.3375     19.4110    114.1880
  1519.7500    130.5734     12.2085     14.2243     23.5252    105.3010
  1520.0000    130.5416     12.6356     15.1780     27.6470     91.7708
  1520.2500    130.5095     13.0457     16.1186     30.4702     84.7493
  1520.5000    130.4746     13.4361     16.9651     31.2681     78.9740
  1520.7500    130.4264     13.8114     17.6666     30.2565     78.0699
  1521.0000    130.3608     14.1798     18.2174     28.3392     79.7248
  1521.2500    130.2876     14.5461     18.6454     26.4932     81.9661
  1521.5000    130.2231     14.9066     18.9842     25.2580     85.7822
  1521.7500    130.1771     15.2485     19.2530     24.5859     88.0325
  1522.0000    130.1486     15.5556     19.4541     24.0621     90.1431
  1522.2500    130.1265     15.8171     19.5862     23.3323     90.3336
  1522.5000    130.0878     16.0328     19.6593     22.4220     88.4072
  1522.7500    129.9989     16.2120     19.7002     21.6931     85.6065
  1523.0000    129.8324     16.3664     19.7459     21.5154     79.3915
  1523.2500    129.5875     16.5050     19.8310     21.9713     74.3102
  1523.5000    129.2870     16.6325     19.9763     22.8162     66.4741
  1523.7500    128.9502     16.7524     20.1834     23.6751     61.9004
  1524.0000    128.5757     16.8706     20.4391     24.3062     56.8868
  1524.2500    128.1536     16.9962     20.7287     24.7376     54.7986
  1524.5000    127.6887     17.1392     21.0473     25.1851     53.0030
  1524.7500    127.2097     17.3053     21.4021     25.8374     52.3198
  1525.0000    126.7602     17.4916     21.8036     26.7116     51.6641
  1525.2500    126.3825     17.6864     22.2522     27.6951     51.4766
  1525.5000    126.1034     17.8724     22.7315     28.6604     52.0547
  1525.7500    125.9280     18.0296     23.2116     29.4958     53.4652
  1526.0000    125.8453     18.1359     23.6610     30.0864     57.6015
  1526.2500    125.8399     18.1678     24.0549     30.3712     61.5779
  1526.5000    125.9070     18.1039     24.3701     30.4493     68.5636
  1526.7500    126.0644     17.9304     24.5674     30.5698     73.3203
  1527.0000    126.3491     17.6445     24.5791     30.9456     79.8191
  1527.2500    126.7941     17.2531     24.3215     31.5504     83.5489
  1527.5000    127.4073     16.7694     23.7330     32.1183     88.4015
  1527.7500    128.1687     16.2110     22.8157     32.3052     91.3545
  1528.0000    129.0396     15.5999     21.6452     31.7588     95.7998
  1528.2500    129.9675     14.9627     20.3403     30.1087     99.1526
  1528.5000    130.8902     14.3265     19.0148     27.1885    105.5047
  1528.7500    131.7475     13.7141     17.7442     23.4059    110.8151
  1529.0000    132.4994     13.1385     16.5612     19.6776    119.9391
  1529.2500    133.1361     12.6036     15.4700     16.7947    126.1881
  1529.5000    133.6702     12.1066     14.4664     14.8872    134.6759
  1529.7500    134.1191     11.6419     13.5510     13.5394    139.1732
  1530.0000    134.4958     11.2048     12.7325     12.3208    143.6675
  1530.2500    134.8207     10.7933     12.0215     11.1430    145.3902
  1530.5000    135.1517     10.4088     11.4226     10.1984    147.1174
  1530.7500    135.6104     10.0546     10.9294      9.6844    148.0662
  1531.0000    136.3423      9.7334     10.5255      9.6061    148.7552
  1531.2500    137.3899      9.4459     10.1905      9.7723    148.3789
  1531.5000    138.5834      9.1906      9.9054      9.9244    146.8739
  1531.7500    139.6028      8.9657      9.6579      9.8907    145.7301
  1532.0000    140.1930      8.7704      9.4429      9.6657    143.9951
  1532.2500    140.3284      8.6047      9.2603      9.3648    142.5152
  1532.5000    140.1835      8.4681      9.1117      9.1067    139.6857
  1532.7500    139.9747      8.3577      8.9966      8.9412    137.9174
  1533.0000    139.8302      8.2677      8.9112      8.8648    136.4553
  1533.2500    139.7679      8.1908      8.8485      8.8609    136.1593
  1533.5000    139.7488      8.1208      8.8004      8.9060    135.2855
  1533.7500    139.7318      8.0541      8.7585      8.9605    133.6741
  1534.0000    139.6914      7.9899      8.7168      8.9848    129.9873
  1534.2500    139.6159      7.9291      8.6718      8.9647    127.6000
  1534.5000    139.5061      7.8723      8.6230      8.9119    125.6410
  1534.7500    139.3694      7.8192      8.5718      8.8432    125.7215
  1535.0000    139.2047      7.7676      8.5203      8.7670    127.4402
  1535.2500    138.9977      7.7146      8.4702      8.6847    129.0945
  1535.5000    138.7359      7.6572      8.4234      8.5989    131.7125
  1535.7500    138.4222      7.5934      8.3815      8.5184    133.6520
  1536.0000    138.0721      7.5221      8.3444      8.4591    137.3029
  1536.2500    137.7045      7.4419      8.3092      8.4380    139.9863
  1536.5000    137.3367      7.3510      8.2682      8.4633    142.9122
  1536.7500    136.9814      7.2488      8.2100      8.5248    143.4405
  1537.0000    136.6404      7.1364      8.1226      8.5879    142.4735
  1537.2500    136.3035      7.0177      7.9986      8.6011    141.5228
  1537.5000    135.9552      6.8988      7.8389      8.5176    140.8368
  1537.7500    135.5857      6.7871      7.6530      8.3187    141.0062
  1538.0000    135.1984      6.6888      7.4554      8.0234    141.8620
  1538.2500    134.8074      6.6075      7.2614      7.6777    142.7919
  1538.5000    134.4241      6.5430      7.0837      7.3366    145.2025
  1538.7500    134.0461      6.4929      6.9311      7.0489    147.6912
  1539.0000    133.6612      6.4549      6.8093      6.8465    152.1882
  1539.2500    133.2624      6.4276      6.7222      6.7348    154.9845
  1539.5000    132.8542      6.4104      6.6728      6.6943    158.0680
  1539.7500    132.4454      6.4018      6.6637      6.7022    159.4605
  1540.0000    132.0418      6.3993      6.6967      6.7649    160.9272
  1540.2500    131.6511      6.4002      6.7708      6.9397    161.2122
  1540.5000    131.2945      6.4041      6.8800      7.3224    159.3345
  1540.7500    131.0056      6.4135      7.0122      7.9833    156.2379
  1541.0000    130.8143      6.4319      7.1497      8.8627    150.3536
  1541.2500    130.7279      6.4621      7.2742      9.7137    147.2430
  1541.5000    130.7251      6.5048      7.3731     10.2112    145.5615
