~Version Information
VERS.                      2.0: CWLS Log ASCII Standard - VERSION 2.0
WRAP.                       NO: One line per depth step
~Well Information Block
STRT.FT                 0.0000: 
STOP.FT              2072.7500: 
STEP.FT                 0.2500: 
NULL.                -999.2500: 
COMP.          Pioneer Natural Resources: COMPANY
WELL.          Greenwood 43-29 Tr: WELL
FLD.           Purgatorie River: FIELD
LOC.           1478' FSL & 744' FEL: LOCATION
STAT.                 Colorado: State
CNTY.               Las Animas: COUNTY
CTRY. USA : Country
SECT. 29 : Section
TOWN. 32S : Township
RANG. 67W : Range
SRVC.                Patterson: SERVICE COMPANY
DATE.          Tue Sep 06 12:54:40 2005: LOG DATE
API. 05-071-08478                          : UNIQUE WELL ID
~Curve Information Block
DEPT.FT            0 000 00 00: Depth
GR.GAPI                       : Gamma Ray
CCL.                          : Casing Collar Locator
TT3.usec                      : CBL 3' Travel Time
AMP3.mV                       : CBL 3' Amplitude
~Parameter Information Block
~A  Depth        GR         CCL         TT3         AMP3    
# ...
  1775.5000    127.8379      0.0000    769.5026      5.8285
  1775.7500    127.5794      0.0000    773.0483      5.7714
  1776.0000    126.6328      0.0000    774.5941      5.6965
  1776.2500    125.7264      0.0000    775.0905      5.6100
  1776.5000    124.8474      0.0000    775.2892      5.5331
  1776.7500    123.3568      0.0000    775.3553      5.4848
  1777.0000    120.9420      0.0000    775.0651      5.4635
  1777.2500    118.2476      0.0000    773.7185      5.4516
  1777.5000    116.5908      0.0000    770.2698      5.4355
  1777.7500    117.2340      0.0000    765.3091      5.4197
  1778.0000    120.5930      0.0000    762.3916      5.4237
  1778.2500    125.6044      0.0000    763.8351      5.4630
  1778.5000    129.9681      0.0000    766.4421      5.5322
  1778.7500    131.4088      0.0000    764.9417      5.6132
  1779.0000    128.7901      0.0000    758.1119      5.6956
  1779.2500    122.2724      0.0000    750.8374      5.7862
  1779.5000    112.9695      0.0000    749.2437      5.8907
  1779.7500    102.5619      0.0000    752.8235      5.9960
  1780.0000     92.6705      0.0000    756.3415      6.0810
  1780.2500     84.1617      0.0000    758.8231      6.1362
  1780.5000     77.0245      0.0000    762.8028      6.1686
  1780.7500     70.9625      0.0000    767.7181      6.1963
  1781.0000     66.0366      0.0000    770.9369      6.2358
  1781.2500     62.9185      0.0000    771.3026      6.2827
  1781.5000     62.8141      0.0000    768.7574      6.3038
  1781.7500     67.0854      0.0000    764.5727      6.2670
  1782.0000     76.3498      0.0000    762.4305      6.1836
  1782.2500     89.4334      0.0000    764.9015      6.0995
  1782.5000    103.1227      0.0000    770.1224      6.0428
  1782.7500    113.3147      0.0000    776.1650      6.0052
  1783.0000    117.1269      0.0000    785.0345      5.9703
  1783.2500    114.5796      0.0000    797.8590      5.9242
  1783.5000    108.5328      0.0000    809.7104      5.8546
  1783.7500    102.8677      0.0000    816.2595      5.7692
  1784.0000    100.2775      0.0000    820.6427      5.6982
  1784.2500    101.2541      0.0000    823.6629      5.6669
  1784.5000    104.7662      0.0000    818.2234      5.6728
  1784.7500    109.6645      0.0000    803.0960      5.6930
  1785.0000    115.2551      0.0000    787.7662      5.7123
  1785.2500    120.6493      0.0000    779.3776      5.7312
  1785.5000    124.2727      0.0000    776.7088      5.7562
  1785.7500    124.8397      0.0000    776.0378      5.7936
  1786.0000    122.7463      0.0000    775.5340      5.8337
  1786.2500    119.7244      0.0000    774.9864      5.8550
  1786.5000    116.9817      0.0000    774.5280      5.8585
  1786.7500    114.2200      0.0000    774.1165      5.8698
  1787.0000    110.4391      0.0000    773.6990      5.8966
  1787.2500    105.2286      0.0000    773.3555      5.9197
  1787.5000     99.5080      0.0000    773.1599      5.9254
  1787.7500     95.4277      0.0000    773.1350      5.9190
  1788.0000     95.3389      0.0000    773.3068      5.9115
  1788.2500    100.2693      0.0000    773.5980      5.9106
  1788.5000    108.9938      0.0000    773.8217      5.9186
  1788.7500    118.4350      0.0000    773.9451      5.9303
  1789.0000    125.2927      0.0000    774.1091      5.9384
  1789.2500    127.9915      0.0000    774.2719      5.9455
  1789.5000    127.3035      0.0000    774.0594      5.9588
  1789.7500    124.9993      0.0000    772.7538      5.9757
  1790.0000    122.3201      0.0000    769.2914      5.9905
  1790.2500    120.0896      0.0000    762.8191      6.0020
  1790.5000    119.3425      0.0000    751.6995      6.0089
  1790.7500    120.5791      0.0000    731.7941      5.9906
  1791.0000    122.7256      0.0000    707.4841      5.9074
  1791.2500    124.0768      0.0000    702.1876      5.8046
  1791.5000    124.3869      0.0000    729.5645      5.8654
  1791.7500    124.9926      0.0000    767.6044      6.1082
  1792.0000    126.6244      0.0000    789.0562      6.1589
  1792.2500    128.0016      0.0000    786.1002      5.7514
  1792.5000    127.1123      0.0000    757.7690      5.1671
  1792.7500    123.3616      0.0000    705.6789      4.7963
  1793.0000    118.1095      0.0000    640.9637      4.6920
  1793.2500    113.5139     -1.0000    585.3419      4.7179
  1793.5000    111.1295     -1.0000    561.9631      4.7721
  1793.7500    111.1897      0.0000    572.4738      4.8241
  1794.0000    112.7449      0.0000    591.7057      4.9420
  1794.2500    114.4122      0.0000    606.3950      5.2998
  1794.5000    115.1723      0.0000    634.6944      5.9098
  1794.7500    114.8987      0.0000    678.2408      6.3734
  1795.0000    114.5358      0.0000    700.7083      6.4068
  1795.2500    115.5478      0.0000    683.6075      6.3331
  1795.5000    118.4952      0.0000    655.8715      6.4660
  1795.7500    122.0066      0.0000    650.3619      6.6601
  1796.0000    123.7814      0.0000    671.7412      6.7248
  1796.2500    122.8280      0.0000    708.8701      6.6793
  1796.5000    120.1692      0.0000    744.7557      6.6145
  1796.7500    117.3723      0.0000    766.5457      6.5885
  1797.0000    115.3851      0.0000    776.0817      6.5855
  1797.2500    115.0093      0.0000    782.6481      6.5034
  1797.5000    117.3353      0.0000    791.9554      6.3039
  1797.7500    122.9869      0.0000    802.7576      6.1475
  1798.0000    131.3939      0.0000    810.5310      6.1877
  1798.2500    140.9783      0.0000    815.5124      6.3487
  1798.5000    149.4570      0.0000    823.7467      6.4718
  1798.7500    153.9757      0.0000    837.0569      6.5056
  1799.0000    152.1375      0.0000    848.0483      6.4641
  1799.2500    143.9685      0.0000    849.3180      6.3661
  1799.5000    132.6105      0.0000    842.9095      6.2503
  1799.7500    122.2288      0.0000    838.7056      6.1607
  1800.0000    115.0730      0.0000    842.8583      6.1090
  1800.2500    110.8063      0.0000    850.3926      6.0833
  1800.5000    108.2468      0.0000    853.4026      6.0724
  1800.7500    106.9231      0.0000    850.8983      6.0603
  1801.0000    106.9938      0.0000    847.4957      6.0139
  1801.2500    108.5744      0.0000    845.8246      5.9043
  1801.5000    111.4657      0.0000    843.7590      5.7416
  1801.7500    114.9972      0.0000    839.4774      5.5717
  1802.0000    117.9740      0.0000    833.4107      5.4413
  1802.2500    119.3246      0.0000    826.3528      5.3823
  1802.5000    119.0304      0.0000    819.9611      5.4070
  1802.7500    118.0944      0.0000    815.1460      5.4904
  1803.0000    117.3913      0.0000    809.6940      5.5827
  1803.2500    116.6381      0.0000    800.9191      5.6584
  1803.5000    114.7689      0.0000    789.9846      5.7331
  1803.7500    111.5076      0.0000    781.2073      5.8292
  1804.0000    108.1712      0.0000    777.5308      5.9379
  1804.2500    106.4243      0.0000    778.9902      6.0234
  1804.5000    106.5420      0.0000    783.4671      6.0592
  1804.7500    107.3678      0.0000    787.2709      6.0518
  1805.0000    107.5915      0.0000    788.5383      6.0212
  1805.2500    106.5660      0.0000    788.4973      5.9812
  1805.5000    104.5157      0.0000    786.3082      5.9441
  1805.7500    102.8815      0.0000    779.1058      5.9172
  1806.0000    103.9916      0.0000    768.7319      5.8981
  1806.2500    109.1247      0.0000    761.2338      5.8853
  1806.5000    116.6505      0.0000    758.9733      5.8765
  1806.7500    122.8487      0.0000    759.0463      5.8554
  1807.0000    124.7774      0.0000    760.2409      5.8077
  1807.2500    122.0309      0.0000    764.1724      5.7426
  1807.5000    116.0779      0.0000    770.2612      5.6864
  1807.7500    108.7637      0.0000    776.6109      5.6628
  1808.0000    101.6352      0.0000    782.4826      5.6742
  1808.2500     95.9808      0.0000    787.3798      5.6997
  1808.5000     92.8588      0.0000    792.4136      5.7174
  1808.7500     93.0413      0.0000    798.2228      5.7311
