~Version Information
VERS.                      2.0: CWLS Log ASCII Standard - VERSION 2.0
WRAP.                       NO: One line per depth step
~Well Information Block
STRT.FT               845.0000: 
STOP.FT              2102.0000: 
STEP.FT                 0.1000: 
NULL.                -999.2500: 
COMP.          Petrogulf Corporation: COMPANY
WELL.               YWAM 7-32R: WELL
FLD.           Purgatorie River: FIELD
LOC.           2355' FNL & 2376' FEL: LOCATION
PROV.                 Colorado: PROVINCE
CNTY.               Las Animas: COUNTRY
SRVC.                Patterson: SERVICE COMPANY
DATE.          Fri Sep 30 11:07:31 2005: LOG DATE
UWI.                          : UNIQUE WELL ID
~Curve Information Block
DEPT.FT            0 000 00 00: Depth
DCAL.in                       : CDL Caliper
RHOB.g/cc                     : CDL Bulk Density
RHOC.g/cc                     : CDL Density Correction
DPOR.pu                       : CDL Density Porosity
GR.GAPI                       : Gamma Ray
NPOR.pu                       : Neutron Porosity
~Parameter Information Block
~A  Depth       DCAL        RHOB        RHOC        DPOR         GR         NPOR    
# ...
  1421.0000      8.6846      2.6074      0.2509      2.5790    150.2861     30.2676
  1421.1000      8.6846      2.6171      0.2102      1.9916    154.6139     29.5816
  1421.2000      8.6846      2.6258      0.1652      1.4638    157.1871     29.0515
  1421.3000      8.6428      2.6432      0.1865      0.4151    154.6084     28.9856
  1421.4000      8.6428      2.6657      0.1960     -0.9504    150.2699     29.3271
  1421.5000      8.3785      2.6774      0.1521     -1.6631    149.5031     29.7261
  1421.6000      8.3785      2.6745      0.1565     -1.4831    151.3622     29.8037
  1421.7000      8.3785      2.6704      0.0803     -1.2359    153.1572     29.5298
  1421.8000      8.3953      2.6739      0.0722     -1.4487    155.7689     29.3896
  1421.9000      8.3953      2.6775      0.0658     -1.6672    157.6122     29.5722
  1422.0000      8.3593      2.6694      0.0575     -1.1731    156.4301     29.7050
  1422.1000      8.3593      2.6385      0.0103      0.6972    154.4986     29.5696
  1422.2000      8.3593      2.5885     -0.0519      3.7284    153.2060     29.3596
  1422.3000      8.2871      2.5442     -0.0435      6.4137    151.3578     29.3327
  1422.4000      8.2871      2.5208      0.0521      7.8274    151.1867     29.6113
  1422.5000      8.3548      2.5073      0.0403      8.6471    156.4088     29.9286
  1422.6000      8.3548      2.4908      0.0510      9.6463    164.4763     29.9454
  1422.7000      8.3548      2.4671      0.0743     11.0876    170.6427     29.7832
  1422.8000      8.3129      2.4421      0.0312     12.6004    173.7376     29.6506
  1422.9000      8.3129      2.4332      0.0518     13.1378    173.3541     29.6864
  1423.0000      8.3305      2.4387      0.0932     12.8036    169.6042     29.9645
  1423.1000      8.3305      2.4357      0.1406     12.9888    166.8493     30.2635
  1423.2000      8.3305      2.4134      0.1236     14.3365    167.0336     30.2981
  1423.3000      8.4034      2.3813      0.1113     16.2855    167.7465     30.1108
  1423.4000      8.4034      2.3504      0.1089     18.1558    168.2331     29.9520
  1423.5000      8.3490      2.3165      0.1244     20.2100    169.7832     29.9575
  1423.6000      8.3490      2.2714      0.1094     22.9478    171.2766     30.1093
  1423.7000      8.3490      2.2397      0.0519     24.8665    170.3051     30.3120
  1423.8000      8.2518      2.2597      0.1644     23.6570    166.7080     30.2939
  1423.9000      8.2518      2.3239      0.3295     19.7637    164.5267     29.8721
  1424.0000      8.3437      2.4042      0.3509     14.8988    166.0631     29.4462
  1424.1000      8.3437      2.4942      0.4132      9.4421    165.7321     29.6383
  1424.2000      8.3437      2.5854      0.4339      3.9125    162.2921     30.3765
  1424.3000      8.6460      2.6563      0.4776     -0.3845    162.0142     30.9762
  1424.4000      8.6460      2.7021      0.4577     -3.1597    165.9200     31.0637
  1424.5000      8.6217      2.7416      0.4168     -5.5490    167.9036     30.8130
  1424.6000      8.6217      2.7713      0.4541     -7.3539    164.8606     30.5246
  1424.7000      8.6217      2.7576      0.4043     -6.5207    161.5753     30.3245
  1424.8000      8.4839      2.6980      0.2594     -2.9094    162.9774     30.2622
  1424.9000      8.4839      2.6283      0.2097      1.3168    165.6730     30.2838
  1425.0000      8.3528      2.5726      0.1324      4.6935    163.6179     30.1794
  1425.1000      8.3528      2.5376      0.0881      6.8102    157.4598     29.7515
  1425.2000      8.3528      2.5215      0.1285      7.7896    152.0437     29.0752
  1425.3000      8.2244      2.5131      0.0880      8.2944    149.3820     28.4133
  1425.4000      8.2244      2.5094      0.0720      8.5228    149.5174     28.0168
  1425.5000      8.1618      2.5162      0.0942      8.1070    151.6962     27.9394
  1425.6000      8.1618      2.5288      0.1519      7.3469    153.4977     28.0215
  1425.7000      8.1618      2.5384      0.1136      6.7640    152.6428     28.1183
  1425.8000      8.1420      2.5515      0.1235      5.9716    150.2252     28.3237
  1425.9000      8.1420      2.5673      0.1721      5.0112    150.1701     28.7283
  1426.0000      8.1267      2.5673      0.1598      5.0143    152.1439     29.0331
  1426.1000      8.1267      2.5486      0.1009      6.1430    152.6611     29.0397
  1426.2000      8.1267      2.5342      0.0921      7.0209    152.1340     28.8366
  1426.3000      8.1108      2.5362      0.1106      6.8956    152.4883     28.5851
  1426.4000      8.1108      2.5452      0.0956      6.3545    152.6351     28.5168
  1426.5000      8.0992      2.5564      0.0645      5.6742    152.1400     28.6319
  1426.6000      8.0992      2.5777      0.0923      4.3797    153.5306     28.7350
  1426.7000      8.0992      2.6045      0.1363      2.7568    155.8890     28.7247
  1426.8000      8.0855      2.6230      0.1244      1.6356    152.7350     28.7687
  1426.9000      8.0855      2.6301      0.1737      1.2057    143.8549     28.9564
  1427.0000      8.0894      2.6295      0.1486      1.2407    137.0192     29.0328
  1427.1000      8.0894      2.6320      0.1395      1.0897    137.4337     28.8613
  1427.2000      8.0894      2.6476      0.1004      0.1476    144.0845     28.6340
  1427.3000      8.1016      2.6679      0.1577     -1.0835    151.3562     28.6353
  1427.4000      8.1016      2.6773      0.1076     -1.6556    154.8063     28.7864
  1427.5000      8.0911      2.6785      0.0772     -1.7247    153.6590     28.8232
  1427.6000      8.0911      2.6796      0.0954     -1.7924    148.8212     28.7947
  1427.7000      8.0911      2.6741      0.0757     -1.4607    142.4246     28.8017
  1427.8000      8.0856      2.6492      0.0769      0.0476    137.6978     28.7094
  1427.9000      8.0856      2.6077     -0.0068      2.5650    136.3363     28.5340
  1428.0000      8.0742      2.5745     -0.0466      4.5785    136.2225     28.2569
  1428.1000      8.0742      2.5666      0.0050      5.0574    133.7858     27.8106
  1428.2000      8.0742      2.5692      0.0417      4.8990    127.2082     27.3065
  1428.3000      8.0583      2.5595     -0.0031      5.4861    119.6604     26.7370
  1428.4000      8.0583      2.5450     -0.0556      6.3639    117.0090     26.2134
  1428.5000      8.0479      2.5515     -0.0401      5.9693    118.2908     26.0854
  1428.6000      8.0479      2.5772      0.0386      4.4142    118.3255     26.3915
  1428.7000      8.0479      2.5989      0.0250      3.0971    118.1663     26.5831
  1428.8000      8.0583      2.6063      0.0521      2.6470    121.6265     26.1991
  1428.9000      8.0583      2.5962      0.0490      3.2619    126.2543     25.5946
  1429.0000      8.0406      2.5689      0.0412      4.9151    126.0427     25.2628
  1429.1000      8.0406      2.5431     -0.0165      6.4800    121.9934     25.2395
  1429.2000      8.0406      2.5420     -0.0128      6.5456    120.5154     25.3609
  1429.3000      8.0403      2.5635      0.0209      5.2421    123.7677     25.4924
  1429.4000      8.0403      2.5906      0.0310      3.5992    127.9858     25.6270
  1429.5000      8.0484      2.6166      0.0409      2.0219    128.9437     25.9046
  1429.6000      8.0484      2.6376      0.0589      0.7539    128.4873     26.3120
  1429.7000      8.0484      2.6430      0.0934      0.4214    129.9951     26.6296
  1429.8000      8.0461      2.6321      0.0562      1.0871    132.0453     26.6967
  1429.9000      8.0461      2.6165      0.0678      2.0288    134.1174     26.5520
  1430.0000      8.0237      2.6021      0.0363      2.9026    137.2289     26.4659
  1430.1000      8.0237      2.5897     -0.0017      3.6545    141.2421     26.5549
  1430.2000      8.0237      2.5813      0.0660      4.1619    146.3223     26.6950
  1430.3000      8.0401      2.5791      0.0384      4.2962    150.1977     26.6613
  1430.4000      8.0401      2.5841      0.0545      3.9970    147.6764     26.3717
  1430.5000      8.0423      2.5880      0.0842      3.7563    141.3581     25.9662
