~Version Information
VERS.                      2.0: CWLS Log ASCII Standard - VERSION 2.0
WRAP.                       NO: One line per depth step
~Well Information Block
STRT.FT               245.0000: 
STOP.FT              1273.7000: 
STEP.FT                 0.1000: 
NULL.                -999.2500: 
COMP.          Pioneer Natural Resources: COMPANY
WELL.                 Ray 34-6: WELL
FLD.           Purgatoire River: FIELD
LOC.           684' FSL & 2254' FEL--: LOCATION
CNTY.               Las Animas: COUNTY
SRVC.                Patterson: SERVICE COMPANY
DATE.          Fri May 26 09:17:30 2006: LOG DATE
UWI.           05 071 08695 00: UNIQUE WELL ID
STAT.                 Colorado: STATE
~Curve Information Block
DEPT.FT            0 000 00 00: Depth
DCAL.in                       : CDL Caliper
RHOB.g/cc                     : CDL Bulk Density
RHOC.g/cc                     : CDL Density Correction
DPOR.pu                       : CDL Density Porosity
NPOR.pu                       : Neutron Porosity
GR.GAPI                       : Gamma Ray
~Parameter Information Block
~A  Depth       DCAL        RHOB        RHOC        DPOR        NPOR         GR     
# ...
   513.8000      8.0623      2.5281      0.1028      7.3860     27.3748    158.7070
   513.9000      8.0623      2.5433      0.1281      6.4681     27.5600    166.3237
   514.0000      8.0571      2.5535      0.1623      5.8506     27.4306    168.2936
   514.1000      8.0571      2.5523      0.1522      5.9206     27.2155    166.1202
   514.2000      8.0571      2.5384      0.1418      6.7638     27.1520    164.8665
   514.3000      8.0572      2.5176      0.0786      8.0233     27.1154    165.4616
   514.4000      8.0572      2.4988      0.0786      9.1660     26.9875    165.2418
   514.5000      8.0631      2.4890      0.0105      9.7558     26.7913    163.8424
   514.6000      8.0631      2.4976      0.0300      9.2390     26.5983    162.2717
   514.7000      8.0631      2.5236      0.0667      7.6577     26.5366    159.1618
   514.8000      8.0713      2.5508      0.0810      6.0151     26.5049    153.8017
   514.9000      8.0713      2.5696      0.0586      4.8726     26.1708    147.7995
   515.0000      8.0758      2.5879      0.0367      3.7656     25.5636    145.3494
   515.1000      8.0758      2.6053      0.0900      2.7106     25.1143    146.7812
   515.2000      8.0758      2.6087      0.1281      2.5016     25.0636    148.9363
   515.3000      8.0770      2.5962      0.0882      3.2583     25.1770    154.0188
   515.4000      8.0770      2.5722      0.0872      4.7144     25.3383    161.0904
   515.5000      8.0810      2.5401      0.0410      6.6593     25.6490    163.9001
   515.6000      8.0810      2.5147      0.0296      8.1990     25.8292    160.8035
   515.7000      8.0810      2.5081      0.0206      8.5983     25.6025    154.5645
   515.8000      8.0829      2.5118      0.0608      8.3728     25.2523    150.2631
   515.9000      8.0829      2.5125      0.0478      8.3317     25.1273    149.1486
   516.0000      8.0811      2.5068      0.0403      8.6781     25.0519    147.3321
   516.1000      8.0811      2.4887      0.0552      9.7749     24.7314    146.5435
   516.2000      8.0811      2.4637     -0.0453     11.2894     24.3451    150.7399
   516.3000      8.0807      2.4556     -0.0346     11.7845     24.3501    155.6513
   516.4000      8.0807      2.4683      0.0077     11.0127     24.5787    155.6906
   516.5000      8.0790      2.4837      0.0159     10.0782     24.3729    150.9402
   516.6000      8.0790      2.4889      0.0202      9.7613     23.8655    144.6094
   516.7000      8.0790      2.4905     -0.0181      9.6668     23.8275    141.7015
   516.8000      8.0716      2.4945      0.0392      9.4263     24.3318    142.8968
   516.9000      8.0716      2.4908      0.0387      9.6460     24.7723    146.1105
   517.0000      8.0572      2.4839      0.0379     10.0676     24.8522    148.8402
   517.1000      8.0572      2.4848      0.0881     10.0097     24.9370    146.6872
   517.2000      8.0572      2.4883      0.0689      9.7987     25.2573    138.5624
   517.3000      8.0437      2.4901      0.0869      9.6919     25.4485    130.2964
   517.4000      8.0437      2.4915      0.0833      9.6086     25.1618    130.4590
   517.5000      8.0384      2.4905      0.0402      9.6652     24.5244    140.9115
   517.6000      8.0384      2.4812      0.0989     10.2332     23.8315    153.4111
   517.7000      8.0384      2.4637      0.0333     11.2913     23.1144    157.8310
   517.8000      8.0387      2.4580      0.0556     11.6380     22.4227    153.9718
   517.9000      8.0387      2.4764      0.0850     10.5228     21.9824    149.2646
   518.0000      8.0381      2.5011      0.1348      9.0216     21.7410    147.6115
   518.1000      8.0381      2.5114      0.1331      8.3982     21.3616    147.0019
   518.2000      8.0381      2.5175      0.1002      8.0281     20.9147    146.0640
   518.3000      8.0351      2.5382      0.1273      6.7777     20.7709    143.5407
   518.4000      8.0351      2.5603      0.1833      5.4341     20.9134    138.0962
   518.5000      8.0325      2.5626      0.1089      5.2972     21.1654    132.7528
   518.6000      8.0325      2.5482      0.1046      6.1727     21.6659    128.8642
   518.7000      8.0325      2.5317      0.0750      7.1697     22.5006    123.2876
   518.8000      8.0308      2.5275      0.0710      7.4261     23.4614    116.9328
   518.9000      8.0308      2.5466      0.0430      6.2678     24.3092    112.9243
   519.0000      8.0291      2.5892      0.1020      3.6839     24.9747    110.6521
   519.1000      8.0291      2.6368      0.1101      0.8021     25.6393    108.6855
   519.2000      8.0291      2.6646      0.1206     -0.8823     26.6218    109.4369
   519.3000      8.0271      2.6592      0.1420     -0.5549     27.9020    111.4489
   519.4000      8.0271      2.6251      0.0851      1.5102     28.9358    108.4419
   519.5000      8.0251      2.5859      0.0204      3.8858     29.2672    104.7432
   519.6000      8.0251      2.5644      0.0307      5.1907     29.1201    107.7251
   519.7000      8.0251      2.5648      0.0268      5.1611     29.3328    111.3090
   519.8000      8.0240      2.5796      0.0215      4.2665     30.0924    110.3484
   519.9000      8.0240      2.5986     -0.0153      3.1131     30.3796    110.3975
   520.0000      8.0258      2.6074      0.0367      2.5801     29.5539    115.8161
   520.1000      8.0258      2.5939      0.0106      3.4019     28.4311    123.7296
   520.2000      8.0258      2.5677      0.0187      4.9883     27.8724    128.8506
   520.3000      8.0291      2.5470      0.0122      6.2407     27.7565    130.6896
   520.4000      8.0291      2.5409      0.0257      6.6101     27.7329    132.1272
   520.5000      8.0337      2.5479      0.0433      6.1885     27.7196    134.3824
   520.6000      8.0337      2.5554      0.0680      5.7314     27.5888    137.7458
   520.7000      8.0337      2.5547      0.0814      5.7755     27.1556    141.5446
   520.8000      8.0378      2.5526      0.0250      5.9024     26.5789    144.1936
   520.9000      8.0378      2.5562      0.0584      5.6847     26.1848    141.9861
   521.0000      8.0390      2.5621      0.0324      5.3248     26.0143    132.9151
   521.1000      8.0390      2.5677      0.0697      4.9863     26.0280    122.0904
   521.2000      8.0390      2.5719      0.0146      4.7347     26.2410    117.5013
   521.3000      8.0372      2.5816      0.0188      4.1476     26.5627    120.0857
   521.4000      8.0372      2.6070      0.0322      2.6063     26.7570    121.9251
   521.5000      8.0339      2.6320      0.1390      1.0924     26.7940    117.5216
   521.6000      8.0339      2.6256      0.1066      1.4809     26.9953    110.9454
   521.7000      8.0339      2.5970      0.0093      3.2103     27.5843    109.6262
   521.8000      8.0323      2.5808      0.0199      4.1930     28.3073    113.1230
   521.9000      8.0323      2.5853      0.0255      3.9197     28.6463    117.3616
   522.0000      8.0342      2.5956      0.0516      3.2943     28.4998    121.6047
   522.1000      8.0342      2.5980      0.0388      3.1500     28.4002    124.0722
   522.2000      8.0342      2.5912      0.0166      3.5640     28.4755    123.3029
   522.3000      8.0368      2.5836      0.0048      4.0235     28.1975    120.7796
   522.4000      8.0368      2.5766      0.0367      4.4475     27.7395    118.8688
   522.5000      8.0368      2.5655     -0.0068      5.1241     27.6389    121.6072
   522.6000      8.0368      2.5531      0.0586      5.8744     27.5907    127.6565
   522.7000      8.0368      2.5401      0.0193      6.6627     27.3839    129.9969
   522.8000      8.0358      2.5273     -0.0056      7.4364     27.4304    128.7730
   522.9000      8.0358      2.5218     -0.0145      7.7723     27.7490    128.0646
   523.0000      8.0371      2.5209      0.0402      7.8222     27.8510    130.0057
   523.1000      8.0371      2.5192     -0.0051      7.9296     27.7193    132.3725
   523.2000      8.0371      2.5229      0.0314      7.7035     27.7736    129.8927
   523.3000      8.0374      2.5262      0.0465      7.5054     27.9625    126.8022
