~Version Information
VERS.                      2.0: CWLS Log ASCII Standard - VERSION 2.0
WRAP.                       NO: One line per depth step
~Well Information Block
STRT.FT               240.0000: 
STOP.FT              1159.2000: 
STEP.FT                 0.1000: 
NULL.                -999.2500: 
COMP.          Pioneer Natural Resources: COMPANY
WELL.               Ryan 41-17: WELL
FLD.           Purgatoire River: FIELD
LOC.           822' FNL & 532' FEL--: LOCATION
CNTY.               Las Animas: COUNTY
SRVC.                Patterson: SERVICE COMPANY
DATE.          Fri Mar 17 07:19:36 2006: LOG DATE
UWI.           05 071 08719 00: UNIQUE WELL ID
STAT.                 Colorado: STATE
~Curve Information Block
DEPT.FT            0 000 00 00: Depth
DCAL.in                       : CDL Caliper
RHOB.g/cc                     : CDL Bulk Density
RHOC.g/cc                     : CDL Density Correction
DPOR.pu                       : CDL Density Porosity
NPOR.pu                       : Neutron Porosity
GR.GAPI                       : Gamma Ray
~Parameter Information Block
~A  Depth       DCAL        RHOB        RHOC        DPOR        NPOR         GR     
# ...
   480.0000      8.0767      2.5691      0.0670      4.9016     22.8001    149.3449
   480.1000      8.0767      2.5792      0.0995      4.2924     22.8137    150.6824
   480.2000      8.0767      2.5729      0.0752      4.6706     23.0669    150.5056
   480.3000      8.0770      2.5504      0.0497      6.0375     23.4694    149.8235
   480.4000      8.0770      2.5324      0.0059      7.1275     23.6171    152.9495
   480.5000      8.0867      2.5301      0.0179      7.2674     23.4593    157.1315
   480.6000      8.0867      2.5312      0.0472      7.1981     23.2630    153.9030
   480.7000      8.0867      2.5210      0.0617      7.8197     22.9597    145.8073
   480.8000      8.0899      2.4989      0.0173      9.1585     22.2920    140.3135
   480.9000      8.0899      2.4712      0.0175     10.8369     21.2907    137.4573
   481.0000      8.1017      2.4308      0.0373     13.2879     20.2922    133.4649
   481.1000      8.1017      2.3615     -0.0096     17.4860     19.5720    128.5216
   481.2000      8.1017      2.2616     -0.0418     23.5398     18.9234    129.5012
   481.3000      8.1348      2.1517     -0.0993     30.1998     18.0176    135.8928
   481.4000      8.1348      2.0536     -0.1046     36.1476     16.8315    137.7245
   481.5000      8.1575      1.9621     -0.1111     41.6892     15.5701    135.3501
   481.6000      8.1575      1.8612     -0.1336     47.8043     14.3292    136.2547
   481.7000      8.1575      1.7585     -0.1503     54.0298     12.9374    137.4808
   481.8000      8.1482      1.6845     -0.1467     58.5135     11.2512    133.6355
   481.9000      8.1482      1.6703     -0.1472     59.3734      9.5734    126.3292
   482.0000      8.1082      1.7239     -0.0389     56.1249      8.2974    117.5082
   482.1000      8.1082      1.8243      0.0519     50.0441      7.4028    107.8780
   482.2000      8.1082      1.9462      0.1551     42.6561      6.7653    101.4539
   482.3000      8.0408      2.0772      0.2154     34.7181      6.3583    102.1466
   482.4000      8.0408      2.2117      0.2357     26.5613      6.2738    106.7308
   482.5000      7.9739      2.3376      0.3048     18.9337      6.6346    107.5456
   482.6000      7.9739      2.4410      0.2891     12.6694      7.4074    103.8062
   482.7000      7.9739      2.5199      0.2378      7.8832      8.6583    103.4591
   482.8000      7.9171      2.5667      0.2500      5.0488     10.5061    107.5663
   482.9000      7.9171      2.5706      0.1046      4.8092     12.5066    108.4722
   483.0000      7.8725      2.5526      0.0291      5.9004     14.0204    105.1095
   483.1000      7.8725      2.5494      0.0525      6.0983     15.1904    102.8422
   483.2000      7.8725      2.5685      0.0785      4.9396     16.5670    103.0068
   483.3000      7.8494      2.5924      0.0606      3.4938     18.2088    103.9085
   483.4000      7.8494      2.6022      0.0841      2.8951     19.7608    107.3182
   483.5000      7.8416      2.5852      0.0516      3.9297     20.7408    113.6687
   483.6000      7.8416      2.5544     -0.0060      5.7954     21.0130    118.3989
   483.7000      7.8416      2.5437     -0.0250      6.4405     21.1240    120.3103
   483.8000      7.8402      2.5605      0.0298      5.4272     21.6448    121.2628
   483.9000      7.8402      2.5761      0.0678      4.4782     22.2133    121.8861
   484.0000      7.8441      2.5762      0.0096      4.4745     22.0244    125.9206
   484.1000      7.8441      2.5773      0.0047      4.4045     21.4986    131.1361
   484.2000      7.8441      2.5865      0.0708      3.8465     21.5958    131.1665
   484.3000      7.8472      2.5860      0.0697      3.8801     22.2110    128.1828
   484.4000      7.8472      2.5681      0.0248      4.9662     22.7439    125.3301
   484.5000      7.8363      2.5437      0.0449      6.4410     23.1816    123.4914
   484.6000      7.8363      2.5203      0.0166      7.8596     23.8010    121.7461
   484.7000      7.8363      2.4970      0.0179      9.2751     24.2742    117.9085
   484.8000      7.8116      2.4684      0.0261     11.0064     24.1428    114.2514
   484.9000      7.8116      2.4296      0.0416     13.3582     23.6702    113.1211
   485.0000      7.7919      2.3906      0.0067     15.7224     23.4033    113.8720
   485.1000      7.7919      2.3769     -0.0343     16.5528     23.4968    117.0130
   485.2000      7.7919      2.3877      0.0683     15.8948     23.7764    121.7590
   485.3000      7.7934      2.3827      0.0932     16.1994     23.9035    125.3966
   485.4000      7.7934      2.3453      0.0279     18.4640     23.6936    127.9105
   485.5000      7.8072      2.3140      0.0263     20.3639     23.3392    129.8208
   485.6000      7.8072      2.3404      0.0524     18.7666     23.0230    129.6180
   485.7000      7.8072      2.4295      0.2065     13.3611     22.6856    127.1841
   485.8000      7.8035      2.5274      0.2950      7.4331     22.3371    124.1565
   485.9000      7.8035      2.5906      0.2807      3.5978     22.2404    120.9762
   486.0000      7.7794      2.6264      0.2719      1.4282     22.6533    117.9316
   486.1000      7.7794      2.6490      0.2695      0.0597     23.4741    115.8171
   486.2000      7.7794      2.6504      0.2711     -0.0249     24.2819    115.7869
   486.3000      7.7736      2.6235      0.2069      1.6051     24.7774    118.4040
   486.4000      7.7736      2.5927      0.0843      3.4756     25.0525    121.5834
   486.5000      7.7958      2.5912      0.1106      3.5622     25.4082    122.7787
   486.6000      7.7958      2.6138      0.0979      2.1917     25.9172    122.5788
   486.7000      7.7958      2.6178      0.1512      1.9536     26.1270    123.2428
   486.8000      7.8179      2.5812      0.0069      4.1693     25.8523    124.7624
   486.9000      7.8179      2.5415     -0.0188      6.5788     25.5432    125.8935
   487.0000      7.8315      2.5309      0.0495      7.2176     25.3041    127.4616
   487.1000      7.8315      2.5324      0.0358      7.1292     24.8730    133.7470
   487.2000      7.8315      2.5204      0.0110      7.8518     24.1648    146.3214
   487.3000      7.8452      2.4970      0.0317      9.2735     23.4876    160.8866
   487.4000      7.8452      2.4892     -0.0555      9.7483     23.2432    169.8607
   487.5000      7.8535      2.5076      0.0670      8.6303     23.4809    168.9666
   487.6000      7.8535      2.5235      0.1021      7.6651     23.7532    162.5163
   487.7000      7.8535      2.5231      0.0263      7.6903     23.6453    156.8947
   487.8000      7.8521      2.5213      0.0584      7.8017     23.3268    152.3338
   487.9000      7.8521      2.5181      0.0775      7.9914     23.0735    148.5542
   488.0000      7.8453      2.4993      0.0431      9.1317     22.7903    150.4856
   488.1000      7.8453      2.4649      0.0652     11.2185     22.3765    157.9705
   488.2000      7.8453      2.4439     -0.0119     12.4901     22.0623    161.3521
   488.3000      7.8394      2.4607      0.0303     11.4698     22.1357    156.1816
   488.4000      7.8394      2.4978      0.0726      9.2212     22.5330    149.3470
   488.5000      7.8413      2.5280      0.0841      7.3956     22.8653    148.9644
   488.6000      7.8413      2.5454      0.0639      6.3408     22.9692    154.8865
   488.7000      7.8413      2.5540      0.0947      5.8181     22.7991    158.9914
   488.8000      7.8493      2.5608      0.0620      5.4042     22.3655    155.7921
   488.9000      7.8493      2.5708      0.1517      4.7988     21.8146    149.3091
   489.0000      7.8545      2.5784      0.1268      4.3379     21.4534    146.0174
   489.1000      7.8545      2.5840      0.1365      4.0006     21.6127    144.3070
   489.2000      7.8545      2.5887      0.1685      3.7164     22.1830    140.2925
   489.3000      7.8529      2.5837      0.1293      4.0175     22.8150    136.4501
   489.4000      7.8529      2.5702      0.0985      4.8364     23.3210    133.5742
   489.5000      7.8475      2.5632      0.0074      5.2629     23.6389    129.5036
