~Version Information
VERS.                      2.0: CWLS Log ASCII Standard - VERSION 2.0
WRAP.                       NO: One line per depth step
~Well Information Block
STRT.FT               890.0000: 
STOP.FT              2097.0000: 
STEP.FT                 0.2500: 
NULL.                -999.2500: 
COMP.          Pioneer Natural Resources: COMPANY
WELL.          Greenwood 43-29 Tr: WELL
FLD.           Purgatoire River: FIELD
LOC.           1478' FSL & 744' FEL: LOCATION
STAT.                 Colorado: State
CNTY.               Las Animas: COUNTY
CTRY. USA : Country
SECT. 29 : Section
TOWN. 32S : Township
RANG. 67W : Range
SRVC.                Patterson: SERVICE COMPANY
DATE.          Wed Aug 31 08:07:28 2005: LOG DATE
API.           05 071 08478 00: UNIQUE WELL ID
~Curve Information Block
DEPT.FT            0 000 00 00: Depth
SN.Ohm-m                      : IEL Short Normal
SP.mV                         : IEL Spontaneous Potential
DIR.Ohm-m                     : IEL Induction Resistivity
GR.GAPI                       : Gamma Ray
~Parameter Information Block
~A  Depth        SN          SP         DIR          GR     
# ...
  1828.0000     20.4372   -200.2418     18.5522    104.2605
  1828.2500     20.3656   -200.1399     18.8853    100.7689
  1828.5000     20.4570   -199.9447     19.1791     97.9306
  1828.7500     20.8189   -199.6658     19.4494     97.4615
  1829.0000     21.4157   -199.3153     19.7093     96.9877
  1829.2500     22.1111   -198.9104     19.9731     95.7330
  1829.5000     22.7400   -198.4759     20.2552     91.8509
  1829.7500     23.2115   -198.0415     20.5598     88.4514
  1830.0000     23.5836   -197.6323     20.8671     84.0123
  1830.2500     24.0161   -197.2588     21.1292     82.6200
  1830.5000     24.5972   -196.9144     21.2800     83.6422
  1830.7500     25.2345   -196.5848     21.2562     85.8194
  1831.0000     25.6961   -196.2596     21.0150     89.3252
  1831.2500     25.7716   -195.9340     20.5415     90.9192
  1831.5000     25.4478   -195.6041     19.8476     91.9565
  1831.7500     24.8468   -195.2638     18.9711     92.1580
  1832.0000     23.9811   -194.9115     17.9716     92.6243
  1832.2500     22.7087   -194.5579     16.9171     93.4533
  1832.5000     20.9487   -194.2262     15.8678     95.8684
  1832.7500     18.8433   -193.9406     14.8675     98.3474
  1833.0000     16.7178   -193.7176     13.9438    103.3076
  1833.2500     14.9039   -193.5656     13.1114    107.1990
  1833.5000     13.5443   -193.4872     12.3732    113.1153
  1833.7500     12.5972   -193.4822     11.7219    116.6279
  1834.0000     11.9739   -193.5472     11.1438    120.7605
  1834.2500     11.5511   -193.6754     10.6249    122.7356
  1834.5000     11.1750   -193.8562     10.1564    124.9463
  1834.7500     10.7734   -194.0765      9.7374    126.2907
  1835.0000     10.3674   -194.3218      9.3725    128.3748
  1835.2500      9.9918   -194.5784      9.0673    129.5440
  1835.5000      9.6835   -194.8384      8.8237    130.2387
  1835.7500      9.4847   -195.1127      8.6396    129.8817
  1836.0000      9.4054   -195.4385      8.5107    128.6527
  1836.2500      9.4345   -195.8630      8.4332    127.7065
  1836.5000      9.5778   -196.4023      8.4048    126.0120
  1836.7500      9.8026   -197.0191      8.4214    124.3796
  1837.0000      9.9834   -197.6470      8.4753    120.9075
  1837.2500     10.0267   -198.2341      8.5548    118.1378
  1837.5000     10.0016   -198.7638      8.6474    114.2982
  1837.7500     10.0272   -199.2425      8.7435    112.6829
  1838.0000     10.1294   -199.6797      8.8393    112.5595
  1838.2500     10.2603   -200.0736      8.9359    113.9081
  1838.5000     10.3723   -200.4105      9.0370    116.6782
  1838.7500     10.4760   -200.6719      9.1467    117.9746
  1839.0000     10.6275   -200.8434      9.2690    118.2050
  1839.2500     10.8537   -200.9153      9.4080    117.5505
  1839.5000     11.1324   -200.8762      9.5694    116.8764
  1839.7500     11.4163   -200.7111      9.7599    117.5049
  1840.0000     11.6492   -200.4089      9.9864    120.6572
  1840.2500     11.7561   -199.9720     10.2547    123.8462
  1840.5000     11.6783   -199.4205     10.5682    128.5085
  1840.7500     11.5238   -198.7877     10.9263    130.2188
  1841.0000     11.5574   -198.1124     11.3236    128.8427
  1841.2500     11.9501   -197.4297     11.7505    124.9168
  1841.5000     12.6835   -196.7672     12.1980    115.5239
  1841.7500     13.6811   -196.1484     12.6626    108.5060
  1842.0000     14.8873   -195.5946     13.1517    100.5892
  1842.2500     16.2568   -195.1197     13.6829     98.8134
  1842.5000     17.7866   -194.7249     14.2823    101.4454
  1842.7500     19.4612   -194.4031     14.9780    104.7681
  1843.0000     21.1419   -194.1469     15.7927    107.6696
  1843.2500     22.7206   -193.9503     16.7340    106.7095
  1843.5000     24.3342   -193.8044     17.7871    101.4146
  1843.7500     26.2390   -193.6985     18.9135     96.6510
  1844.0000     28.5731   -193.6247     20.0572     89.5751
  1844.2500     31.3312   -193.5778     21.1535     85.2300
  1844.5000     34.3893   -193.5479     22.1365     78.9555
  1844.7500     37.4414   -193.5166     22.9439     74.7942
  1845.0000     40.0987   -193.4661     23.5187     68.8534
  1845.2500     42.1097   -193.3898     23.8096     65.4426
  1845.5000     43.3908   -193.2913     23.7733     61.7946
  1845.7500     43.9478   -193.1741     23.3874     60.6486
  1846.0000     43.7929   -193.0356     22.6718     61.0662
  1846.2500     42.8253   -192.8756     21.7039     62.6659
  1846.5000     40.8782   -192.7104     20.6107     66.8992
  1846.7500     37.9385   -192.5776     19.5325     71.1985
  1847.0000     34.2089   -192.5238     18.5805     80.8368
  1847.2500     30.0673   -192.5833     17.8111     89.7517
  1847.5000     26.0378   -192.7625     17.2284    106.1544
  1847.7500     22.5916   -193.0441     16.8026    117.8161
  1848.0000     19.9597   -193.4050     16.4901    133.1353
  1848.2500     18.1430   -193.8267     16.2459    139.8687
  1848.5000     16.9696   -194.2868     16.0266    142.4819
  1848.7500     16.2648   -194.7447     15.7896    139.3264
  1849.0000     16.0414   -195.1469     15.4976    129.6938
  1849.2500     16.3767   -195.4489     15.1308    121.8996
  1849.5000     17.1800   -195.6303     14.7002    110.8602
  1849.7500     18.2004   -195.6877     14.2492    105.1431
  1850.0000     19.1818   -195.6171     13.8355    100.7138
  1850.2500     19.9583   -195.4073     13.5073    101.1034
  1850.5000     20.4128   -195.0511     13.2864    106.5377
  1850.7500     20.3874   -194.5561     13.1701    112.6920
  1851.0000     19.7929   -193.9367     13.1392    124.0116
  1851.2500     18.7936   -193.1926     13.1669    131.8852
  1851.5000     17.6711   -192.2878     13.2199    142.4623
  1851.7500     16.5807   -191.1383     13.2567    147.7765
  1852.0000     15.5782   -189.6045     13.2325    151.6804
  1852.2500     14.7005   -187.4878     13.1122    150.8943
  1852.5000     13.9664   -184.5484     12.8838    144.4198
  1852.7500     13.4443   -180.5694     12.5628    137.2981
  1853.0000     13.2209   -175.4779     12.1848    125.2133
  1853.2500     13.2808   -169.4990     11.7908    118.5425
  1853.5000     13.5355   -163.2441     11.4167    114.2630
  1853.7500     13.8697   -157.5910     11.0872    115.9182
  1854.0000     14.1287   -153.3324     10.8153    122.9056
  1854.2500     14.1712   -150.8170     10.6024    128.3055
  1854.5000     13.9603   -149.8599     10.4400    135.1826
  1854.7500     13.5615   -149.9452     10.3127    139.1399
  1855.0000     13.0470   -150.4976     10.2045    145.3149
  1855.2500     12.4832   -151.0463     10.1049    149.5482
  1855.5000     11.9986   -151.2978     10.0122    154.8638
  1855.7500     11.7319   -151.1840      9.9325    157.4495
  1856.0000     11.6942   -150.8678      9.8763    161.0473
  1856.2500     11.7494   -150.6387      9.8538    164.0651
  1856.5000     11.7334   -150.7329      9.8729    169.2164
  1856.7500     11.5815   -151.2082      9.9394    171.8846
  1857.0000     11.3456   -151.9609     10.0579    172.5720
  1857.2500     11.1097   -152.8370     10.2322    170.2551
  1857.5000     10.9552   -153.7319     10.4641    163.0961
  1857.7500     10.9875   -154.6219     10.7513    156.6405
  1858.0000     11.2823   -155.5378     11.0875    145.6461
  1858.2500     11.8267   -156.5157     11.4657    137.7783
  1858.5000     12.6148   -157.5598     11.8824    125.4107
  1858.7500     13.7357   -158.6374     12.3413    117.0916
  1859.0000     15.1859   -159.6981     12.8524    105.4317
  1859.2500     16.7063   -160.6907     13.4259     98.7887
  1859.5000     17.9743   -161.5645     14.0649     91.2931
  1859.7500     18.8572   -162.2692     14.7614     88.1918
  1860.0000     19.4557   -162.7728     15.4988     86.2668
  1860.2500     20.0022   -163.0875     16.2590     86.3943
  1860.5000     20.6967   -163.2720     17.0257     87.9353
  1860.7500     21.5639   -163.4065     17.7817     89.6915
  1861.0000     22.4385   -163.5632     18.5038     93.4339
  1861.2500     23.1295   -163.7903     19.1603     96.4040
