~Version Information
VERS.                      2.0: CWLS Log ASCII Standard - VERSION 2.0
WRAP.                       NO: One line per depth step
~Well Information Block
STRT.FT               -10.2500: 
STOP.FT              2871.7500: 
STEP.FT                 0.2500: 
NULL.                -999.2500: 
COMP.          Pioneer Natural Resources: COMPANY
WELL.          Grey Goose 33-30: WELL
FLD.           Purgatorie River: FIELD
LOC.           2136' FSL & 2065' FEL--: LOCATION
STAT.                       CO: State
CNTY.               Las Animas: COUNTY
CTRY. USA : Country
SECT. 30  : Section
TOWN. 32S : Township
RANG. 67W : Range
SRVC.          Patterson Wireline: SERVICE COMPANY
DATE.          Tue Dec 06 12:24:57 2005: LOG DATE
API.            05 071 0854600: UNIQUE WELL ID
~Curve Information Block
DEPT.FT            0 000 00 00: Depth
CCL.                          : Casing Collar Locator
TT3.usec                      : CBL 3' Travel Time
AMP3.mV                       : CBL 3' Amplitude
GR.GAPI                       : Gamma Ray
~Parameter Information Block
~A  Depth       CCL         TT3         AMP3         GR     
# ...
  1497.2500      0.0000    411.0560     12.5827    134.4341
  1497.5000      0.0000    419.3549     12.6383    135.8249
  1497.7500      0.0000    433.5344     12.6156    138.3164
  1498.0000      0.0000    453.3451     12.4692    142.7346
  1498.2500      0.0000    478.2384     12.1742    148.9527
  1498.5000      0.0000    505.0049     11.7546    155.1719
  1498.7500      0.0000    531.2161     11.2891    158.7576
  1499.0000      0.0000    558.7261     10.8802    158.1294
  1499.2500      0.0000    591.9987     10.6086    153.9625
  1499.5000      0.0000    633.0578     10.5112    148.6402
  1499.7500      0.0000    678.2238     10.5863    144.6524
  1500.0000      0.0000    719.6893     10.8040    143.3511
  1500.2500      0.0000    750.5897     11.1067    144.7611
  1500.5000      0.0000    768.9776     11.4140    148.1097
  1500.7500      0.0000    777.4257     11.6448    152.4260
  1501.0000      0.0000    779.7120     11.7443    156.7013
  1501.2500      0.0000    778.0375     11.6912    159.6897
  1501.5000      0.0000    772.4052     11.4887    160.1222
  1501.7500      0.0000    761.8968     11.1592    157.7588
  1502.0000      0.0000    746.8306     10.7510    154.0355
  1502.2500      0.0000    730.0871     10.3341    151.0912
  1502.5000      0.0000    716.1190      9.9756    150.0333
  1502.7500      0.0000    708.4473      9.7117    150.2693
  1503.0000      0.0000    707.9684      9.5436    150.4975
  1503.2500      0.0000    713.0002      9.4526    150.3880
  1503.5000      0.0000    720.3067      9.4140    151.0763
  1503.7500      0.0000    726.4030      9.4000    153.6146
  1504.0000      0.0000    728.7877      9.3813    157.2337
  1504.2500      0.0000    726.6997      9.3348    159.7257
  1504.5000      0.0000    721.3361      9.2579    159.3317
  1504.7500      0.0000    715.4622      9.1745    155.6087
  1505.0000      0.0000    711.9508      9.1231    148.6527
  1505.2500      0.0000    711.6711      9.1329    138.3746
  1505.5000      0.0000    712.7326      9.2068    124.9894
  1505.7500      0.0000    712.3289      9.3231    109.9826
  1506.0000      0.0000    709.4639      9.4440     96.0389
  1506.2500      0.0000    705.7580      9.5214     85.6809
  1506.5000      0.0000    703.8890      9.5072     79.9772
  1506.7500      0.0000    705.5720      9.3823     78.4088
  1507.0000      0.0000    710.5675      9.1839     79.4050
  1507.2500      0.0000    717.0085      8.9903     80.7963
  1507.5000      0.0000    722.7407      8.8671     80.5023
  1507.7500      0.0000    726.5265      8.8270     77.7641
  1508.0000      0.0000    727.8433      8.8436     73.8911
  1508.2500      0.0000    726.0461      8.8876     71.3763
  1508.5000      0.0000    720.8901      8.9441     72.0010
  1508.7500      0.0000    713.9879      9.0034     75.5890
  1509.0000      0.0000    708.6807      9.0513     80.1909
  1509.2500      0.0000    707.9005      9.0749     83.2790
  1509.5000      0.0000    712.3378      9.0748     83.3657
  1509.7500      0.0000    720.4694      9.0674     81.1191
  1510.0000      0.0000    729.8134      9.0655     78.7103
  1510.2500      0.0000    738.0336      9.0619     77.6959
  1510.5000      0.0000    743.2913      9.0356     77.8377
  1510.7500      0.0000    744.3758      8.9757     78.0439
  1511.0000      0.0000    741.3948      8.8953     77.7170
  1511.2500      0.0000    736.6307      8.8247     76.8179
  1511.5000      0.0000    733.7246      8.7959     75.3105
  1511.7500      0.0000    734.4988      8.8292     73.1928
  1512.0000      0.0000    736.4525      8.9282     70.9232
  1512.2500      0.0000    734.4100      9.0803     69.2890
  1512.5000      0.0000    724.5662      9.2604     68.7343
  1512.7500      0.0000    705.7214      9.4382     69.0035
  1513.0000      0.0000    677.2537      9.5879     69.4250
  1513.2500      0.0000    639.6694      9.6915     69.3329
  1513.5000      0.0000    599.9183      9.7339     68.4365
  1513.7500      0.0000    573.2260      9.6970     67.2491
  1514.0000      0.0000    573.6450      9.5691     67.1534
  1514.2500      0.0000    601.4436      9.3600     69.7150
  1514.5000      0.0000    643.1391      9.1044     75.8091
  1514.7500      0.0000    683.9417      8.8482     85.3549
  1515.0000      0.0000    716.8793      8.6310     97.5560
  1515.2500      0.0000    741.0076      8.4768    110.9113
  1515.5000      0.0000    756.3031      8.4006    123.0351
  1515.7500      0.0000    762.6891      8.4156    131.2144
  1516.0000      0.0000    761.9200      8.5258    133.7887
  1516.2500      0.0000    757.8602      8.7154    130.9503
  1516.5000      0.0000    753.9286      8.9592    124.0688
  1516.7500      0.0000    749.5653      9.2541    114.4997
  1517.0000      0.0000    739.6263      9.6279    103.2150
  1517.2500      0.0000    719.5819     10.1059     91.1742
  1517.5000      0.0000    693.1573     10.6669     79.5474
  1517.7500      0.0000    672.9664     11.2351     69.5644
  1518.0000      0.0000    670.4337     11.7158     62.2756
  1518.2500      0.0000    685.4997     12.0373     58.3092
  1518.5000      0.0000    707.7683     12.1673     57.5647
  1518.7500      0.0000    726.1976     12.1069     59.0148
  1519.0000      0.0000    736.5779     11.8875     60.9408
  1519.2500      0.0000    742.1165     11.5696     61.7862
  1519.5000      0.0000    748.9193     11.2186     61.1753
  1519.7500      0.0000    760.4091     10.8719     60.0358
  1520.0000      0.0000    775.1583     10.5363     59.4592
  1520.2500      0.0000    789.2007     10.2120     59.4355
  1520.5000      0.0000    799.4501      9.9099     58.7914
  1520.7500      0.0000    805.2446      9.6490     56.2220
  1521.0000      0.0000    808.6974      9.4439     51.3709
  1521.2500      0.0000    814.6904      9.2942     45.2037
  1521.5000      0.0000    829.1608      9.1934     39.4561
  1521.7500      0.0000    854.2979      9.1525     35.6126
  1522.0000      0.0000    883.4720      9.1944     34.3211
  1522.2500      0.0000    902.5494      9.3011     35.5267
  1522.5000      0.0000    900.3370      9.3852     38.6540
  1522.7500      0.0000    879.3207      9.3503     42.4843
  1523.0000      0.0000    853.9656      9.1857     45.4514
  1523.2500      0.0000    837.5307      8.9723     46.6926
  1523.5000      0.0000    831.8968      8.7831     46.6975
  1523.7500      0.0000    829.7307      8.6007     46.5161
  1524.0000      0.0000    823.7146      8.3525     46.5326
  1524.2500      0.0000    812.8616      8.0031     46.4185
  1524.5000      0.0000    802.7146      7.5787     45.8760
  1524.7500      0.0000    801.7597      7.1155     44.6803
  1525.0000      0.0000    815.5698      6.6462     42.3409
  1525.2500      0.0000    841.5801      6.2452     38.6631
  1525.5000      0.0000    870.8549      6.0254     34.7543
  1525.7500      0.0000    896.0518      6.0527     32.9428
  1526.0000      0.0000    914.2980      6.2945     35.4171
  1526.2500      2.0000    921.1591      6.6713     42.8646
  1526.5000      0.0000    907.6240      7.1461     54.2873
  1526.7500      0.0000    867.1219      7.7768     68.0360
  1527.0000      0.0000    803.6795      8.6920     83.0519
  1527.2500      0.0000    732.0687      9.9797     99.0926
  1527.5000      0.0000    671.4949     11.5431    115.8355
  1527.7500      0.0000    637.3530     13.0865    132.1781
  1528.0000      0.0000    634.2196     14.2908    146.6591
  1528.2500      0.0000    655.0792     14.9913    157.9986
  1528.5000      0.0000    688.2798     15.1872    164.8765
  1528.7500      0.0000    724.7786     14.9644    166.1606
  1529.0000      0.0000    759.1110     14.4520    162.4077
  1529.2500      0.0000    787.0184     13.7989    156.4903
  1529.5000      0.0000    804.9187     13.1379    151.3875
  1529.7500      0.0000    811.1159     12.5572    147.1763
  1530.0000      0.0000    806.5958     12.1000    141.1525
  1530.2500      0.0000    795.0175     11.7749    131.5386
  1530.5000      0.0000    781.7995     11.5620    120.4594
