~Version Information
VERS.                      2.0: CWLS Log ASCII Standard - VERSION 2.0
WRAP.                       NO: One line per depth step
~Well Information Block
STRT.FT               650.0000: 
STOP.FT              2053.7000: 
STEP.FT                 0.1000: 
NULL.                -999.2500: 
COMP.          Pioneer Natural Resources: COMPANY
WELL.           Alabaster 11-8: WELL
FLD.           Purgatoire River: FIELD
LOC.           1249' FNL & 215' FWL--: LOCATION
PROV.                 Colorado: PROVINCE
CNTY.               Las Animas: COUNTRY
SRVC.                Patterson: SERVICE COMPANY
DATE.          Thu Jan 19 09:16:54 2006: LOG DATE
UWI.           05 071 08642 00: UNIQUE WELL ID
~Curve Information Block
DEPT.FT            0 000 00 00: Depth
DCAL.in                       : CDL Caliper
RHOB.g/cc                     : CDL Bulk Density
RHOC.g/cc                     : CDL Density Correction
DPOR.pu                       : CDL Density Porosity
NPOR.pu                       : Neutron Porosity
GR.GAPI                       : Gamma Ray
~Parameter Information Block
~A  Depth       DCAL        RHOB        RHOC        DPOR        NPOR         GR     
# ...
  1658.0000      7.9938      2.4520      0.1035     12.0007     14.1955    127.0040
  1658.1000      7.9938      2.4940      0.1583      9.4575     14.5586    131.3437
  1658.2000      7.9938      2.5192      0.1534      7.9257     14.9542    135.6164
  1658.3000      7.9933      2.5164      0.1245      8.0961     15.3413    135.2773
  1658.4000      7.9933      2.4981      0.1234      9.2070     15.5329    134.4633
  1658.5000      7.9902      2.4847      0.0476     10.0198     15.5109    137.9107
  1658.6000      7.9902      2.4907      0.0756      9.6550     15.4491    144.7437
  1658.7000      7.9902      2.5101      0.1006      8.4798     15.4262    149.1268
  1658.8000      7.9885      2.5334      0.0422      7.0651     15.5107    146.2718
  1658.9000      7.9885      2.5557      0.0591      5.7180     15.7180    139.8497
  1659.0000      7.9878      2.5592      0.0522      5.5061     15.9572    134.1598
  1659.1000      7.9878      2.5383      0.0424      6.7707     16.2949    126.2964
  1659.2000      7.9878      2.5130      0.0268      8.3043     16.7367    118.5480
  1659.3000      7.9877      2.4973      0.0343      9.2539     17.0349    121.7642
  1659.4000      7.9877      2.4943      0.0179      9.4381     17.1194    134.4655
  1659.5000      7.9903      2.5039      0.0572      8.8539     16.9347    140.8955
  1659.6000      7.9903      2.5185      0.0256      7.9719     16.4875    136.4732
  1659.7000      7.9903      2.5257      0.0500      7.5333     16.1699    131.8912
  1659.8000      7.9944      2.5152      0.0630      8.1675     16.2637    133.2719
  1659.9000      7.9944      2.4939      0.0162      9.4596     16.5980    137.3598
  1660.0000      7.9971      2.4751      0.0386     10.6002     16.8586    142.8905
  1660.1000      7.9971      2.4602     -0.0003     11.5049     16.9813    149.0405
  1660.2000      7.9971      2.4517     -0.0052     12.0174     16.9703    154.8652
  1660.3000      7.9968      2.4571     -0.0079     11.6887     16.8835    159.5906
  1660.4000      7.9968      2.4771      0.0230     10.4785     16.8792    158.2955
  1660.5000      7.9933      2.4997      0.0504      9.1089     16.9367    148.6410
  1660.6000      7.9933      2.5090      0.0681      8.5477     16.8186    135.2006
  1660.7000      7.9933      2.4945      0.0752      9.4219     16.5540    123.2055
  1660.8000      7.9900      2.4661      0.0394     11.1453     16.5118    121.2823
  1660.9000      7.9900      2.4504      0.0305     12.0973     16.6752    133.2350
  1661.0000      7.9909      2.4518      0.0227     12.0142     16.6767    145.9123
  1661.1000      7.9909      2.4502      0.0378     12.1070     16.5811    149.1624
  1661.2000      7.9909      2.4455      0.0169     12.3963     16.5931    148.7903
  1661.3000      7.9939      2.4530      0.0327     11.9372     16.6618    150.5503
  1661.4000      7.9939      2.4692      0.0551     10.9572     16.7602    150.1783
  1661.5000      7.9956      2.4808      0.0536     10.2564     16.8608    145.0927
  1661.6000      7.9956      2.4903      0.0511      9.6803     17.0088    140.5357
  1661.7000      7.9956      2.5055      0.0679      8.7565     17.2486    138.9005
  1661.8000      7.9951      2.5176      0.1019      8.0236     17.4446    137.4920
  1661.9000      7.9951      2.5091      0.1087      8.5385     17.3404    139.0003
  1662.0000      7.9943      2.4858      0.0407      9.9518     16.8428    147.1819
  1662.1000      7.9943      2.4734      0.0711     10.7044     16.4509    159.0986
  1662.2000      7.9943      2.4775      0.1101     10.4563     16.5748    164.5704
  1662.3000      7.9945      2.4786      0.1179     10.3904     16.9808    158.7875
  1662.4000      7.9945      2.4645      0.1033     11.2420     17.3978    154.6213
  1662.5000      7.9942      2.4531      0.0489     11.9353     17.7557    159.4481
  1662.6000      7.9942      2.4625      0.0907     11.3629     18.1151    165.6062
  1662.7000      7.9942      2.4806      0.1034     10.2656     18.6094    167.6767
  1662.8000      7.9932      2.4904      0.0802      9.6703     19.1010    165.1704
  1662.9000      7.9932      2.4868      0.1015      9.8904     19.1110    158.2765
  1663.0000      7.9937      2.4735      0.0736     10.6965     18.5388    147.3493
  1663.1000      7.9937      2.4625      0.0781     11.3628     18.0141    136.4274
  1663.2000      7.9937      2.4610      0.0624     11.4544     18.0421    135.1401
  1663.3000      7.9936      2.4681      0.0582     11.0233     18.4504    144.7362
  1663.4000      7.9936      2.4804      0.0853     10.2782     18.8008    156.0435
  1663.5000      7.9917      2.4924      0.0924      9.5493     18.9142    162.9207
  1663.6000      7.9917      2.4960      0.0793      9.3345     19.0424    165.7812
  1663.7000      7.9917      2.4881      0.0525      9.8112     19.5600    161.7984
  1663.8000      7.9907      2.4765      0.0595     10.5124     20.5503    147.4488
  1663.9000      7.9907      2.4761      0.0301     10.5390     21.8140    131.8826
  1664.0000      7.9900      2.4961      0.0663      9.3253     22.8020    128.1945
  1664.1000      7.9900      2.5256      0.1162      7.5414     23.0687    136.1515
  1664.2000      7.9900      2.5427      0.1551      6.5045     22.9021    145.1104
  1664.3000      7.9883      2.5432      0.1040      6.4703     22.8196    147.6406
  1664.4000      7.9883      2.5428      0.0834      6.4982     23.1011    144.9625
  1664.5000      7.9866      2.5434      0.1045      6.4633     23.8357    141.0712
  1664.6000      7.9866      2.5372      0.0514      6.8392     24.8570    136.8390
  1664.7000      7.9866      2.5299      0.0919      7.2818     25.7661    132.4268
  1664.8000      7.9883      2.5294      0.0827      7.3105     26.4060    129.4881
  1664.9000      7.9883      2.5427      0.0678      6.5048     26.7162    128.4382
  1665.0000      7.9925      2.5674      0.0875      5.0062     26.6323    127.5953
  1665.1000      7.9925      2.5899      0.0655      3.6428     26.2776    128.6127
  1665.2000      7.9925      2.6063      0.0772      2.6478     25.9426    136.6109
  1665.3000      7.9953      2.6122      0.1254      2.2894     26.0184    146.2761
  1665.4000      7.9953      2.5973      0.1086      3.1965     26.4771    147.8227
  1665.5000      7.9949      2.5609      0.0879      5.4014     26.7772    144.6695
  1665.6000      7.9949      2.5137      0.0166      8.2614     26.5282    145.7903
  1665.7000      7.9949      2.4733     -0.0077     10.7080     25.7759    150.8048
  1665.8000      7.9927      2.4466      0.0100     12.3262     24.8354    152.1399
  1665.9000      7.9927      2.4217      0.0005     13.8388     23.7132    148.2519
  1666.0000      7.9911      2.3861     -0.0112     15.9952     22.3540    144.5860
  1666.1000      7.9911      2.3438     -0.0162     18.5605     21.0777    147.3004
  1666.2000      7.9911      2.3163     -0.0848     20.2231     19.9720    153.6157
  1666.3000      7.9900      2.3165     -0.0240     20.2124     19.0612    152.1476
  1666.4000      7.9900      2.3297      0.0064     19.4148     18.5490    141.9806
  1666.5000      7.9893      2.3428      0.0584     18.6162     18.1474    133.9636
  1666.6000      7.9893      2.3518      0.1046     18.0717     17.3891    132.1535
  1666.7000      7.9893      2.3575      0.0693     17.7254     16.5383    132.7717
  1666.8000      7.9909      2.3686      0.0800     17.0553     16.1087    135.3477
  1666.9000      7.9909      2.3869      0.0655     15.9466     16.0985    145.0436
  1667.0000      7.9919      2.4048      0.0673     14.8592     16.2233    158.3892
  1667.1000      7.9919      2.4124      0.0835     14.3997     16.3078    163.2810
  1667.2000      7.9919      2.4012      0.0922     15.0767     16.3979    158.9554
  1667.3000      7.9918      2.3778      0.0366     16.4994     16.6531    154.9780
  1667.4000      7.9918      2.3681      0.0254     17.0838     16.9910    153.6941
  1667.5000      7.9916      2.3888      0.0485     15.8327     17.1227    147.9340
