~Version Information
VERS.                      2.0: CWLS Log ASCII Standard - VERSION 2.0
WRAP.                       NO: One line per depth step
~Well Information Block
STRT.FT                -8.7500: 
STOP.FT              1035.7500: 
STEP.FT                 0.2500: 
NULL.                -999.2500: 
COMP.          Pioneer Natural Resources: COMPANY
WELL.                Mac 22-36: WELL
FLD.           Purgatorie River: FIELD
LOC.           2545' FNL & 1398' FWL--: LOCATION
PROV.                       CO: PROVINCE
CNTY.               Las Animas: COUNTRY
SRVC.          Patterson Wireline: SERVICE COMPANY
DATE.          Thu Dec 08 13:20:05 2005: LOG DATE
UWI.           08 071 08594 00: UNIQUE WELL ID
~Curve Information Block
DEPT.FT            0 000 00 00: Depth
CCL.                          : Casing Collar Locator
TT3.usec                      : CBL 3' Travel Time
AMP3.mV                       : CBL 3' Amplitude
GR.GAPI                       : Gamma Ray
~Parameter Information Block
~A  Depth       CCL         TT3         AMP3         GR     
# ...
   795.2500      0.0000    608.0820     12.6900     70.1172
   795.5000      0.0000    573.7922     13.0026     70.6171
   795.7500      0.0000    540.4733     13.3037     71.2199
   796.0000      0.0000    505.0243     13.5875     71.6592
   796.2500      0.0000    469.4484     13.8618     71.7463
   796.5000      0.0000    441.3216     14.1154     71.6335
   796.7500      0.0000    429.9687     14.2904     71.6355
   797.0000      0.0000    440.3862     14.2866     71.9934
   797.2500      0.0000    469.5903     14.0005     72.8095
   797.5000      0.0000    510.9774     13.3644     73.8111
   797.7500      0.0000    562.6088     12.3822     74.1664
   798.0000      0.0000    626.5095     11.1834     73.0394
   798.2500      0.0000    697.8400     10.0377     70.5910
   798.5000      0.0000    761.5235      9.2396     68.2331
   798.7500      0.0000    803.9172      8.9343     67.5360
   799.0000      0.0000    823.6480      9.0562     68.7300
   799.2500      2.0000    829.5098      9.4171     70.6509
   799.5000      0.0000    832.8520      9.8146     72.5009
   799.7500      0.0000    841.6709     10.0848     75.0817
   800.0000      0.0000    855.3546     10.1494     79.6249
   800.2500      0.0000    864.0129     10.0787     85.8700
   800.5000      0.0000    857.2861     10.0752     91.9414
   800.7500      0.0000    834.2162     10.3226     95.9198
   801.0000      0.0000    803.0116     10.8366     97.2775
   801.2500      0.0000    773.0539     11.4783     97.0324
   801.5000      0.0000    749.0648     12.0943     96.7029
   801.7500      0.0000    731.4125     12.6050     97.0304
   802.0000      0.0000    719.2134     12.9785     97.6522
   802.2500      0.0000    711.9493     13.1892     97.9239
   802.5000      0.0000    709.1154     13.2360     97.9318
   802.7500      0.0000    709.4555     13.1684     98.5291
   803.0000      0.0000    710.7827     13.0639    100.2338
   803.2500      0.0000    710.3978     12.9878    102.3348
   803.5000      0.0000    705.9299     12.9730    103.5593
   803.7500      0.0000    696.3226     13.0177    103.5157
   804.0000      0.0000    682.9379     13.0955    102.9903
   804.2500      0.0000    670.0431     13.1766    102.8781
   804.5000      0.0000    662.4255     13.2411    103.2394
   804.7500      0.0000    660.1277     13.2764    103.2922
   805.0000      0.0000    656.1675     13.2725    102.0072
   805.2500      0.0000    642.5957     13.2317     98.7950
   805.5000      0.0000    620.2618     13.1706     93.8586
   805.7500      0.0000    600.7338     13.1015     88.0863
   806.0000      0.0000    595.4794     13.0142     82.7276
   806.2500      0.0000    602.8234     12.8871     78.9010
   806.5000      0.0000    608.3043     12.7191     76.9113
   806.7500      0.0000    598.8156     12.5450     75.9888
   807.0000      0.0000    574.0434     12.4148     75.0315
   807.2500      0.0000    543.6072     12.3603     73.8697
   807.5000      0.0000    516.3539     12.3850     73.8014
   807.7500      0.0000    494.5611     12.4832     76.6797
   808.0000      0.0000    476.1979     12.6530     83.0680
   808.2500      0.0000    459.6344     12.8843     91.1177
   808.5000      0.0000    445.9436     13.1426     97.5071
   808.7500      0.0000    437.8920     13.3727     99.7175
   809.0000      0.0000    436.8721     13.5190     97.4918
   809.2500      0.0000    440.7231     13.5573     92.4703
   809.5000      0.0000    444.9824     13.5221     86.8600
   809.7500      0.0000    446.4062     13.4936     82.3687
   810.0000      0.0000    445.1362     13.5389     79.9386
   810.2500      0.0000    444.8847     13.6608     80.0143
   810.5000      0.0000    452.5497     13.8067     82.6052
   810.7500      0.0000    475.8074     13.9176     86.8862
   811.0000      0.0000    516.5860     13.9645     91.0367
   811.2500      0.0000    566.1053     13.9538     92.9447
   811.5000      0.0000    610.2895     13.9097     91.2863
   811.7500      0.0000    641.7911     13.8521     86.2908
   812.0000      0.0000    663.9661     13.7885     79.7384
   812.2500      0.0000    682.4518     13.7221     73.9290
   812.5000      0.0000    696.6732     13.6558     70.1590
   812.7500      0.0000    700.9717     13.5804     67.9997
   813.0000      0.0000    690.5685     13.4726     66.0352
   813.2500      0.0000    664.7028     13.3178     63.3045
   813.5000      0.0000    627.0464     13.1298     60.0984
   813.7500      0.0000    585.4675     12.9437     57.5337
   814.0000      0.0000    549.9691     12.7893     56.5247
   814.2500      0.0000    528.4756     12.6747     57.1114
   814.5000      0.0000    522.9253     12.5949     58.6509
   814.7500      0.0000    528.0479     12.5565     60.5091
   815.0000      0.0000    534.2969     12.5835     62.4032
   815.2500      0.0000    534.4174     12.6847     64.1543
   815.5000      0.0000    528.1505     12.8194     65.5087
   815.7500      0.0000    520.3954     12.9151     66.3796
   816.0000      0.0000    516.1945     12.9249     66.8367
   816.2500      0.0000    518.8727     12.8603     66.6810
   816.5000      0.0000    531.2604     12.7748     65.5527
   816.7500      0.0000    555.2308     12.7214     63.6966
   817.0000      0.0000    588.2000     12.7221     62.0929
   817.2500      0.0000    621.5120     12.7658     61.4686
   817.5000      0.0000    645.4183     12.8278     61.5445
   817.7500      0.0000    656.6531     12.8871     61.5987
   818.0000      0.0000    659.7953     12.9266     61.4899
   818.2500      0.0000    661.2079     12.9287     61.6245
   818.5000      0.0000    663.6434     12.8851     62.0657
   818.7500      0.0000    666.2128     12.8135     62.3350
   819.0000      0.0000    666.7297     12.7560     62.2552
   819.2500      0.0000    663.9264     12.7497     62.4110
   819.5000      0.0000    659.5413     12.7999     63.3642
   819.7500      0.0000    657.6826     12.8862     64.8393
   820.0000      0.0000    659.7464     12.9867     66.0634
   820.2500      0.0000    660.6263     13.0836     66.5761
   820.5000      0.0000    652.3591     13.1558     66.3493
   820.7500      0.0000    632.3611     13.1830     65.3301
   821.0000      0.0000    607.4227     13.1578     63.2905
   821.2500      0.0000    589.0681     13.0864     60.2807
   821.5000      0.0000    584.5908     12.9802     57.0800
   821.7500      0.0000    591.9965     12.8514     54.8337
   822.0000      0.0000    602.3906     12.7112     54.0888
   822.2500      0.0000    606.4340     12.5623     54.5370
   822.5000      0.0000    600.9373     12.4017     55.8690
   822.7500      0.0000    592.0670     12.2347     58.3204
   823.0000      0.0000    590.5691     12.0795     61.9869
   823.2500      0.0000    600.1183     11.9508     66.1651
   823.5000      0.0000    610.4275     11.8498     69.9110
   823.7500      0.0000    604.7126     11.7770     72.8643
   824.0000      0.0000    575.2573     11.7470     75.0558
   824.2500      0.0000    530.9488     11.7859     76.3844
   824.5000      0.0000    489.3109     11.9119     76.9017
   824.7500      0.0000    462.3940     12.1162     77.3316
   825.0000      0.0000    450.6966     12.3569     78.6361
   825.2500      0.0000    448.6912     12.5717     80.9642
   825.5000      0.0000    452.8891     12.7015     83.2003
   825.7500      0.0000    462.5806     12.7084     83.5604
   826.0000      0.0000    473.9537     12.5869     80.7530
   826.2500      0.0000    477.8430     12.3701     74.9272
   826.5000      0.0000    466.8662     12.1229     67.7743
   826.7500      0.0000    443.4744     11.9180     61.6507
   827.0000      0.0000    418.3591     11.8049     58.2752
   827.2500      0.0000    401.6617     11.7937     57.9841
   827.5000      0.0000    396.8506     11.8618     60.1448
   827.7500      0.0000    401.0226     11.9745     64.0674
   828.0000      0.0000    408.8770     12.0934     69.3424
   828.2500      0.0000    416.6439     12.1744     75.5259
   828.5000      0.0000    423.2692     12.1842     81.7793
