~Version Information
VERS.                      2.0: CWLS Log ASCII Standard - VERSION 2.0
WRAP.                       NO: One line per depth step
~Well Information Block
STRT.FT               410.0000: 
STOP.FT              1530.5000: 
STEP.FT                 0.1000: 
NULL.                -999.2500: 
COMP.          Pioneer Natural Resources: COMPANY
WELL.          Pioneer 34-27 Tr: WELL
FLD.           Purgatoire River: FIELD
LOC.           243' FSL & 1593' FEL: LOCATION
STAT.                 Colorado: State
CNTY.               Las Animas: COUNTY
CTRY. USA : Country
SECT. 27 : Section
TOWN. 32S : Township
RANG. 67W : Range 
SRVC.                Patterson: SERVICE COMPANY
DATE.          Fri Oct 07 07:11:38 2005: LOG DATE
API.           05 071 08548 00: UNIQUE WELL ID
~Curve Information Block
DEPT.FT            0 000 00 00: Depth
DCAL.in                       : CDL Caliper
RHOB.g/cc                     : CDL Bulk Density
RHOC.g/cc                     : CDL Density Correction
DPOR.pu                       : CDL Density Porosity
GR.GAPI                       : Gamma Ray
NPOR.pu                       : Neutron Porosity
~Parameter Information Block
~A  Depth       DCAL        RHOB        RHOC        DPOR         GR         NPOR    
# ...
  1216.4000      8.0025      2.6683      0.1411     -1.1099    144.5878     27.3921
  1216.5000      8.0078      2.6485      0.0253      0.0900    145.5200     27.0684
  1216.6000      8.0078      2.6333      0.0829      1.0108    142.3432     26.8449
  1216.7000      8.0078      2.6197      0.0505      1.8372    135.7176     26.6738
  1216.8000      7.9976      2.6017      0.0285      2.9263    133.5581     26.7013
  1216.9000      7.9976      2.5757      0.0314      4.5052    141.9247     26.9145
  1217.0000      8.0402      2.5496     -0.0182      6.0854    152.2102     27.1658
  1217.1000      8.0402      2.5386      0.0413      6.7542    155.7602     27.3992
  1217.2000      8.0402      2.5382      0.0424      6.7749    155.1423     27.7324
  1217.3000      8.0672      2.5409      0.0451      6.6121    153.0641     28.1008
  1217.4000      8.0672      2.5550      0.0624      5.7557    153.0565     28.3244
  1217.5000      8.0278      2.5908      0.0421      3.5908    155.3557     28.3900
  1217.6000      8.0278      2.6366      0.1399      0.8129    154.9567     28.3480
  1217.7000      8.0278      2.6668      0.0897     -1.0177    151.4398     28.3432
  1217.8000      8.0506      2.6731      0.1106     -1.4027    150.5520     28.4874
  1217.9000      8.0506      2.6583      0.1260     -0.5010    154.2907     28.7579
  1218.0000      8.0893      2.6301      0.0801      1.2069    157.0283     29.1480
  1218.1000      8.0893      2.6058      0.1051      2.6762    155.6741     29.4793
  1218.2000      8.0893      2.5920      0.0936      3.5172    152.1389     29.5270
  1218.3000      8.0667      2.5762      0.0961      4.4723    146.6267     29.2455
  1218.4000      8.0667      2.5466      0.0219      6.2671    139.5636     28.7424
  1218.5000      8.0012      2.5124      0.0103      8.3420    135.2558     28.1542
  1218.6000      8.0012      2.4931      0.0020      9.5062    133.4355     27.5850
  1218.7000      8.0012      2.4968      0.0282      9.2870    130.2029     27.2989
  1218.8000      8.0460      2.5203      0.0979      7.8580    128.6779     27.4483
  1218.9000      8.0460      2.5597      0.1517      5.4755    131.9449     27.7859
  1219.0000      8.0385      2.6078      0.1827      2.5560    135.8937     28.0658
  1219.1000      8.0385      2.6608      0.1967     -0.6557    137.3210     28.3126
  1219.2000      8.0385      2.7107      0.2906     -3.6778    138.0885     28.5429
  1219.3000      7.9271      2.7327      0.3402     -5.0099    143.4168     28.5468
  1219.4000      7.9271      2.7158      0.2358     -3.9851    150.5376     28.3121
  1219.5000      7.8793      2.6844      0.2242     -2.0854    152.5751     27.9751
  1219.6000      7.8793      2.6666      0.1551     -1.0066    151.8827     27.3941
  1219.7000      7.8793      2.6572      0.1801     -0.4392    150.8771     26.7885
  1219.8000      7.9210      2.6292      0.0848      1.2601    149.1604     26.7438
  1219.9000      7.9210      2.5854      0.0484      3.9169    149.5940     27.1473
  1220.0000      7.9819      2.5518      0.0203      5.9505    151.0889     27.4234
  1220.1000      7.9819      2.5380      0.0229      6.7861    146.1632     27.4169
  1220.2000      7.9819      2.5374      0.0371      6.8267    136.2520     27.3523
  1220.3000      8.0150      2.5454      0.0562      6.3411    130.1635     27.3891
  1220.4000      8.0150      2.5645      0.0558      5.1829    125.1820     27.3586
  1220.5000      8.0426      2.5857      0.0609      3.8965    115.1882     26.9802
  1220.6000      8.0426      2.5848      0.1149      3.9542    106.3252     26.3416
  1220.7000      8.0426      2.5545      0.0376      5.7886    105.4424     25.9202
  1220.8000      8.0454      2.5227      0.0186      7.7142    109.1808     25.9836
  1220.9000      8.0454      2.5183      0.0235      7.9831    112.7071     26.1626
  1221.0000      8.0537      2.5414      0.0615      6.5817    114.3897     26.1668
  1221.1000      8.0537      2.5766      0.0811      4.4497    111.8913     26.2347
  1221.2000      8.0537      2.6103      0.1241      2.4038    102.7645     26.4364
  1221.3000      8.0257      2.6294      0.1720      1.2456     88.6588     26.4080
  1221.4000      8.0257      2.6375      0.0919      0.7555     77.2800     25.9623
  1221.5000      8.0655      2.6544      0.0765     -0.2664     73.4476     25.4215
  1221.6000      8.0655      2.6752      0.1673     -1.5279     73.2975     25.1201
  1221.7000      8.0655      2.6842      0.0900     -2.0749     72.0553     24.8813
  1221.8000      8.0141      2.6811      0.1725     -1.8846     68.9028     24.5022
  1221.9000      8.0141      2.6605      0.1599     -0.6359     67.4075     24.1394
  1222.0000      8.0418      2.6182      0.1658      1.9255     68.3976     23.8984
  1222.1000      8.0418      2.5606      0.1069      5.4208     67.4905     23.4098
  1222.2000      8.0418      2.5011      0.1076      9.0212     66.7766     22.3990
  1222.3000      7.9742      2.4650      0.0873     11.2108     71.1035     21.3845
  1222.4000      7.9742      2.4769      0.1173     10.4880     74.8278     20.8201
  1222.5000      7.9109      2.5324      0.1488      7.1295     71.3215     20.6098
  1222.6000      7.9109      2.6013      0.1797      2.9536     65.6379     20.6261
  1222.7000      7.9109      2.6648      0.2375     -0.8967     62.9944     20.6875
  1222.8000      7.8950      2.7180      0.3160     -4.1189     60.7611     20.4870
  1222.9000      7.8950      2.7459      0.3819     -5.8123     57.8412     20.0102
  1223.0000      7.9267      2.7380      0.3413     -5.3347     57.1538     19.5286
  1223.1000      7.9267      2.6984      0.3455     -2.9315     58.6105     19.1691
  1223.2000      7.9267      2.6317      0.2355      1.1091     58.7668     19.0297
  1223.3000      7.9396      2.5647      0.0827      5.1726     56.6972     19.2026
  1223.4000      7.9396      2.5324      0.0519      7.1273     55.4720     19.4299
  1223.5000      7.9501      2.5310      0.0674      7.2118     55.2735     19.4237
  1223.6000      7.9501      2.5385      0.0497      6.7561     54.0226     19.2378
  1223.7000      7.9501      2.5552      0.1393      5.7445     52.9406     19.0474
  1223.8000      8.0190      2.5896      0.1158      3.6611     52.6279     19.0098
  1223.9000      8.0190      2.6220      0.2421      1.6990     51.1934     19.0965
  1224.0000      8.0539      2.6177      0.2170      1.9603     48.5496     19.1853
  1224.1000      8.0539      2.5892      0.1273      3.6831     46.8587     19.3907
  1224.2000      8.0539      2.5770      0.0962      4.4267     46.9561     19.6155
  1224.3000      8.0434      2.5829      0.1627      4.0657     47.6451     19.5781
  1224.4000      8.0434      2.5930      0.0962      3.4524     47.0922     19.5007
  1224.5000      8.0103      2.6080      0.0958      2.5439     45.4880     19.4628
  1224.6000      8.0103      2.6106      0.1615      2.3872     46.3630     19.2846
  1224.7000      8.0103      2.5848      0.0709      3.9486     50.1318     19.1883
  1224.8000      8.0926      2.5568      0.0687      5.6504     51.5063     19.2913
  1224.9000      8.0926      2.5520      0.1303      5.9380     50.2370     19.4144
  1225.0000      8.1363      2.5576      0.1342      5.5995     53.0345     19.5438
  1225.1000      8.1363      2.5512      0.1035      5.9879     60.5100     19.6444
  1225.2000      8.1363      2.5292      0.0682      7.3234     65.1035     19.6567
  1225.3000      8.1060      2.5119      0.0297      8.3690     63.6036     19.8478
  1225.4000      8.1060      2.5279      0.0696      7.3975     60.7107     20.3662
  1225.5000      8.1086      2.5715      0.1074      4.7557     58.3403     21.0108
  1225.6000      8.1086      2.6022      0.1716      2.8948     54.4017     21.5210
  1225.7000      8.1086      2.5989      0.1110      3.0942     52.2298     21.8546
  1225.8000      8.0819      2.5823      0.1283      4.1018     54.0755     22.2891
  1225.9000      8.0819      2.5785      0.0990      4.3356     56.7870     22.8742
