~Version Information
VERS.                      2.0: CWLS Log ASCII Standard - VERSION 2.0
WRAP.                       NO: One line per depth step
~Well Information Block
STRT.FT               294.3000: 
STOP.FT              1461.0000: 
STEP.FT                 0.1000: 
NULL.                -999.2500: 
COMP.          Pioneer Natural Resources: COMPANY
WELL.              Lucky 21-36: WELL
FLD.           Purgatoire River: FIELD
CDN. :
PROV. :
UWI. :
STAT. :
CNTY. :
CTRY. :
API. :
COMP. :
WELL. :
FLD. :
LOC. :
DATE. :
SRVC. :
LOC.           799' FNL & 1578' FWL--: LOCATION
CNTY.               Las Animas: COUNTY
SRVC.          Superior Well Services: SERVICE COMPANY
DATE.          Tue Jul 08 08-29-33 2008: LOG DATE
UWI.           05 071 08456 00: UNIQUE WELL ID
STAT.                 Colorado: STATE
~Curve Information Block
DEPT.FT            0 000 00 00: Depth
DCAL.in                       : CDL Caliper
RHOB.g/cc                     : CDL Bulk Density
RHOC.g/cc                     : CDL Density Correction
DPOR.pu                       : CDL Density Porosity
NPOR.pu                       : Neutron Porosity
GR.GAPI                       : Gamma Ray
~Parameter Information Block
~A  Depth       DCAL        RHOB        RHOC        DPOR        NPOR         GR     
# ...
  1350.3000      7.8913      2.4024      0.0383     15.0080     20.7929     80.5659
  1350.4000      7.8916      2.4157      0.0727     14.2021     20.4343     84.5706
  1350.5000      7.8921      2.4243      0.0627     13.6784     19.9362     84.7100
  1350.6000      7.8924      2.4288      0.0558     13.4078     19.5026     82.1920
  1350.7000      7.8923      2.4355      0.0691     13.0009     19.4834     80.4285
  1350.8000      7.8919      2.4455      0.0545     12.3952     19.5991     81.9217
  1350.9000      7.8914      2.4519      0.0719     12.0049     19.4526     86.0675
  1351.0000      7.8912      2.4542      0.0069     11.8639     19.2943     90.8396
  1351.1000      7.8914      2.4546      0.0910     11.8421     19.3618     95.7645
  1351.2000      7.8918      2.4472      0.0429     12.2929     19.4194    100.4540
  1351.3000      7.8923      2.4351      0.0528     13.0232     19.3254    101.0315
  1351.4000      7.8927      2.4257      0.0220     13.5918     19.4551     97.4965
  1351.5000      7.8930      2.4198      0.0558     13.9525     19.9937     93.0278
  1351.6000      7.8932      2.4138      0.0600     14.3122     20.4632     85.4593
  1351.7000      7.8934      2.4052      0.0375     14.8343     20.6146     76.8843
  1351.8000      7.8934      2.3930      0.0443     15.5745     20.6719     75.0820
  1351.9000      7.8931      2.3818      0.0256     16.2533     20.6399     77.0087
  1352.0000      7.8923      2.3781      0.0375     16.4799     20.3231     74.2144
  1352.1000      7.8913      2.3858      0.0136     16.0136     19.8738     69.5958
  1352.2000      7.8904      2.4081      0.0433     14.6594     19.7408     71.6043
  1352.3000      7.8901      2.4362      0.0726     12.9551     19.9362     79.6311
  1352.4000      7.8905      2.4505      0.0890     12.0903     19.9928     86.6824
  1352.5000      7.8914      2.4441      0.0624     12.4779     19.8468     92.3244
  1352.6000      7.8927      2.4313      0.0651     13.2527     19.6417     99.3128
  1352.7000      7.8938      2.4273      0.0522     13.4944     19.3429    100.6268
  1352.8000      7.8947      2.4339      0.0631     13.0996     19.1512     91.7089
  1352.9000      7.8954      2.4440      0.0609     12.4857     19.3183     82.5458
  1353.0000      7.8958      2.4498      0.0546     12.1324     19.7474     80.4873
  1353.1000      7.8962      2.4429      0.0613     12.5520     20.3551     82.9962
  1353.2000      7.8965      2.4218      0.0403     13.8296     21.0114     87.6045
  1353.3000      7.8968      2.3979     -0.0047     15.2792     21.2186     91.8826
  1353.4000      7.8969      2.3831     -0.0159     16.1733     21.0335     90.6664
  1353.5000      7.8967      2.3781      0.0214     16.4792     20.9293     81.8267
  1353.6000      7.8962      2.3819     -0.0216     16.2470     20.9292     70.4451
  1353.7000      7.8958      2.4008     -0.0009     15.1015     20.8919     63.5593
  1353.8000      7.8958      2.4279      0.0453     13.4623     20.7762     64.1755
  1353.9000      7.8962      2.4428      0.0498     12.5559     20.4835     70.2499
  1354.0000      7.8974      2.4417      0.0419     12.6260     20.0181     76.1474
  1354.1000      7.8990      2.4399      0.0133     12.7342     19.6345     76.5262
  1354.2000      7.9005      2.4401      0.0852     12.7195     19.6187     75.2393
  1354.3000      7.9014      2.4257      0.0589     13.5910     20.0338     78.5375
  1354.4000      7.9013      2.3997      0.0078     15.1713     20.7030     83.5625
  1354.5000      7.8999      2.3873     -0.0070     15.9242     21.2532     84.0500
  1354.6000      7.8978      2.4030      0.0305     14.9696     21.3969     80.7986
  1354.7000      7.8954      2.4365      0.0612     12.9383     20.9671     78.6044
  1354.8000      7.8933      2.4559      0.1093     11.7636     20.1648     79.3531
  1354.9000      7.8919      2.4428      0.0725     12.5557     19.5484     82.0864
  1355.0000      7.8911      2.4209      0.0376     13.8840     19.1244     86.2548
  1355.1000      7.8906      2.4187      0.0244     14.0171     18.9461     92.1851
  1355.2000      7.8903      2.4322      0.0456     13.1997     19.5679     94.6980
  1355.3000      7.8901      2.4385      0.0541     12.8185     20.6137     89.2739
  1355.4000      7.8900      2.4278      0.0664     13.4680     21.2239     81.7091
  1355.5000      7.8902      2.4096      0.0134     14.5676     21.2735     79.8867
  1355.6000      7.8907      2.3964      0.0194     15.3674     20.8854     83.2621
  1355.7000      7.8915      2.3911     -0.0024     15.6924     20.5608     86.2777
  1355.8000      7.8923      2.3924      0.0007     15.6099     20.6305     85.5903
  1355.9000      7.8930      2.3956      0.0550     15.4201     20.6093     82.1281
  1356.0000      7.8933      2.3944      0.0279     15.4911     20.4299     81.9321
  1356.1000      7.8935      2.3946      0.0143     15.4773     20.4335     87.4704
  1356.2000      7.8938      2.4027      0.0797     14.9853     20.5395     90.6123
  1356.3000      7.8944      2.4162      0.0284     14.1679     20.5671     85.3590
  1356.4000      7.8953      2.4307      0.0475     13.2906     20.4081     78.2587
  1356.5000      7.8966      2.4389      0.0732     12.7951     20.1725     78.4392
  1356.6000      7.8979      2.4406      0.0607     12.6923     20.0787     84.5363
  1356.7000      7.8988      2.4480      0.0336     12.2442     20.0265     89.4755
  1356.8000      7.8988      2.4633      0.0450     11.3135     19.8365     92.1888
  1356.9000      7.8980      2.4750      0.0652     10.6074     19.6558     92.7500
  1357.0000      7.8968      2.4777      0.0580     10.4424     19.7466     89.5312
  1357.1000      7.8955      2.4740      0.0646     10.6676     19.9506     85.6503
  1357.2000      7.8943      2.4610      0.0830     11.4574     19.9816     84.7787
  1357.3000      7.8934      2.4401      0.0219     12.7187     19.8870     85.9507
  1357.4000      7.8926      2.4214      0.0404     13.8527     19.9238     86.5769
  1357.5000      7.8920      2.4080      0.0169     14.6656     20.1861     85.4739
  1357.6000      7.8917      2.4058     -0.0183     14.8021     20.2929     80.9042
  1357.7000      7.8920      2.4203      0.0132     13.9231     20.0025     74.3746
  1357.8000      7.8929      2.4338      0.0717     13.1014     19.6034     71.9681
  1357.9000      7.8946      2.4297      0.0476     13.3537     19.5081     74.8804
  1358.0000      7.8971      2.4211     -0.0021     13.8703     19.6965     77.9385
  1358.1000      7.9005      2.4208      0.0553     13.8934     19.9185     79.9092
  1358.2000      7.9044      2.4210      0.0472     13.8798     20.3865     80.1374
  1358.3000      7.9082      2.4220      0.0160     13.8180     21.1854     74.9059
  1358.4000      7.9113      2.4285      0.0603     13.4252     21.6574     68.7152
  1358.5000      7.9133      2.4325      0.0225     13.1817     21.4705     70.5990
  1358.6000      7.9142      2.4325      0.0317     13.1845     21.0699     78.7150
  1358.7000      7.9146      2.4339      0.0621     13.0957     20.7872     86.2983
  1358.8000      7.9149      2.4334      0.0588     13.1260     20.7188     92.3466
  1358.9000      7.9154      2.4254      0.0460     13.6127     20.9487     96.4493
  1359.0000      7.9162      2.4149      0.0018     14.2512     21.1732     95.1945
  1359.1000      7.9169      2.4086      0.0411     14.6333     21.2457     87.8656
  1359.2000      7.9173      2.4054      0.0444     14.8225     21.4486     78.4053
  1359.3000      7.9174      2.4092      0.0421     14.5961     21.6147     73.5208
  1359.4000      7.9171      2.4236      0.0341     13.7241     21.3882     76.7538
  1359.5000      7.9166      2.4371      0.0398     12.9018     20.9454     83.6123
  1359.6000      7.9161      2.4392      0.0841     12.7756     20.6450     89.2846
  1359.7000      7.9156      2.4412      0.0289     12.6558     20.2918     92.4434
  1359.8000      7.9152      2.4590      0.0740     11.5749     19.7035     91.6074
