~Version Information
VERS.                      2.0: CWLS Log ASCII Standard - VERSION 2.0
WRAP.                       NO: One line per depth step
~Well Information Block
STRT.FT                10.0000: 
STOP.FT              1350.5000: 
STEP.FT                 0.1000: 
NULL.                -999.2500: 
COMP.          Pioneer Natural Resources: COMPANY
WELL.              Dicks 32-5R: WELL
FLD.           Purgatorie River: FIELD
LOC.           1485' FNL & 1684' FEL: LOCATION
PROV.                 Colorado: PROVINCE
CNTY.               Las Animas: COUNTRY
SRVC.                Patterson: SERVICE COMPANY
DATE.          Fri Dec 09 10:06:15 2005: LOG DATE
UWI.                          : UNIQUE WELL ID
~Curve Information Block
DEPT.FT            0 000 00 00: Depth
DCAL.in                       : CDL Caliper
RHOB.g/cc                     : CDL Bulk Density
RHOC.g/cc                     : CDL Density Correction
DPOR.pu                       : CDL Density Porosity
GR.GAPI                       : Gamma Ray
NPOR.pu                       : Neutron Porosity
~Parameter Information Block
~A  Depth       DCAL        RHOB        RHOC        DPOR         GR         NPOR    
# ...
   979.6000      8.0728      2.5397      0.0416      6.6841    144.6837     28.6814
   979.7000      8.0728      2.5466      0.0638      6.2679    138.8986     28.2718
   979.8000      8.0480      2.5585      0.0850      5.5475    131.7020     27.9067
   979.9000      8.0480      2.5683      0.0365      4.9512    126.5862     27.7630
   980.0000      8.0341      2.5769      0.1024      4.4281    125.6057     27.7668
   980.1000      8.0341      2.5759      0.0784      4.4938    126.1571     27.7202
   980.2000      8.0341      2.5651      0.0763      5.1431    124.7925     27.8788
   980.3000      8.0095      2.5587      0.0771      5.5325    124.9287     28.4092
   980.4000      8.0095      2.5600      0.0859      5.4568    129.0128     28.5466
   980.5000      7.9859      2.5585      0.0962      5.5430    132.8218     27.8856
   980.6000      7.9859      2.5516      0.0610      5.9607    132.7384     27.1687
   980.7000      7.9859      2.5476      0.0486      6.2049    130.3599     26.9283
   980.8000      7.9716      2.5465      0.0577      6.2744    129.3971     26.9697
   980.9000      7.9716      2.5433      0.0433      6.4681    129.4161     27.0225
   981.0000      8.0060      2.5464      0.0509      6.2799    128.8376     26.9815
   981.1000      8.0060      2.5601      0.0756      5.4501    129.3461     26.7933
   981.2000      8.0060      2.5658      0.0762      5.1037    132.5463     26.6003
   981.3000      8.0540      2.5490      0.0499      6.1195    136.0879     26.7325
   981.4000      8.0540      2.5248     -0.0240      7.5862    135.4172     27.2451
   981.5000      8.0516      2.5116      0.0220      8.3896    132.2601     27.6875
   981.6000      8.0516      2.5009      0.0386      9.0344    132.6602     27.6807
   981.7000      8.0516      2.4800      0.0447     10.3054    136.5607     27.2374
   981.8000      8.0564      2.4557     -0.0407     11.7730    141.1749     26.6685
   981.9000      8.0564      2.4265      0.0333     13.5432    144.2422     26.5049
   982.0000      8.0606      2.3624      0.0470     17.4291    142.3373     27.0060
   982.1000      8.0606      2.2548     -0.0311     23.9499    136.5919     27.8067
   982.2000      8.0606      2.1323     -0.0848     31.3781    133.3674     28.3564
   982.3000      8.0502      2.0115     -0.0308     38.6995    133.7495     28.6622
   982.4000      8.0502      1.8913     -0.0954     45.9811    131.5031     28.9933
   982.5000      8.0616      1.7806     -0.1272     52.6938    124.3036     29.1886
   982.6000      8.0616      1.6859     -0.1006     58.4331    115.7655     29.1425
   982.7000      8.0616      1.6072     -0.0944     63.2016    107.9691     29.1620
   982.8000      8.0394      1.5577     -0.0479     66.2001    100.9148     29.3429
   982.9000      8.0394      1.5600     -0.0210     66.0577     93.5879     29.5529
   983.0000      7.9988      1.6198      0.0793     62.4371     84.8405     29.9660
   983.1000      7.9988      1.7098      0.1246     56.9839     76.3771     30.6153
   983.2000      7.9988      1.7934      0.1454     51.9131     71.8883     31.1197
   983.3000      7.9674      1.8693      0.0851     47.3167     72.4304     31.1957
   983.4000      7.9674      1.9636      0.1054     41.5998     77.1613     31.1142
   983.5000      8.0267      2.0709      0.2055     35.0947     84.0811     31.2732
   983.6000      8.0267      2.1594      0.2113     29.7315     88.7779     31.5572
   983.7000      8.0267      2.2294      0.1381     25.4914     89.5325     31.6777
   983.8000      8.0968      2.2974      0.1442     21.3712     90.1096     31.5305
   983.9000      8.0968      2.3510      0.1646     18.1209     91.9965     31.0867
   984.0000      8.1148      2.3783      0.1101     16.4676     92.8577     30.5182
   984.1000      8.1148      2.3973      0.1034     15.3137     93.6138     30.1739
   984.2000      8.1148      2.4233      0.1117     13.7380     96.4558     30.0284
   984.3000      8.1078      2.4525      0.1058     11.9678     98.2377     29.7777
   984.4000      8.1078      2.4817      0.1027     10.2019     99.5026     29.5204
   984.5000      8.0942      2.5166      0.0873      8.0877    102.9508     29.3895
   984.6000      8.0942      2.5593      0.1342      5.4986    105.5825     29.3136
   984.7000      8.0942      2.5945      0.1578      3.3634    105.4674     29.2664
   984.8000      8.0951      2.6129      0.0966      2.2462    104.7571     29.0233
   984.9000      8.0951      2.6252      0.1088      1.5059    105.0933     28.4918
   985.0000      8.0831      2.6309      0.1749      1.1588    106.1481     27.9834
   985.1000      8.0831      2.6209      0.0902      1.7639    107.1923     27.7686
   985.2000      8.0831      2.5995      0.0846      3.0594    109.1456     27.6695
   985.3000      8.0509      2.5785      0.0433      4.3330    113.6100     27.3048
   985.4000      8.0509      2.5715      0.0505      4.7587    117.6031     26.7935
   985.5000      7.9995      2.5765      0.0800      4.4538    118.3315     26.5681
   985.6000      7.9995      2.5743      0.0398      4.5878    117.9715     26.6134
   985.7000      7.9995      2.5545      0.0865      5.7891    116.5883     26.7955
   985.8000      8.0208      2.5198      0.0923      7.8902    111.7691     27.1712
   985.9000      8.0208      2.4777      0.0794     10.4450    108.2203     27.4756
   986.0000      8.0409      2.4421     -0.0040     12.6002    112.9879     27.3630
   986.1000      8.0409      2.4291     -0.0020     13.3884    121.1899     26.9851
   986.2000      8.0409      2.4370      0.0152     12.9079    123.2982     26.8871
   986.3000      8.0650      2.4497      0.0087     12.1366    119.8101     27.4596
   986.4000      8.0650      2.4567      0.0443     11.7169    117.8603     28.4123
   986.5000      8.0604      2.4563      0.0545     11.7409    120.9436     29.1309
   986.6000      8.0604      2.4479      0.0696     12.2464    125.7778     29.4213
   986.7000      8.0604      2.4300      0.0311     13.3327    127.7132     29.3795
   986.8000      8.0919      2.4077      0.0300     14.6877    126.3127     29.1688
   986.9000      8.0919      2.3898      0.0175     15.7724    123.8406     29.1029
   987.0000      8.1115      2.3734      0.0210     16.7608    121.9322     29.2611
   987.1000      8.1115      2.3440      0.0146     18.5459    121.0890     29.3865
   987.2000      8.1115      2.2927      0.0283     21.6571    122.2222     29.3632
   987.3000      8.0913      2.2276     -0.0268     25.6003    125.5790     29.3918
   987.4000      8.0913      2.1570      0.0230     29.8790    126.0004     29.6043
   987.5000      8.0947      2.0685      0.0275     35.2441    120.4340     29.7988
   987.6000      8.0947      1.9573      0.0168     41.9814    113.0133     29.6938
   987.7000      8.0947      1.8493     -0.0321     48.5245    106.7191     29.4357
   987.8000      8.1460      1.7699     -0.0490     53.3364    100.4863     29.4576
   987.9000      8.1460      1.7256     -0.0404     56.0254     93.2093     29.7912
   988.0000      8.1079      1.7212     -0.0662     56.2919     85.6991     30.0672
   988.1000      8.1079      1.7653     -0.0167     53.6197     79.1715     30.2693
   988.2000      8.1079      1.8544      0.0814     48.2177     75.9549     30.5608
   988.3000      8.0826      1.9675      0.1696     41.3617     77.7450     30.7948
   988.4000      8.0826      2.0814      0.2209     34.4590     82.6179     30.9072
   988.5000      8.1975      2.1940      0.2156     27.6382     86.1652     30.9224
   988.6000      8.1975      2.3094      0.2312     20.6398     86.0155     30.8745
   988.7000      8.1975      2.4049      0.2395     14.8535     85.9192     31.0003
   988.8000      8.2709      2.4624      0.1603     11.3693     89.4482     31.3327
   988.9000      8.2709      2.4999      0.0894      9.0955     94.3126     31.5729
   989.0000      8.1249      2.5311      0.0882      7.2063     97.8522     31.4345
   989.1000      8.1249      2.5520      0.0590      5.9377     99.5782     30.7107
