~Version Information
VERS.                      2.0: CWLS Log ASCII Standard - VERSION 2.0
WRAP.                       NO: One line per depth step
~Well Information Block
STRT.FT               245.0000: 
STOP.FT              1217.7000: 
STEP.FT                 0.1000: 
NULL.                -999.2500: 
COMP.          Pioneer Natural Resources: COMPANY
WELL.          Lucky Lady 42-29: WELL
FLD.           Purgatoire River: FIELD
LOC.           2482' FNL & 662' FEL--: LOCATION
CNTY.               Las Animas: COUNTY
SRVC.                Patterson: SERVICE COMPANY
DATE.          Thu Mar 09 18:39:54 2006: LOG DATE
UWI.           05 071 08659 00: UNIQUE WELL ID
STAT.                 Colorado: STATE
~Curve Information Block
DEPT.FT            0 000 00 00: Depth
DCAL.in                       : CDL Caliper
RHOB.g/cc                     : CDL Bulk Density
RHOC.g/cc                     : CDL Density Correction
DPOR.pu                       : CDL Density Porosity
NPOR.pu                       : Neutron Porosity
GR.GAPI                       : Gamma Ray
~Parameter Information Block
~A  Depth       DCAL        RHOB        RHOC        DPOR        NPOR         GR     
# ...
   437.0000      7.9831      2.4836      0.1810     10.0862     22.1337    174.7620
   437.1000      7.9831      2.4953      0.1714      9.3749     21.7195    174.4315
   437.2000      7.9831      2.4879      0.1551      9.8251     22.1261    173.8585
   437.3000      7.9827      2.4635      0.1158     11.3018     23.0826    171.8014
   437.4000      7.9827      2.4388      0.0505     12.8017     23.6486    170.4578
   437.5000      7.9824      2.4338      0.0702     13.1037     23.5474    170.3046
   437.6000      7.9824      2.4550      0.0727     11.8181     23.2536    172.6861
   437.7000      7.9824      2.4898      0.1173      9.7084     23.0363    175.0867
   437.8000      7.9803      2.5174      0.0942      8.0367     22.9670    170.4287
   437.9000      7.9803      2.5296      0.0943      7.2997     23.0969    161.2565
   438.0000      7.9767      2.5285      0.0895      7.3613     23.2901    157.4859
   438.1000      7.9767      2.5179      0.1112      8.0061     23.5804    161.1386
   438.2000      7.9767      2.5045      0.0738      8.8201     24.0568    165.9490
   438.3000      7.9715      2.4948      0.0779      9.4079     24.3862    168.1044
   438.4000      7.9715      2.4904      0.0785      9.6699     24.3732    167.2229
   438.5000      7.9699      2.4929      0.0857      9.5238     24.4049    165.1138
   438.6000      7.9699      2.4979      0.0981      9.2152     24.6875    164.4079
   438.7000      7.9699      2.4966      0.1226      9.2959     24.9538    163.9691
   438.8000      7.9802      2.4952      0.0800      9.3826     24.8706    163.6496
   438.9000      7.9802      2.5095      0.0721      8.5181     24.3152    164.1830
   439.0000      8.0041      2.5358      0.0855      6.9212     23.5554    163.7205
   439.1000      8.0041      2.5530      0.0854      5.8814     22.9592    161.9728
   439.2000      8.0041      2.5502      0.0807      6.0470     22.5124    158.4677
   439.3000      8.0372      2.5383      0.0413      6.7719     21.9858    155.0914
   439.4000      8.0372      2.5264      0.0670      7.4910     21.4504    155.5550
   439.5000      8.0754      2.5125      0.0318      8.3329     21.0288    157.6774
   439.6000      8.0754      2.4942      0.0606      9.4426     20.4980    156.3546
   439.7000      8.0754      2.4699      0.0253     10.9151     19.7251    152.1774
   439.8000      8.1103      2.4514      0.0276     12.0341     19.0517    146.6604
   439.9000      8.1103      2.4554      0.0524     11.7961     18.8067    138.3969
   440.0000      8.1041      2.4794      0.0572     10.3372     18.6902    130.5629
   440.1000      8.1041      2.5108      0.0552      8.4380     18.3614    127.1239
   440.2000      8.1041      2.5367      0.1313      6.8667     18.0241    128.7932
   440.3000      8.0405      2.5461      0.0978      6.2973     17.9022    134.1079
   440.4000      8.0405      2.5373      0.0912      6.8320     17.9015    141.0132
   440.5000      7.9726      2.5273      0.0238      7.4354     17.8964    145.4558
   440.6000      7.9726      2.5354      0.0566      6.9451     18.1149    142.0833
   440.7000      7.9726      2.5513      0.0878      5.9824     18.9978    132.8971
   440.8000      7.9381      2.5607      0.0843      5.4094     20.3558    127.2323
   440.9000      7.9381      2.5680      0.0754      4.9672     21.4991    128.1626
   441.0000      7.9302      2.5702      0.0533      4.8350     22.0928    125.9243
   441.1000      7.9302      2.5555      0.0686      5.7268     22.2605    117.2235
   441.2000      7.9302      2.5405     -0.0228      6.6334     22.2722    111.8880
   441.3000      7.9281      2.5602      0.0315      5.4415     22.4993    114.2267
   441.4000      7.9281      2.6087      0.1111      2.5000     22.9977    117.6445
   441.5000      7.9228      2.6520      0.1474     -0.1200     23.3163    117.1056
   441.6000      7.9228      2.6702      0.1380     -1.2213     23.3448    116.2377
   441.7000      7.9228      2.6623      0.1105     -0.7451     23.4400    119.5205
   441.8000      7.9203      2.6458      0.0491      0.2521     23.8377    122.9781
   441.9000      7.9203      2.6397      0.0679      0.6259     24.3667    120.8706
   442.0000      7.9241      2.6404      0.0447      0.5838     24.6416    116.5847
   442.1000      7.9241      2.6387      0.0388      0.6867     24.5455    118.5854
   442.2000      7.9241      2.6281      0.0311      1.3257     24.3481    125.6921
   442.3000      7.9284      2.6030      0.0056      2.8483     24.3457    127.4336
   442.4000      7.9284      2.5710      0.0044      4.7891     24.5615    121.1732
   442.5000      7.9294      2.5478     -0.0198      6.1937     24.7357    115.1399
   442.6000      7.9294      2.5358     -0.0004      6.9222     24.7001    113.9651
   442.7000      7.9294      2.5197      0.0170      7.8964     24.5716    113.8930
   442.8000      7.9289      2.4947     -0.0620      9.4129     24.6200    111.0574
   442.9000      7.9289      2.4742     -0.0893     10.6531     24.8710    106.9385
   443.0000      7.9288      2.4668     -0.0587     11.1046     24.9975    108.7005
   443.1000      7.9288      2.4725     -0.0428     10.7597     25.0348    120.4637
   443.2000      7.9288      2.4781      0.0406     10.4196     25.2792    135.5546
   443.3000      7.9303      2.4730     -0.0009     10.7291     25.5152    145.2393
   443.4000      7.9303      2.4690      0.0680     10.9716     25.4904    147.7307
   443.5000      7.9367      2.4722      0.0830     10.7767     25.4229    145.8323
   443.6000      7.9367      2.4746      0.1241     10.6297     25.3274    143.3020
   443.7000      7.9367      2.4740      0.1032     10.6649     24.9349    143.7475
   443.8000      7.9451      2.4775      0.1105     10.4552     24.2669    148.7307
   443.9000      7.9451      2.4891      0.1221      9.7519     23.5364    156.7482
   444.0000      7.9507      2.4991      0.1382      9.1464     22.7621    165.2072
   444.1000      7.9507      2.4914      0.0959      9.6148     22.0570    168.6511
   444.2000      7.9507      2.4662      0.0752     11.1383     21.5989    162.3126
   444.3000      7.9547      2.4389      0.0734     12.7931     21.3125    151.3549
   444.4000      7.9547      2.4192      0.0534     13.9906     21.0541    144.0602
   444.5000      7.9577      2.4075      0.0564     14.6971     20.8422    145.1697
   444.6000      7.9577      2.4076      0.0540     14.6920     20.7310    155.4714
   444.7000      7.9577      2.4234      0.0798     13.7311     20.5431    167.5546
   444.8000      7.9620      2.4483      0.0506     12.2268     20.1151    170.9476
   444.9000      7.9620      2.4656      0.0940     11.1780     19.9866    163.1429
   445.0000      7.9646      2.4691      0.0587     10.9658     20.5059    154.5364
   445.1000      7.9646      2.4719      0.0931     10.7946     21.1795    157.7409
   445.2000      7.9646      2.4694      0.1273     10.9429     21.9106    167.0706
   445.3000      7.9592      2.4400      0.0735     12.7264     22.8161    170.2923
   445.4000      7.9592      2.3933      0.0142     15.5603     23.5626    169.2397
   445.5000      7.9486      2.3643     -0.0306     17.3124     24.0750    171.4326
   445.6000      7.9486      2.3645      0.0378     17.3016     24.3838    176.2660
   445.7000      7.9486      2.3670      0.0764     17.1531     24.4378    177.0804
   445.8000      7.9342      2.3451      0.0277     18.4768     24.3438    171.5329
   445.9000      7.9342      2.3010      0.0124     21.1489     24.1962    161.4384
   446.0000      7.9189      2.2555      0.0253     23.9103     24.0606    151.8259
   446.1000      7.9189      2.2360      0.0171     25.0920     23.7900    146.5772
   446.2000      7.9189      2.2606      0.1167     23.6030     23.3359    144.5008
   446.3000      7.9083      2.3223      0.0890     19.8618     22.8890    143.3670
   446.4000      7.9083      2.3968      0.1882     15.3476     22.6136    142.0420
   446.5000      7.9092      2.4502      0.2447     12.1063     22.6659    140.6203
