~Version Information
VERS.                      2.0: CWLS Log ASCII Standard - VERSION 2.0
WRAP.                       NO: One line per depth step
~Well Information Block
STRT.FT               687.7500: 
STOP.FT              1252.7500: 
STEP.FT                 0.2500: 
NULL.                -999.2500: 
COMP.          Pioneer Natural Resources: COMPANY
WELL.          Rock Island 44-24 Tr: WELL
FLD.           Purgatoire River: FIELD
LOC.           814' FSL & 761' FEL--: LOCATION
CNTY.               Las Animas: COUNTY
SRVC.                Patterson: SERVICE COMPANY
DATE.          Wed Apr 19 21:31:44 2006: LOG DATE
UWI.           05 071 08680 00: UNIQUE WELL ID
STAT.                 Colorado: STATE
~Curve Information Block
DEPT.FT            0 000 00 00: Depth
DIR.Ohm-m                     : IEL Induction Resistivity
GR.GAPI                       : Gamma Ray
~Parameter Information Block
~A  Depth       DIR          GR     
# ...
   966.5000      9.2794    126.2109
   966.7500     11.0813    129.7691
   967.0000     13.2896    131.7093
   967.2500     15.6785    129.9039
   967.5000     17.8265    122.6367
   967.7500     19.3242    115.5732
   968.0000     20.0650    103.7908
   968.2500     20.2561     96.7803
   968.5000     20.1497     90.9808
   968.7500     19.8329     92.0243
   969.0000     19.2282    101.3195
   969.2500     18.2448    110.6542
   969.5000     16.9300    123.8056
   969.7500     15.4775    129.5323
   970.0000     14.1080    132.9957
   970.2500     12.9665    133.3482
   970.5000     12.1066    134.0348
   970.7500     11.5208    135.5211
   971.0000     11.1721    138.7093
   971.2500     11.0105    140.3476
   971.5000     10.9790    140.1989
   971.7500     11.0197    137.8115
   972.0000     11.0812    131.1100
   972.2500     11.1284    125.4801
   972.5000     11.1445    117.8035
   972.7500     11.1248    114.7099
   973.0000     11.0650    114.2848
   973.2500     10.9540    116.1474
   973.5000     10.7749    119.4123
   973.7500     10.5140    120.4724
   974.0000     10.1717    119.8826
   974.2500      9.7684    118.8796
   974.5000      9.3413    118.5487
   974.7500      8.9336    119.8993
   975.0000      8.5841    124.1167
   975.2500      8.3209    127.5116
   975.5000      8.1609    131.6712
   975.7500      8.1124    133.2805
   976.0000      8.1790    134.2536
   976.2500      8.3613    134.2408
   976.5000      8.6596    132.4788
   976.7500      9.0753    128.9002
   977.0000      9.6141    118.2067
   977.2500     10.2871    107.9705
   977.5000     11.1096     91.6845
   977.7500     12.0948     83.0196
   978.0000     13.2443     76.3302
   978.2500     14.5316     76.0499
   978.5000     15.8834     79.8520
   978.7500     17.1667     83.9405
   979.0000     18.2029     91.1329
   979.2500     18.8227     96.2142
   979.5000     18.9405    103.5918
   979.7500     18.5959    108.0978
   980.0000     17.9292    114.3673
   980.2500     17.1151    118.4197
   980.5000     16.3022    124.1808
   980.7500     15.5861    127.4235
   981.0000     15.0113    130.7482
   981.2500     14.5873    131.8030
   981.5000     14.3049    131.8219
   981.7500     14.1455    131.0825
   982.0000     14.0848    129.5947
   982.2500     14.0944    128.7598
   982.5000     14.1464    127.8795
   982.7500     14.2216    127.2243
   983.0000     14.3162    125.5198
   983.2500     14.4426    124.0073
   983.5000     14.6239    122.2883
   983.7500     14.8858    122.1091
   984.0000     15.2477    123.0156
   984.2500     15.7160    123.5424
   984.5000     16.2795    122.7693
   984.7500     16.9116    120.8727
   985.0000     17.5756    116.0265
   985.2500     18.2282    111.4726
   985.5000     18.8135    102.3770
   985.7500     19.2506     94.8858
   986.0000     19.4297     83.0251
   986.2500     19.2392     76.3277
   986.5000     18.6265     70.8223
   986.7500     17.6585     71.0094
   987.0000     16.5202     76.7200
   987.2500     15.4497     83.0762
   987.5000     14.6894     93.8121
   987.7500     14.5324    100.1400
   988.0000     15.5729    106.1872
   988.2500     19.7961    107.5310
   988.5000     41.9685    106.7572
   988.7500 100000.0000    105.5825
   989.0000 100000.0000    103.9291
   989.2500 100000.0000    102.7569
   989.5000 100000.0000    100.4176
   989.7500 100000.0000     98.5996
   990.0000 100000.0000     96.2640
   990.2500 100000.0000     95.3154
   990.5000 100000.0000     94.7337
   990.7500 100000.0000     94.5457
   991.0000 100000.0000     93.9035
   991.2500 100000.0000     93.1040
   991.5000 100000.0000     91.7672
   991.7500 100000.0000     91.2614
   992.0000 100000.0000     91.7741
   992.2500     82.8477     93.1018
   992.5000      9.0864     96.2436
   992.7500      5.2482     98.6158
   993.0000      4.4554    101.6800
   993.2500      5.2224    103.2664
   993.5000     10.6907    105.7494
   993.7500 100000.0000    108.0287
   994.0000 100000.0000    112.2822
   994.2500 100000.0000    115.0285
   994.5000 100000.0000    118.1949
   994.7500 100000.0000    119.8422
   995.0000      2.6501    122.4595
   995.2500      0.6265    124.4485
   995.5000      0.2037    127.0376
   995.7500      0.0618    127.7645
   996.0000      0.0207    126.2243
   996.2500      0.0091    122.9519
   996.5000      0.0053    114.1634
   996.7500      0.0039    105.7806
   997.0000      0.0035     90.5935
   997.2500      0.0036     79.9950
   997.5000      0.0042     65.7851
   997.7500      0.0059     58.5081
   998.0000      0.0099     51.7312
   998.2500      0.0206     49.8028
   998.5000      0.0518     49.5059
   998.7500      0.1356     50.0926
   999.0000      0.3057     51.0650
   999.2500      0.5321     51.5649
   999.5000      0.6321     52.0065
   999.7500      0.4683     52.0391
  1000.0000      0.2409     51.8182
  1000.2500      0.0946     51.8955
  1000.5000      0.0330     53.6401
  1000.7500      0.0129     56.7335
  1001.0000      0.0064     65.1378
  1001.2500      0.0040     73.1666
  1001.5000      0.0031     87.7078
  1001.7500      0.0028     97.9452
  1002.0000      0.0029    111.8253
  1002.2500      0.0035    119.0297
  1002.5000      0.0050    126.3971
  1002.7500      0.0090    129.6117
  1003.0000      0.0209    132.8713
  1003.2500      0.0624    133.8864
  1003.5000      0.2013    132.8217
  1003.7500      0.5954    130.3487
  1004.0000      2.1700    125.0948
  1004.2500 100000.0000    121.3228
  1004.5000 100000.0000    116.1828
  1004.7500 100000.0000    113.6677
  1005.0000 100000.0000    112.2714
  1005.2500 100000.0000    113.0248
  1005.5000      8.1738    115.6638
  1005.7500      4.5378    117.6765
  1006.0000      3.8962    120.6560
  1006.2500      4.4229    122.9089
  1006.5000      6.8558    127.1572
  1006.7500     22.7657    130.3109
  1007.0000 100000.0000    134.3108
  1007.2500 100000.0000    135.9396
  1007.5000 100000.0000    136.8395
  1007.7500 100000.0000    136.6987
  1008.0000 100000.0000    135.6901
  1008.2500 100000.0000    134.6374
  1008.5000 100000.0000    132.8027
  1008.7500 100000.0000    131.3680
  1009.0000 100000.0000    128.3253
  1009.2500 100000.0000    125.4376
  1009.5000 100000.0000    120.0453
  1009.7500 100000.0000    116.2686
  1010.0000 100000.0000    111.5244
  1010.2500     37.2489    109.4413
  1010.5000     15.1047    107.6504
  1010.7500     11.1586    106.7246
  1011.0000     10.0881    105.0835
  1011.2500     10.1086    104.0129
  1011.5000     10.7515    103.0024
  1011.7500     11.8593    102.5876
  1012.0000     13.3615    101.3591
  1012.2500     15.1818     99.7607
  1012.5000     17.1946     96.7650
  1012.7500     19.2320     95.1132
  1013.0000     21.1360     93.9094
  1013.2500     22.8092     93.8219
  1013.5000     24.2232     94.0398
  1013.7500     25.3919     94.0205
  1014.0000     26.3434     93.2766
  1014.2500     27.1057     92.2041
  1014.5000     27.7075     90.0113
  1014.7500     28.1839     88.5390
  1015.0000     28.5831     87.0688
  1015.2500     28.9622     86.9608
  1015.5000     29.3701     88.3923
  1015.7500     29.8237     90.2556
  1016.0000     30.2960     93.8454
  1016.2500     30.7336     96.4731
  1016.5000     31.0936    100.1343
  1016.7500     31.3716    101.6766
  1017.0000     31.5938    101.1173
  1017.2500     31.7871     98.3956
  1017.5000     31.9567     91.6727
  1017.7500     32.0913     86.6615
  1018.0000     32.1875     80.4299
  1018.2500     32.2707     77.7610
  1018.5000     32.3912     75.8069
  1018.7500     32.5951     75.2820
  1019.0000     32.8906     74.6565
  1019.2500     33.2386     74.1000
  1019.5000     33.5754     73.1204
  1019.7500     33.8534     72.3837
  1020.0000     34.0670     70.8139
  1020.2500     34.2481     69.1492
  1020.5000     34.4437     65.3802
  1020.7500     34.6928     62.0416
  1021.0000     35.0132     56.1847
  1021.2500     35.4009     52.0827
  1021.5000     35.8306     46.4156
  1021.7500     36.2473     43.4427
  1022.0000     36.5481     40.7030
