~Version Information
 VERS.                                  2.0 : CWLS LAS VERSION
 WRAP.                                   NO : WRAPING MODE
 SWARE .                 MController 2.5.0N : SOFTWARE VERSION
~Well Information
 WELL.                          AMX 13-13TR : WELL
 COMP.       Pioneer Natural Resources, USA : COMPANY
 FLD.                       Purgatory River : FIELD
 LOC.                NW/SW Sec 13 T32S R67W : LOCATION
 DATE.                             12/21/05 : DATE(S) LOGGED
 SRVC.      Blanco Geological Services, LLC : SERVICE COMPANY
 STAT.                             Colorado : STATE
 CNTY.                           Las Animas : COUNTY
 CTRY.                                  USA : COUNTRY
 API.                       05-071-08631-00 : API NUMBER
 STRT.FT                             395.00 : START DEPTH
 STOP.FT                            2187.00 : STOP DEPTH
 STEP.FT                               1.00 : DEPTH INCREMENT
 NULL.                                -9999 : NULL VALUE
~Curve information
 DEPTH.FT                                   :
 ROP.MIN/FT                                 :
 GAS.UNITS                                  :
~ASCII Log data
       395.0     -9999.00          2.7 
       396.0         3.87          4.5 
       397.0         0.30          2.2 
       398.0         0.23          2.1 
       399.0         0.27          2.3 
       400.0         0.23          2.1 
       401.0         0.20          1.9 
       402.0         0.20          2.1 
       403.0         0.25          2.1 
       404.0         0.20          2.0 
       405.0         0.23          2.0 
       406.0         0.23          2.1 
       407.0         0.23          2.0 
       408.0         0.20          2.1 
       409.0         0.23          2.0 
       410.0         0.20          2.0 
       411.0         0.23          2.2 
       412.0         0.20          2.2 
       413.0         0.27          2.6 
       414.0         0.20          2.6 
       415.0         1.15          3.0 
       416.0         0.27          3.1 
       417.0         0.27          3.3 
       418.0         0.27          3.4 
       419.0         0.23          3.4 
       420.0         0.23          3.6 
       421.0         0.23          3.3 
       422.0         0.20          3.4 
       423.0         0.27          3.3 
       424.0         0.20          3.3 
       425.0         0.23          3.3 
       426.0         0.23          3.2 
       427.0         0.23          3.3 
       428.0         0.20          3.5 
       429.0         0.18          3.3 
       430.0         0.27          3.4 
       431.0         0.17          3.3 
       432.0         0.20          3.4 
       433.0         0.20          3.4 
       434.0         0.20          3.4 
       435.0         0.20          3.4 
       436.0         0.20          3.5 
       437.0         0.17          3.4 
       438.0         0.20          3.5 
       439.0         0.17          3.5 
       440.0         0.17          3.6 
       441.0         0.17          3.6 
       442.0         0.17          3.4 
       443.0         0.20          3.7 
       444.0         0.33          3.7 
       445.0         1.15          3.8 
       446.0         0.30          3.6 
       447.0         0.30          3.7 
       448.0         0.17          3.6 
       449.0         0.17          3.6 
       450.0         0.20          3.6 
       451.0         0.20          3.6 
       452.0         0.20          3.7 
       453.0         0.17          3.7 
       454.0         0.17          3.7 
       455.0         0.20          3.8 
       456.0         0.17          3.6 
       457.0         0.22          4.0 
       458.0         0.17          3.9 
       459.0         0.17          3.9 
       460.0         0.17          3.9 
       461.0         0.17          4.0 
       462.0         0.17          3.6 
       463.0         0.23          3.6 
       464.0         0.27          3.5 
       465.0         0.27          3.5 
       466.0         0.27          3.6 
       467.0         0.13          3.5 
       468.0         0.20          3.6 
       469.0         0.13          3.4 
       470.0         0.20          3.7 
       471.0         0.20          3.7 
       472.0         0.17          3.7 
       473.0         0.20          3.6 
       474.0         0.25          3.9 
       475.0         1.10          4.0 
       476.0         0.27          4.3 
       477.0         0.27          4.1 
       478.0         0.20          4.2 
       479.0         0.23          4.0 
       480.0         0.23          4.2 
       481.0         0.23          4.2 
       482.0         0.23          4.1 
       483.0         0.23          4.2 
       484.0         0.22          4.0 
       485.0         0.27          4.1 
       486.0         0.20          3.9 
       487.0         0.23          3.8 
       488.0         0.23          3.9 
       489.0         0.20          3.6 
       490.0         0.23          3.9 
       491.0         0.23          4.0 
       492.0         0.23          4.0 
       493.0         0.23          4.0 
       494.0         0.20          4.1 
       495.0         0.20          4.0 
       496.0         0.23          4.0 
       497.0         0.20          4.1 
       498.0         0.23          4.1 
       499.0         0.22          4.1 
       500.0         0.20          4.1 
       501.0         0.20          4.1 
       502.0         0.20          4.1 
       503.0         0.20          4.1 
       504.0         0.13          4.1 
       505.0         1.47          4.1 
       506.0         0.27          4.0 
       507.0         0.27          4.2 
       508.0         0.23          4.1 
       509.0         0.28          4.0 
       510.0         0.20          3.8 
       511.0         0.17          3.8 
       512.0         0.20          4.0 
       513.0         0.20          3.9 
       514.0         0.17          4.0 
       515.0         0.17          4.0 
       516.0         0.17          4.0 
       517.0         0.23          4.0 
       518.0         0.17          3.9 
       519.0         0.17          3.8 
       520.0         0.17          3.8 
       521.0         0.17          3.8 
       522.0         0.17          3.7 
       523.0         0.20          3.7 
       524.0         0.20          3.7 
       525.0         0.17          3.6 
       526.0         0.25          3.9 
       527.0         0.17          3.9 
       528.0         0.20          4.3 
       529.0         0.13          4.2 
       530.0         0.17          4.1 
       531.0         0.17          4.1 
       532.0         0.20          4.1 
       533.0         0.23          4.2 
       534.0         0.27          4.1 
       535.0         0.27          4.0 
       536.0         1.48          4.0 
       537.0         0.30          3.8 
       538.0         0.30          3.9 
       539.0         0.20          3.8 
       540.0         0.23          4.0 
       541.0         0.20          4.0 
       542.0         0.30          3.8 
       543.0         0.27          4.0 
       544.0         0.20          3.9 
       545.0         0.20          4.1 
       546.0         0.23          4.0 
       547.0         0.23          4.1 
       548.0         0.23          3.9 
       549.0         0.20          3.8 
       550.0         0.25          3.9 
       551.0         0.23          4.1 
       552.0         0.23          4.3 
       553.0         0.20          4.4 
       554.0         0.20          4.3 
       555.0         0.20          4.7 
       556.0         0.20          4.7 
       557.0         0.23          4.8 
       558.0         0.27          4.8 
       559.0         0.20          4.7 
       560.0         0.20          4.8 
       561.0         0.23          4.9 
       562.0         0.20          4.7 
       563.0         0.23          4.8 
       564.0         0.23          4.6 
       565.0         0.25          4.8 
       566.0         1.53          4.5 
       567.0         0.33          4.0 
       568.0         0.27          4.0 
       569.0         0.27          4.2 
       570.0         0.23          4.3 
       571.0         0.20          4.4 
       572.0         0.23          4.3 
       573.0         0.23          4.4 
       574.0         0.25          4.4 
       575.0         0.23          4.5 
       576.0         0.20          4.3 
       577.0         0.20          4.2 
       578.0         0.20          3.9 
       579.0         0.23          3.9 
       580.0         0.23          3.6 
       581.0         0.20          3.7 
       582.0         0.23          3.7 
       583.0         0.20          3.9 
       584.0         0.20          4.1 
       585.0         0.20          4.1 
       586.0         0.20          4.0 
       587.0         0.20          4.1 
       588.0         0.20          4.3 
       589.0         0.25          4.3 
       590.0         0.23          4.3 
       591.0         0.27          4.6 
       592.0         0.17          4.5 
       593.0         0.17          4.4 
       594.0         0.23          4.5 
