~Version Information
VERS.                      2.0: CWLS Log ASCII Standard - VERSION 2.0
WRAP.                       NO: One line per depth step
~Well Information Block
STRT.FT               660.0000: 
STOP.FT              2488.5000: 
STEP.FT                 0.1000: 
NULL.                -999.2500: 
COMP.          Petrogulf Corporation: COMPANY
WELL.          Montoya 18-11V-B: WELL
FLD.           Purgatorie River: FIELD
LOC.           848' FNL & 619' FWL: LOCATION
PROV.                 Colorado: PROVINCE
CNTY.               Las Animas: COUNTRY
SRVC.                Patterson: SERVICE COMPANY
DATE.          Wed Oct 05 07:28:13 2005: LOG DATE
UWI.                          : UNIQUE WELL ID
~Curve Information Block
DEPT.FT            0 000 00 00: Depth
DCAL.in                       : CDL Caliper
RHOB.g/cc                     : CDL Bulk Density
RHOC.g/cc                     : CDL Density Correction
DPOR.pu                       : CDL Density Porosity
GR.GAPI                       : Gamma Ray
NPOR.pu                       : Neutron Porosity
~Parameter Information Block
~A  Depth       DCAL        RHOB        RHOC        DPOR         GR         NPOR    
# ...
  1994.4000      7.9292      2.5775      0.0801      4.3946    115.5784     25.4498
  1994.5000      7.9283      2.5917      0.1215      3.5347    120.9720     25.5738
  1994.6000      7.9283      2.5990      0.0829      3.0887    120.8083     25.7022
  1994.7000      7.9283      2.6025      0.0966      2.8808    120.1989     26.0243
  1994.8000      7.9271      2.6001      0.0956      3.0227    125.2614     26.4995
  1994.9000      7.9271      2.5900      0.0710      3.6365    134.9661     26.9881
  1995.0000      7.9339      2.5852      0.0571      3.9275    142.7301     27.0811
  1995.1000      7.9339      2.5937      0.1011      3.4101    143.6522     26.6305
  1995.2000      7.9339      2.6024      0.0843      2.8870    139.0155     26.2152
  1995.3000      7.9415      2.5945      0.0831      3.3637    134.7298     26.2265
  1995.4000      7.9415      2.5682      0.0506      4.9573    134.6357     26.4087
  1995.5000      7.9477      2.5376      0.0742      6.8148    138.3469     26.5627
  1995.6000      7.9477      2.5209      0.0058      7.8230    142.7607     26.7630
  1995.7000      7.9477      2.5253      0.0610      7.5565    146.9240     26.9679
  1995.8000      7.9570      2.5391      0.0473      6.7224    153.0446     27.1069
  1995.9000      7.9570      2.5497      0.0555      6.0787    157.7198     27.1640
  1996.0000      7.9547      2.5475      0.0762      6.2115    154.2478     27.2679
  1996.1000      7.9547      2.5250      0.0452      7.5750    145.6167     27.5448
  1996.2000      7.9547      2.4901      0.0142      9.6898    142.6134     27.9646
  1996.3000      7.9625      2.4545      0.0514     11.8466    148.0378     28.4444
  1996.4000      7.9625      2.4170      0.0399     14.1235    152.4631     28.8463
  1996.5000      7.9942      2.3729      0.0645     16.7947    151.2670     29.1138
  1996.6000      7.9942      2.3211      0.0148     19.9306    150.1160     29.4077
  1996.7000      7.9942      2.2562      0.0296     23.8647    151.7186     29.5794
  1996.8000      7.9936      2.1672      0.0078     29.2591    154.7220     29.3347
  1996.9000      7.9936      2.0579      0.0244     35.8871    156.8642     28.9906
  1997.0000      7.9507      1.9552     -0.0120     42.1112    155.4498     28.9822
  1997.1000      7.9507      1.8770      0.0034     46.8477    148.2829     29.3989
  1997.2000      7.9507      1.8055      0.0067     51.1830    140.9884     30.0329
  1997.3000      7.9482      1.7250     -0.0268     56.0585    140.5193     30.6396
  1997.4000      7.9482      1.6547     -0.0048     60.3205    141.1286     31.2122
  1997.5000      7.9492      1.6129      0.0474     62.8562    134.3905     31.6142
  1997.6000      7.9492      1.5898      0.0539     64.2520    121.9337     31.7261
  1997.7000      7.9492      1.5737      0.0535     65.2291    111.5478     31.9686
  1997.8000      7.9378      1.5784     -0.0147     64.9461    105.5223     32.5753
  1997.9000      7.9378      1.6271      0.0251     61.9948    100.0592     33.0920
  1998.0000      7.9346      1.7101      0.1174     56.9662     94.4252     33.1529
  1998.1000      7.9346      1.7969      0.1620     51.7034     90.5199     33.1403
  1998.2000      7.9346      1.8887      0.1572     46.1386     87.4679     33.4981
  1998.3000      7.9401      2.0069      0.1751     38.9751     84.9528     33.9024
  1998.4000      7.9401      2.1412      0.1894     30.8345     84.7550     33.8420
  1998.5000      7.9608      2.2536      0.2290     24.0230     88.0903     33.3669
  1998.6000      7.9608      2.3280      0.1649     19.5179     93.8816     32.7892
  1998.7000      7.9608      2.3881      0.1716     15.8742     98.9807     32.2559
  1998.8000      7.9648      2.4583      0.1683     11.6184    100.8094     31.5987
  1998.9000      7.9648      2.5290      0.1331      7.3348     98.3813     30.5499
  1999.0000      7.9368      2.5727      0.0853      4.6852     95.4113     29.3377
  1999.1000      7.9368      2.5791      0.0618      4.2961     97.6613     28.4796
  1999.2000      7.9368      2.5604      0.0475      5.4291    103.2449     27.8419
  1999.3000      7.9334      2.5400     -0.0149      6.6673    105.7630     26.9918
  1999.4000      7.9334      2.5372      0.0314      6.8380    104.3653     25.9908
  1999.5000      7.9216      2.5417      0.0329      6.5635    100.7376     25.3132
  1999.6000      7.9216      2.5314      0.0171      7.1902     95.6983     25.3097
  1999.7000      7.9216      2.5149     -0.0021      8.1904     91.0153     25.5766
  1999.8000      7.9160      2.5166     -0.0188      8.0845     86.8346     25.5033
  1999.9000      7.9160      2.5318      0.0367      7.1649     83.3093     24.9088
  2000.0000      7.9226      2.5359      0.0316      6.9154     84.1024     23.7111
  2000.1000      7.9226      2.5261      0.0124      7.5069     90.4729     22.3008
  2000.2000      7.9226      2.5173      0.0221      8.0438     95.1360     21.4737
  2000.3000      7.9166      2.5169      0.0214      8.0670     92.5029     21.4425
  2000.4000      7.9166      2.5241      0.0203      7.6314     87.5050     21.9317
  2000.5000      7.9169      2.5297      0.0600      7.2897     85.8841     22.6883
  2000.6000      7.9169      2.5225      0.0313      7.7276     85.4830     23.5112
  2000.7000      7.9169      2.5063      0.0084      8.7091     84.8410     24.1390
  2000.8000      7.9198      2.4958      0.0223      9.3474     87.4758     24.4655
  2000.9000      7.9198      2.4956     -0.0147      9.3554     93.6493     24.6065
  2001.0000      7.9250      2.5050     -0.0088      8.7892     99.8573     24.6312
  2001.1000      7.9250      2.5245      0.0190      7.6069    102.3987     24.5235
  2001.2000      7.9250      2.5424      0.0380      6.5185     99.1397     24.4269
  2001.3000      7.9248      2.5412      0.0435      6.5959     92.7913     24.3167
  2001.4000      7.9248      2.5213      0.0086      7.7985     87.4913     23.9632
  2001.5000      7.9333      2.5002     -0.0257      9.0799     84.8617     23.5153
  2001.6000      7.9333      2.4880      0.0544      9.8182     85.4119     23.3629
  2001.7000      7.9333      2.4790      0.0505     10.3645     88.0682     23.4630
  2001.8000      7.9380      2.4699      0.0193     10.9169     91.1450     23.4426
  2001.9000      7.9380      2.4725      0.0066     10.7564     95.7228     23.4228
  2002.0000      7.9353      2.4950      0.0626      9.3927    102.5163     23.7426
  2002.1000      7.9353      2.5201      0.1180      7.8730    107.3882     24.1298
  2002.2000      7.9353      2.5322      0.1283      7.1422    106.9313     24.2597
  2002.3000      7.9419      2.5418      0.0854      6.5559    103.4048     24.3568
  2002.4000      7.9419      2.5505      0.1556      6.0295    101.3117     24.7305
  2002.5000      7.9494      2.5390      0.1484      6.7291    102.2239     25.3188
  2002.6000      7.9494      2.4962      0.1183      9.3191    105.6026     25.9454
  2002.7000      7.9494      2.4297      0.0937     13.3526    109.7290     26.6245
  2002.8000      7.9485      2.3596      0.0401     17.5984    111.5866     27.2535
  2002.9000      7.9485      2.3020      0.0380     21.0922    112.4221     27.7652
  2003.0000      7.9664      2.2569     -0.0069     23.8219    113.7394     28.3837
  2003.1000      7.9664      2.2202     -0.0367     26.0494    112.5823     29.1478
  2003.2000      7.9664      2.1826     -0.0168     28.3246    108.0544     29.8131
  2003.3000      7.9993      2.1290     -0.0139     31.5769    102.6578     30.3539
  2003.4000      7.9993      2.0607      0.0030     35.7177     99.9703     31.0197
  2003.5000      8.1278      1.9942      0.0304     39.7426    100.9058     31.6412
  2003.6000      8.1278      1.9256      0.0114     43.9058    101.3347     31.7370
  2003.7000      8.1278      1.8323     -0.0390     49.5571     97.5701     31.4977
  2003.8000      8.1563      1.7130     -0.1140     56.7867     90.5907     31.5656
  2003.9000      8.1563      1.6045     -0.1783     63.3638     85.4683     32.1364
