~Version Information
VERS.                      2.0: CWLS Log ASCII Standard - VERSION 2.0
WRAP.                       NO: One line per depth step
~Well Information Block
STRT.FT                -6.7500: 
STOP.FT              1661.0000: 
STEP.FT                 0.2500: 
NULL.                -999.2500: 
COMP.          Pioneer Natural Resources: COMPANY
WELL.           Pedri 42-33 Tr: WELL
FLD.           Purgatorie River: FIELD
LOC.           1933'' FNL & 662' FEL--: LOCATION
PROV.                       CO: PROVINCE
CNTY.               Las Animas: COUNTRY
SRVC.          Patterson Wireline: SERVICE COMPANY
DATE.          Tue Dec 27 08:53:52 2005: LOG DATE
UWI.           05 071 08640 00: UNIQUE WELL ID
~Curve Information Block
DEPT.FT            0 000 00 00: Depth
CCL.                          : Casing Collar Locator
TT3.usec                      : CBL 3' Travel Time
AMP3.mV                       : CBL 3' Amplitude
GR.GAPI                       : Gamma Ray
~Parameter Information Block
~A  Depth       CCL         TT3         AMP3         GR     
# ...
  1199.2500      0.0000    556.2745      5.6431     93.6077
  1199.5000      0.0000    548.6962      5.6720     84.7404
  1199.7500      0.0000    533.4537      5.6915     77.8066
  1200.0000      0.0000    510.6870      5.6945     74.2792
  1200.2500      0.0000    484.9215      5.6794     73.5066
  1200.5000      0.0000    463.6140      5.6478     73.9030
  1200.7500      0.0000    453.8283      5.6064     74.4852
  1201.0000      0.0000    460.1396      5.5671     75.5059
  1201.2500      0.0000    483.4472      5.5398     77.8585
  1201.5000      0.0000    519.0863      5.5237     81.8255
  1201.7500      0.0000    557.1403      5.5086     86.5092
  1202.0000      0.0000    587.9615      5.4841     90.5868
  1202.2500      0.0000    607.4028      5.4461     93.1867
  1202.5000      0.0000    615.0057      5.3985     93.6365
  1202.7500      0.0000    609.7164      5.3498     91.1102
  1203.0000      0.0000    591.1316      5.3075     85.5602
  1203.2500      0.0000    563.3620      5.2766     78.6290
  1203.5000      0.0000    534.5074      5.2610     72.6555
  1203.7500      0.0000    512.3511      5.2640     68.7809
  1204.0000      0.0000    500.9845      5.2859     66.4031
  1204.2500      0.0000    500.0951      5.3230     64.2129
  1204.5000      0.0000    506.0594      5.3670     61.5250
  1204.7500      0.0000    513.9715      5.4086     58.8105
  1205.0000      0.0000    519.8615      5.4424     57.0743
  1205.2500      0.0000    521.8232      5.4680     56.7668
  1205.5000      0.0000    519.7538      5.4873     57.6359
  1205.7500      0.0000    514.8948      5.5016     59.6879
  1206.0000      0.0000    509.8214      5.5098     63.5098
  1206.2500      0.0000    507.6237      5.5101     68.9992
  1206.5000      0.0000    509.7649      5.5005     74.3621
  1206.7500      0.0000    514.8591      5.4766     77.2458
  1207.0000      0.0000    520.2072      5.4282     76.6699
  1207.2500      0.0000    524.3509      5.3442     73.4400
  1207.5000      0.0000    528.1588      5.2298     69.1903
  1207.7500      0.0000    534.2345      5.1237     65.5282
  1208.0000      0.0000    545.3563      5.0866     63.6800
  1208.2500      0.0000    561.8997      5.1475     64.2634
  1208.5000      0.0000    579.4286      5.2538     67.0912
  1208.7500      0.0000    589.8322      5.3102     71.1998
  1209.0000      0.0000    587.1387      5.2812     75.2382
  1209.2500      0.0000    572.7375      5.2246     78.1396
  1209.5000      0.0000    553.8198      5.2145     79.6883
  1209.7500      0.0000    536.7281      5.2669     80.4438
  1210.0000     -2.0000    523.1371      5.3552     80.9573
  1210.2500      2.0000    513.1188      5.4639     81.0943
  1210.5000      0.0000    510.5864      5.6144     80.3051
  1210.7500      0.0000    522.8536      5.8421     78.5308
  1211.0000      0.0000    551.6668      6.1400     76.6253
  1211.2500      0.0000    585.1638      6.4188     75.7639
  1211.5000      0.0000    603.8701      6.5573     76.6464
  1211.7500      0.0000    598.5725      6.5144     79.3861
  1212.0000      0.0000    580.2697      6.3612     83.5878
  1212.2500      0.0000    569.2015      6.1925     88.0071
  1212.5000      0.0000    575.2139      6.0499     90.6673
  1212.7500      0.0000    590.8295      5.9357     90.1183
  1213.0000      0.0000    600.5733      5.8509     86.5635
  1213.2500      0.0000    593.3392      5.7979     81.5411
  1213.5000      0.0000    568.0729      5.7697     76.8337
  1213.7500      0.0000    532.2967      5.7557     73.9108
  1214.0000      0.0000    495.8501      5.7506     73.7868
  1214.2500      0.0000    464.9966      5.7522     76.5983
  1214.5000      0.0000    442.6808      5.7545     81.1809
  1214.7500      0.0000    432.4226      5.7481     85.4099
  1215.0000      0.0000    437.9814      5.7277     87.2897
  1215.2500      0.0000    458.3714      5.6963     85.9938
  1215.5000      0.0000    485.6577      5.6623     82.1779
  1215.7500      0.0000    509.7791      5.6339     77.4791
  1216.0000      0.0000    525.6376      5.6142     73.6391
  1216.2500      0.0000    535.0113      5.6014     71.8425
  1216.5000      0.0000    542.3289      5.5924     72.4243
  1216.7500      0.0000    550.0646      5.5870     74.6860
  1217.0000      0.0000    558.2465      5.5885     76.9805
  1217.2500      0.0000    566.8782      5.6003     77.6032
  1217.5000      0.0000    577.2336      5.6223     75.9974
  1217.7500      0.0000    589.8661      5.6500     73.0338
  1218.0000      0.0000    600.9823      5.6765     69.9884
  1218.2500      0.0000    601.9163      5.6957     67.4388
  1218.5000      0.0000    584.7817      5.7042     65.3512
  1218.7500      0.0000    550.0660      5.7032     63.9732
  1219.0000      0.0000    507.6989      5.6986     64.0678
  1219.2500      0.0000    469.8002      5.6994     66.1331
  1219.5000      0.0000    443.0611      5.7142     69.7398
  1219.7500      0.0000    428.1358      5.7459     73.7426
  1220.0000      0.0000    424.6209      5.7891     76.9529
  1220.2500      0.0000    435.0185      5.8313     78.8134
  1220.5000      0.0000    463.2928      5.8607     79.7933
  1220.7500      0.0000    509.0319      5.8750     80.9554
  1221.0000      0.0000    563.3575      5.8818     83.0132
  1221.2500      0.0000    612.5422      5.8884     86.2168
  1221.5000      0.0000    646.6045      5.8953     91.0521
  1221.7500      0.0000    663.6785      5.8998     98.1715
  1222.0000      0.0000    666.5499      5.9044    107.3247
  1222.2500      0.0000    657.3069      5.9161    117.2450
  1222.5000      0.0000    636.9025      5.9374    126.9430
  1222.7500      0.0000    609.5627      5.9585    136.5294
  1223.0000      0.0000    585.4193      5.9601    146.4106
  1223.2500      0.0000    575.4736      5.9291    156.0404
  1223.5000      0.0000    582.7493      5.8718    163.6037
  1223.7500      0.0000    600.6039      5.8114    166.9923
  1224.0000      0.0000    620.9736      5.7702    165.5749
  1224.2500      0.0000    641.3296      5.7532    161.0507
  1224.5000      0.0000    661.8281      5.7466    156.0561
  1224.7500      0.0000    679.8437      5.7269    152.1879
  1225.0000      0.0000    691.5363      5.6719    150.0267
  1225.2500      0.0000    696.8169      5.5708    150.1836
  1225.5000      0.0000    699.2615      5.4329    152.5780
  1225.7500      0.0000    701.8434      5.2865    154.5837
  1226.0000      0.0000    704.7525      5.1649    151.5692
  1226.2500      0.0000    706.8619      5.0860    140.5259
  1226.5000      0.0000    707.6440      5.0399    122.7822
  1226.7500      0.0000    707.4519      4.9946    102.7605
  1227.0000      0.0000    706.8754      4.9204     84.7113
  1227.2500      0.0000    706.3428      4.8103     71.0076
  1227.5000      0.0000    706.2197      4.6771     62.4319
  1227.7500      0.0000    706.9011      4.5295     58.8233
  1228.0000      0.0000    708.5352      4.3579     59.2867
  1228.2500      0.0000    710.6899      4.1475     62.3373
  1228.5000      0.0000    712.6404      3.9077     66.4572
  1228.7500      0.0000    714.1750      3.6799     70.8307
  1229.0000      0.0000    715.7910      3.5111     75.4894
  1229.2500      0.0000    717.8336      3.4242     80.6229
  1229.5000      0.0000    719.6541      3.4131     85.9850
  1229.7500      0.0000    719.8362      3.4595     91.1340
  1230.0000      0.0000    717.3509      3.5489     96.0087
  1230.2500      0.0000    712.5851      3.6729    101.0017
  1230.5000      0.0000    707.0555      3.8195    106.6135
  1230.7500      0.0000    701.8604      3.9661    113.4003
  1231.0000      0.0000    696.3787      4.0966    122.1041
  1231.2500      0.0000    688.2108      4.2325    133.0882
  1231.5000      0.0000    674.0270      4.4345    145.2767
  1231.7500      0.0000    651.3801      4.7524    156.0773
  1232.0000      0.0000    621.1273      5.1675    162.8161
  1232.2500      0.0000    587.5876      5.5938    164.3712
  1232.5000      0.0000    554.6835      5.9372    161.6817
