~Version Information
VERS.                      2.0: CWLS Log ASCII Standard - VERSION 2.0
WRAP.                       NO: One line per depth step
~Well Information Block
STRT.FT               262.2500: 
STOP.FT              1942.0000: 
STEP.FT                 0.2500: 
NULL.                -999.2500: 
COMP.          XTO Energy Inc.: COMPANY
WELL.          Golden Eagle 19-11: WELL
FLD.           Purgatoire River: FIELD
LOC.           2351' FSL & 1926' FWL--: LOCATION
CNTY.               Las Animas: COUNTY
SRVC.                Patterson: SERVICE COMPANY
DATE.          Wed Mar 08 23:33:01 2006: LOG DATE
UWI.           05 071 08696 00: UNIQUE WELL ID
STAT.                 Colorado: STATE
~Curve Information Block
DEPT.FT            0 000 00 00: Depth
SP.mV                         : DIL Spontaneous Potential
RILD.Ohm-m                    : DIL Deep Resistivity
RILM.Ohm-m                    : DIL Medium Resistivity
RLL3.Ohm-m                    : DIL Shallow Resistivity
GR.GAPI                       : Gamma Ray
~Parameter Information Block
~A  Depth        SP         RILD        RILM        RLL3         GR     
# ...
  1690.2500     40.1806      9.3427     10.2898     16.3131     85.5073
  1690.5000     40.4705      9.6824     10.8797     17.1075     79.6872
  1690.7500     40.7130     10.0566     11.4874     18.0506     75.5226
  1691.0000     40.9044     10.4721     12.1081     18.8958     69.9044
  1691.2500     41.0071     10.9283     12.7326     19.3801     67.1670
  1691.5000     40.9769     11.4179     13.3469     19.4475     64.6856
  1691.7500     40.8158     11.9278     13.9368     19.2278     63.8933
  1692.0000     40.5881     12.4407     14.4914     18.8976     63.8667
  1692.2500     40.3781     12.9359     15.0057     18.5848     64.6422
  1692.5000     40.2364     13.3896     15.4780     18.3513     66.6715
  1692.7500     40.1634     13.7781     15.9081     18.2124     68.1666
  1693.0000     40.1286     14.0834     16.2938     18.1586     69.8216
  1693.2500     40.1010     14.2993     16.6323     18.1762     70.2453
  1693.5000     40.0713     14.4341     16.9221     18.2627     69.7947
  1693.7500     40.0546     14.5073     17.1635     18.4286     68.9184
  1694.0000     40.0694     14.5419     17.3560     18.6815     67.2607
  1694.2500     40.1140     14.5565     17.4946     19.0096     66.4006
  1694.5000     40.1643     14.5614     17.5708     19.3790     66.2888
  1694.7500     40.1971     14.5600     17.5790     19.7401     67.1463
  1695.0000     40.2201     14.5523     17.5211     20.0296     69.3126
  1695.2500     40.2768     14.5380     17.4064     20.1746     70.8613
  1695.5000     40.4154     14.5174     17.2457     20.1134     72.9043
  1695.7500     40.6451     14.4913     17.0478     19.8305     74.0842
  1696.0000     40.9248     14.4617     16.8204     19.3705     75.4313
  1696.2500     41.1948     14.4303     16.5738     18.8076     75.6825
  1696.5000     41.4165     14.3975     16.3235     18.1982     74.6813
  1696.7500     41.5848     14.3619     16.0881     17.5700     73.4027
  1697.0000     41.7079     14.3223     15.8861     16.9598     71.5974
  1697.2500     41.7874     14.2811     15.7323     16.4462     70.7290
  1697.5000     41.8212     14.2435     15.6358     16.1316     69.4690
  1697.7500     41.8253     14.2144     15.5986     16.0916     68.2720
  1698.0000     41.8401     14.1941     15.6150     16.3347     65.8662
  1698.2500     41.9079     14.1780     15.6715     16.7916     64.2316
  1698.5000     42.0444     14.1592     15.7500     17.3321     62.7006
  1698.7500     42.2364     14.1339     15.8320     17.8136     62.7243
  1699.0000     42.4673     14.1034     15.9024     18.1493     64.3313
  1699.2500     42.7366     14.0746     15.9489     18.3415     65.9723
  1699.5000     43.0569     14.0567     15.9625     18.4403     68.1320
  1699.7500     43.4387     14.0579     15.9391     18.4653     68.9738
  1700.0000     43.8910     14.0818     15.8818     18.3738     69.5696
  1700.2500     44.4352     14.1254     15.8007     18.1141     69.8727
  1700.5000     45.1141     14.1792     15.7078     17.7126     70.2133
  1700.7500     45.9832     14.2301     15.6140     17.3039     70.0371
  1701.0000     47.0901     14.2641     15.5269     17.0538     68.8932
  1701.2500     48.4531     14.2698     15.4507     17.0360     67.8191
  1701.5000     50.0473     14.2402     15.3840     17.1860     66.5266
  1701.7500     51.8107     14.1748     15.3194     17.3644     66.1250
  1702.0000     53.6756     14.0789     15.2456     17.4416     65.9683
  1702.2500     55.5999     13.9612     15.1543     17.3342     65.7972
  1702.5000     57.5638     13.8320     15.0461     17.0199     65.1123
  1702.7500     59.5273     13.7026     14.9303     16.5600     64.5192
  1703.0000     61.3958     13.5859     14.8198     16.1018     63.8406
  1703.2500     63.0401     13.4954     14.7233     15.8268     63.5266
  1703.5000     64.3686     13.4420     14.6429     15.8546     62.7763
  1703.7500     65.3929     13.4298     14.5760     16.1473     61.8463
  1704.0000     66.2260     13.4531     14.5206     16.4906     60.2276
  1704.2500     67.0175     13.4984     14.4805     16.6166     59.8088
  1704.5000     67.8790     13.5482     14.4659     16.4018     61.4399
  1704.7500     68.8449     13.5864     14.4911     15.9661     63.9423
  1705.0000     69.8760     13.6007     14.5677     15.5812     68.2165
  1705.2500     70.8925     13.5839     14.6969     15.4876     70.4360
  1705.5000     71.8158     13.5354     14.8645     15.7833     72.1817
  1705.7500     72.6008     13.4611     15.0410     16.4350     72.3724
  1706.0000     73.2379     13.3715     15.1849     17.3415     71.3143
  1706.2500     73.7364     13.2769     15.2515     18.3670     69.6705
  1706.5000     74.1128     13.1842     15.2035     19.3220     66.0874
  1706.7500     74.3944     13.0978     15.0239     19.9377     63.6407
  1707.0000     74.6181     13.0234     14.7236     19.9218     61.6259
  1707.2500     74.8151     12.9691     14.3398     19.1149     62.0856
  1707.5000     74.9937     12.9402     13.9249     17.6290     65.2439
  1707.7500     75.1354     12.9333     13.5332     15.8147     68.2335
  1708.0000     75.2033     12.9352     13.2111     14.0838     72.6947
  1708.2500     75.1555     12.9287     12.9920     12.7732     75.0878
  1708.5000     74.9615     12.9032     12.8924     12.1232     77.0283
  1708.7500     74.6143     12.8594     12.9102     12.2563     76.8663
  1709.0000     74.1229     12.8066     13.0247     13.0970     74.4904
  1709.2500     73.4895     12.7560     13.2013     14.3484     72.0734
  1709.5000     72.6969     12.7176     13.4013     15.6070     68.6381
  1709.7500     71.7177     12.7006     13.5944     16.5279     67.1074
  1710.0000     70.5364     12.7162     13.7672     16.9373     66.3915
  1710.2500     69.1729     12.7744     13.9243     16.8665     66.9264
  1710.5000     67.7038     12.8779     14.0821     16.5191     68.6989
  1710.7500     66.2569     13.0159     14.2577     16.1908     69.9452
  1711.0000     64.9579     13.1649     14.4577     16.1651     70.9450
  1711.2500     63.8610     13.2974     14.6693     16.6005     70.9076
  1711.5000     62.9249     13.3919     14.8598     17.4428     70.6805
  1711.7500     62.0481     13.4395     14.9872     18.4144     71.2180
  1712.0000     61.1178     13.4436     15.0188     19.1083     73.7281
  1712.2500     60.0364     13.4146     14.9481     19.1617     76.1821
  1712.5000     58.7309     13.3655     14.7965     18.4469     79.6765
  1712.7500     57.1679     13.3089     14.6008     17.1684     81.3403
  1713.0000     55.3692     13.2543     14.3964     15.7679     83.1121
  1713.2500     53.4150     13.2054     14.2071     14.6785     84.3256
  1713.5000     51.4253     13.1598     14.0431     14.1076     86.4088
  1713.7500     49.5319     13.1114     13.9044     13.9935     87.4990
  1714.0000     47.8626     13.0559     13.7858     14.1242     87.5933
  1714.2500     46.5299     12.9961     13.6809     14.2977     86.3315
  1714.5000     45.6058     12.9419     13.5856     14.4115     83.1389
  1714.7500     45.0921     12.9053     13.5016     14.4435     81.1909
  1715.0000     44.9206     12.8944     13.4368     14.3857     80.2232
  1715.2500     44.9899     12.9084     13.4042     14.2243     81.0492
  1715.5000     45.2082     12.9398     13.4181     13.9968     83.6349
  1715.7500     45.5127     12.9800     13.4888     13.8536     85.8785
  1716.0000     45.8720     13.0242     13.6178     14.0286     89.8156
  1716.2500     46.2881     13.0716     13.7932     14.6969     92.2503
  1716.5000     46.8018     13.1228     13.9894     15.8104     93.6671
  1716.7500     47.4889     13.1757     14.1717     17.0453     92.4529
  1717.0000     48.4419     13.2262     14.3078     17.9363     88.3804
  1717.2500     49.7496     13.2697     14.3786     18.1373     85.3066
  1717.5000     51.4850     13.3051     14.3852     17.6287     81.3452
  1717.7500     53.6885     13.3357     14.3463     16.7047     79.4977
  1718.0000     56.3256     13.3671     14.2887     15.7592     78.9044
