~Version Information
VERS.                      2.0: CWLS Log ASCII Standard - VERSION 2.0
WRAP.                       NO: One line per depth step
~Well Information Block
STRT.FT               245.0000: 
STOP.FT              1217.7000: 
STEP.FT                 0.1000: 
NULL.                -999.2500: 
COMP.          Pioneer Natural Resources: COMPANY
WELL.          Lucky Lady 42-29: WELL
FLD.           Purgatoire River: FIELD
LOC.           2482' FNL & 662' FEL--: LOCATION
CNTY.               Las Animas: COUNTY
SRVC.                Patterson: SERVICE COMPANY
DATE.          Thu Mar 09 18:39:54 2006: LOG DATE
UWI.           05 071 08659 00: UNIQUE WELL ID
STAT.                 Colorado: STATE
~Curve Information Block
DEPT.FT            0 000 00 00: Depth
DCAL.in                       : CDL Caliper
RHOB.g/cc                     : CDL Bulk Density
RHOC.g/cc                     : CDL Density Correction
DPOR.pu                       : CDL Density Porosity
NPOR.pu                       : Neutron Porosity
GR.GAPI                       : Gamma Ray
~Parameter Information Block
~A  Depth       DCAL        RHOB        RHOC        DPOR        NPOR         GR     
# ...
   686.6000      7.9222      2.4125     -0.0166     14.3924     16.8568     71.1961
   686.7000      7.9222      2.4180      0.0098     14.0635     16.7095     71.4732
   686.8000      7.9243      2.4284      0.0665     13.4304     16.7966     71.6470
   686.9000      7.9243      2.4322      0.0083     13.2011     17.0047     71.7388
   687.0000      7.9228      2.4336      0.0307     13.1130     17.1505     73.2947
   687.1000      7.9228      2.4366      0.0059     12.9343     17.2383     75.6237
   687.2000      7.9228      2.4417      0.0142     12.6259     17.2748     77.8109
   687.3000      7.9213      2.4478      0.0372     12.2516     17.0635     79.9529
   687.4000      7.9213      2.4515      0.0627     12.0317     16.7440     81.2825
   687.5000      7.9168      2.4563      0.0322     11.7411     16.6494     82.5762
   687.6000      7.9168      2.4669      0.0658     11.0974     16.6188     85.3700
   687.7000      7.9168      2.4742      0.0314     10.6568     16.4606     85.2821
   687.8000      7.9087      2.4693      0.0582     10.9516     16.3236     79.0760
   687.9000      7.9087      2.4544      0.0154     11.8538     16.1978     72.4946
   688.0000      7.9024      2.4383      0.0265     12.8279     16.0733     69.6085
   688.1000      7.9024      2.4295      0.0163     13.3619     16.1928     68.5160
   688.2000      7.9024      2.4293      0.0294     13.3732     16.5014     67.4387
   688.3000      7.9019      2.4351      0.0353     13.0226     16.7897     67.4931
   688.4000      7.9019      2.4464      0.0128     12.3383     17.0507     69.9765
   688.5000      7.9080      2.4583      0.0870     11.6184     17.2799     72.3019
   688.6000      7.9080      2.4599      0.0613     11.5226     17.5070     70.9774
   688.7000      7.9080      2.4560      0.0376     11.7582     17.7832     68.3175
   688.8000      7.9169      2.4679     -0.0010     11.0343     18.0949     69.3471
   688.9000      7.9169      2.5021      0.0426      8.9647     18.5452     73.2200
   689.0000      7.9219      2.5336      0.1035      7.0561     19.0935     77.2222
   689.1000      7.9219      2.5425      0.0402      6.5165     19.4224     82.8221
   689.2000      7.9219      2.5398      0.0535      6.6813     19.3480     89.3373
   689.3000      7.9210      2.5368      0.0463      6.8586     19.1219     93.9489
   689.4000      7.9210      2.5323      0.0100      7.1320     19.2935     96.3296
   689.5000      7.9186      2.5272      0.0204      7.4416     19.9422     96.9051
   689.6000      7.9186      2.5247      0.0185      7.5920     20.5626     96.6319
   689.7000      7.9186      2.5251      0.0491      7.5683     20.7523     96.1554
   689.8000      7.9177      2.5292      0.0121      7.3213     20.6905     96.0101
   689.9000      7.9177      2.5436      0.0295      6.4471     20.8605     97.3728
   690.0000      7.9207      2.5681      0.0409      4.9607     21.5024    100.4172
   690.1000      7.9207      2.5912      0.0614      3.5647     22.2456    103.3908
   690.2000      7.9207      2.6060      0.0957      2.6692     22.5307    102.3017
   690.3000      7.9172      2.6119      0.1115      2.3115     22.3577     97.1129
   690.4000      7.9172      2.6082      0.0878      2.5343     22.1384     94.1467
   690.5000      7.9065      2.5922      0.0823      3.5043     22.0926     95.4581
   690.6000      7.9065      2.5632      0.0876      5.2606     22.0450     97.5377
   690.7000      7.9065      2.5359      0.0391      6.9174     21.8049     99.4283
   690.8000      7.9002      2.5243      0.0599      7.6168     21.6952    102.3679
   690.9000      7.9002      2.5227      0.0075      7.7138     22.0139    105.8289
   691.0000      7.8980      2.5268     -0.0067      7.4664     22.3378    106.6087
   691.1000      7.8980      2.5398      0.0585      6.6809     22.4531    104.3278
   691.2000      7.8980      2.5563      0.0439      5.6809     22.5776    104.3601
   691.3000      7.8983      2.5654      0.0920      5.1290     22.5246    108.3003
   691.4000      7.8983      2.5682      0.0589      4.9599     22.1178    112.6576
   691.5000      7.9009      2.5830      0.0708      4.0577     21.7027    115.0778
   691.6000      7.9009      2.6103      0.0858      2.4064     21.7491    114.6385
   691.7000      7.9009      2.6275      0.0923      1.3619     22.3464    112.1274
   691.8000      7.9054      2.6269      0.1088      1.4015     23.0974    109.3423
   691.9000      7.9054      2.6198      0.0721      1.8275     23.6038    108.0329
   692.0000      7.9112      2.6147      0.0687      2.1401     23.9388    106.9405
   692.1000      7.9112      2.6114      0.0355      2.3373     24.1517    102.8781
   692.2000      7.9112      2.6143      0.0326      2.1624     24.1597     99.5357
   692.3000      7.9198      2.6256      0.0747      1.4807     23.9844    100.8867
   692.4000      7.9198      2.6393      0.0522      0.6465     23.9459    102.1847
   692.5000      7.9252      2.6487      0.0633      0.0796     24.3540    100.2539
   692.6000      7.9252      2.6466      0.0606      0.2055     25.0219     97.7764
   692.7000      7.9252      2.6323      0.0132      1.0697     25.6342     96.3230
   692.8000      7.9255      2.6130      0.0326      2.2406     26.0222     96.5412
   692.9000      7.9255      2.6049     -0.0018      2.7358     26.0473     99.9292
   693.0000      7.9240      2.6227     -0.0028      1.6556     25.8193    105.3792
   693.1000      7.9240      2.6443      0.0729      0.3473     25.7147    111.8940
   693.2000      7.9240      2.6330      0.0569      1.0308     25.6569    118.3408
   693.3000      7.9188      2.5918      0.0458      3.5300     25.1386    122.1008
   693.4000      7.9188      2.5519     -0.0089      5.9475     24.3673    124.3417
   693.5000      7.9086      2.5347     -0.0378      6.9876     23.9096    126.2117
   693.6000      7.9086      2.5356     -0.0010      6.9319     23.6550    126.4564
   693.7000      7.9086      2.5360      0.0219      6.9074     23.3694    126.6602
   693.8000      7.9023      2.5251      0.0294      7.5686     23.1311    125.2539
   693.9000      7.9023      2.5113     -0.0114      8.4031     22.9650    119.4441
   694.0000      7.9015      2.5069      0.0427      8.6716     22.8783    115.2825
   694.1000      7.9015      2.5083      0.0034      8.5865     22.8503    117.6728
   694.2000      7.9015      2.5098      0.0453      8.4969     22.8222    123.6795
   694.3000      7.9055      2.5138      0.0254      8.2540     22.8599    125.8440
   694.4000      7.9055      2.5202      0.0345      7.8660     23.0048    120.4204
   694.5000      7.9153      2.5227      0.0077      7.7129     23.1102    114.5000
   694.6000      7.9153      2.5178      0.0577      8.0102     23.0803    114.7114
   694.7000      7.9153      2.5068     -0.0194      8.6758     22.9605    118.2711
   694.8000      7.9244      2.4952      0.0287      9.3797     22.9210    121.2117
   694.9000      7.9244      2.4887      0.0010      9.7767     22.9649    124.1096
   695.0000      7.9302      2.4967      0.0325      9.2887     22.9354    127.7892
   695.1000      7.9302      2.5248      0.0228      7.5883     22.9224    129.1753
   695.2000      7.9302      2.5557      0.1142      5.7129     23.0990    126.6466
   695.3000      7.9339      2.5641      0.0765      5.2048     23.4685    122.4124
   695.4000      7.9339      2.5474      0.0771      6.2208     23.6193    117.9355
   695.5000      7.9347      2.5278     -0.0066      7.4052     23.0894    114.5983
   695.6000      7.9347      2.5232      0.0223      7.6859     22.0582    114.3621
   695.7000      7.9347      2.5154      0.0859      8.1574     21.0534    114.7560
   695.8000      7.9330      2.4839      0.0254     10.0643     20.3397    111.4020
   695.9000      7.9330      2.4459     -0.0060     12.3682     19.9589    105.7442
   696.0000      7.9295      2.4303     -0.0032     13.3171     19.7336     98.2267
   696.1000      7.9295      2.4396      0.0299     12.7497     19.3723     88.7140
