~Version Information
VERS.                      2.0: CWLS Log ASCII Standard - VERSION 2.0
WRAP.                       NO: One line per depth step
~Well Information Block
STRT.FT               245.0000: 
STOP.FT              1208.2500: 
STEP.FT                 0.2500: 
NULL.                -999.2500: 
COMP.          Pioneer Natural Resources: COMPANY
WELL.              Davida 34-8: WELL
FLD.           Purgatoire River: FIELD
LOC.           418' FSL & 1923' FEL--: LOCATION
CNTY.               Las Animas: COUNTY
SRVC.                Patterson: SERVICE COMPANY
DATE.          Sat Mar 18 07:00:13 2006: LOG DATE
UWI.           05 071 08722 00: UNIQUE WELL ID
STAT.                 Colorado: STATE
~Curve Information Block
DEPT.FT            0 000 00 00: Depth
GR.GAPI                       : Gamma Ray
DIR.Ohm-m                     : IEL Induction Resistivity
~Parameter Information Block
~A  Depth        GR         DIR     
# ...
  1025.5000     95.3175     14.6679
  1025.7500     91.2980     14.5810
  1026.0000     85.6169     14.5718
  1026.2500     83.0537     14.6411
  1026.5000     80.9940     14.7841
  1026.7500     80.2599     14.9899
  1027.0000     79.7289     15.2425
  1027.2500     79.8516     15.5196
  1027.5000     80.5103     15.7907
  1027.7500     80.7772     16.0158
  1028.0000     80.3536     16.1493
  1028.2500     79.6768     16.1492
  1028.5000     78.6973     15.9889
  1028.7500     78.2629     15.6652
  1029.0000     78.2768     15.2006
  1029.2500     79.4565     14.6394
  1029.5000     85.0724     14.0369
  1029.7500     92.1853     13.4452
  1030.0000    106.9495     12.9005
  1030.2500    117.6881     12.4191
  1030.5000    131.4579     12.0006
  1030.7500    137.5538     11.6357
  1031.0000    141.5914     11.3157
  1031.2500    141.8693     11.0382
  1031.5000    141.2117     10.8074
  1031.7500    140.9542     10.6306
  1032.0000    140.3650     10.5130
  1032.2500    138.8592     10.4541
  1032.5000    133.9295     10.4455
  1032.7500    129.3424     10.4725
  1033.0000    122.6943     10.5176
  1033.2500    119.5895     10.5667
  1033.5000    117.6552     10.6124
  1033.7500    117.9622     10.6554
  1034.0000    119.8811     10.7015
  1034.2500    121.3356     10.7590
  1034.5000    122.2553     10.8364
  1034.7500    121.5271     10.9424
  1035.0000    118.9314     11.0861
  1035.2500    116.9374     11.2769
  1035.5000    114.0321     11.5224
  1035.7500    111.6393     11.8249
  1036.0000    106.3141     12.1767
  1036.2500    101.7350     12.5583
  1036.5000     94.9444     12.9407
  1036.7500     91.5570     13.2905
  1037.0000     89.0816     13.5769
  1037.2500     88.9992     13.7780
  1037.5000     90.3757     13.8848
  1037.7500     91.9218     13.9024
  1038.0000     95.0346     13.8466
  1038.2500     97.5343     13.7401
  1038.5000    101.0937     13.6064
  1038.7500    102.6688     13.4649
  1039.0000    103.4221     13.3284
  1039.2500    103.2098     13.2049
  1039.5000    102.5547     13.1030
  1039.7500    101.9872     13.0342
  1040.0000    100.9395     13.0118
  1040.2500    100.3534     13.0450
  1040.5000    100.1192     13.1349
  1040.7500    100.3208     13.2752
  1041.0000    100.6543     13.4555
  1041.2500    100.8343     13.6659
  1041.5000    101.3548     13.8986
  1041.7500    101.7543     14.1473
  1042.0000    101.1970     14.4065
  1042.2500     99.2478     14.6707
  1042.5000     93.9133     14.9352
  1042.7500     89.6576     15.1979
  1043.0000     84.1867     15.4608
  1043.2500     81.8305     15.7303
  1043.5000     80.2829     16.0155
  1043.7500     80.1293     16.3249
  1044.0000     80.1288     16.6633
  1044.2500     79.8095     17.0279
  1044.5000     78.7729     17.4061
  1044.7500     77.9705     17.7763
  1045.0000     76.9522     18.1189
  1045.2500     76.4357     18.4279
  1045.5000     76.0042     18.7150
  1045.7500     76.1517     18.9976
  1046.0000     77.2603     19.2837
  1046.2500     78.2721     19.5672
  1046.5000     78.9035     19.8384
  1046.7500     78.1799     20.0972
  1047.0000     75.9467     20.3574
  1047.2500     74.6958     20.6384
  1047.5000     74.3392     20.9519
  1047.7500     74.9597     21.2926
  1048.0000     76.2680     21.6374
  1048.2500     77.0994     21.9508
  1048.5000     78.2105     22.1937
  1048.7500     78.7459     22.3345
  1049.0000     78.9521     22.3605
  1049.2500     78.7613     22.2844
  1049.5000     78.6250     22.1419
  1049.7500     79.0198     21.9795
  1050.0000     80.5072     21.8387
  1050.2500     81.8662     21.7444
  1050.5000     83.7262     21.7009
  1050.7500     84.4737     21.6949
  1051.0000     84.7591     21.7034
  1051.2500     84.5631     21.7033
  1051.5000     83.6863     21.6821
  1051.7500     82.4640     21.6411
  1052.0000     79.6633     21.5912
  1052.2500     77.7022     21.5434
  1052.5000     75.8576     21.5006
  1052.7500     75.6334     21.4612
  1053.0000     76.1482     21.4288
  1053.2500     76.3086     21.4199
  1053.5000     75.2166     21.4545
  1053.7500     73.5164     21.5382
  1054.0000     70.4119     21.6510
  1054.2500     68.7033     21.7570
  1054.5000     67.3368     21.8297
  1054.7500     67.1409     21.8673
  1055.0000     67.3577     21.8852
  1055.2500     67.4274     21.8942
  1055.5000     66.8016     21.8855
  1055.7500     65.8492     21.8349
  1056.0000     64.3918     21.7185
  1056.2500     64.1685     21.5265
  1056.5000     66.0862     21.2670
  1056.7500     69.1026     20.9630
  1057.0000     75.7108     20.6464
  1057.2500     80.7867     20.3502
  1057.5000     88.0211     20.0974
  1057.7500     91.9040     19.8927
  1058.0000     95.3603     19.7214
  1058.2500     95.7504     19.5600
  1058.5000     93.8177     19.3899
  1058.7500     91.6983     19.2086
  1059.0000     89.1419     19.0287
  1059.2500     88.7048     18.8652
  1059.5000     90.5900     18.7199
  1059.7500     93.3711     18.5748
  1060.0000     98.6627     18.4021
  1060.2500    102.0763     18.1839
  1060.5000    106.3422     17.9290
  1060.7500    108.9964     17.6737
  1061.0000    113.8452     17.4684
  1061.2500    117.7008     17.3611
  1061.5000    122.6844     17.3864
  1061.7500    124.0526     17.5655
  1062.0000    121.8160     17.9107
  1062.2500    117.6388     18.4336
  1062.5000    108.6855     19.1487
  1062.7500    101.8932     20.0753
  1063.0000     91.9209     21.2340
  1063.2500     85.9290     22.6420
  1063.5000     78.0917     24.3016
  1063.7500     73.4755     26.1740
  1064.0000     67.1667     28.1328
  1064.2500     63.2740     29.9199
  1064.5000     57.9630     31.1551
  1064.7500     55.0776     31.4527
  1065.0000     52.7318     30.6186
  1065.2500     53.0399     28.7796
  1065.5000     56.6141     26.3168
  1065.7500     60.9438     23.6627
  1066.0000     70.0467     21.1374
  1066.2500     77.5115     18.9071
  1066.5000     89.4452     17.0250
  1066.7500     96.8236     15.4839
  1067.0000    105.9066     14.2518
  1067.2500    110.7400     13.2891
  1067.5000    116.7599     12.5566
  1067.7500    119.9639     12.0179
  1068.0000    123.1428     11.6400
  1068.2500    124.0997     11.3930
  1068.5000    123.9829     11.2507
  1068.7500    123.0203     11.1914
  1069.0000    120.8372     11.1984
  1069.2500    119.5723     11.2589
  1069.5000    119.1919     11.3613
  1069.7500    120.2204     11.4923
  1070.0000    122.9879     11.6343
  1070.2500    124.8206     11.7640
  1070.5000    126.2908     11.8551
  1070.7500    126.1011     11.8860
  1071.0000    124.3446     11.8499
  1071.2500    122.7858     11.7607
  1071.5000    121.3477     11.6492
  1071.7500    121.7851     11.5521
  1072.0000    124.9672     11.4987
  1072.2500    128.1995     11.5019
  1072.5000    132.6271     11.5557
  1072.7500    134.1109     11.6367
  1073.0000    133.6105     11.7103
  1073.2500    132.2809     11.7414
  1073.5000    130.9738     11.7089
  1073.7500    131.2684     11.6173
  1074.0000    132.8716     11.4966
  1074.2500    133.7814     11.3898
  1074.5000    133.7085     11.3357
  1074.7500    132.6011     11.3571
  1075.0000    129.9175     11.4570
  1075.2500    127.7822     11.6225
  1075.5000    124.0234     11.8316
  1075.7500    120.8245     12.0625
  1076.0000    114.6435     12.3017
  1076.2500    109.8270     12.5499
  1076.5000    102.5353     12.8236
  1076.7500     98.2625     13.1491
  1077.0000     93.5852     13.5490
  1077.2500     91.8849     14.0258
  1077.5000     91.2828     14.5507
  1077.7500     91.6773     15.0661
  1078.0000     92.3889     15.5044
  1078.2500     92.5313     15.8729
  1078.5000     91.9936     16.1544
  1078.7500     91.1008     16.2347
  1079.0000     89.1337     16.1930
  1079.2500     87.8070     16.0583
  1079.5000     86.8018     15.9335
  1079.7500     87.1123     15.6713
  1080.0000     88.6837     15.4444
  1080.2500     89.9988     15.3017
  1080.5000     91.7641     15.2925
  1080.7500     92.4328     15.4638
  1081.0000     91.5407     15.8560
