~Version Information
VERS.                      2.0: CWLS Log ASCII Standard - VERSION 2.0
WRAP.                       NO: One line per depth step
~Well Information Block
STRT.FT               890.0000: 
STOP.FT              2097.0000: 
STEP.FT                 0.2500: 
NULL.                -999.2500: 
COMP.          Pioneer Natural Resources: COMPANY
WELL.          Greenwood 43-29 Tr: WELL
FLD.           Purgatoire River: FIELD
LOC.           1478' FSL & 744' FEL: LOCATION
STAT.                 Colorado: State
CNTY.               Las Animas: COUNTY
CTRY. USA : Country
SECT. 29 : Section
TOWN. 32S : Township
RANG. 67W : Range
SRVC.                Patterson: SERVICE COMPANY
DATE.          Wed Aug 31 08:07:28 2005: LOG DATE
API.           05 071 08478 00: UNIQUE WELL ID
~Curve Information Block
DEPT.FT            0 000 00 00: Depth
SN.Ohm-m                      : IEL Short Normal
SP.mV                         : IEL Spontaneous Potential
DIR.Ohm-m                     : IEL Induction Resistivity
GR.GAPI                       : Gamma Ray
~Parameter Information Block
~A  Depth        SN          SP         DIR          GR     
# ...
  1057.5000   2000.0000   2000.0000     20.2362    163.6292
  1057.7500   2000.0000   2000.0000     19.9745    166.2948
  1058.0000   2000.0000   2000.0000     19.7901    167.4051
  1058.2500   2000.0000   2000.0000     19.6924    166.6869
  1058.5000   2000.0000   2000.0000     19.6499    164.0965
  1058.7500   2000.0000   2000.0000     19.6070    161.5966
  1059.0000   2000.0000   2000.0000     19.5169    157.7395
  1059.2500   2000.0000   2000.0000     19.3663    156.2986
  1059.5000   2000.0000   2000.0000     19.1741    157.6791
  1059.7500   2000.0000   2000.0000     18.9737    160.9343
  1060.0000   2000.0000   2000.0000     18.7968    167.0682
  1060.2500   2000.0000   2000.0000     18.6685    170.2952
  1060.5000   2000.0000   2000.0000     18.6129    172.2541
  1060.7500   2000.0000   2000.0000     18.6625    171.7630
  1061.0000   2000.0000   2000.0000     18.8618    169.2379
  1061.2500   2000.0000   2000.0000     19.2593    166.4894
  1061.5000   2000.0000   2000.0000     19.8882    159.9843
  1061.7500   2000.0000   2000.0000     20.7518    153.6766
  1062.0000   2000.0000   2000.0000     21.8257    141.8419
  1062.2500   2000.0000   2000.0000     23.0775    133.1893
  1062.5000   2000.0000   2000.0000     24.4898    119.9596
  1062.7500   2000.0000   2000.0000     26.0687    110.9519
  1063.0000   2000.0000   2000.0000     27.8376     97.0937
  1063.2500   2000.0000   2000.0000     29.8288     88.0947
  1063.5000   2000.0000   2000.0000     32.0771     76.4563
  1063.7500   2000.0000   2000.0000     34.6087     70.7206
  1064.0000   2000.0000   2000.0000     37.4168     65.7607
  1064.2500   2000.0000   2000.0000     40.4253     64.7900
  1064.5000   2000.0000   2000.0000     43.4653     66.0810
  1064.7500   2000.0000   2000.0000     46.2878     68.1326
  1065.0000   2000.0000   2000.0000     48.6298     71.8030
  1065.2500   2000.0000   2000.0000     50.3074     73.8959
  1065.5000   2000.0000   2000.0000     51.2698     75.4114
  1065.7500   2000.0000   2000.0000     51.5839     75.2294
  1066.0000   2000.0000   2000.0000     51.3766     74.1521
  1066.2500   2000.0000   2000.0000     50.7897     73.6497
  1066.5000   2000.0000   2000.0000     49.9677     73.7150
  1066.7500   2000.0000   2000.0000     49.0668     74.0886
  1067.0000   2000.0000   2000.0000     48.2548     74.5920
  1067.2500   2000.0000   2000.0000     47.6733     74.7993
  1067.5000   2000.0000   2000.0000     47.3715     75.3660
  1067.7500   2000.0000   2000.0000     47.2541     76.3644
  1068.0000   2000.0000   2000.0000     47.0907     79.1324
  1068.2500   2000.0000   2000.0000     46.5979     81.3885
  1068.5000   2000.0000   2000.0000     45.5510     83.6851
  1068.7500   2000.0000   2000.0000     43.8679     83.5273
  1069.0000   2000.0000   2000.0000     41.6455     80.3171
  1069.2500   2000.0000   2000.0000     39.1310     76.8325
  1069.5000   2000.0000   2000.0000     36.6111     71.7743
  1069.7500   2000.0000   2000.0000     34.2790     70.0694
  1070.0000   2000.0000   2000.0000     32.1863     72.4806
  1070.2500   2000.0000   2000.0000     30.2968     78.1654
  1070.5000   2000.0000   2000.0000     28.5675     91.8496
  1070.7500   2000.0000   2000.0000     26.9815    102.5316
  1071.0000   2000.0000   2000.0000     25.5303    117.1951
  1071.2500   2000.0000   2000.0000     24.1948    124.8234
  1071.5000   2000.0000   2000.0000     22.9540    133.2019
  1071.7500   2000.0000   2000.0000     21.8024    137.6465
  1072.0000   2000.0000   2000.0000     20.7533    144.2371
  1072.2500   2000.0000   2000.0000     19.8249    149.1726
  1072.5000   2000.0000   2000.0000     19.0305    157.4610
  1072.7500   2000.0000   2000.0000     18.3790    163.0201
  1073.0000   2000.0000   2000.0000     17.8800    169.7856
  1073.2500   2000.0000   2000.0000     17.5453    172.3686
  1073.5000   2000.0000   2000.0000     17.3813    172.7870
  1073.7500   2000.0000   2000.0000     17.3797    171.1023
  1074.0000   2000.0000   2000.0000     17.5137    167.0431
  1074.2500   2000.0000   2000.0000     17.7462    164.2458
  1074.5000   2000.0000   2000.0000     18.0455    160.9423
  1074.7500   2000.0000   2000.0000     18.4000    159.4154
  1075.0000   2000.0000   2000.0000     18.8162    157.7437
  1075.2500   2000.0000   2000.0000     19.3011    156.8128
  1075.5000   2000.0000   2000.0000     19.8385    155.4429
  1075.7500   2000.0000   2000.0000     20.3796    154.3364
  1076.0000   2000.0000   2000.0000     20.8551    151.6523
  1076.2500   2000.0000   2000.0000     21.2033    148.6276
  1076.5000   2000.0000   2000.0000     21.3943    141.6954
  1076.7500   2000.0000   2000.0000     21.4342    135.7349
  1077.0000   2000.0000   2000.0000     21.3523    126.4195
  1077.2500   2000.0000   2000.0000     21.1863    121.4312
  1077.5000   2000.0000   2000.0000     20.9719    118.3096
  1077.7500   2000.0000   2000.0000     20.7329    119.9329
  1078.0000   2000.0000   2000.0000     20.4702    127.2077
  1078.2500   2000.0000   2000.0000     20.1564    133.8218
  1078.5000   2000.0000   2000.0000     19.7489    143.3835
  1078.7500   2000.0000   2000.0000     19.2197    148.1749
  1079.0000   2000.0000   2000.0000     18.5822    152.0481
  1079.2500   2000.0000   2000.0000     17.8888    152.7757
  1079.5000   2000.0000   2000.0000     17.2036    152.8314
  1079.7500   2000.0000   2000.0000     16.5737    153.2038
  1080.0000   2000.0000   2000.0000     16.0186    154.9542
  1080.2500   2000.0000   2000.0000     15.5352    156.7825
  1080.5000   2000.0000   2000.0000     15.1116    160.1507
  1080.7500   2000.0000   2000.0000     14.7399    162.5593
  1081.0000   2000.0000   2000.0000     14.4220    165.5747
  1081.2500   2000.0000   2000.0000     14.1664    166.6299
  1081.5000   2000.0000   2000.0000     13.9789    166.3348
  1081.7500   2000.0000   2000.0000     13.8574    164.8567
  1082.0000   2000.0000   2000.0000     13.7930    160.5681
  1082.2500   2000.0000   2000.0000     13.7732    156.3272
  1082.5000   2000.0000   2000.0000     13.7834    148.9148
  1082.7500   2000.0000   2000.0000     13.8062    144.4502
  1083.0000   2000.0000   2000.0000     13.8265    140.2429
  1083.2500   2000.0000   2000.0000     13.8397    139.3950
  1083.5000   2000.0000   2000.0000     13.8560    140.3300
  1083.7500   2000.0000   2000.0000     13.8942    141.7336
  1084.0000   2000.0000   2000.0000     13.9682    144.0832
  1084.2500   2000.0000   2000.0000     14.0770    145.5522
  1084.5000   2000.0000   2000.0000     14.2038    147.6139
  1084.7500   2000.0000   2000.0000     14.3248    149.1259
  1085.0000   2000.0000   2000.0000     14.4207    152.0265
  1085.2500   2000.0000   2000.0000     14.4834    154.2143
  1085.5000   2000.0000   2000.0000     14.5111    156.5238
  1085.7500   2000.0000   2000.0000     14.4978    156.5141
  1086.0000   2000.0000   2000.0000     14.4295    153.7047
  1086.2500   2000.0000   2000.0000     14.2927    150.3748
  1086.5000   2000.0000   2000.0000     14.0913    144.0414
  1086.7500   2000.0000   2000.0000     13.8559    139.1466
  1087.0000   2000.0000   2000.0000     13.6357    131.1210
  1087.2500   2000.0000   2000.0000     13.4798    125.9879
  1087.5000   2000.0000   2000.0000     13.4193    120.6964
  1087.7500   2000.0000   2000.0000     13.4617    119.7596
  1088.0000   2000.0000   2000.0000     13.5937    121.8132
  1088.2500   2000.0000   2000.0000     13.7882    124.0304
  1088.5000   2000.0000   2000.0000     14.0087    126.0575
  1088.7500   2000.0000   2000.0000     14.2116    126.0117
  1089.0000   2000.0000   2000.0000     14.3534    124.5790
  1089.2500   2000.0000   2000.0000     14.4066    123.3417
  1089.5000   2000.0000   2000.0000     14.3754    121.3717
  1089.7500   2000.0000   2000.0000     14.2919    119.7062
  1090.0000   2000.0000   2000.0000     14.1926    116.0948
  1090.2500   2000.0000   2000.0000     14.0947    112.9593
  1090.5000   2000.0000   2000.0000     13.9888    108.3256
  1090.7500   2000.0000   2000.0000     13.8507    106.4325
