~Version Information
VERS.                      2.0: CWLS Log ASCII Standard - VERSION 2.0
WRAP.                       NO: One line per depth step
~Well Information Block
STRT.FT                 7.7500: 
STOP.FT              2101.0000: 
STEP.FT                 0.2500: 
NULL.                -999.2500: 
COMP.          Pioneer Natural Resources: COMPANY
WELL.          Gunslinger 13-24: WELL
FLD.           Purgatoire River: FIELD
LOC.           1968' FSL & 633' FWL: LOCATION
PROV.                 Colorado: PROVINCE
CNTY.               Las Animas: COUNTRY
SRVC.                Patterson: SERVICE COMPANY
DATE.          Mon Aug 15 11:00:02 2005: LOG DATE
UWI.           05 071 08442 00: UNIQUE WELL ID
~Curve Information Block
DEPT.FT            0 000 00 00: Depth
GR.GAPI                       : Gamma Ray
CCL.                          : Casing Collar Locator
TT3.usec                      : CBL 3' Travel Time
AMP3.mV                       : CBL 3' Amplitude
~Parameter Information Block
~A  Depth        GR         CCL         TT3         AMP3    
# ...
   409.7500     93.5708      0.0000    254.4823     50.9299
   410.0000     92.4460      0.0000    254.4740     50.8611
   410.2500     91.0699      0.0000    254.4401     50.9730
   410.5000     89.3591      0.0000    254.3721     51.3254
   410.7500     86.7036      0.0000    254.2773     51.8927
   411.0000     82.8770      0.0000    254.1754     52.5797
   411.2500     79.2066      0.0000    254.0866     53.2686
   411.5000     78.0376      0.0000    254.0233     53.8578
   411.7500     80.5465      0.0000    253.9876     54.2921
   412.0000     85.5598      0.0000    253.9742     54.5731
   412.2500     90.9473      0.0000    253.9778     54.7282
   412.5000     95.7293      0.0000    253.9978     54.7691
   412.7500    100.2329      0.0000    254.0359     54.6919
   413.0000    104.4328      0.0000    254.0911     54.5069
   413.2500    106.9990      0.0000    254.1589     54.2525
   413.5000    106.5028      0.0000    254.2319     53.9809
   413.7500    103.1941      0.0000    254.3027     53.7345
   414.0000     98.9895      0.0000    254.3657     53.5347
   414.2500     95.7084      0.0000    254.4190     53.3868
   414.5000     93.6208      0.0000    254.4641     53.2915
   414.7500     91.6964      0.0000    254.5047     53.2487
   415.0000     88.9942      0.0000    254.5442     53.2531
   415.2500     85.5678      0.0000    254.5832     53.2844
   415.5000     82.1090      0.0000    254.6189     53.3106
   415.7500     79.2130      0.0000    254.6453     53.3204
   416.0000     77.2890      0.0000    254.6552     53.3486
   416.2500     76.8057      0.0000    254.6418     53.4495
   416.5000     78.1201      0.0000    254.6035     53.6348
   416.7500     81.0934      0.0000    254.5477     53.8501
   417.0000     85.0131      0.0000    254.4902     54.0172
   417.2500     88.7676      0.0000    254.4496     54.0887
   417.5000     91.2302      0.0000    254.4377     54.0550
   417.7500     91.9317      0.0000    254.4545     53.9131
   418.0000     91.4388      0.0000    254.4921     53.6536
   418.2500     90.7875      0.0000    254.5432     53.2885
   418.5000     90.5426      0.0000    254.6008     52.8862
   418.7500     90.6221      0.0000    254.6528     52.5660
   419.0000     90.8438      0.0000    254.6806     52.4380
   419.2500     91.1888      0.0000    254.6704     52.5269
   419.5000     91.6440      0.0000    254.6242     52.7464
   419.7500     92.2491      0.0000    254.5586     52.9561
   420.0000     93.2566      0.0000    254.4919     53.0641
   420.2500     94.9209      0.0000    254.4331     53.0817
   420.5000     97.0551      0.0000    254.3840     53.0784
   420.7500     98.8978      0.0000    254.3463     53.0933
   421.0000     99.4607      0.0000    254.3236     53.0938
   421.2500     98.1543      0.0000    254.3172     53.0139
   421.5000     95.3623      0.0000    254.3246     52.8162
   421.7500     92.4736      0.0000    254.3441     52.5145
   422.0000     90.9607      0.0000    254.3789     52.1500
   422.2500     91.1322      0.0000    254.4316     51.7590
   422.5000     91.9646      0.0000    254.4969     51.3592
   422.7500     92.2448      0.0000    254.5606     50.9547
   423.0000     91.6245      0.0000    254.6078     50.5517
   423.2500     90.7031      0.0000    254.6324     50.1773
   423.5000     90.5918      0.0000    254.6366     49.8825
   423.7500     92.2878      0.0000    254.6269     49.7135
   424.0000     95.8655      0.0000    254.6101     49.6630
   424.2500    100.1098      0.0000    254.5943     49.6510
   424.5000    103.2736      0.0000    254.5891     49.5663
   424.7500    104.3340      0.0000    254.6025     49.3407
   425.0000    103.3474      0.0000    254.6359     48.9940
   425.2500    100.7214      0.0000    254.6800     48.6207
   425.5000     96.7276      0.0000    254.7182     48.3322
   425.7500     91.9084      0.0000    254.7352     48.1926
   426.0000     87.3780      0.0000    254.7243     48.1961
   426.2500     84.2345      0.0000    254.6891     48.2922
   426.5000     82.9578      0.0000    254.6398     48.4235
   426.7500     83.5708      0.0000    254.5885     48.5416
   427.0000     85.9679      0.0000    254.5443     48.6130
   427.2500     89.7637      0.0000    254.5102     48.6399
   427.5000     93.8872      0.0000    254.4811     48.6704
   427.7500     96.6349      0.0000    254.4489     48.7686
   428.0000     96.6751      0.0000    254.4081     48.9688
   428.2500     94.3271      0.0000    254.3593     49.2611
   428.5000     91.5982      0.0000    254.3081     49.6068
   428.7500     90.5727      0.0000    254.2639     49.9535
   429.0000     91.7144      0.0000    254.2375     50.2406
   429.2500     93.7225      0.0000    254.2373     50.4153
   429.5000     94.8060      0.0000    254.2629     50.4668
   429.7500     93.9508      0.0000    254.3030     50.4567
   430.0000     91.2669      0.0000    254.3388     50.5111
   430.2500     87.6995      0.0000    254.3536     50.7618
   430.5000     84.6572      0.0000    254.3415     51.2621
   430.7500     83.3984      0.0000    254.3095     51.9392
   431.0000     84.1717      0.0000    254.2712     52.6310
   431.2500     85.9890      0.0000    254.2375     53.1871
   431.5000     87.5047      0.0000    254.2112     53.5593
   431.7500     88.0548      0.0000    254.1876     53.8236
   432.0000     87.8219      0.0000    254.1562     54.1267
   432.2500     87.2438      0.0000    254.1051     54.5988
   432.5000     86.5423      0.0000    254.0286     55.2874
   432.7500     85.7859      0.0000    253.9313     56.1402
   433.0000     85.1283      0.0000    253.8253     57.0366
   433.2500     84.7675      0.0000    253.7242     57.8459
   433.5000     84.7118      0.0000    253.6407     58.4773
   433.7500     84.7486      0.0000    253.5870     58.8943
   434.0000     84.7560      0.0000    253.5732     59.0994
   434.2500     84.9947      0.0000    253.6073     59.1084
   434.5000     85.9561      0.0000    253.7269     58.9206
   434.7500     87.8437      0.0000    254.0680     58.4800
   435.0000     90.2852      0.0000    254.9661     57.6420
   435.2500     92.6227      0.0000    256.9621     56.2181
   435.5000     94.3055      0.0000    260.5616     54.1199
   435.7500     94.8269      0.0000    265.8526     51.4627
   436.0000     93.6192      0.0000    272.3766     48.4915
   436.2500     90.5575      0.0000    279.3634     45.4563
   436.5000     86.5340      0.0000    285.9680     42.6303
   436.7500     83.0413      0.0000    291.3925     40.3310
   437.0000     81.0920      0.0000    295.1329     38.7700
   437.2500     80.7424      0.0000    297.2193     37.9138
   437.5000     81.6322      0.0000    298.0662     37.5664
   437.7500     83.7667      2.1094    298.0729     37.5408
   438.0000     87.6333      0.0000    297.3649     37.7810
   438.2500     93.4515      0.0000    295.8508     38.4268
   438.5000    100.3427      0.0000    293.4407     39.7400
   438.7500    106.3707      0.0000    290.0858     41.8325
   439.0000    109.6148      0.0000    285.5585     44.4742
   439.2500    109.4345      0.0000    279.5106     47.2859
   439.5000    106.8789      0.0000    272.1975     50.0152
   439.7500    103.8467      0.0000    264.9261     52.4909
   440.0000    101.6829      0.0000    259.2621     54.4770
   440.2500    100.4472      0.0000    255.8527     55.7759
   440.5000     99.4134      0.0000    254.2596     56.3958
   440.7500     98.0540      0.0000    253.6726     56.5210
   441.0000     96.5328      0.0000    253.5029     56.3718
   441.2500     95.5629      0.0000    253.4779     56.1193
   441.5000     95.8709      0.0000    253.5019     55.8714
   441.7500     97.3837      0.0000    253.5443     55.6728
   442.0000     98.7726      0.0000    253.5874     55.5211
   442.2500     98.1471      0.0000    253.6222     55.4012
   442.5000     94.5356      0.0000    253.6449     55.3269
   442.7500     88.6515      0.0000    253.6571     55.3489
   443.0000     82.1712      0.0000    253.6645     55.5080
