~Version Information
VERS.                      2.0: CWLS Log ASCII Standard - VERSION 2.0
WRAP.                       NO: One line per depth step
~Well Information Block
STRT.FT               -14.0000: 
STOP.FT               951.0000: 
STEP.FT                 0.2500: 
NULL.                -999.2500: 
COMP.          Pioneer Natural Resources: COMPANY
WELL.             Giggle 21-22: WELL
FLD.           Purgatoire River: FIELD
LOC.           950' FNL & 2094' FWL: LOCATION
CNTY.               Las Animas: COUNTY
SRVC.                         : SERVICE COMPANY
DATE.          Mon Apr 17 17:51:33 2006: LOG DATE
UWI.           05 071 08726 00: UNIQUE WELL ID
STAT.                       CO: STATE
~Curve Information Block
DEPT.FT            0 000 00 00: Depth
CCL.                          : Casing Collar Locator
TT3.usec                      : CBL 3' Travel Time
AMP3.mV                       : CBL 3' Amplitude
GR.GAPI                       : Gamma Ray
~Parameter Information Block
~A  Depth       CCL         TT3         AMP3         GR     
# ...
   857.0000      0.0000    684.4545      9.1260     88.8963
   857.2500      0.0000    684.3554      9.0279     89.8889
   857.5000      0.0000    684.5385      9.0384     91.7359
   857.7500      0.0000    685.1805      9.1487     93.8261
   858.0000      0.0000    686.5677      9.2637     95.8823
   858.2500      0.0000    689.0578      9.3103     97.9591
   858.5000      0.0000    692.7134      9.3065     99.4593
   858.7500      0.0000    696.6954      9.3140     98.9885
   859.0000      0.0000    699.2278      9.3533     95.6755
   859.2500      0.0000    698.7740      9.3927     90.0781
   859.5000      0.0000    695.4402      9.4006     83.4930
   859.7500      0.0000    690.9255      9.3679     77.0153
   860.0000      0.0000    686.8240      9.2967     71.5652
   860.2500      0.0000    682.9682      9.2051     68.0060
   860.5000      0.0000    676.8140      9.1426     66.5031
   860.7500      0.0000    664.2997      9.1711     66.1173
   861.0000      0.0000    642.7582      9.3133     65.6599
   861.2500      0.0000    614.7530      9.5301     64.8751
   861.5000      0.0000    588.7294      9.7599     64.5119
   861.7500      0.0000    574.3619      9.9800     65.4057
   862.0000      0.0000    576.4620     10.2125     67.6714
   862.2500      0.0000    592.0504     10.4717     70.6013
   862.5000      0.0000    611.4777     10.7275     73.0985
   862.7500     -5.0000    623.5424     10.9353     74.3072
   863.0000     -5.0000    622.7480     11.0879     73.9650
   863.2500      0.0000    612.7752     11.2345     72.2187
   863.5000      0.0000    602.4232     11.4802     69.3886
   863.7500      0.0000    598.5949     11.9665     66.0772
   864.0000      0.0000    603.5449     12.7728     63.1523
   864.2500      0.0000    616.7615     13.7709     61.2988
   864.5000      0.0000    636.2159     14.6263     60.7528
   864.7500      0.0000    657.8214     15.0059     61.5460
   865.0000      0.0000    676.4030     14.7750     63.5558
   865.2500      0.0000    688.6769     13.9996     66.1313
   865.5000      0.0000    694.7151     12.8473     68.2637
   865.7500      0.0000    696.6276     11.5164     69.5954
   866.0000      0.0000    696.8346     10.1851     70.8436
   866.2500      0.0000    697.4192      8.9591     72.5976
   866.5000      0.0000    699.8082      7.8660     73.8413
   866.7500      0.0000    704.3603      6.9076     72.4680
   867.0000      0.0000    710.1493      6.1106     67.5810
   867.2500      0.0000    715.1180      5.5290     60.7334
   867.5000      0.0000    716.9159      5.2145     54.5290
   867.7500      0.0000    714.4025      5.1890     50.4932
   868.0000      0.0000    708.4734      5.4340     48.6306
   868.2500      0.0000    701.1852      5.8968     48.4235
   868.5000      0.0000    694.3431      6.5162     49.5638
   868.7500      0.0000    688.7293      7.2615     51.8483
   869.0000      0.0000    683.7480      8.1529     54.9541
   869.2500      0.0000    676.7916      9.2398     58.6107
   869.5000      0.0000    663.2028     10.5546     62.7815
   869.7500      0.0000    638.1126     12.0843     67.3783
   870.0000      0.0000    599.7292     13.7779     71.8824
   870.2500      0.0000    551.6553     15.5512     75.5253
   870.5000      0.0000    503.6065     17.2429     77.8110
   870.7500      0.0000    471.1943     18.5797     78.6478
   871.0000      0.0000    471.0989     19.2649     77.9420
   871.2500      0.0000    509.1129     19.1569     75.3188
   871.5000      0.0000    571.4364     18.3518     70.6466
   871.7500      0.0000    632.3734     17.0829     64.8905
   872.0000      0.0000    672.7214     15.5729     59.9848
   872.2500      0.0000    689.8575     13.9872     57.5255
   872.5000      0.0000    692.4632     12.4612     57.7568
   872.7500      0.0000    690.0790     11.1061     59.8746
   873.0000      0.0000    688.0862      9.9837     62.9590
   873.2500      0.0000    688.3537      9.0981     66.4607
   873.5000      0.0000    691.0235      8.4319     70.0976
   873.7500      0.0000    694.9796      7.9807     73.5708
   874.0000      0.0000    698.1256      7.7346     76.4909
   874.2500      0.0000    698.7300      7.6276     78.7616
   874.5000      0.0000    697.0723      7.5323     81.0197
   874.7500      0.0000    695.4270      7.3314     84.2469
   875.0000      0.0000    696.1944      7.0078     88.6963
   875.2500      0.0000    700.0330      6.6610     93.3738
   875.5000      0.0000    705.6232      6.4241     96.6608
   875.7500      0.0000    710.9288      6.3596     97.4496
   876.0000      0.0000    714.5640      6.4309     95.8878
   876.2500      0.0000    716.0685      6.5559     93.1570
   876.5000      0.0000    715.2807      6.6641     90.3484
   876.7500      0.0000    711.9796      6.7121     87.3636
   877.0000      0.0000    706.3628      6.6789     83.0584
   877.2500      0.0000    699.5983      6.5719     76.6295
   877.5000      0.0000    693.4565      6.4393     68.7846
   877.7500      0.0000    689.2341      6.3595     61.4532
   878.0000      0.0000    687.1055      6.4041     56.4710
   878.2500      0.0000    686.4325      6.5974     54.6591
   878.5000      0.0000    686.4610      6.8949     55.9648
   878.7500      0.0000    686.6972      7.2023     60.0196
   879.0000      0.0000    686.8778      7.4344     66.3340
   879.2500      0.0000    686.8345      7.5615     74.2080
   879.5000      0.0000    686.4641      7.6010     82.7056
   879.7500      0.0000    685.7906      7.5871     90.5636
   880.0000      0.0000    685.0272      7.5530     96.1152
   880.2500      0.0000    684.5738      7.5139     97.9257
   880.5000      0.0000    684.9601      7.4521     96.0001
   880.7500      0.0000    686.6419      7.3505     92.1147
   881.0000      0.0000    689.4607      7.2394     88.6616
   881.2500      0.0000    691.8925      7.1774     87.3232
   881.5000      0.0000    691.0720      7.1765     88.6571
   881.7500      0.0000    684.5233      7.1759     92.2275
   882.0000      0.0000    672.7176      7.1011     96.9295
   882.2500      0.0000    659.9129      6.9414    101.5632
   882.5000      0.0000    651.8709      6.7698    105.2099
   882.7500      0.0000    652.0405      6.6931    107.1985
   883.0000      0.0000    659.4026      6.7702    107.1625
   883.2500      0.0000    669.8311      6.9753    105.3330
   883.5000      0.0000    679.4899      7.2434    102.6053
   883.7500      0.0000    686.8541      7.5470    100.2334
   884.0000      0.0000    692.0709      7.9122     99.3322
   884.2500      0.0000    695.5501      8.3607    100.4629
   884.5000      0.0000    697.5582      8.8547    103.5220
   884.7500      0.0000    698.3632      9.3098    107.8502
   885.0000      0.0000    698.2425      9.6512    112.3787
   885.2500      0.0000    697.5827      9.8430    115.8628
   885.5000      0.0000    696.9094      9.8678    117.4045
   885.7500      0.0000    696.3652      9.7071    117.0282
   886.0000      0.0000    695.4406      9.3556    115.4800
   886.2500      0.0000    693.7715      8.8502    113.3136
   886.5000      0.0000    691.9973      8.2794    110.5522
   886.7500      0.0000    691.3104      7.7687    107.2977
   887.0000      0.0000    692.1808      7.4343    104.1090
   887.2500      0.0000    693.7905      7.3217    101.5642
   887.5000      0.0000    694.7737      7.3756     99.8151
   887.7500      0.0000    694.5179      7.4827     98.8407
   888.0000      0.0000    693.6432      7.5537     98.9119
   888.2500      0.0000    693.0620      7.5783    100.4067
   888.5000      0.0000    692.6610      7.6127    102.9642
   888.7500      0.0000    691.1838      7.7168    105.2723
   889.0000      0.0000    687.4006      7.9015    106.4092
   889.2500      0.0000    681.3797      8.1284    107.0840
   889.5000      0.0000    675.0880      8.3351    108.6975
   889.7500      0.0000    672.0297      8.4588    111.3277
   890.0000      0.0000    675.1976      8.4631    113.2801
   890.2500      0.0000    684.1098      8.3639    112.5561
