~Version Information
VERS.                      2.0: CWLS Log ASCII Standard - VERSION 2.0
WRAP.                       NO: One line per depth step
~Well Information Block
STRT.FT                -7.5000: 
STOP.FT              1517.5000: 
STEP.FT                 0.2500: 
NULL.                -999.2500: 
COMP.          Pioneer Natural Resources: COMPANY
WELL.          McClaren 13-34 Tr: WELL
FLD.           Purgatorie River: FIELD
LOC.           1934' FSL & 826' WL--: LOCATION
PROV.                       CO: PROVINCE
CNTY.               Las Animas: COUNTRY
SRVC.          Patterson Wireline: SERVICE COMPANY
DATE.          Fri Jul 15 13:10:35 2005: LOG DATE
UWI.           05 071 08437 00: UNIQUE WELL ID
~Curve Information Block
DEPT.FT            0 000 00 00: Depth
CCL.                          : Casing Collar Locator
TT3.usec                      : CBL 3' Travel Time
AMP3.mV                       : CBL 3' Amplitude
GR.GAPI                       : Gamma Ray
~Parameter Information Block
~A  Depth       CCL         TT3         AMP3         GR     
# ...
  1299.0000      0.0000    779.0059      7.6010    148.3530
  1299.2500      0.0000    778.1158      7.2091    142.8739
  1299.5000      0.0000    771.4005      6.9909    136.7150
  1299.7500      0.0000    759.9625      6.9613    131.4264
  1300.0000      0.0000    748.6755      7.0825    127.6756
  1300.2500      0.0000    742.1943      7.2704    125.8485
  1300.5000      0.0000    742.7230      7.4359    126.4982
  1300.7500      0.0000    750.1761      7.5328    129.7496
  1301.0000      0.0000    762.4489      7.5676    134.5676
  1301.2500      0.0000    775.2772      7.5743    139.2167
  1301.5000      0.0000    783.5412      7.5924    142.5918
  1301.7500      0.0000    784.0832      7.6661    144.8813
  1302.0000      0.0000    777.2236      7.8384    147.0026
  1302.2500      0.0000    765.3101      8.1173    149.4947
  1302.5000      0.0000    750.5120      8.4481    151.7465
  1302.7500      0.0000    734.5165      8.7374    152.3677
  1303.0000      0.0000    719.5121      8.9180    150.6393
  1303.2500      0.0000    708.4058      8.9902    147.4441
  1303.5000      0.0000    704.1076      9.0094    144.3832
  1303.7500      0.0000    708.3947      9.0419    142.0975
  1304.0000      0.0000    719.9887      9.1294    139.9092
  1304.2500      0.0000    732.3188      9.2837    137.1003
  1304.5000      0.0000    734.1359      9.5020    134.0551
  1304.7500      0.0000    716.1453      9.7716    131.8864
  1305.0000      0.0000    680.5117     10.0610    131.2666
  1305.2500      0.0000    642.6039     10.3218    131.8725
  1305.5000      0.0000    619.7046     10.5067    132.7628
  1305.7500      0.0000    618.1190     10.5811    133.1029
  1306.0000      0.0000    633.3853     10.5239    132.8039
  1306.2500      0.0000    659.1168     10.3330    132.5365
  1306.5000      0.0000    689.8758     10.0363    133.0053
  1306.7500      0.0000    718.2661      9.6959    134.2973
  1307.0000      0.0000    736.3139      9.3969    136.0414
  1307.2500      0.0000    740.8612      9.2156    137.9825
  1307.5000      0.0000    735.3721      9.1783    140.1711
  1307.7500      0.0000    726.8552      9.2462    142.4779
  1308.0000      0.0000    721.8718      9.3462    144.1067
  1308.2500      0.0000    723.8398      9.4256    143.9013
  1308.5000      0.0000    731.9789      9.4800    141.2760
  1308.7500      0.0000    742.2724      9.5301    136.7221
  1309.0000      0.0000    750.0956      9.5682    131.3565
  1309.2500      0.0000    752.9965      9.5359    126.1452
  1309.5000      0.0000    752.3474      9.3528    121.5788
  1309.7500      0.0000    752.8437      8.9656    117.8660
  1310.0000      0.0000    759.6028      8.3785    115.1716
  1310.2500      0.0000    774.4549      7.6508    113.1886
  1310.5000      0.0000    794.3320      6.8664    110.5240
  1310.7500      0.0000    813.3727      6.0999    105.3540
  1311.0000      0.0000    826.9734      5.4032     97.1801
  1311.2500      0.0000    833.9819      4.8040     87.5160
  1311.5000      0.0000    835.5779      4.3061     78.7009
  1311.7500      0.0000    833.3813      3.9065     72.4504
  1312.0000      0.0000    829.0957      3.6256     69.5273
  1312.2500      0.0000    824.6168      3.5024     70.2182
  1312.5000      0.0000    820.9534      3.5628     74.9022
  1312.7500      0.0000    817.1100      3.8161     83.9950
  1313.0000      0.0000    811.0430      4.2753     96.9074
  1313.2500      0.0000    802.1714      4.9407    111.2442
  1313.5000      0.0000    792.5690      5.7459    123.8740
  1313.7500      0.0000    785.1739      6.5557    132.9240
  1314.0000      0.0000    780.9263      7.2459    138.3132
  1314.2500      0.0000    777.7786      7.7806    140.7345
  1314.5000      0.0000    772.1819      8.2046    141.0468
  1314.7500      0.0000    761.4265      8.5721    140.5253
  1315.0000      0.0000    745.3387      8.8973    140.6197
  1315.2500      0.0000    726.6752      9.1679    141.9336
  1315.5000      0.0000    709.7473      9.3875    143.8211
  1315.7500      0.0000    697.8040      9.5833    145.2125
  1316.0000      0.0000    691.3396      9.7687    145.6199
  1316.2500      0.0000    688.7224      9.9207    145.2556
  1316.5000      0.0000    687.9592     10.0008    144.7565
  1316.7500      0.0000    687.8748      9.9789    145.1142
  1317.0000      0.0000    688.4268      9.8305    146.9844
  1317.2500      0.0000    690.7425      9.5345    149.2681
  1317.5000      0.0000    696.8674      9.0880    149.3875
  1317.7500      0.0000    708.5964      8.5197    146.0094
  1318.0000      0.0000    725.6971      7.8917    140.6922
  1318.2500      0.0000    745.1407      7.2902    135.9637
  1318.5000      0.0000    762.5109      6.8010    132.6051
  1318.7500      0.0000    774.5266      6.4639    129.3702
  1319.0000      0.0000    780.5096      6.2358    124.5029
  1319.2500      0.0000    781.7080      6.0092    117.1632
  1319.5000      0.0000    779.1843      5.6956    108.1586
  1319.7500      0.0000    772.5052      5.3176     99.7517
  1320.0000      0.0000    760.6486      5.0181     94.2593
  1320.2500      0.0000    743.9862      4.9527     92.2535
  1320.5000      0.0000    725.4330      5.1655     92.3013
  1320.7500      0.0000    709.9147      5.5795     92.7441
  1321.0000      0.0000    702.2201      6.0829     93.4688
  1321.2500      0.0000    704.2204      6.5879     95.6245
  1321.5000      0.0000    712.8669      7.0267     99.8772
  1321.7500      0.0000    720.8874      7.3462    105.2639
  1322.0000      0.0000    721.3654      7.5225    109.7609
  1322.2500      0.0000    712.5286      7.5864    111.7877
  1322.5000      0.0000    696.9209      7.6429    111.0539
  1322.7500      0.0000    676.8839      7.8344    108.2758
  1323.0000      0.0000    653.8330      8.2291    104.7698
  1323.2500      0.0000    630.9365      8.7479    102.3773
  1323.5000      0.0000    612.5645      9.2491    102.8195
  1323.7500      0.0000    601.4197      9.6640    106.3698
  1324.0000      0.0000    596.9200     10.0030    111.4041
  1324.2500      0.0000    593.2306     10.2697    115.7434
  1324.5000      0.0000    579.4937     10.4359    118.2315
  1324.7500      0.0000    547.8641     10.4866    118.7514
  1325.0000      0.0000    502.5617     10.4487    117.2545
  1325.2500      0.0000    457.4665     10.3801    113.7376
  1325.5000      0.0000    424.4925     10.3434    109.2916
  1325.7500      0.0000    406.2770     10.3772    106.1804
  1326.0000      0.0000    398.5604     10.4776    106.1357
  1326.2500      0.0000    395.9664     10.6059    109.0106
  1326.5000      0.0000    395.0520     10.7210    113.4601
  1326.7500      0.0000    394.3977     10.8113    118.2324
  1327.0000      0.0000    394.1394     10.9009    122.3070
  1327.2500      0.0000    396.2785     11.0143    124.5705
  1327.5000      0.0000    404.5863     11.1304    124.2362
  1327.7500      0.0000    422.0093     11.1840    121.5370
  1328.0000      0.0000    446.4084     11.1327    117.6588
  1328.2500      0.0000    470.7492     11.0122    114.0448
  1328.5000      0.0000    491.0683     10.9023    111.7405
  1328.7500      0.0000    513.4185     10.8397    110.9793
  1329.0000      0.0000    548.0528     10.7945    111.0457
  1329.2500      0.0000    595.8692     10.7413    110.7924
  1329.5000      0.0000    644.4877     10.7103    109.6433
  1329.7500      0.0000    678.7341     10.7468    108.0076
  1330.0000      0.0000    692.3555     10.8517    106.5611
  1330.2500      0.0000    690.1191     10.9921    105.4732
  1330.5000      0.0000    682.3436     11.1390    104.7031
  1330.7500      0.0000    678.4117     11.2641    104.6906
  1331.0000      0.0000    682.7263     11.3286    105.9076
  1331.2500      0.0000    693.8622     11.3072    107.6078
  1331.5000      0.0000    706.7055     11.2110    107.8159
  1331.7500      0.0000    716.1617     11.0670    105.0180
  1332.0000      0.0000    719.9012     10.9009     99.4939
  1332.2500      0.0000    718.4929     10.7498     92.8382
