~Version Information
VERS.                      2.0: CWLS Log ASCII Standard - VERSION 2.0
WRAP.                       NO: One line per depth step
~Well Information Block
STRT.FT               -10.0000: 
STOP.FT              1935.0000: 
STEP.FT                 0.2500: 
NULL.                -999.2500: 
COMP.          Pioneer Natural Resources: COMPANY
WELL.           Willys 32-8 Tr: WELL
FLD.           Purgatorie River: FIELD
LOC.           1843' FNL & 2355' FEL--: LOCATION
CNTY.               Las Animas: COUNTY
SRVC.          Patterson Wireline: SERVICE COMPANY
DATE.          Wed Feb 15 13:29:41 2006: LOG DATE
UWI.           05 071 08688 00: UNIQUE WELL ID
STAT.                       CO: STATE
~Curve Information Block
DEPT.FT            0 000 00 00: Depth
CCL.                          : Casing Collar Locator
TT3.usec                      : CBL 3' Travel Time
AMP3.mV                       : CBL 3' Amplitude
GR.GAPI                       : Gamma Ray
~Parameter Information Block
~A  Depth       CCL         TT3         AMP3         GR     
# ...
   492.5000      0.0000    781.2689      8.4792     44.4588
   492.7500      0.0000    794.6323      8.8321     50.6305
   493.0000      0.0000    805.5115      9.2084     57.0702
   493.2500      0.0000    813.4391      9.6108     62.8298
   493.5000      0.0000    817.9662     10.0332     67.0244
   493.7500      0.0000    819.2004     10.4573     69.5954
   494.0000      0.0000    817.3342     10.8370     71.1345
   494.2500      0.0000    812.1102     11.0972     71.7484
   494.5000      0.0000    803.5193     11.1657     70.6793
   494.7500      0.0000    793.1120     11.0254     67.4319
   495.0000      0.0000    783.7479     10.7374     62.8333
   495.2500      0.0000    777.3521     10.4134     58.4971
   495.5000      0.0000    773.3455     10.1583     55.5132
   495.7500      0.0000    769.4724     10.0312     54.0557
   496.0000      0.0000    763.4066     10.0408     53.9379
   496.2500      0.0000    753.6374     10.1598     54.9157
   496.5000      0.0000    740.2143     10.3356     56.3843
   496.7500      0.0000    725.2839     10.5012     57.2819
   497.0000      0.0000    712.1340     10.5990     56.7243
   497.2500      0.0000    703.0856     10.6080     54.7099
   497.5000      0.0000    698.3889     10.5500     52.0199
   497.7500      0.0000    697.0499     10.4719     49.5558
   498.0000      0.0000    698.2727     10.4220     47.8653
   498.2500      0.0000    702.0196     10.4331     46.9746
   498.5000      0.0000    708.2919     10.5104     46.4818
   498.7500      0.0000    716.0877     10.6297     46.1291
   499.0000      0.0000    723.7350     10.7538     46.4334
   499.2500      0.0000    730.9293     10.8566     48.2592
   499.5000      0.0000    739.8799     10.9337     51.4190
   499.7500      0.0000    753.1967     10.9895     54.2146
   500.0000      0.0000    770.4842     11.0198     54.9987
   500.2500      0.0000    787.6733     11.0089     53.9038
   500.5000      0.0000    799.5751     10.9474     52.5122
   500.7500      0.0000    802.7969     10.8510     52.0483
   501.0000      0.0000    797.1536     10.7550     52.3902
   501.2500      0.0000    785.7618     10.6823     52.6559
   501.5000      0.0000    773.6128     10.6143     52.1972
   501.7500      0.0000    764.7183     10.5031     50.9649
   502.0000      0.0000    760.2064     10.3156     49.3228
   502.2500      0.0000    759.1944     10.0629     47.7376
   502.5000      0.0000    760.3984      9.7871     46.5355
   502.7500      0.0000    762.4990      9.5273     45.7921
   503.0000      0.0000    764.7589      9.3023     45.3675
   503.2500      0.0000    768.4678      9.1148     44.9866
   503.5000      0.0000    776.3860      8.9617     44.3506
   503.7500      0.0000    789.4873      8.8408     43.3987
   504.0000      0.0000    804.7993      8.7536     42.5990
   504.2500      0.0000    816.6872      8.7090     42.7506
   504.5000      0.0000    819.8279      8.7240     44.1859
   504.7500      0.0000    812.0212      8.8166     46.1987
   505.0000      0.0000    795.8657      8.9942     47.6081
   505.2500      0.0000    777.3432      9.2476     47.8904
   505.5000      0.0000    761.1961      9.5575     47.3894
   505.7500      0.0000    747.7286      9.9076     46.4352
   506.0000      0.0000    734.7192     10.2915     44.8374
   506.2500      0.0000    721.5132     10.7070     42.5292
   506.5000      0.0000    710.0199     11.1436     40.2742
   506.7500      0.0000    702.4183     11.5753     39.2754
   507.0000      0.0000    699.1676     11.9705     40.2334
   507.2500      0.0000    699.0424     12.3103     43.0798
   507.5000      0.0000    699.9103     12.6006     47.4114
   507.7500      0.0000    699.2493     12.8597     52.7835
   508.0000      0.0000    694.4517     13.0971     58.6995
   508.2500      0.0000    683.1976     13.3057     64.7939
   508.5000      0.0000    664.1886     13.4770     71.1617
   508.7500      0.0000    638.0884     13.6174     78.1363
   509.0000      0.0000    607.6474     13.7462     85.3668
   509.2500      0.0000    577.0164     13.8728     91.2945
   509.5000      0.0000    552.0305     13.9753     94.0651
   509.7500      0.0000    540.6435     13.9996     93.2148
   510.0000      0.0000    549.8292     13.8906     90.3805
   510.2500      0.0000    579.4939     13.6372     88.3060
   510.5000      0.0000    619.9504     13.2935     89.0836
   510.7500      0.0000    657.3124     12.9489     93.0921
   511.0000      0.0000    682.3635     12.6717     99.3295
   511.2500      0.0000    694.4943     12.4776    106.5454
   511.5000      0.0000    698.4340     12.3427    113.7476
   511.7500      0.0000    699.0496     12.2390    119.8441
   512.0000      0.0000    699.0057     12.1524    123.6884
   512.2500      0.0000    699.3091     12.0747    125.0005
   512.5000      0.0000    700.4557     11.9921    124.8125
   512.7500      0.0000    702.9561     11.8898    124.5474
   513.0000      0.0000    707.1052     11.7672    124.7596
   513.2500      0.0000    712.3079     11.6416    124.8012
   513.5000      0.0000    716.7662     11.5327    123.3455
   513.7500      0.0000    718.3331     11.4445    119.2330
   514.0000      0.0000    716.2094     11.3617    112.1737
   514.2500      0.0000    711.8992     11.2665    102.8164
   514.5000      0.0000    708.3025     11.1612     92.3390
   514.7500      0.0000    707.6605     11.0700     82.1781
   515.0000      0.0000    710.1433     11.0156     73.8515
   515.2500      0.0000    714.1945     10.9941     68.4673
   515.5000      0.0000    718.1252     10.9751     66.1431
   515.7500      0.0000    721.2318     10.9294     65.9719
   516.0000      0.0000    723.3456     10.8541     66.6710
   516.2500      0.0000    723.8408     10.7732     67.4161
   516.5000      0.0000    721.7618     10.7123     68.0982
   516.7500      0.0000    716.9398     10.6750     68.8365
   517.0000      0.0000    710.5784     10.6474     69.4495
   517.2500      0.0000    704.5423     10.6223     69.4902
   517.5000      0.0000    700.1365     10.6109     68.5833
   517.7500      0.0000    697.5680     10.6274     66.5409
   518.0000      0.0000    696.3173     10.6680     63.3339
   518.2500      0.0000    695.7600     10.7107     59.2332
   518.5000      0.0000    695.4854     10.7306     55.0543
   518.7500      0.0000    695.2976     10.7073     52.1178
   519.0000      0.0000    695.1102     10.6178     51.6499
   519.2500      0.0000    694.8303     10.4308     53.9105
   519.5000      0.0000    694.2435     10.1153     57.9859
   519.7500      0.0000    692.9592      9.6640     62.5987
   520.0000      0.0000    690.6873      9.1314     67.1490
   520.2500      0.0000    688.1973      8.6520     72.0037
   520.5000      0.0000    688.4926      8.3720     77.8042
   520.7500      0.0000    696.1443      8.3156     84.4547
   521.0000      0.0000    713.4796      8.3504     90.8386
   521.2500      0.0000    736.8883      8.3332     95.4308
   521.5000      0.0000    758.4800      8.2501     97.1444
   521.7500      0.0000    772.0472      8.1756     96.0813
   522.0000      0.0000    776.3378      8.1515     93.8093
   522.2500      0.0000    773.0908      8.1663     92.5369
   522.5000      0.0000    764.3986      8.2206     93.6995
   522.7500      0.0000    751.5070      8.3812     97.3626
   523.0000      0.0000    733.5327      8.7635    102.7500
   523.2500      0.0000    708.1833      9.4280    109.0615
   523.5000      0.0000    676.4854     10.2543    115.9065
   523.7500      0.0000    645.4717     10.9802    123.0084
   524.0000      0.0000    623.4783     11.4404    129.4440
   524.2500      0.0000    614.6802     11.7059    133.6890
   524.5000      0.0000    619.3295     11.9291    134.9691
   524.7500      0.0000    634.9385     12.1439    134.1342
   525.0000      0.0000    655.5273     12.2904    132.7526
   525.2500      0.0000    673.6916     12.3434    131.7802
   525.5000      0.0000    685.2610     12.3411    131.4223
   525.7500      0.0000    690.7254     12.3276    131.7741
