~Version Information
VERS.                      2.0: CWLS Log ASCII Standard - VERSION 2.0
WRAP.                       NO: One line per depth step
~Well Information Block
STRT.FT                -5.7500: 
STOP.FT              2734.0000: 
STEP.FT                 0.2500: 
NULL.                -999.2500: 
COMP.          Pioneer Natural Resources: COMPANY
WELL.              Loews 41-32: WELL
FLD.           Purgatoire River: FIELD
LOC.           751' FNL & 128' FEL--: LOCATION
CNTY.               Las Animas: COUNTY
SRVC.                         : SERVICE COMPANY
DATE.          Sat Mar 04 08:20:59 2006: LOG DATE
UWI.           05 071 08693 00: UNIQUE WELL ID
STAT.                       CO: STATE
~Curve Information Block
DEPT.FT            0 000 00 00: Depth
GR.GAPI                       : Gamma Ray
CCL.                          : Casing Collar Locator
TT3.usec                      : CBL 3' Travel Time
AMP3.mV                       : CBL 3' Amplitude
~Parameter Information Block
~A  Depth        GR         CCL         TT3         AMP3    
# ...
  1635.7500    107.6206      0.0000    485.2268      4.8739
  1636.0000    110.0127      0.0000    510.9048      4.9211
  1636.2500    112.7506      0.0000    531.3286      4.9693
  1636.5000    114.8556      0.0000    534.7632      4.9272
  1636.7500    116.1317      0.0000    519.6037      4.7714
  1637.0000    116.7509      0.0000    495.3774      4.5897
  1637.2500    116.5893      0.0000    473.6166      4.4862
  1637.5000    115.2641      0.0000    459.8351      4.4837
  1637.7500    112.8308      0.0000    453.8076      4.5405
  1638.0000    110.1108      0.0000    454.3779      4.6193
  1638.2500    108.2648      0.0000    462.1720      4.7104
  1638.5000    108.0504      0.0000    477.7621      4.8097
  1638.7500    109.1831      0.0000    497.6813      4.9027
  1639.0000    110.3691      0.0000    513.8828      4.9711
  1639.2500    110.3856      0.0000    519.4268      5.0085
  1639.5000    109.2420      0.0000    514.2784      5.0239
  1639.7500    108.1536      0.0000    503.3411      5.0309
  1640.0000    108.3626      0.0000    490.1140      5.0386
  1640.2500    109.8522      0.0000    475.3750      5.0515
  1640.5000    111.0631      0.0000    460.6397      5.0704
  1640.7500    110.0554      0.0000    449.1443      5.0899
  1641.0000    106.1343      0.0000    443.5215      5.0959
  1641.2500    100.3502      0.0000    444.8574      5.0726
  1641.5000     94.6032      0.0000    453.7363      5.0164
  1641.7500     90.3923      0.0000    469.8791      4.9426
  1642.0000     88.1085      0.0000    490.2162      4.8750
  1642.2500     87.3039      0.0000    509.1593      4.8260
  1642.5000     87.5412      0.0000    522.3295      4.7890
  1642.7500     88.7324      0.0000    529.2335      4.7499
  1643.0000     90.6639      0.0000    531.8809      4.7035
  1643.2500     92.6677      0.0000    532.8080      4.6603
  1643.5000     93.9043      0.0000    535.7648      4.6408
  1643.7500     93.6949      0.0000    546.2607      4.6643
  1644.0000     91.6043      0.0000    568.5546      4.7366
  1644.2500     87.5206      0.0000    601.5751      4.8445
  1644.5000     81.7917      0.0000    638.9489      4.9582
  1644.7500     75.3415      0.0000    672.8539      5.0443
  1645.0000     69.7338      0.0000    696.9993      5.0812
  1645.2500     66.7769      0.0000    707.7100      5.0666
  1645.5000     67.3229      0.0000    705.1653      5.0134
  1645.7500     70.1918      0.0000    693.8038      4.9390
  1646.0000     72.7493      0.0000    679.4666      4.8605
  1646.2500     73.1008      0.0000    664.6791      4.7946
  1646.5000     71.7301      0.0000    646.6824      4.7560
  1646.7500     70.7432      0.0000    620.4755      4.7508
  1647.0000     71.4905      0.0000    584.5281      4.7736
  1647.2500     73.1533      0.0000    543.7799      4.8110
  1647.5000     73.6920      0.0000    506.5062      4.8480
  1647.7500     71.9105      0.0000    478.3225      4.8735
  1648.0000     68.4202      0.0000    459.9196      4.8815
  1648.2500     64.8211      0.0000    449.8604      4.8708
  1648.5000     62.3592      0.0000    447.6451      4.8458
  1648.7500     61.4155      0.0000    453.9098      4.8170
  1649.0000     61.7436      0.0000    469.1413      4.7980
  1649.2500     62.7492      0.0000    492.9204      4.7987
  1649.5000     63.7496      0.0000    523.8345      4.8196
  1649.7500     64.3603      0.0000    559.7386      4.8515
  1650.0000     64.7051      0.0000    597.9383      4.8878
  1650.2500     65.2549      0.0000    634.7080      4.9340
  1650.5000     66.6549      0.0000    665.3559      4.9986
  1650.7500     69.7097      0.0000    686.3065      5.0714
  1651.0000     75.0645      0.0000    697.2618      5.1189
  1651.2500     82.4202      0.0000    700.7651      5.1050
  1651.5000     90.0825      0.0000    700.2956      5.0201
  1651.7500     95.6790      0.0000    699.5441      4.8892
  1652.0000     97.5730      0.0000    702.8446      4.7568
  1652.2500     95.6754      0.0000    715.0114      4.6606
  1652.5000     91.1084      0.0000    739.1251      4.6167
  1652.7500     85.3313      0.0000    772.4791      4.6181
  1653.0000     79.5462      0.0000    804.3176      4.6456
  1653.2500     74.7361      0.0000    820.9919      4.6825
  1653.5000     72.0063      0.0000    816.7151      4.7201
  1653.7500     72.5714      0.0000    798.4182      4.7541
  1654.0000     77.1197      0.0000    778.4094      4.7823
  1654.2500     85.1647      0.0000    763.7031      4.8103
  1654.5000     95.1643      0.0000    753.2008      4.8533
  1654.7500    105.4195      0.0000    742.4382      4.9303
  1655.0000    114.9722      0.0000    728.8365      5.0628
  1655.2500    123.5287      0.0000    713.6617      5.2752
  1655.5000    130.4633      0.0000    700.9128      5.5719
  1655.7500    134.4529      0.0000    694.2499      5.9046
  1656.0000    134.5748      0.0000    694.0658      6.1748
  1656.2500    131.4232      0.0000    697.2086      6.2888
  1656.5000    126.6854      0.0000    698.9697      6.2166
  1656.7500    121.8410      0.0000    694.4218      6.0023
  1657.0000    117.6110      0.0000    678.3297      5.7279
  1657.2500    114.3525      0.0000    646.4308      5.4695
  1657.5000    112.2964      0.0000    599.5027      5.2700
  1657.7500    111.1934      0.0000    545.9892      5.1370
  1658.0000    110.3300      0.0000    498.1001      5.0580
  1658.2500    109.4637      0.0000    463.8922      5.0182
  1658.5000    109.3584      0.0000    443.4328      5.0063
  1658.7500    110.8503      0.0000    431.9699      5.0117
  1659.0000    113.7395      0.0000    425.1389      5.0222
  1659.2500    117.0878      0.0000    421.0799      5.0286
  1659.5000    120.2163      0.0000    419.5636      5.0301
  1659.7500    122.9335      0.0000    421.1278      5.0325
  1660.0000    124.9410      0.0000    427.7321      5.0410
  1660.2500    125.5232      0.0000    443.3554      5.0587
  1660.5000    124.0604      0.0000    472.3297      5.0935
  1660.7500    120.7085      0.0000    515.6412      5.1568
  1661.0000    116.3373      0.0000    568.3280      5.2495
  1661.2500    111.7343      0.0000    620.7390      5.3525
  1661.5000    107.1661      0.0000    663.0544      5.4401
  1661.7500    103.1139      0.0000    689.8806      5.4988
  1662.0000    101.2397      0.0000    701.9440      5.5272
  1662.2500    103.8467      0.0000    703.9907      5.5191
  1662.5000    111.7795      0.0000    700.9409      5.4541
  1662.7500    122.9537      0.0000    695.6867      5.3081
  1663.0000    133.6062      0.0000    689.7774      5.0777
  1663.2500    141.2213      0.0000    685.0178      4.7970
  1663.5000    145.5951      0.0000    683.4819      4.5280
  1663.7500    147.0125      0.0000    685.7759      4.3242
  1664.0000    144.6560      0.0000    689.8560      4.1986
  1664.2500    137.6249      0.0000    692.4885      4.1264
  1664.5000    126.7392      0.0000    692.4540      4.0785
  1664.7500    114.6359      0.0000    691.8953      4.0475
  1665.0000    104.3749      0.0000    693.7156      4.0423
  1665.2500     98.0233      0.0000    697.6945      4.0668
  1665.5000     95.9559      0.0000    700.0220      4.1099
  1665.7500     97.0232      0.0000    697.0962      4.1596
  1666.0000     99.5410      0.0000    689.2449      4.2240
  1666.2500    102.5351      0.0000    680.2247      4.3337
  1666.5000    106.2654      0.0000    673.6271      4.5111
  1666.7500    111.4532      0.0000    670.4571      4.7399
  1667.0000    117.9514      0.0000    669.6529      4.9684
  1667.2500    124.3362      0.0000    669.7989      5.1442
  1667.5000    128.7781      0.0000    670.0851      5.2428
  1667.7500    130.1971      0.0000    670.3557      5.2728
  1668.0000    128.8717      0.0000    670.8951      5.2661
  1668.2500    126.2307      0.0000    672.3495      5.2634
  1668.5000    123.9212      0.0000    675.5872      5.3002
  1668.7500    122.9284      0.0000    681.1907      5.3944
  1669.0000    123.4457      0.0000    688.7646      5.5428
