~Version Information
VERS.                      2.0: CWLS Log ASCII Standard - VERSION 2.0
WRAP.                       NO: One line per depth step
~Well Information Block
STRT.FT               490.0000: 
STOP.FT              2303.5000: 
STEP.FT                 0.1000: 
NULL.                -999.2500: 
COMP.          Pioneer Natural Resources: COMPANY
WELL.             Baa Baa 34-1: WELL
FLD.           Purgatoire River: FIELD
LOC.           617' FSL & 2289' FEL: LOCATION
STAT.                 Colorado: State
CNTY.               Las Animas: COUNTY
CTRY. USA : Country
SECT. 1 : Section
TOWN. 33S : Township
RANG. 67W : Range
SRVC.                Patterson: SERVICE COMPANY
DATE.          Thu Sep 08 09:44:32 2005: LOG DATE
API.           05 071 08502 00: UNIQUE WELL ID
~Curve Information Block
DEPT.FT            0 000 00 00: Depth
DCAL.in                       : CDL Caliper
RHOB.g/cc                     : CDL Bulk Density
RHOC.g/cc                     : CDL Density Correction
DPOR.pu                       : CDL Density Porosity
GR.GAPI                       : Gamma Ray
NPOR.pu                       : Neutron Porosity
~Parameter Information Block
~A  Depth       DCAL        RHOB        RHOC        DPOR         GR         NPOR    
# ...
  1565.2000      8.0981      2.4979      0.1032      9.2212    119.0605     23.9494
  1565.3000      8.0894      2.4454     -0.0276     12.4021    124.7505     23.2508
  1565.4000      8.0894      2.4108     -0.0033     14.4954    135.7261     22.4306
  1565.5000      7.9887      2.4079      0.0110     14.6746    144.1367     22.1034
  1565.6000      7.9887      2.4341      0.0045     13.0833    146.5247     22.3633
  1565.7000      7.9887      2.4864      0.0527      9.9154    144.6294     22.5651
  1565.8000      7.9624      2.5439      0.1073      6.4299    138.8411     22.2619
  1565.9000      7.9624      2.5765      0.1427      4.4544    130.8887     21.8622
  1566.0000      7.9962      2.5777      0.1574      4.3790    127.1550     21.7535
  1566.1000      7.9962      2.5631      0.1619      5.2673    133.7134     21.9297
  1566.2000      7.9962      2.5424      0.1925      6.5182    149.3140     22.3486
  1566.3000      8.0008      2.5208      0.1007      7.8292    162.4801     22.8084
  1566.4000      8.0008      2.5140      0.0627      8.2410    163.4200     23.1583
  1566.5000      7.9934      2.5359      0.0464      6.9148    157.3062     23.3984
  1566.6000      7.9934      2.5697      0.1580      4.8637    154.4525     23.5231
  1566.7000      7.9934      2.5869      0.1291      3.8258    154.9396     23.7904
  1566.8000      7.9988      2.5888      0.1139      3.7107    153.4066     24.0521
  1566.9000      7.9988      2.5822      0.1309      4.1110    150.4911     23.8157
  1567.0000      8.0027      2.5673      0.0286      5.0118    151.0858     23.4586
  1567.1000      8.0027      2.5581      0.0506      5.5727    154.9778     23.6656
  1567.2000      8.0027      2.5568      0.0550      5.6465    156.2686     24.1993
  1567.3000      7.9989      2.5509      0.0636      6.0035    152.7859     24.4515
  1567.4000      7.9989      2.5384      0.0411      6.7633    146.4253     24.4115
  1567.5000      8.0040      2.5283      0.0115      7.3746    140.4191     24.5802
  1567.6000      8.0040      2.5249      0.0164      7.5832    136.6709     25.1190
  1567.7000      8.0040      2.5294      0.0043      7.3091    135.2449     25.5303
  1567.8000      7.9999      2.5432      0.0142      6.4731    136.9619     25.7205
  1567.9000      7.9999      2.5551      0.0481      5.7489    142.1457     26.1310
  1568.0000      8.0049      2.5524      0.0622      5.9138    148.8330     26.6536
  1568.1000      8.0049      2.5372     -0.0100      6.8369    153.0670     26.9108
  1568.2000      8.0049      2.5147     -0.0358      8.2007    152.5258     26.8317
  1568.3000      7.9848      2.4945     -0.0318      9.4230    150.0056     26.5341
  1568.4000      7.9848      2.4905     -0.0006      9.6646    148.3423     26.2792
  1568.5000      7.9694      2.4982      0.0607      9.1992    145.8568     26.1675
  1568.6000      7.9694      2.5103     -0.0251      8.4666    143.6391     25.9553
  1568.7000      7.9694      2.5363     -0.0468      6.8894    142.5385     25.5950
  1568.8000      7.9807      2.5695      0.0503      4.8808    141.5863     25.5221
  1568.9000      7.9807      2.5859      0.0272      3.8850    141.0071     26.0209
  1569.0000      7.9593      2.5841      0.0426      3.9939    140.9378     26.5146
  1569.1000      7.9593      2.5794      0.0426      4.2790    141.0636     26.4202
  1569.2000      7.9593      2.5783      0.0598      4.3460    142.1461     26.2453
  1569.3000      7.9518      2.5751      0.0420      4.5398    143.6021     26.3039
  1569.4000      7.9518      2.5658      0.0515      5.1025    145.4077     26.3682
  1569.5000      7.9503      2.5540      0.0025      5.8161    151.5999     26.4704
  1569.6000      7.9503      2.5427     -0.0006      6.5038    160.6832     26.3305
  1569.7000      7.9503      2.5297      0.0185      7.2932    161.3614     25.7033
  1569.8000      7.9579      2.5221     -0.0681      7.7503    151.0821     24.9436
  1569.9000      7.9579      2.5264      0.0242      7.4924    140.0786     24.5911
  1570.0000      7.9633      2.5287      0.0381      7.3510    133.7777     24.9659
  1570.1000      7.9633      2.5258     -0.0180      7.5275    132.8671     25.6583
  1570.2000      7.9633      2.5249      0.0563      7.5798    139.1443     25.8483
  1570.3000      7.9756      2.5115      0.0395      8.3924    148.5568     25.5756
  1570.4000      7.9756      2.4817     -0.0046     10.1977    150.6003     25.6709
  1570.5000      7.9562      2.4701     -0.0526     10.9017    142.6057     26.1640
  1570.6000      7.9562      2.4986      0.0153      9.1769    134.5773     26.4427
  1570.7000      7.9562      2.5392      0.0730      6.7180    132.3458     26.6668
  1570.8000      7.9617      2.5568      0.0649      5.6496    131.0179     27.1692
  1570.9000      7.9617      2.5585     -0.0226      5.5468    127.1812     27.6437
  1571.0000      7.9651      2.5642      0.0639      5.1989    124.3929     27.7029
  1571.1000      7.9651      2.5678      0.0493      4.9816    125.0107     27.2606
  1571.2000      7.9651      2.5715      0.0034      4.7589    127.1319     26.4892
  1571.3000      7.9774      2.5938      0.0270      3.4048    129.4703     25.9218
  1571.4000      7.9774      2.6280      0.0527      1.3309    131.0875     25.9516
  1571.5000      7.9671      2.6461      0.0887      0.2334    127.2731     26.0589
  1571.6000      7.9671      2.6366      0.0611      0.8121    117.9073     25.7547
  1571.7000      7.9671      2.6101      0.0370      2.4193    111.9448     25.2381
  1571.8000      7.9523      2.5830     -0.0081      4.0611    117.3082     24.9954
  1571.9000      7.9523      2.5682      0.0393      4.9583    129.3472     25.4142
  1572.0000      7.9467      2.5690      0.0059      4.9065    136.5437     26.1676
  1572.1000      7.9467      2.5791      0.0421      4.2984    134.7307     26.4804
  1572.2000      7.9467      2.5856      0.0295      3.9045    130.9811     25.9239
  1572.3000      7.9382      2.5820      0.0624      4.1228    133.7947     24.9593
  1572.4000      7.9382      2.5673      0.0487      5.0095    140.9976     24.5301
  1572.5000      7.9588      2.5465     -0.0057      6.2730    146.2140     24.6389
  1572.6000      7.9588      2.5348     -0.0242      6.9807    149.2922     24.7874
  1572.7000      7.9588      2.5399      0.0145      6.6746    152.5233     24.9735
  1572.8000      7.9831      2.5511     -0.0222      5.9926    156.1144     25.1013
  1572.9000      7.9831      2.5536      0.0677      5.8402    158.7844     25.1554
  1573.0000      7.9939      2.5423      0.0189      6.5288    159.8790     25.2218
  1573.1000      7.9939      2.5248      0.0218      7.5877    159.0349     25.0049
  1573.2000      7.9939      2.5093      0.0215      8.5291    156.6674     24.5406
  1573.3000      7.9948      2.5085      0.0171      8.5745    153.3978     24.6177
  1573.4000      7.9948      2.5344      0.0176      7.0046    146.8881     25.6148
  1573.5000      7.9901      2.5734      0.0468      4.6440    138.6482     26.7617
  1573.6000      7.9901      2.5952      0.0788      3.3232    135.7480     27.1919
  1573.7000      7.9901      2.5842      0.0730      3.9855    137.2186     27.0558
  1573.8000      7.9931      2.5528      0.0316      5.8894    135.0155     27.1036
  1573.9000      7.9931      2.5273      0.0207      7.4366    128.7151     27.5607
  1574.0000      8.0016      2.5226      0.0076      7.7240    124.7384     27.9417
  1574.1000      8.0016      2.5296      0.0160      7.2981    125.4056     27.9216
  1574.2000      8.0016      2.5310      0.0379      7.2110    127.9399     27.5270
  1574.3000      8.0112      2.5223      0.0239      7.7394    132.7852     26.8282
  1574.4000      8.0112      2.5095     -0.0171      8.5167    141.3442     26.0347
  1574.5000      7.9922      2.4963      0.0173      9.3130    148.8790     25.4904
  1574.6000      7.9922      2.4770     -0.0078     10.4866    152.6987     25.4771
  1574.7000      7.9922      2.4552     -0.0434     11.8051    155.1458     25.8951
