~Version Information
VERS.                      2.0: CWLS Log ASCII Standard - VERSION 2.0
WRAP.                       NO: One line per depth step
~Well Information Block
STRT.FT               310.0000: 
STOP.FT              2298.0000: 
STEP.FT                 0.2500: 
NULL.                -999.2500: 
COMP.          Pioneer Natural Resources: COMPANY
WELL.               Relay 12-7: WELL
FLD.           Purgatoire River: FIELD
LOC.           1999' FNL & 848' FWL: LOCATION
PROV.                 Colorado: PROVINCE
CNTY.               Las Animas: COUNTRY
SRVC.                Patterson: SERVICE COMPANY
DATE.          Fri Dec 16 17:39:57 2005: LOG DATE
UWI.           05 071 08453 00: UNIQUE WELL ID
~Curve Information Block
DEPT.FT            0 000 00 00: Depth
SN.Ohm-m                      : IEL Short Normal
SP.mV                         : IEL Spontaneous Potential
DIR.Ohm-m                     : IEL Induction Resistivity
GR.GAPI                       : Gamma Ray
~Parameter Information Block
~A  Depth        SN          SP         DIR          GR     
# ...
  1750.5000     29.6617     54.9159     28.1473     83.6754
  1750.7500     29.4505     54.8804     28.2108     83.2581
  1751.0000     29.3774     54.8327     28.3407     81.0315
  1751.2500     29.3686     54.7657     28.5593     78.0353
  1751.5000     29.3293     54.6869     28.8929     71.8640
  1751.7500     29.2518     54.6160     29.3478     67.9246
  1752.0000     29.2513     54.5746     29.8884     64.4048
  1752.2500     29.4284     54.5733     30.4321     63.7839
  1752.5000     29.6858     54.6047     30.8761     63.7059
  1752.7500     29.8655     54.6453     31.1450     63.0807
  1753.0000     30.0055     54.6657     31.2270     60.9243
  1753.2500     30.2203     54.6431     31.1729     59.3741
  1753.5000     30.4416     54.5699     31.0704     58.1176
  1753.7500     30.4681     54.4512     31.0121     58.0499
  1754.0000     30.2414     54.2954     31.0698     58.2313
  1754.2500     29.9780     54.1037     31.2723     58.0559
  1754.5000     29.9431     53.8661     31.5940     57.2215
  1754.7500     30.1678     53.5665     31.9672     56.3754
  1755.0000     30.4650     53.1953     32.3183     54.4683
  1755.2500     30.5774     52.7609     32.6094     52.5750
  1755.5000     30.3590     52.2890     32.8506     49.0200
  1755.7500     29.9550     51.8133     33.0697     46.6512
  1756.0000     29.6618     51.3647     33.2712     43.9676
  1756.2500     29.6052     50.9631     33.4227     43.1076
  1756.5000     29.7008     50.6110     33.4863     43.4234
  1756.7500     29.8244     50.2945     33.4690     44.5088
  1757.0000     29.9517     49.9972     33.4431     46.6427
  1757.2500     30.1370     49.7150     33.5123     47.9301
  1757.5000     30.3674     49.4605     33.7496     49.1756
  1757.7500     30.5649     49.2555     34.1541     49.3932
  1758.0000     30.7446     49.1182     34.6572     48.6433
  1758.2500     31.0299     49.0526     35.1732     47.5010
  1758.5000     31.4650     49.0436     35.6561     45.3594
  1758.7500     31.9432     49.0628     36.1217     44.0592
  1759.0000     32.3749     49.0833     36.6197     42.7634
  1759.2500     32.7623     49.0946     37.1803     42.3863
  1759.5000     33.0887     49.1081     37.7654     42.3813
  1759.7500     33.3509     49.1519     38.2398     42.5382
  1760.0000     33.6580     49.2633     38.3931     42.4923
  1760.2500     34.1684     49.4768     38.0425     42.0597
  1760.5000     34.9440     49.8084     37.1774     41.0320
  1760.7500     35.8206     50.2485     36.0080     40.5925
  1761.0000     36.4716     50.7725     34.8499     41.4460
  1761.2500     36.6355     51.3560     33.9557     43.6740
  1761.5000     36.2097     51.9800     33.4325     50.3241
  1761.7500     35.2340     52.6245     33.2620     57.0728
  1762.0000     33.8996     53.2634     33.3613     69.7772
  1762.2500     32.4971     53.8627     33.6308     78.6686
  1762.5000     31.3395     54.3833     33.9731     89.3113
  1762.7500     30.6591     54.7874     34.2950     92.5715
  1763.0000     30.5005     55.0525     34.5160     89.6586
  1763.2500     30.7710     55.1829     34.5846     82.8675
  1763.5000     31.4258     55.2094     34.4910     68.4650
  1763.7500     32.5380     55.1767     34.2653     58.3230
  1764.0000     34.1508     55.1281     33.9584     45.3099
  1764.2500     36.1590     55.0966     33.6237     39.0861
  1764.5000     38.3113     55.1082     33.3050     34.1516
  1764.7500     40.2433     55.1924     33.0371     33.8521
  1765.0000     41.5588     55.3853     32.8460     37.6120
  1765.2500     41.9802     55.7160     32.7415     42.6443
  1765.5000     41.4788     56.1874     32.7071     53.2299
  1765.7500     40.2857     56.7676     32.6967     61.5282
  1766.0000     38.7832     57.3988     32.6488     73.8156
  1766.2500     37.2815     58.0129     32.5083     80.6582
  1766.5000     35.8749     58.5493     32.2483     87.7011
  1766.7500     34.5830     58.9696     31.8802     90.3412
  1767.0000     33.4755     59.2655     31.4517     92.3121
  1767.2500     32.5741     59.4527     31.0332     93.1796
  1767.5000     31.8118     59.5551     30.6995     95.2021
  1767.7500     31.1795     59.5896     30.5164     97.2461
  1768.0000     30.8418     59.5647     30.5313    100.1035
  1768.2500     30.9389     59.4894     30.7690    100.7808
  1768.5000     31.3281     59.3837     31.2327     99.4586
  1768.7500     31.7819     59.2790     31.9111     97.8078
  1769.0000     32.3149     59.2070     32.7865     95.6607
  1769.2500     33.0850     59.1857     33.8381     94.3011
  1769.5000     34.1479     59.2143     35.0388     90.5641
  1769.7500     35.4597     59.2802     36.3548     86.2218
  1770.0000     36.9729     59.3708     37.7529     77.8810
  1770.2500     38.6450     59.4807     39.2118     72.3809
  1770.5000     40.4048     59.6131     40.7235     65.5173
  1770.7500     42.1579     59.7817     42.2782     61.7875
  1771.0000     43.8111     60.0133     43.8415     57.1511
  1771.2500     45.2208     60.3432     45.3436     55.0245
  1771.5000     46.2044     60.7961     46.6899     54.3498
  1771.7500     46.7204     61.3705     47.7739     55.8569
  1772.0000     46.9496     62.0392     48.4707     60.2084
  1772.2500     47.0860     62.7620     48.6229     63.4278
  1772.5000     47.0866     63.4976     48.0666     67.1298
  1772.7500     46.7018     64.2135     46.7160     68.7354
  1773.0000     45.6834     64.8967     44.6423     71.1918
  1773.2500     43.9771     65.5580     42.0600     73.8399
  1773.5000     41.8076     66.2224     39.2266     79.7773
  1773.7500     39.4692     66.9098     36.3507     84.4033
  1774.0000     36.9871     67.6212     33.5582     90.8126
  1774.2500     34.2269     68.3410     30.9044     94.3949
  1774.5000     31.3177     69.0473     28.4020     99.5581
  1774.7500     28.5897     69.7181     26.0492    103.5750
  1775.0000     26.1792     70.3317     23.8473    110.5097
  1775.2500     24.0330     70.8665     21.8059    114.8164
  1775.5000     22.1247     71.3026     19.9370    118.9071
  1775.7500     20.4515     71.6237     18.2487    119.7370
  1776.0000     18.9735     71.8220     16.7415    119.3607
  1776.2500     17.6279     71.9092     15.4073    119.1347
  1776.5000     16.3008     71.9225     14.2320    120.0666
  1776.7500     14.9068     71.9148     13.1994    121.6480
  1777.0000     13.5955     71.9334     12.2948    124.8667
  1777.2500     12.6449     72.0038     11.5060    126.9408
  1777.5000     12.1337     72.1262     10.8215    128.8103
  1777.7500     11.9016     72.2838     10.2289    128.9616
  1778.0000     11.7548     72.4512      9.7157    128.2551
  1778.2500     11.5678     72.6017      9.2710    127.9895
  1778.5000     11.2464     72.7116      8.8878    128.8401
  1778.7500     10.7494     72.7664      8.5635    130.1352
  1779.0000     10.1807     72.7664      8.2978    132.3199
  1779.2500      9.7388     72.7281      8.0902    133.5311
  1779.5000      9.4879     72.6770      7.9382    134.6170
  1779.7500      9.3314     72.6386      7.8367    134.6232
  1780.0000      9.2550     72.6298      7.7788    133.1788
  1780.2500      9.3187     72.6553      7.7560    131.3319
  1780.5000      9.4213     72.7081      7.7602    127.9628
  1780.7500      9.3740     72.7710      7.7845    125.6866
  1781.0000      9.1688     72.8220      7.8244    122.1439
  1781.2500      8.9617     72.8424      7.8774    119.4207
  1781.5000      8.8741     72.8245      7.9428    114.8563
  1781.7500      8.9649     72.7739      8.0216    111.9310
  1782.0000      9.2915     72.7063      8.1166    108.3930
  1782.2500      9.8124     72.6400      8.2310    106.7215
  1782.5000     10.3388     72.5911      8.3663    105.3683
  1782.7500     10.7124     72.5713      8.5186    105.3596
  1783.0000     10.9001     72.5877      8.6768    106.6927
  1783.2500     10.9626     72.6387      8.8216    108.3678
  1783.5000     11.0044     72.7094      8.9289    111.8458
  1783.7500     11.0298     72.7763      8.9776    114.4912
