~Version Information
VERS.                      2.0: CWLS Log ASCII Standard - VERSION 2.0
WRAP.                       NO: One line per depth step
~Well Information Block
STRT.FT               530.0000: 
STOP.FT              1298.0000: 
STEP.FT                 0.1000: 
NULL.                -999.2500: 
COMP.          Pioneer Natural Resources: COMPANY
WELL.            Keiko 14-6 Tr: WELL
FLD.           Purgatoire River: FIELD
LOC.           462' FSL & 1202' FWL: LOCATION
PROV.                 Colorado: PROVINCE
CNTY.               Las Animas: COUNTRY
SRVC.                Patterson: SERVICE COMPANY
DATE.          Fri Dec 30 07:26:03 2005: LOG DATE
UWI.           05 071 08629 00: UNIQUE WELL ID
~Curve Information Block
DEPT.FT            0 000 00 00: Depth
DCAL.in                       : CDL Caliper
RHOB.g/cc                     : CDL Bulk Density
RHOC.g/cc                     : CDL Density Correction
DPOR.pu                       : CDL Density Porosity
GR.GAPI                       : Gamma Ray
~Parameter Information Block
~A  Depth       DCAL        RHOB        RHOC        DPOR         GR     
# ...
   731.6000      8.0304      2.6782      0.1174     -1.7079     68.5885
   731.7000      8.0304      2.6526      0.1309     -0.1589     64.9074
   731.8000      8.0380      2.6202      0.0553      1.8035     68.7573
   731.9000      8.0380      2.5901      0.0266      3.6309     77.5062
   732.0000      8.0572      2.5704      0.0109      4.8216     84.3316
   732.1000      8.0572      2.5559      0.0223      5.7014     84.4671
   732.2000      8.0572      2.5536     -0.0377      5.8440     83.3915
   732.3000      8.0705      2.5722      0.0199      4.7164     84.6251
   732.4000      8.0705      2.5900      0.0503      3.6369     85.5239
   732.5000      8.0909      2.5798      0.0538      4.2515     90.3000
   732.6000      8.0909      2.5519     -0.0141      5.9445    100.8704
   732.7000      8.0909      2.5375     -0.0297      6.8194    106.6021
   732.8000      8.0792      2.5414     -0.0028      6.5828    106.1574
   732.9000      8.0792      2.5416      0.0328      6.5676    110.2922
   733.0000      8.1043      2.5262      0.0321      7.5002    119.7753
   733.1000      8.1043      2.5046     -0.0004      8.8131    129.1697
   733.2000      8.1043      2.4962     -0.0504      9.3231    138.5595
   733.3000      8.1213      2.5141     -0.0122      8.2351    146.2387
   733.4000      8.1213      2.5446      0.0210      6.3865    149.8368
   733.5000      8.1344      2.5557      0.0550      5.7139    151.8601
   733.6000      8.1344      2.5340      0.0263      7.0325    154.6079
   733.7000      8.1344      2.4953      0.0198      9.3744    158.2056
   733.8000      8.1327      2.4589     -0.0243     11.5838    162.1087
   733.9000      8.1327      2.4279      0.0081     13.4578    165.9058
   734.0000      8.1318      2.3973     -0.0518     15.3150    165.6006
   734.1000      8.1318      2.3774     -0.0984     16.5215    156.7370
   734.2000      8.1318      2.3774      0.0038     16.5222    148.8806
   734.3000      8.1288      2.3849     -0.0118     16.0693    151.0712
   734.4000      8.1288      2.3953     -0.0039     15.4363    153.3877
   734.5000      8.1161      2.4122      0.0848     14.4101    151.4471
   734.6000      8.1161      2.4340      0.0799     13.0934    151.4300
   734.7000      8.1161      2.4657      0.0660     11.1686    153.1825
   734.8000      8.1189      2.5104      0.1125      8.4615    153.8287
   734.9000      8.1189      2.5556      0.1640      5.7199    150.5755
   735.0000      8.1366      2.5895      0.1636      3.6664    142.2276
   735.1000      8.1366      2.6030      0.1921      2.8456    135.8268
   735.2000      8.1366      2.5984      0.1520      3.1261    137.3987
   735.3000      8.1190      2.6048      0.0788      2.7382    142.5330
   735.4000      8.1190      2.6302      0.1803      1.2022    146.0294
   735.5000      8.1375      2.6339      0.1022      0.9736    147.6083
   735.6000      8.1375      2.6039      0.0262      2.7955    148.3458
   735.7000      8.1375      2.5765     -0.0210      4.4516    146.9903
   735.8000      8.1439      2.5646     -0.0062      5.1769    141.7058
   735.9000      8.1439      2.5402      0.0193      6.6560    134.8426
   736.0000      8.1437      2.4925     -0.0231      9.5446    131.9359
   736.1000      8.1437      2.4543     -0.0803     11.8591    130.5401
   736.2000      8.1437      2.4563     -0.0823     11.7372    126.6132
   736.3000      8.1394      2.4865      0.0094      9.9094    123.9491
   736.4000      8.1394      2.5153      0.0365      8.1627    123.9620
   736.5000      8.1293      2.5329      0.0771      7.0980    125.7942
   736.6000      8.1293      2.5466      0.0791      6.2686    129.7269
   736.7000      8.1293      2.5613      0.1491      5.3736    134.0888
   736.8000      8.1222      2.5693      0.1604      4.8886    134.7131
   736.9000      8.1222      2.5651      0.1326      5.1480    131.8293
   737.0000      8.1232      2.5547      0.1074      5.7781    131.8976
   737.1000      8.1232      2.5425      0.0807      6.5134    136.8481
   737.2000      8.1232      2.5299      0.0366      7.2796    142.2528
   737.3000      8.1297      2.5204      0.0580      7.8570    145.6164
   737.4000      8.1297      2.5126      0.0241      8.3270    149.2649
   737.5000      8.1271      2.5029      0.0329      8.9128    154.7254
   737.6000      8.1271      2.4928      0.0179      9.5266    155.2493
   737.7000      8.1271      2.4875      0.0316      9.8512    146.7748
   737.8000      8.1292      2.4862      0.0479      9.9256    136.6595
   737.9000      8.1292      2.4839      0.0143     10.0673    131.4340
   738.0000      8.1293      2.4824      0.0385     10.1606    130.8853
   738.1000      8.1293      2.4906     -0.0040      9.6613    130.6485
   738.2000      8.1293      2.5030      0.0727      8.9120    128.9503
   738.3000      8.1303      2.5011      0.0221      9.0240    128.1293
   738.4000      8.1303      2.4935     -0.0291      9.4876    131.1111
   738.5000      8.1395      2.4986      0.0250      9.1763    137.5660
   738.6000      8.1395      2.5098      0.0453      8.4999    142.9047
   738.7000      8.1395      2.5146     -0.0161      8.2083    143.8320
   738.8000      8.1358      2.5208     -0.0372      7.8295    143.2062
   738.9000      8.1358      2.5424     -0.0181      6.5226    148.1300
   739.0000      8.1453      2.5715      0.0135      4.7553    156.8893
   739.1000      8.1453      2.5873      0.0781      3.7996    158.4334
   739.2000      8.1453      2.5865      0.0017      3.8457    151.1623
   739.3000      8.1612      2.5806     -0.0273      4.2066    144.8208
   739.4000      8.1612      2.5802     -0.0509      4.2297    143.9772
   739.5000      8.1652      2.5942      0.0051      3.3829    144.7793
   739.6000      8.1652      2.6170      0.0117      2.0027    145.1278
   739.7000      8.1652      2.6346      0.0222      0.9340    147.0565
   739.8000      8.1689      2.6372      0.0288      0.7779    147.3424
   739.9000      8.1689      2.6273      0.0241      1.3764    142.6223
   740.0000      8.1664      2.6162      0.0226      2.0470    139.6273
   740.1000      8.1664      2.6075      0.0372      2.5732    140.9928
   740.2000      8.1664      2.5958      0.0289      3.2819    141.5796
   740.3000      8.1615      2.5777     -0.0135      4.3807    144.8424
   740.4000      8.1615      2.5614     -0.0224      5.3686    153.2460
   740.5000      8.1482      2.5560     -0.0141      5.6960    159.0733
   740.6000      8.1482      2.5535      0.0152      5.8482    161.9356
   740.7000      8.1482      2.5418     -0.0176      6.5580    163.2592
   740.8000      8.1499      2.5261     -0.0494      7.5094    158.8727
   740.9000      8.1499      2.5139     -0.0281      8.2500    153.8465
   741.0000      8.1487      2.5058     -0.0360      8.7392    155.5128
   741.1000      8.1487      2.5059     -0.0393      8.7319    160.1069
   741.2000      8.1487      2.5128      0.0013      8.3165    159.4919
   741.3000      8.1439      2.5172      0.0015      8.0490    153.5394
   741.4000      8.1439      2.5220     -0.0455      7.7568    147.8847
   741.5000      8.1482      2.5284      0.0511      7.3706    147.3796
   741.6000      8.1482      2.5231      0.0204      7.6922    154.7225
   741.7000      8.1482      2.5030      0.0148      8.9105    165.2472
   741.8000      8.1510      2.4682      0.0047     11.0163    168.8642
   741.9000      8.1510      2.4129     -0.0450     14.3698    162.9130
   742.0000      8.1717      2.3348     -0.0267     19.1028    155.7276
   742.1000      8.1717      2.2333     -0.0745     25.2546    154.5052
   742.2000      8.1717      2.1099     -0.0960     32.7356    157.0124
   742.3000      8.1808      1.9775     -0.1541     40.7603    156.0954
   742.4000      8.1808      1.8570     -0.1998     48.0584    148.6231
   742.5000      8.1861      1.7540     -0.1796     54.3020    137.7260
   742.6000      8.1861      1.6472     -0.1514     60.7766    128.2247
   742.7000      8.1861      1.5291     -0.1815     67.9354    119.8028
