~Version Information
 VERS.                                  2.0 : CWLS LAS VERSION
 WRAP.                                   NO : WRAPING MODE
 SWARE .                 MController 2.5.0J : SOFTWARE VERSION
~Well Information
 WELL.                    McClaren 13 34 TR : WELL
 COMP.    Pioneer Natural Resources USA Inc : COMPANY
 FLD.                      Purgatoire River : FIELD
 LOC.                NW/SW Sec 34 T32S R67W : LOCATION
 DATE.                             07/12/05 : DATE(S) LOGGED
 SRVC.       BLANCO Geological Services LLC : SERVICE COMPANY
 STAT.                                   CO : STATE
 CNTY.                           Las Animas : COUNTY
 CTRY.                                  USA : COUNTRY
 API.                       05-071-08437-00 : API NUMBER
 STRT.FT                             595.00 : START DEPTH
 STOP.FT                            1555.00 : STOP DEPTH
 STEP.FT                               1.00 : DEPTH INCREMENT
 NULL.                                -9999 : NULL VALUE
~Curve information
 DEPTH.FT                                   :
 ROP.MIN/FT                                 :
 GAS.UNITS                                  :
~ASCII Log data
       595.0     -9999.00          3.3 
       596.0         6.65          3.2 
       597.0         0.23          4.4 
       598.0         0.13          4.5 
       599.0         0.23          4.6 
       600.0         0.23          4.8 
       601.0         0.20          4.6 
       602.0         0.27          4.7 
       603.0         0.25          4.7 
       604.0         0.20          4.9 
       605.0         0.17          4.9 
       606.0         0.23          4.8 
       607.0         0.17          4.9 
       608.0         0.20          5.0 
       609.0         0.20          5.0 
       610.0         0.20          5.1 
       611.0         0.13          5.1 
       612.0         0.20          4.9 
       613.0         0.27          5.0 
       614.0         0.13          5.3 
       615.0         0.20          2.8 
       616.0         0.17         11.2 
       617.0         0.38         11.1 
       618.0         0.10          4.2 
       619.0         0.17          4.2 
       620.0         0.13          4.1 
       621.0         0.27          4.2 
       622.0         0.13          4.2 
       623.0         0.17          4.4 
       624.0         0.20          4.7 
       625.0         0.10          4.8 
       626.0         2.32          7.6 
       627.0         0.27          8.2 
       628.0         0.23          8.1 
       629.0         0.13          8.6 
       630.0         0.20          8.8 
       631.0         0.20          9.0 
       632.0         0.23          9.2 
       633.0         0.17          9.1 
       634.0         0.17          9.5 
       635.0         0.17          9.4 
       636.0         0.17          9.6 
       637.0         0.22         10.1 
       638.0         0.23         13.6 
       639.0         0.20         15.5 
       640.0         0.20         17.4 
       641.0         0.17         17.6 
       642.0         0.13         18.1 
       643.0         0.20         17.8 
       644.0         0.17         16.8 
       645.0         0.10         14.9 
       646.0         0.20         14.4 
       647.0         0.13         14.6 
       648.0         0.17         14.1 
       649.0         0.20         14.1 
       650.0         0.23         13.7 
       651.0         0.25         12.8 
       652.0         0.23         13.0 
       653.0         0.20         12.8 
       654.0         0.27         13.0 
       655.0         0.17         13.6 
       656.0         1.98        127.4 
       657.0         0.20         42.1 
       658.0         0.33         27.6 
       659.0         0.23         16.4 
       660.0         0.27         13.7 
       661.0         0.17         12.4 
       662.0         0.20         12.2 
       663.0         0.17         12.9 
       664.0         0.17         13.7 
       665.0         0.23         14.4 
       666.0         0.13         14.3 
       667.0         0.20         14.2 
       668.0         0.13         13.9 
       669.0         0.10         13.2 
       670.0         0.10         13.0 
       671.0         0.27         13.6 
       672.0         0.25         13.2 
       673.0         0.30         13.7 
       674.0         0.30         14.9 
       675.0         0.23         17.5 
       676.0         0.23         19.4 
       677.0         0.13         19.9 
       678.0         0.17         20.7 
       679.0         0.10         19.7 
       680.0         0.13         18.2 
       681.0         0.10         17.1 
       682.0         0.10         15.7 
       683.0         0.20         15.9 
       684.0         0.13         15.6 
       685.0         0.17         15.4 
       686.0         1.72         27.2 
       687.0         0.17         24.9 
       688.0         0.20         21.7 
       689.0         0.27         19.3 
       690.0         0.30         16.5 
       691.0         0.20         16.6 
       692.0         0.20         18.3 
       693.0         0.23         17.9 
       694.0         0.28         17.2 
       695.0         0.30         15.4 
       696.0         0.33         15.6 
       697.0         0.37         14.8 
       698.0         0.17         14.4 
       699.0         0.30         14.8 
       700.0         0.20         15.0 
       701.0         0.17         16.2 
       702.0         0.20         16.8 
       703.0         0.17         17.0 
       704.0         0.13         15.8 
       705.0         0.13         16.0 
       706.0         0.13         15.5 
       707.0         0.12         15.7 
       708.0         0.20         15.4 
       709.0         0.20         14.8 
       710.0         0.17         14.7 
       711.0         0.17         15.0 
       712.0         0.10         14.3 
       713.0         0.20         14.9 
       714.0         0.17         15.9 
       715.0         0.17         16.5 
       716.0         2.55         22.3 
       717.0         0.17         16.0 
       718.0         0.17         16.3 
       719.0         0.27         16.0 
       720.0         0.27         15.8 
       721.0         0.33         16.1 
       722.0         0.53         16.1 
       723.0         0.30         16.0 
       724.0         0.13         15.3 
       725.0         0.20         15.8 
       726.0         0.25         15.9 
       727.0         0.20         15.6 
       728.0         0.20         16.1 
       729.0         0.20         16.1 
       730.0         0.17         15.9 
       731.0         0.17         15.8 
       732.0         0.20         16.0 
       733.0         0.17         16.2 
       734.0         0.20         16.2 
       735.0         0.17         16.3 
       736.0         0.20         16.3 
       737.0         0.17         15.7 
       738.0         0.20         16.4 
       739.0         0.17         16.4 
       740.0         0.17         16.3 
       741.0         0.17         16.0 
       742.0         0.17         16.1 
       743.0         0.13         15.9 
       744.0         0.22         16.2 
       745.0         0.17         15.4 
       746.0         1.77         22.1 
       747.0         0.23         19.5 
       748.0         0.30         18.3 
       749.0         0.23         17.4 
       750.0         0.20         17.5 
       751.0         0.20         17.5 
       752.0         0.22         16.9 
       753.0         0.17         16.5 
       754.0         0.30         17.9 
       755.0         0.17         18.0 
       756.0         0.20         17.1 
       757.0         0.17         17.4 
       758.0         0.10         17.3 
       759.0         0.27         17.2 
       760.0         0.23         17.1 
       761.0         0.20         16.9 
       762.0         0.17         17.1 
       763.0         0.20         17.1 
       764.0         0.23         17.3 
       765.0         0.23         17.2 
       766.0         0.20         17.4 
       767.0         0.17         17.1 
       768.0         0.18         17.0 
       769.0         0.20         16.9 
       770.0         0.20         16.8 
       771.0         0.17         16.9 
       772.0         0.17         17.0 
       773.0         0.17         16.8 
       774.0         0.20         17.2 
       775.0         0.20         17.9 
       776.0         1.27         19.9 
       777.0         0.17         18.0 
       778.0         0.33         17.9 
       779.0         0.22         17.2 
       780.0         0.20         17.4 
       781.0         0.20         17.6 
       782.0         0.20         17.7 
       783.0         0.20         17.6 
       784.0         0.20         17.7 
       785.0         0.17         19.5 
       786.0         0.27         22.4 
       787.0         0.30         24.8 
       788.0         0.30         26.1 
       789.0         0.23         26.5 
       790.0         0.20         27.6 
       791.0         0.20         28.8 
       792.0         0.20         29.8 
       793.0         0.20         29.9 
       794.0         0.22         29.5 
