~Version Information
VERS.                      2.0: CWLS Log ASCII Standard - VERSION 2.0
WRAP.                       NO: One line per depth step
~Well Information Block
STRT.FT               550.0000: 
STOP.FT              1979.0000: 
STEP.FT                 0.1000: 
NULL.                -999.2500: 
COMP.          Pioneer Natural Resources: COMPANY
WELL.          Flying Horse 12-11 Tr: WELL
FLD.           Purgatoire River: FIELD
LOC.           2459' FNL & 410' FWL: LOCATION
STAT.                 Colorado: PROVINCE
CNTY.               Las Animas: COUNTY
CTRY. USA : Country
SECT. 11 : Section
TOWN. 32S : Township
RANG. 66W : Range
SRVC.                Patterson: SERVICE COMPANY
DATE.          Tue Sep 06 07:09:24 2005: LOG DATE
API.           05 071 08485 00: UNIQUE WELL ID
~Curve Information Block
DEPT.FT            0 000 00 00: Depth
DCAL.in                       : CDL Caliper
RHOB.g/cc                     : CDL Bulk Density
RHOC.g/cc                     : CDL Density Correction
DPOR.pu                       : CDL Density Porosity
GR.GAPI                       : Gamma Ray
NPOR.pu                       : Neutron Porosity
~Parameter Information Block
~A  Depth       DCAL        RHOB        RHOC        DPOR         GR         NPOR    
# ...
  1212.4000      8.2469      2.4739      0.0700     10.6700    156.0060     24.9992
  1212.5000      8.2216      2.4624      0.0149     11.3725    156.8138     24.4176
  1212.6000      8.2216      2.4504      0.0356     12.0958    152.7289     22.7117
  1212.7000      8.2216      2.4347     -0.0053     13.0502    151.1242     22.3244
  1212.8000      8.1839      2.4313     -0.0294     13.2544    148.0947     24.1017
  1212.9000      8.1839      2.4606      0.0132     11.4760    137.8224     25.3772
  1213.0000      8.1570      2.5148      0.0902      8.1951    122.3856     24.3508
  1213.1000      8.1570      2.5669      0.1635      5.0363    112.8811     22.5421
  1213.2000      8.1570      2.5960      0.2032      3.2741    118.9759     21.6961
  1213.3000      8.1697      2.5933      0.1773      3.4362    136.8690     22.0860
  1213.4000      8.1697      2.5722      0.1212      4.7131    154.2042     22.9982
  1213.5000      8.1988      2.5572      0.1237      5.6231    161.7452     23.8546
  1213.6000      8.1988      2.5514      0.1260      5.9784    158.7427     24.3636
  1213.7000      8.1988      2.5424      0.1013      6.5238    148.2135     24.3769
  1213.8000      8.2498      2.5312      0.0707      7.2026    138.8172     23.4064
  1213.9000      8.2498      2.5236      0.0709      7.6624    139.3664     21.5503
  1214.0000      8.2654      2.5165      0.0092      8.0891    144.8719     20.7909
  1214.1000      8.2654      2.5106     -0.0028      8.4505    146.3665     22.1121
  1214.2000      8.2654      2.5061      0.0169      8.7222    145.5781     23.8179
  1214.3000      8.2142      2.4955      0.0464      9.3612    148.4501     24.3635
  1214.4000      8.2142      2.4709      0.0346     10.8545    149.5656     23.5430
  1214.5000      8.1971      2.4367     -0.0264     12.9279    145.5314     21.6065
  1214.6000      8.1971      2.4089     -0.0270     14.6103    141.3828     19.8306
  1214.7000      8.1971      2.4040     -0.0095     14.9084    137.5026     19.5238
  1214.8000      8.2007      2.4268      0.0058     13.5268    134.7668     19.9356
  1214.9000      8.2007      2.4629      0.0266     11.3393    135.5079     20.0845
  1215.0000      8.2251      2.4971      0.0285      9.2651    137.3844     20.6029
  1215.1000      8.2251      2.5258      0.1141      7.5292    137.5545     21.3876
  1215.2000      8.2251      2.5476      0.1186      6.2034    137.2379     21.4484
  1215.3000      8.2159      2.5666      0.1519      5.0539    137.0891     20.9501
  1215.4000      8.2159      2.5795      0.1710      4.2705    135.3498     20.8032
  1215.5000      8.0862      2.5733      0.2005      4.6456    131.3788     21.5133
  1215.6000      8.0862      2.5560      0.1608      5.6953    126.3227     22.4948
  1215.7000      8.0862      2.5529      0.1296      5.8844    123.5526     22.7866
  1215.8000      8.0543      2.5663      0.1094      5.0712    128.7033     22.6731
  1215.9000      8.0543      2.5784      0.1296      4.3370    140.9513     22.5753
  1216.0000      8.0096      2.5814      0.0874      4.1597    151.4897     21.9422
  1216.1000      8.0096      2.5843      0.0828      3.9822    154.9555     20.5623
  1216.2000      8.0096      2.5861      0.1026      3.8703    153.2222     19.3337
  1216.3000      8.1147      2.5688      0.0762      4.9219    153.3561     19.3910
  1216.4000      8.1147      2.5365      0.0665      6.8778    159.2705     20.6289
  1216.5000      8.1737      2.5202      0.0238      7.8659    165.4480     21.4831
  1216.6000      8.1737      2.5350      0.0225      6.9687    162.6150     21.3530
  1216.7000      8.1737      2.5603      0.0951      5.4359    148.4919     21.3933
  1216.8000      8.1812      2.5765      0.0061      4.4531    132.7638     21.8656
  1216.9000      8.1812      2.5859      0.0472      3.8877    127.3725     22.0804
  1217.0000      8.1676      2.5817      0.0544      4.1386    130.1275     22.1947
  1217.1000      8.1676      2.5559      0.0681      5.7010    131.1203     22.7096
  1217.2000      8.1676      2.5271      0.0225      7.4463    130.2768     23.2942
  1217.3000      8.1610      2.5245      0.0330      7.6091    132.0341     23.3410
  1217.4000      8.1610      2.5449      0.0594      6.3684    133.6106     22.6960
  1217.5000      8.1503      2.5609      0.0819      5.3997    131.2875     21.7076
  1217.6000      8.1503      2.5597      0.0497      5.4715    128.2552     21.0843
  1217.7000      8.1503      2.5474      0.0436      6.2191    129.3600     21.3388
  1217.8000      8.1517      2.5306      0.0612      7.2358    134.0079     21.9496
  1217.9000      8.1517      2.5143      0.0272      8.2225    139.5173     22.3277
  1218.0000      8.1726      2.5090      0.0348      8.5484    144.6544     22.7427
  1218.1000      8.1726      2.5197      0.0647      7.8962    147.8380     23.3854
  1218.2000      8.1726      2.5310      0.0920      7.2136    147.6205     23.5378
  1218.3000      8.1786      2.5283      0.0804      7.3744    143.5564     22.9879
  1218.4000      8.1786      2.5233      0.0980      7.6784    135.9198     22.4112
  1218.5000      8.1885      2.5300      0.0896      7.2722    127.3664     21.9782
  1218.6000      8.1885      2.5435      0.1145      6.4554    120.7563     21.8166
  1218.7000      8.1885      2.5531      0.0848      5.8740    119.0455     22.7524
  1218.8000      8.1842      2.5530      0.1574      5.8801    125.0232     24.3713
  1218.9000      8.1842      2.5351      0.1542      6.9666    132.9705     25.0149
  1219.0000      8.1838      2.5022      0.1341      8.9593    135.0132     24.6367
  1219.1000      8.1838      2.4706      0.1053     10.8754    135.6104     24.1081
  1219.2000      8.1838      2.4493      0.0748     12.1630    139.4707     24.0434
  1219.3000      8.1923      2.4328      0.0957     13.1613    141.1586     24.9601
  1219.4000      8.1923      2.4169      0.0216     14.1283    138.7050     26.0678
  1219.5000      8.2383      2.4155      0.0220     14.2147    135.3662     26.4437
  1219.6000      8.2383      2.4382      0.0732     12.8359    132.2932     26.2566
  1219.7000      8.2383      2.4638      0.1854     11.2866    133.5458     25.8430
  1219.8000      8.2435      2.4661      0.1660     11.1481    139.4810     25.6822
  1219.9000      8.2435      2.4551      0.1237     11.8134    141.8127     25.9059
  1220.0000      8.2397      2.4555      0.1241     11.7865    142.2160     26.0714
  1220.1000      8.2397      2.4657      0.1162     11.1697    146.2849     26.0545
  1220.2000      8.2397      2.4647      0.1592     11.2308    147.7852     26.4579
  1220.3000      8.3152      2.4474      0.1025     12.2788    142.6471     27.4805
  1220.4000      8.3152      2.4321      0.1169     13.2043    139.1001     28.2735
  1220.5000      8.3619      2.4318      0.1113     13.2243    143.9825     28.1649
  1220.6000      8.3619      2.4432      0.1002     12.5312    152.2449     27.6163
  1220.7000      8.3619      2.4551      0.1387     11.8138    153.9641     27.4717
  1220.8000      8.3134      2.4598      0.1147     11.5259    147.8589     27.6220
  1220.9000      8.3134      2.4659      0.1120     11.1601    143.4267     27.5566
  1221.0000      8.2902      2.4822      0.1373     10.1677    145.4739     27.4078
  1221.1000      8.2902      2.4997      0.2070      9.1091    146.2750     27.5783
  1221.2000      8.2902      2.5091      0.1704      8.5408    141.7022     28.2603
  1221.3000      8.2922      2.5184      0.1319      7.9757    139.0495     29.0889
  1221.4000      8.2922      2.5261      0.1483      7.5068    142.8897     29.3159
  1221.5000      8.2662      2.5144      0.1615      8.2185    149.2057     28.8672
  1221.6000      8.2662      2.4796      0.0940     10.3265    153.3444     28.0702
  1221.7000      8.2662      2.4413      0.0627     12.6479    156.0310     27.0781
  1221.8000      8.2937      2.4248      0.0296     13.6481    157.6424     26.3168
  1221.9000      8.2937      2.4364      0.0970     12.9465    156.0056     25.8419
