~Version Information
VERS.                      2.0: CWLS Log ASCII Standard - VERSION 2.0
WRAP.                       NO: One line per depth step
~Well Information Block
STRT.FT               890.0000: 
STOP.FT              2097.0000: 
STEP.FT                 0.2500: 
NULL.                -999.2500: 
COMP.          Pioneer Natural Resources: COMPANY
WELL.          Greenwood 43-29 Tr: WELL
FLD.           Purgatoire River: FIELD
LOC.           1478' FSL & 744' FEL: LOCATION
STAT.                 Colorado: State
CNTY.               Las Animas: COUNTY
CTRY. USA : Country
SECT. 29 : Section
TOWN. 32S : Township
RANG. 67W : Range
SRVC.                Patterson: SERVICE COMPANY
DATE.          Wed Aug 31 08:07:28 2005: LOG DATE
API.           05 071 08478 00: UNIQUE WELL ID
~Curve Information Block
DEPT.FT            0 000 00 00: Depth
SN.Ohm-m                      : IEL Short Normal
SP.mV                         : IEL Spontaneous Potential
DIR.Ohm-m                     : IEL Induction Resistivity
GR.GAPI                       : Gamma Ray
~Parameter Information Block
~A  Depth        SN          SP         DIR          GR     
# ...
  1895.0000      8.3083   -179.6903      7.6109    155.7378
  1895.2500      8.3360   -179.2284      7.7691    153.9952
  1895.5000      8.3404   -178.7354      7.9699    150.8674
  1895.7500      8.3125   -178.2275      8.2136    148.8548
  1896.0000      8.2764   -177.7024      8.5001    145.7431
  1896.2500      8.3344   -177.1483      8.8271    142.8659
  1896.5000      8.6157   -176.5646      9.1898    136.1906
  1896.7500      9.1596   -175.9796      9.5825    130.4029
  1897.0000      9.9139   -175.4479     10.0030    121.9583
  1897.2500     10.8276   -175.0267     10.4584    118.0725
  1897.5000     11.9413   -174.7467     10.9653    116.1598
  1897.7500     13.3585   -174.5957     11.5427    116.9960
  1898.0000     15.0422   -174.5300     12.2022    119.1851
  1898.2500     16.7725   -174.5036     12.9420    120.1099
  1898.5000     18.3751   -174.4924     13.7476    120.3400
  1898.7500     19.8079   -174.4946     14.5947    120.3321
  1899.0000     20.9605   -174.5168     15.4528    121.1044
  1899.2500     21.5728   -174.5638     16.2877    122.2860
  1899.5000     21.5859   -174.6389     17.0656    125.0300
  1899.7500     21.3444   -174.7488     17.7564    127.6038
  1900.0000     21.1980   -174.9033     18.3366    132.5250
  1900.2500     21.2011   -175.1085     18.7934    135.9503
  1900.5000     21.2579   -175.3590     19.1278    139.4007
  1900.7500     21.2947   -175.6394     19.3518    139.3428
  1901.0000     21.3301   -175.9312     19.4794    134.5611
  1901.2500     21.4666   -176.2204     19.5181    128.6339
  1901.5000     21.7900   -176.4970     19.4683    118.0989
  1901.7500     22.2782   -176.7486     19.3340    111.7750
  1902.0000     22.7953   -176.9571     19.1372    105.3847
  1902.2500     23.1674   -177.1049     18.9222    103.3659
  1902.5000     23.2784   -177.1868     18.7379    102.8996
  1902.7500     23.1007   -177.2166     18.6112    103.8707
  1903.0000     22.6866   -177.2195     18.5311    107.2004
  1903.2500     22.1567   -177.2173     18.4559    110.7780
  1903.5000     21.6238   -177.2217     18.3388    117.7186
  1903.7500     21.0856   -177.2397     18.1532    122.5841
  1904.0000     20.4481   -177.2825     17.9037    128.6004
  1904.2500     19.6764   -177.3639     17.6214    131.2779
  1904.5000     18.8678   -177.4924     17.3504    133.9121
  1904.7500     18.1807   -177.6632     17.1323    135.7025
  1905.0000     17.7165   -177.8590     16.9912    139.8413
  1905.2500     17.4296   -178.0543     16.9247    143.4793
  1905.5000     17.1817   -178.2216     16.9034    147.8518
  1905.7500     16.9115   -178.3402     16.8832    147.8002
  1906.0000     16.6943   -178.4061     16.8293    140.2840
  1906.2500     16.6816   -178.4367     16.7407    130.3093
  1906.5000     16.9484   -178.4661     16.6565    111.3120
  1906.7500     17.4021   -178.5264     16.6385     98.9257
  1907.0000     17.9654   -178.6233     16.7395     84.7190
  1907.2500     18.6890   -178.7190     16.9763     78.8772
  1907.5000     19.5203   -178.7381     17.3234     74.5121
  1907.7500     20.1711   -178.5985     17.7264     73.5164
  1908.0000     20.4249   -178.2560     18.1302     73.4896
  1908.2500     20.4054   -177.7327     18.5006     73.8106
  1908.5000     20.3613   -177.1104     18.8302     74.0413
  1908.7500     20.3796   -176.4884     19.1312     74.0027
  1909.0000     20.4243   -175.9379     19.4225     74.0876
  1909.2500     20.4596   -175.4832     19.7162     74.2541
  1909.5000     20.4400   -175.1190     20.0073     73.9857
  1909.7500     20.3539   -174.8430     20.2755     73.0574
  1910.0000     20.3352   -174.6722     20.4996     70.5667
  1910.2500     20.5554   -174.6258     20.6738     68.5559
  1910.5000     21.0165   -174.6941     20.8108     65.7295
  1910.7500     21.5546   -174.8265     20.9306     64.1587
  1911.0000     21.9983   -174.9550     21.0480     62.1034
  1911.2500     22.3050   -175.0309     21.1664     60.7913
  1911.5000     22.5211   -175.0479     21.2808     59.1212
  1911.7500     22.6284   -175.0377     21.3843     58.5967
  1912.0000     22.5924   -175.0428     21.4729     59.3121
  1912.2500     22.5219   -175.0914     21.5475     60.8237
  1912.5000     22.5767   -175.1911     21.6096     63.9538
  1912.7500     22.7546   -175.3387     21.6537     65.9940
  1913.0000     22.8841   -175.5304     21.6631     68.2905
  1913.2500     22.8028   -175.7660     21.6165     69.2904
  1913.5000     22.5030   -176.0472     21.5025     70.1398
  1913.7500     22.1350   -176.3718     21.3292     70.1803
  1914.0000     21.8697   -176.7289     21.1205     69.1953
  1914.2500     21.7342   -177.1004     20.9020     67.9719
  1914.5000     21.6119   -177.4692     20.6889     66.0112
  1914.7500     21.4162   -177.8277     20.4834     64.9250
  1915.0000     21.1705   -178.1791     20.2828     63.5278
  1915.2500     20.9007   -178.5307     20.0923     62.6244
  1915.5000     20.6065   -178.8878     19.9313     61.5468
  1915.7500     20.3517   -179.2529     19.8275     61.2361
  1916.0000     20.2393   -179.6285     19.8000     61.1975
  1916.2500     20.2926   -180.0168     19.8471     60.9971
  1916.5000     20.4319   -180.4186     19.9483     59.8755
  1916.7500     20.5812   -180.8393     20.0785     58.8117
  1917.0000     20.7416   -181.3012     20.2236     57.8850
  1917.2500     20.9105   -181.8427     20.3852     58.2830
  1917.5000     21.0111   -182.4926     20.5719     60.5361
  1917.7500     21.0277   -183.2441     20.7849     62.7929
  1918.0000     21.0868   -184.0544     21.0089     66.4240
  1918.2500     21.2682   -184.8687     21.2187     68.4699
  1918.5000     21.4984   -185.6426     21.3949     70.1120
  1918.7500     21.7108   -186.3466     21.5356     69.9007
  1919.0000     21.9327   -186.9610     21.6516     67.7035
  1919.2500     22.2219   -187.4701     21.7538     65.5117
  1919.5000     22.6167   -187.8566     21.8461     62.3531
  1919.7500     23.0821   -188.0930     21.9297     60.9021
  1920.0000     23.5283   -188.1355     22.0085     60.4518
  1920.2500     23.8964   -187.9295     22.0858     61.7022
  1920.5000     24.1679   -187.4280     22.1566     66.0132
  1920.7500     24.3357   -186.6201     22.2070     69.8455
  1921.0000     24.3890   -185.5600     22.2238     75.0716
  1921.2500     24.3038   -184.3774     22.2057     77.4314
  1921.5000     24.0861   -183.2404     22.1628     79.4378
  1921.7500     23.8149   -182.2740     22.1069     80.2342
  1922.0000     23.5603   -181.4863     22.0402     80.8954
  1922.2500     23.2965   -180.7714     21.9542     80.8060
  1922.5000     22.9639   -180.0041     21.8373     79.7354
  1922.7500     22.5577   -179.1526     21.6806     78.5728
  1923.0000     22.1570   -178.3058     21.4819     76.7451
  1923.2500     21.8718   -177.5867     21.2481     75.9486
  1923.5000     21.7284   -177.0472     20.9998     76.3190
  1923.7500     21.6654   -176.6457     20.7739     77.9601
  1924.0000     21.6449   -176.3033     20.6164     82.3059
  1924.2500     21.6851   -175.9620     20.5679     85.9171
  1924.5000     21.8082   -175.5948     20.6469     91.3441
  1924.7500     22.0188   -175.1875     20.8392     94.5281
  1925.0000     22.2448   -174.7270     21.0988     98.1566
  1925.2500     22.3201   -174.2089     21.3656     99.5575
  1925.5000     22.1819   -173.6532     21.5937     99.9745
  1925.7500     21.9821   -173.1051     21.7707     99.4063
  1926.0000     21.8944   -172.6137     21.9115     98.1770
  1926.2500     21.9781   -172.2085     22.0360     97.4804
  1926.5000     22.2485   -171.8944     22.1536     96.5774
  1926.7500     22.7046   -171.6599     22.2690     95.7733
  1927.0000     23.2770   -171.4860     22.3948     93.7739
  1927.2500     23.8651   -171.3526     22.5524     91.8609
  1927.5000     24.4321   -171.2433     22.7549     88.6260
  1927.7500     24.9730   -171.1465     22.9936     86.7914
  1928.0000     25.4109   -171.0559     23.2481     85.4484
  1928.2500     25.6832   -170.9697     23.5104     85.5937
