~Version Information
VERS.                      2.0: CWLS Log ASCII Standard - VERSION 2.0
WRAP.                       NO: One line per depth step
~Well Information Block
STRT.FT               547.0000: 
STOP.FT              1685.5000: 
STEP.FT                 0.2500: 
NULL.                -999.2500: 
COMP.          Pioneer Natural Resources: COMPANY
WELL.           Pedri 42-33 Tr: WELL
FLD.           Purgatorie River: FIELD
LOC.           1933' FNL & 662' FEL: LOCATION
PROV.                 Colorado: PROVINCE
CNTY.               Las Animas: COUNTRY
SRVC.                Patterson: SERVICE COMPANY
DATE.          Mon Dec 19 10:09:44 2005: LOG DATE
UWI.                          : UNIQUE WELL ID
~Curve Information Block
DEPT.FT            0 000 00 00: Depth
DIR.Ohm-m                     : IEL Induction Resistivity
GR.GAPI                       : Gamma Ray
~Parameter Information Block
~A  Depth       DIR          GR     
# ...
  1439.0000      9.0699    122.9703
  1439.2500      9.2105    125.0573
  1439.5000      9.3323    125.3469
  1439.7500      9.4191    123.0363
  1440.0000      9.4644    117.6929
  1440.2500      9.4733    114.7843
  1440.5000      9.4593    113.2861
  1440.7500      9.4361    113.9614
  1441.0000      9.4138    116.0723
  1441.2500      9.4004    117.5531
  1441.5000      9.4040    119.1430
  1441.7500      9.4336    119.5180
  1442.0000      9.4943    119.2287
  1442.2500      9.5822    118.7965
  1442.5000      9.6831    117.8552
  1442.7500      9.7784    116.8216
  1443.0000      9.8541    115.1744
  1443.2500      9.9063    115.0217
  1443.5000      9.9398    117.5726
  1443.7500      9.9628    120.7252
  1444.0000      9.9829    125.1060
  1444.2500     10.0062    126.3775
  1444.5000     10.0385    125.2733
  1444.7500     10.0841    123.2943
  1445.0000     10.1453    120.4243
  1445.2500     10.2233    119.4884
  1445.5000     10.3202    119.9672
  1445.7500     10.4403    121.0197
  1446.0000     10.5903    122.3566
  1446.2500     10.7763    122.7607
  1446.5000     11.0011    123.1472
  1446.7500     11.2622    123.6030
  1447.0000     11.5515    124.2652
  1447.2500     11.8594    124.1681
  1447.5000     12.1797    122.8677
  1447.7500     12.5139    121.5882
  1448.0000     12.8696    119.8931
  1448.2500     13.2544    119.0617
  1448.5000     13.6710    117.7434
  1448.7500     14.1165    116.3189
  1449.0000     14.5864    112.8121
  1449.2500     15.0772    109.7100
  1449.5000     15.5853    105.2482
  1449.7500     16.1030    103.6038
  1450.0000     16.6155    104.6841
  1450.2500     17.0990    107.6602
  1450.5000     17.5233    113.4527
  1450.7500     17.8601    116.5662
  1451.0000     18.0919    117.9875
  1451.2500     18.2134    116.3116
  1451.5000     18.2238    110.5905
  1451.7500     18.1210    105.8463
  1452.0000     17.9057    100.0823
  1452.2500     17.5893     98.4837
  1452.5000     17.1920    100.2137
  1452.7500     16.7330    103.5538
  1453.0000     16.2246    109.9868
  1453.2500     15.6752    114.2388
  1453.5000     15.0960    119.5250
  1453.7500     14.5027    121.9622
  1454.0000     13.9122    123.5611
  1454.2500     13.3382    123.3574
  1454.5000     12.7895    122.5427
  1454.7500     12.2707    123.0188
  1455.0000     11.7845    127.1022
  1455.2500     11.3315    132.0307
  1455.5000     10.9121    140.4776
  1455.7500     10.5261    145.0176
  1456.0000     10.1732    148.4258
  1456.2500      9.8529    148.6136
  1456.5000      9.5621    147.1266
  1456.7500      9.2958    145.6331
  1457.0000      9.0482    143.3502
  1457.2500      8.8164    142.1399
  1457.5000      8.6020    141.3217
  1457.7500      8.4089    141.7112
  1458.0000      8.2400    144.1333
  1458.2500      8.0943    146.9483
  1458.5000      7.9680    151.7275
  1458.7500      7.8559    154.1113
  1459.0000      7.7539    155.3111
  1459.2500      7.6595    154.7197
  1459.5000      7.5717    152.5369
  1459.7500      7.4908    150.4225
  1460.0000      7.4182    146.5419
  1460.2500      7.3562    143.9972
  1460.5000      7.3082    141.4658
  1460.7500      7.2779    141.1230
  1461.0000      7.2702    142.7323
  1461.2500      7.2906    144.9842
  1461.5000      7.3457    149.5865
  1461.7500      7.4416    153.1327
  1462.0000      7.5826    158.3434
  1462.2500      7.7698    161.1116
  1462.5000      8.0007    163.3166
  1462.7500      8.2682    163.4233
  1463.0000      8.5614    162.4145
  1463.2500      8.8678    161.7020
  1463.5000      9.1754    160.8590
  1463.7500      9.4761    159.5776
  1464.0000      9.7674    154.5043
  1464.2500     10.0524    148.7184
  1464.5000     10.3372    138.4131
  1464.7500     10.6276    132.2569
  1465.0000     10.9259    125.8824
  1465.2500     11.2303    123.2691
  1465.5000     11.5342    120.1846
  1465.7500     11.8274    118.1152
  1466.0000     12.0963    115.3648
  1466.2500     12.3267    114.3214
  1466.5000     12.5086    114.5148
  1466.7500     12.6414    115.8761
  1467.0000     12.7351    119.5317
  1467.2500     12.8078    122.5438
  1467.5000     12.8790    126.2763
  1467.7500     12.9650    127.2732
  1468.0000     13.0766    126.2628
  1468.2500     13.2205    124.8767
  1468.5000     13.4008    123.9861
  1468.7500     13.6200    124.7261
  1469.0000     13.8794    126.8391
  1469.2500     14.1810    128.0052
  1469.5000     14.5311    128.8392
  1469.7500     14.9425    129.0280
  1470.0000     15.4335    128.9696
  1470.2500     16.0204    128.2890
  1470.5000     16.7052    125.3498
  1470.7500     17.4648    122.2697
  1471.0000     18.2495    118.0709
  1471.2500     18.9962    116.9710
  1471.5000     19.6518    118.1922
  1471.7500     20.1922    119.5289
  1472.0000     20.6229    119.0556
  1472.2500     20.9739    115.8767
  1472.5000     21.3003    106.5043
  1472.7500     21.6863     97.7761
  1473.0000     22.2378     83.2062
  1473.2500     23.0539     74.4255
  1473.5000     24.1893     65.6196
  1473.7500     25.6198     63.4086
  1474.0000     27.2242     65.5740
  1474.2500     28.8015     70.7326
  1474.5000     30.1249     84.0881
  1474.7500     31.0143     95.4218
  1475.0000     31.3889    110.3384
  1475.2500     31.2861    115.1858
  1475.5000     30.8492    112.8050
  1475.7500     30.2895    106.9861
  1476.0000     29.8293     97.9517
  1476.2500     29.6499     94.0200
  1476.5000     29.8589     91.5047
  1476.7500     30.4769     90.9989
  1477.0000     31.4368     90.3313
  1477.2500     32.5989     89.5787
  1477.5000     33.7880     88.0116
  1477.7500     34.8530     86.7468
  1478.0000     35.7257     84.5723
  1478.2500     36.4399     82.9778
  1478.5000     37.1031     80.2689
  1478.7500     37.8477     77.9349
  1479.0000     38.7904     72.9433
  1479.2500     40.0020     68.6530
  1479.5000     41.4689     62.1917
  1479.7500     43.0568     59.0434
  1480.0000     44.5243     56.9986
  1480.2500     45.6279     56.9559
  1480.5000     46.2739     57.3802
  1480.7500     46.5749     57.5305
  1481.0000     46.7531     57.8836
  1481.2500     46.9801     58.5747
  1481.5000     47.2738     60.2117
  1481.7500     47.4943     61.2060
  1482.0000     47.4235     61.8504
  1482.2500     46.8884     61.8103
  1482.5000     45.8455     61.9820
  1482.7500     44.3735     62.9200
  1483.0000     42.6053     66.1500
  1483.2500     40.6645     69.1223
  1483.5000     38.6379     72.7651
  1483.7500     36.5673     73.3412
  1484.0000     34.4569     70.9533
  1484.2500     32.2962     68.3665
  1484.5000     30.0868     66.1111
  1484.7500     27.8533     66.8837
  1485.0000     25.6369     71.1760
  1485.2500     23.4847     74.9225
  1485.5000     21.4446     79.6602
  1485.7500     19.5631     81.7257
  1486.0000     17.8812     84.3765
  1486.2500     16.4260     87.4029
  1486.5000     15.2050     96.3093
  1486.7500     14.2037    105.5021
  1487.0000     13.3899    122.0533
  1487.2500     12.7230    132.5597
  1487.5000     12.1632    143.7513
  1487.7500     11.6786    147.3877
  1488.0000     11.2469    148.6522
  1488.2500     10.8557    148.3384
  1488.5000     10.5005    148.1421
  1488.7500     10.1830    148.6343
  1489.0000      9.9081    150.5805
  1489.2500      9.6811    152.8520
  1489.5000      9.5043    157.5248
  1489.7500      9.3755    160.7338
  1490.0000      9.2882    163.7951
  1490.2500      9.2350    164.0125
  1490.5000      9.2110    162.0103
  1490.7500      9.2151    159.8110
  1491.0000      9.2488    156.0580
  1491.2500      9.3127    153.5543
  1491.5000      9.4057    150.5560
  1491.7500      9.5253    149.4539
  1492.0000      9.6682    148.8238
  1492.2500      9.8290    148.3768
  1492.5000      9.9993    146.8193
  1492.7500     10.1668    145.4134
  1493.0000     10.3153    144.0362
  1493.2500     10.4269    144.3192
  1493.5000     10.4865    146.7050
  1493.7500     10.4872    148.8043
  1494.0000     10.4333    150.4447
  1494.2500     10.3398    149.4572
  1494.5000     10.2281    144.2048
