~Version Information
VERS.                      2.0: CWLS Log ASCII Standard - VERSION 2.0
WRAP.                       NO: One line per depth step
~Well Information Block
STRT.FT                -1.5000: 
STOP.FT              2143.7500: 
STEP.FT                 0.2500: 
NULL.                -999.2500: 
COMP.          Pioneer Natural Resources: COMPANY
WELL.              Kermit 32-7: WELL
FLD.           Purgatoire River: FIELD
LOC.           2002' FNL & 2103' FEL: LOCATION
PROV.                 Colorado: PROVINCE
CNTY.               Las Animas: COUNTRY
SRVC.                Patterson: SERVICE COMPANY
DATE.          Wed Jan 18 14:17:49 2006: LOG DATE
UWI.           05 071 08647 00: UNIQUE WELL ID
~Curve Information Block
DEPT.FT            0 000 00 00: Depth
GR.GAPI                       : Gamma Ray
CCL.                          : Casing Collar Locator
TT3.usec                      : CBL 3' Travel Time
AMP3.mV                       : CBL 3' Amplitude
~Parameter Information Block
~A  Depth        GR         CCL         TT3         AMP3    
# ...
  1137.5000     68.8309      0.0000    595.7601     10.2152
  1137.7500     68.8758      0.0000    600.4834     10.1272
  1138.0000     70.3801      0.0000    609.0648     10.0591
  1138.2500     73.0793      0.0000    621.6694     10.0115
  1138.5000     76.0703      0.0000    633.9178      9.9760
  1138.7500     78.6206      0.0000    641.9085      9.9504
  1139.0000     81.1275      0.0000    645.6931      9.9428
  1139.2500     84.9313      0.0000    648.2537      9.9614
  1139.5000     90.9730      0.0000    652.0054     10.0030
  1139.7500     98.6127      0.0000    656.6083     10.0525
  1140.0000    105.6900      0.0000    659.8077     10.0949
  1140.2500    109.8632      0.0000    659.6302     10.1270
  1140.5000    110.1727      0.0000    655.7213     10.1628
  1140.7500    107.4988      0.0000    649.3714     10.2281
  1141.0000    103.5807      0.0000    642.6813     10.3453
  1141.2500     99.6528      0.0000    637.3747     10.5093
  1141.5000     95.8583      0.0000    634.0154     10.6763
  1141.7500     91.6532      0.0000    631.5021     10.7869
  1142.0000     86.8394      0.0000    626.0457     10.8094
  1142.2500     82.4376      0.0000    611.2526     10.7598
  1142.5000     80.2949      0.0000    582.4300     10.6790
  1142.7500     81.5300      0.0000    543.5787     10.5976
  1143.0000     85.5791      0.0000    509.2044     10.5180
  1143.2500     90.9037      0.0000    495.8178     10.4201
  1143.5000     96.2916      0.0000    509.5389     10.2840
  1143.7500    101.3083      0.0000    541.9892     10.1158
  1144.0000    105.8317      0.0000    577.8239      9.9502
  1144.2500    109.5385      0.0000    605.6161      9.8195
  1144.5000    111.8294      0.0000    623.2617      9.7262
  1144.7500    111.9804      0.0000    635.9022      9.6566
  1145.0000    109.2283      0.0000    649.1552      9.6166
  1145.2500    103.0519      0.0000    663.2913      9.6389
  1145.5000     93.7948      0.0000    673.8648      9.7516
  1145.7500     83.0180      0.0000    677.4547      9.9438
  1146.0000     73.0325      0.0000    675.0839     10.1703
  1146.2500     66.0953      0.0000    670.0120     10.3890
  1146.5000     63.8474      0.0000    664.2441     10.5942
  1146.7500     66.8816      0.0000    658.1506     10.8168
  1147.0000     74.3708      0.0000    651.9713     11.0928
  1147.2500     84.2304      0.0000    645.6553     11.4327
  1147.5000     94.0613      0.0000    636.8344     11.8151
  1147.7500    102.2955      0.0000    620.8708     12.1993
  1148.0000    108.5986      0.0000    595.3552     12.5334
  1148.2500    113.1770      0.0000    564.9481     12.7581
  1148.5000    115.9155      0.0000    540.4410     12.8225
  1148.7500    116.5319      0.0000    532.0125     12.7091
  1149.0000    115.4749      0.0000    542.5872     12.4454
  1149.2500    114.0951      0.0000    565.7740     12.0921
  1149.5000    113.6351      0.0000    588.7709     11.7148
  1149.7500    114.3947      0.0000    598.9873     11.3597
  1150.0000    116.0510      0.0000    591.3436     11.0453
  1150.2500    118.2383      0.0000    570.8488     10.7726
  1150.5000    120.3827      0.0000    547.9198     10.5381
  1150.7500    121.4616      0.0000    531.0282     10.3397
  1151.0000    120.5063      0.0000    523.5104     10.1760
  1151.2500    117.3188      0.0000    525.5363     10.0456
  1151.5000    112.5020      0.0000    536.6730      9.9478
  1151.7500    106.9886      0.0000    555.6195      9.8799
  1152.0000    101.7672      0.0000    578.6094      9.8337
  1152.2500     97.8365      0.0000    599.8607      9.7970
  1152.5000     96.0312      0.0000    614.1831      9.7602
  1152.7500     96.7818      0.0000    618.5378      9.7224
  1153.0000     99.9782      0.0000    611.6374      9.6906
  1153.2500    104.8126      0.0000    594.2761      9.6727
  1153.5000    109.7730      0.0000    570.8222      9.6715
  1153.7500    113.2588      0.0000    548.4157      9.6841
  1154.0000    114.4503      0.0000    533.1570      9.7052
  1154.2500    113.5260      0.0000    527.5215      9.7272
  1154.5000    111.2400      0.0000    531.2142      9.7363
  1154.7500    108.4437      0.0000    542.8329      9.7100
  1155.0000    105.7236      0.0000    560.0393      9.6243
  1155.2500    103.3622      0.0000    579.2748      9.4729
  1155.5000    101.6488      0.0000    596.3138      9.2869
  1155.7500    100.9227      0.0000    607.2086      9.1280
  1156.0000    101.1355      0.0000    609.6544      9.0483
  1156.2500    101.5985      0.0000    604.9492      9.0528
  1156.5000    101.2401      0.0000    598.2783      9.1053
  1156.7500     99.1975      0.0000    595.5370      9.1678
  1157.0000     95.5721      0.0000    599.3445      9.2248
  1157.2500     91.8723      0.0000    608.3301      9.2734
  1157.5000     90.4674      0.0000    619.6021      9.3073
  1157.7500     93.2438      0.0000    630.8089      9.3167
  1158.0000    100.4599      0.0000    639.8724      9.3038
  1158.2500    110.5604      0.0000    644.2187      9.2930
  1158.5000    120.9555      0.0000    641.6540      9.3194
  1158.7500    129.1216      0.0000    632.5252      9.4002
  1159.0000    133.5388      0.0000    620.6415      9.5167
  1159.2500    134.2153      0.0000    611.1763      9.6261
  1159.5000    132.4692      0.0000    606.9861      9.6964
  1159.7500    129.9312      0.0000    606.9370      9.7306
  1160.0000    127.3853      0.0000    607.9273      9.7566
  1160.2500    124.3719      0.0000    608.4076      9.7953
  1160.5000    119.9873      0.0000    609.7416      9.8448
  1160.7500    114.1952      0.0000    614.2733      9.8941
  1161.0000    108.3374      0.0000    622.4982      9.9424
  1161.2500    104.3108      0.0000    632.3296      9.9997
  1161.5000    103.2019      0.0000    640.4830     10.0749
  1161.7500    104.6890      0.0000    643.6138     10.1675
  1162.0000    107.6844      0.0000    638.4539     10.2744
  1162.2500    111.2972      0.0000    622.4244     10.4059
  1162.5000    115.0875      0.0000    595.0841     10.5890
  1162.7500    118.9137      0.0000    559.5333     10.8297
  1163.0000    123.0706      0.0000    523.2894     11.0436
  1163.2500    128.0394      0.0000    497.1187     11.0376
  1163.5000    133.4615      0.0000    489.5603     10.6348
  1163.7500    137.6556      0.0000    500.5788      9.8637
  1164.0000    138.5211      0.0000    522.1678      8.9846
  1164.2500    134.9010      0.0000    545.3563      8.2831
  1164.5000    127.5111      0.0000    564.7557      7.8634
  1164.7500    119.0597      2.6413    577.8438      7.6511
  1165.0000    112.9705      3.0000    583.7929      7.5305
  1165.2500    111.1241      0.0000    583.7998      7.4434
  1165.5000    112.7471      0.0000    580.8397      7.4075
  1165.7500    115.6885      0.0000    578.1176      7.4814
  1166.0000    118.4583      0.0000    576.7122      7.7011
  1166.2500    120.7210      0.0000    574.2174      8.0439
  1166.5000    122.3553      0.0000    567.5596      8.4741
  1166.7500    122.7837      0.0000    558.6508      8.9857
  1167.0000    121.3011      0.0000    555.2548      9.5549
  1167.2500    117.6830      0.0000    564.3149     10.0921
  1167.5000    112.4672      0.0000    585.1139     10.4967
  1167.7500    106.7537      0.0000    609.3383     10.7406
  1168.0000    101.5451      0.0000    626.1756     10.8695
  1168.2500     97.1716      0.0000    627.3099     10.9499
  1168.5000     93.4588      0.0000    610.3109     11.0262
  1168.7500     90.2515      0.0000    580.4143     11.1139
  1169.0000     87.4609      0.0000    548.4470     11.2070
  1169.2500     84.6631      0.0000    523.9533     11.2857
  1169.5000     80.9685      0.0000    509.1464     11.3251
  1169.7500     75.5254      0.0000    500.1164     11.3100
  1170.0000     68.3876      0.0000    492.7766     11.2471
  1170.2500     60.9588      0.0000    486.3482     11.1595
  1170.5000     55.3127      0.0000    482.5057     11.0700
  1170.7500     52.6685      0.0000    483.7839     10.9941
