~Version Information
VERS.                      2.0: CWLS Log ASCII Standard - VERSION 2.0
WRAP.                       NO: One line per depth step
~Well Information Block
STRT.FT                10.0000: 
STOP.FT              1485.0000: 
STEP.FT                 0.1000: 
NULL.                -999.2500: 
COMP.          Pioneer Natural Resources: COMPANY
WELL.          Old Faithful 21-2: WELL
FLD.           Purgatorie River: FIELD
LOC.           806' FNL & 2509' FWL: LOCATION
PROV.                 Colorado: PROVINCE
CNTY.               Las Animas: COUNTRY
SRVC.                Patterson: SERVICE COMPANY
DATE.          Wed Dec 07 13:17:12 2005: LOG DATE
UWI.                          : UNIQUE WELL ID
~Curve Information Block
DEPT.FT            0 000 00 00: Depth
DCAL.in                       : CDL Caliper
RHOB.g/cc                     : CDL Bulk Density
RHOC.g/cc                     : CDL Density Correction
DPOR.pu                       : CDL Density Porosity
GR.GAPI                       : Gamma Ray
NPOR.pu                       : Neutron Porosity
~Parameter Information Block
~A  Depth       DCAL        RHOB        RHOC        DPOR         GR         NPOR    
# ...
   298.0000      8.4805      2.2530      0.0828     24.0635    158.8037     21.9726
   298.1000      8.4805      2.2961      0.1619     21.4509    159.6325     22.3077
   298.2000      8.4805      2.3271      0.1654     19.5712    157.3592     22.4957
   298.3000      8.4733      2.3370      0.0837     18.9716    156.7340     22.7496
   298.4000      8.4733      2.3393      0.0231     18.8303    160.1760     23.1672
   298.5000      8.4655      2.3521      0.0492     18.0563    165.5285     23.8721
   298.6000      8.4655      2.3730      0.0784     16.7880    167.3185     24.6301
   298.7000      8.4655      2.3876      0.0548     15.9012    164.7133     24.8321
   298.8000      8.4746      2.3909      0.0634     15.7022    160.8462     24.5198
   298.9000      8.4746      2.3883      0.0922     15.8599    158.0920     24.0928
   299.0000      8.4802      2.3841      0.0794     16.1159    158.4733     23.7626
   299.1000      8.4802      2.3781      0.0856     16.4815    160.6297     23.5936
   299.2000      8.4802      2.3704      0.0605     16.9435    160.4996     23.3495
   299.3000      8.4640      2.3621      0.0896     17.4474    157.9821     22.8726
   299.4000      8.4640      2.3545      0.0880     17.9062    155.2906     22.3971
   299.5000      8.4718      2.3519      0.1023     18.0641    153.0202     22.2082
   299.6000      8.4718      2.3556      0.0999     17.8410    150.5086     22.2267
   299.7000      8.4718      2.3632      0.1070     17.3812    149.3071     22.1035
   299.8000      8.5496      2.3740      0.1061     16.7291    151.1438     21.8741
   299.9000      8.5496      2.3907      0.0784     15.7135    151.9484     21.7993
   300.0000      8.6267      2.4162      0.0806     14.1671    148.4521     21.8939
   300.1000      8.6267      2.4415      0.1251     12.6378    144.1351     22.1735
   300.2000      8.6267      2.4539      0.0949     11.8878    142.8855     22.7430
   300.3000      8.4558      2.4620      0.0684     11.3937    145.2686     23.4815
   300.4000      8.4558      2.4800      0.0731     10.3020    148.1982     24.1276
   300.5000      8.4108      2.5008      0.0712      9.0404    149.0880     24.5462
   300.6000      8.4108      2.5128      0.0328      8.3128    149.7032     24.9110
   300.7000      8.4108      2.5184      0.0282      7.9776    149.8636     25.5437
   300.8000      8.3440      2.5210      0.0295      7.8171    147.3477     26.1710
   300.9000      8.3440      2.5209      0.0362      7.8216    143.8173     26.1735
   301.0000      8.3146      2.5253      0.0270      7.5576    141.9916     25.7552
   301.1000      8.3146      2.5411      0.0430      6.5997    142.2880     25.6557
   301.2000      8.3146      2.5645      0.0223      5.1822    142.9456     25.9802
   301.3000      8.3015      2.5905      0.0390      3.6080    142.0797     26.2792
   301.4000      8.3015      2.6112      0.0800      2.3505    139.3435     26.2561
   301.5000      8.2821      2.6119      0.0761      2.3074    133.5401     25.8149
   301.6000      8.2821      2.5885      0.0460      3.7272    124.9945     25.1198
   301.7000      8.2821      2.5612     -0.0332      5.3789    118.1802     24.5570
   301.8000      8.2698      2.5492     -0.0011      6.1106    117.3616     24.3431
   301.9000      8.2698      2.5411      0.0262      6.6023    121.4201     24.3842
   302.0000      8.2554      2.5135     -0.0136      8.2734    124.4093     24.4448
   302.1000      8.2554      2.4632      0.0152     11.3217    123.8958     24.5541
   302.2000      8.2554      2.4364     -0.0268     12.9429    121.1757     24.8391
   302.3000      8.2613      2.4774      0.0116     10.4635    115.4722     24.9438
   302.4000      8.2613      2.5430      0.0139      6.4826    108.7629     24.6435
   302.5000      8.2490      2.5758      0.0235      4.4982    105.3767     24.2982
   302.6000      8.2490      2.5906     -0.0277      3.6010    106.0409     24.0371
   302.7000      8.2490      2.6197      0.0555      1.8343    108.4295     23.7316
   302.8000      8.2273      2.6384      0.1553      0.7017    108.9744     23.4280
   302.9000      8.2273      2.6198     -0.0071      1.8325    106.2714     23.2585
   303.0000      8.2298      2.5941     -0.0467      3.3886    105.0454     23.2866
   303.1000      8.2298      2.5929     -0.0357      3.4578    108.7738     23.4557
   303.2000      8.2298      2.6048      0.0317      2.7403    113.5974     23.5800
   303.3000      8.2217      2.6100     -0.0108      2.4264    114.0762     23.4804
   303.4000      8.2217      2.6066      0.0339      2.6320    110.1028     23.2306
   303.5000      8.2217      2.5956      0.0352      3.2959    107.1088     23.0282
   303.6000      8.2217      2.5833     -0.0098      4.0429    109.0142     22.9387
   303.7000      8.2217      2.5763      0.0292      4.4641    112.0717     22.8531
   303.8000      8.2094      2.5672      0.0179      5.0191    111.1772     22.7698
   303.9000      8.2094      2.5541      0.0047      5.8096    107.4423     22.8146
   304.0000      8.1950      2.5533     -0.0018      5.8604    103.7699     22.8944
   304.1000      8.1950      2.5680      0.0188      4.9678    100.5444     22.7426
   304.2000      8.1950      2.5782      0.0418      4.3546     98.7346     22.4265
   304.3000      8.2046      2.5787      0.0024      4.3207    100.1980     22.2624
   304.4000      8.2046      2.5848      0.0185      3.9533    104.4726     22.4049
   304.5000      8.2057      2.5918      0.0417      3.5263    107.7609     22.7110
   304.6000      8.2057      2.5865      0.0126      3.8513    106.4302     22.8652
   304.7000      8.2057      2.5743      0.0080      4.5886    103.1827     22.9459
   304.8000      8.2227      2.5611      0.0265      5.3868    102.3577     23.2977
   304.9000      8.2227      2.5436     -0.0055      6.4515    101.7210     23.9001
   305.0000      8.2289      2.5278     -0.0104      7.4060     99.5242     24.2872
   305.1000      8.2289      2.5276     -0.0559      7.4195     98.2949     24.2101
   305.2000      8.2289      2.5435      0.0232      6.4566     97.3891     23.8299
   305.3000      8.1792      2.5584      0.0151      5.5544     96.1797     23.3272
   305.4000      8.1792      2.5641      0.0200      5.2069     97.2932     22.8216
   305.5000      8.1596      2.5694      0.0172      4.8862     99.9475     22.4822
   305.6000      8.1596      2.5805      0.0867      4.2097    100.3575     22.3931
   305.7000      8.1596      2.5941      0.0785      3.3898     99.1234     22.3909
   305.8000      8.1693      2.6060      0.1329      2.6651     99.8110     22.1488
   305.9000      8.1693      2.6203      0.1265      1.7996    101.6822     21.6129
   306.0000      8.1664      2.6421      0.1578      0.4775    100.9891     21.3074
   306.1000      8.1664      2.6623      0.1392     -0.7459     97.7898     21.5423
   306.2000      8.1664      2.6627      0.1399     -0.7711     95.6324     21.9111
   306.3000      8.1436      2.6372      0.1203      0.7766     94.9914     22.1024
   306.4000      8.1436      2.6057      0.0706      2.6850     94.1005     22.1900
   306.5000      8.1504      2.5926      0.0490      3.4758     94.4075     22.1205
   306.6000      8.1504      2.5977      0.0829      3.1710     96.3758     21.8720
   306.7000      8.1504      2.6049      0.0748      2.7357     96.1514     21.7000
   306.8000      8.1566      2.6124      0.0248      2.2777     93.3874     21.6360
   306.9000      8.1566      2.6281      0.0563      1.3303     92.4124     21.4612
   307.0000      8.1530      2.6406      0.1168      0.5709     93.6367     21.2136
   307.1000      8.1530      2.6381      0.0828      0.7238     94.0639     21.0085
   307.2000      8.1530      2.6245      0.0641      1.5479     93.4552     20.9116
   307.3000      8.1409      2.6007      0.0584      2.9898     93.7153     20.9972
   307.4000      8.1409      2.5761     -0.0052      4.4774     95.9257     21.1845
   307.5000      8.1410      2.5730      0.0146      4.6646     99.9497     21.3685
