~Version Information
VERS.                      2.0: CWLS Log ASCII Standard - VERSION 2.0
WRAP.                       NO: One line per depth step
~Well Information Block
STRT.FT               245.0000: 
STOP.FT              1273.7500: 
STEP.FT                 0.2500: 
NULL.                -999.2500: 
COMP.          Pioneer Natural Resources: COMPANY
WELL.                 Ray 34-6: WELL
FLD.           Purgatoire River: FIELD
LOC.           684' FSL & 2254' FEL--: LOCATION
CNTY.               Las Animas: COUNTY
SRVC.                Patterson: SERVICE COMPANY
DATE.          Fri May 26 03:08:09 2006: LOG DATE
UWI.           05 071 08695 00: UNIQUE WELL ID
STAT.                 Colorado: STATE
~Curve Information Block
DEPT.FT            0 000 00 00: Depth
SN.Ohm-m                      : IEL Short Normal
SP.mV                         : IEL Spontaneous Potential
DIR.Ohm-m                     : IEL Induction Resistivity
GR.GAPI                       : Gamma Ray
~Parameter Information Block
~A  Depth        SN          SP         DIR          GR     
# ...
   781.0000    685.7410   -564.6065     22.4933     66.5208
   781.2500    685.7410   -564.6044     23.8275     66.9870
   781.5000    685.7410   -564.6020     25.2089     67.7909
   781.7500    685.7410   -564.5995     26.5938     67.6037
   782.0000    685.7410   -564.5973     27.9270     65.4316
   782.2500    685.7410   -564.5953     29.1491     62.8675
   782.5000    685.7410   -564.5938     30.2097     58.4848
   782.7500    685.7410   -564.5928     31.0812     56.0483
   783.0000    685.7410   -564.5923     31.7634     54.3274
   783.2500    685.7410   -564.5922     32.2718     54.8649
   783.5000    685.7410   -564.5923     32.6105     58.1490
   783.7500    685.7410   -564.5927     32.7516     61.4870
   784.0000    685.7410   -564.5930     32.6357     66.9029
   784.2500    685.7410   -564.5932     32.2001     70.1902
   784.5000    685.7410   -564.5933     31.4155     74.5294
   784.7500    685.7410   -564.5930     30.3113     77.4015
   785.0000    685.7410   -564.5924     28.9727     82.1848
   785.2500    685.7410   -564.5913     27.5134     85.4726
   785.5000    685.7410   -564.5897     26.0387     89.4023
   785.7500    685.7410   -564.5875     24.6192     90.7739
   786.0000    685.7410   -564.5846     23.2879     91.0927
   786.2500    685.7410   -564.5812     22.0567     90.9082
   786.5000    685.7410   -564.5773     20.9357     91.5725
   786.7500    685.7410   -564.5732     19.9408     93.0093
   787.0000    685.7410   -564.5690     19.0854     95.8914
   787.2500    685.7410   -564.5650     18.3678     97.4517
   787.5000    685.7410   -564.5615     17.7658     98.3769
   787.7500    685.7410   -564.5585     17.2423     98.1267
   788.0000    685.7410   -564.5562     16.7586     97.0762
   788.2500    685.7410   -564.5546     16.2856     96.3317
   788.5000    685.7410   -564.5537     15.8085     95.9254
   788.7500    685.7410   -564.5534     15.3254     96.5515
   789.0000    685.7410   -564.5536     14.8424     98.9205
   789.2500    685.7410   -564.5541     14.3680    100.9203
   789.5000    685.7410   -564.5549     13.9102    103.1717
   789.7500    685.7410   -564.5556     13.4752    103.7494
   790.0000    685.7410   -564.5562     13.0680    103.9341
   790.2500    685.7410   -564.5565     12.6933    104.4933
   790.5000    685.7410   -564.5565     12.3564    106.6697
   790.7500    685.7410   -564.5559     12.0647    108.4296
   791.0000    685.7410   -564.5547     11.8280    109.8955
   791.2500    685.7410   -564.5529     11.6563    109.7700
   791.5000    685.7410   -564.5503     11.5555    108.8804
   791.7500    685.7410   -564.5468     11.5242    108.4900
   792.0000    685.7410   -564.5425     11.5534    108.2052
   792.2500    685.7410   -564.5375     11.6282    107.7210
   792.5000    685.7410   -564.5320     11.7300    106.2192
   792.7500    685.7410   -564.5262     11.8399    105.1114
   793.0000    685.7410   -564.5203     11.9401    104.2478
   793.2500    685.7410   -564.5146     12.0149    104.3866
   793.5000    685.7410   -564.5095     12.0512    105.2212
   793.7500    685.7410   -564.5048     12.0396    105.7721
   794.0000    685.7410   -564.5007     11.9774    106.0555
   794.2500    685.7410   -564.4972     11.8701    105.8471
   794.5000    685.7410   -564.4940     11.7295    105.5086
   794.7500    685.7410   -564.4910     11.5688    105.8260
   795.0000    685.7410   -564.4881     11.3970    107.6931
   795.2500    685.7410   -564.4850     11.2186    109.5696
   795.5000    685.7410   -564.4818     11.0364    111.9459
   795.7500    685.7410   -564.4784     10.8542    112.5486
   796.0000    685.7410   -564.4749     10.6778    111.9582
   796.2500    685.7410   -564.4716     10.5145    111.1480
   796.5000    685.7410   -564.4684     10.3715    110.4188
   796.7500    685.7410   -564.4657     10.2546    110.6309
   797.0000    685.7410   -564.4634     10.1652    112.1451
   797.2500    685.7410   -564.4615     10.0980    113.9031
   797.5000    685.7410   -564.4602     10.0402    117.5093
   797.7500    685.7410   -564.4595      9.9744    120.4041
   798.0000    685.7410   -564.4592      9.8842    125.0440
   798.2500    685.7410   -564.4594      9.7601    128.0179
   798.5000    685.7410   -564.4601      9.6022    131.7780
   798.7500    685.7410   -564.4612      9.4201    133.5139
   799.0000    685.7410   -564.4629      9.2280    134.3304
   799.2500    685.7410   -564.4648      9.0391    133.3715
   799.5000    685.7410   -564.4672      8.8620    129.8790
   799.7500    685.7410   -564.4697      8.6997    126.9041
   800.0000    685.7410   -564.4723      8.5519    123.0629
   800.2500    685.7410   -564.4748      8.4186    121.4582
   800.5000    685.7410   -564.4771      8.3016    120.4839
   800.7500    685.7410   -564.4791      8.2055    120.5455
   801.0000    685.7410   -564.4807      8.1366    121.3457
   801.2500    685.7410   -564.4817      8.1014    122.1939
   801.5000    685.7410   -564.4821      8.1050    123.6413
   801.7500    685.7410   -564.4817      8.1493    124.4551
   802.0000    685.7410   -564.4807      8.2312    124.8562
   802.2500    685.7410   -564.4788      8.3433    124.3680
   802.5000    685.7410   -564.4764      8.4761    122.6733
   802.7500    685.7410   -564.4734      8.6213    121.1545
   803.0000    685.7410   -564.4702      8.7752    118.6204
   803.2500    685.7410   -564.4669      8.9397    116.9926
   803.5000    685.7410   -564.4639      9.1213    115.5088
   803.7500    685.7410   -564.4615      9.3276    115.7939
   804.0000    685.7410   -564.4598      9.5632    118.5202
   804.2500    685.7410   -564.4589      9.8247    121.3218
   804.5000    685.7410   -564.4587     10.0969    124.9831
   804.7500    685.7410   -564.4592     10.3521    125.8405
   805.0000    685.7410   -564.4601     10.5538    123.8351
   805.2500    685.7410   -564.4612     10.6677    120.7967
   805.5000    685.7410   -564.4624     10.6760    115.6294
   805.7500    685.7410   -564.4634     10.5854    112.8235
   806.0000    685.7410   -564.4642     10.4240    110.6234
   806.2500    685.7410   -564.4646     10.2277    110.8530
   806.5000    685.7410   -564.4647     10.0254    114.0295
   806.7500    685.7410   -564.4647      9.8318    117.7420
   807.0000    685.7410   -564.4645      9.6475    124.2216
   807.2500    685.7410   -564.4645      9.4651    128.1402
   807.5000    685.7410   -564.4649      9.2772    132.4526
   807.7500    685.7410   -564.4658      9.0836    134.2498
   808.0000    685.7410   -564.4674      8.8945    135.4305
   808.2500    685.7410   -564.4698      8.7282    135.0538
   808.5000    685.7410   -564.4731      8.6045    132.4340
   808.7500    685.7410   -564.4773      8.5378    129.4618
   809.0000    685.7410   -564.4821      8.5335    124.0600
   809.2500    685.7410   -564.4875      8.5876    120.4640
   809.5000    685.7410   -564.4932      8.6894    115.9397
   809.7500    685.7410   -564.4989      8.8254    113.8534
   810.0000    685.7410   -564.5046      8.9831    112.5222
   810.2500    685.7410   -564.5099      9.1541    112.8432
   810.5000    685.7410   -564.5150      9.3361    114.4680
   810.7500    685.7410   -564.5197      9.5322    115.6667
   811.0000    685.7410   -564.5239      9.7505    117.0448
   811.2500    685.7410   -564.5278     10.0033    117.9079
   811.5000    685.7410   -564.5314     10.3077    119.7045
   811.7500    685.7410   -564.5349     10.6846    121.1473
   812.0000    685.7410   -564.5384     11.1564    122.9259
   812.2500    685.7410   -564.5419     11.7430    123.4611
   812.5000    685.7410   -564.5457     12.4581    122.8209
   812.7500    685.7410   -564.5496     13.3065    121.0987
   813.0000    685.7410   -564.5539     14.2835    115.9535
   813.2500    685.7410   -564.5585     15.3772    110.7374
   813.5000    685.7410   -564.5632     16.5744    101.0596
   813.7500    685.7410   -564.5679     17.8672     94.3267
   814.0000    685.7410   -564.5726     19.2580     85.5285
   814.2500    685.7410   -564.5768     20.7550     81.2091
