~Version Information
VERS.                      2.0: CWLS Log ASCII Standard - VERSION 2.0
WRAP.                       NO: One line per depth step
~Well Information Block
STRT.FT               619.7000: 
STOP.FT               951.7000: 
STEP.FT                 0.1000: 
NULL.                -999.2500: 
COMP.          Pioneer Natural Resources: COMPANY
WELL.          Screamin 12-29 Tr: WELL
FLD.           Purgatoire River: FIELD
LOC.           1979' FNL & 532' FWL--: LOCATION
CNTY.               Las Animas: COUNTY
SRVC.                Patterson: SERVICE COMPANY
DATE.          Fri Mar 31 15:43:57 2006: LOG DATE
UWI.           05 071 08660 00: UNIQUE WELL ID
STAT.                 Colorado: STATE
~Curve Information Block
DEPT.FT            0 000 00 00: Depth
DCAL.in                       : CDL Caliper
RHOB.g/cc                     : CDL Bulk Density
RHOC.g/cc                     : CDL Density Correction
DPOR.pu                       : CDL Density Porosity
GR.GAPI                       : Gamma Ray
~Parameter Information Block
~A  Depth       DCAL        RHOB        RHOC        DPOR         GR     
# ...
   664.5000      8.1197      2.2639     -0.6824     23.3983     61.3669
   664.6000      8.1197      2.1622     -0.8706     29.5652     64.5731
   664.7000      8.1197      2.1334     -0.6782     31.3074     71.1402
   664.8000      8.0866      2.1559     -0.4996     29.9437     77.3191
   664.9000      8.0866      2.1801     -0.3707     28.4817     82.0856
   665.0000      8.0593      2.2030     -0.2127     27.0898     86.2098
   665.1000      8.0593      2.2457     -0.0353     24.5043     90.5478
   665.2000      8.0593      2.3007      0.0965     21.1727     96.1418
   665.3000      8.0497      2.3413      0.1599     18.7102     98.3768
   665.4000      8.0497      2.3575      0.1767     17.7287     94.8337
   665.5000      8.0473      2.3587      0.1731     17.6550     91.9870
   665.6000      8.0473      2.3636      0.1620     17.3553     94.9552
   665.7000      8.0473      2.3867      0.1853     15.9556    102.7058
   665.8000      8.0384      2.4207      0.2092     13.8972    109.6492
   665.9000      8.0384      2.4489      0.1944     12.1879    110.7286
   666.0000      8.0220      2.4617      0.2181     11.4151    108.2959
   666.1000      8.0220      2.4559      0.1968     11.7646    109.1166
   666.2000      8.0220      2.4381      0.1415     12.8452    113.7372
   666.3000      8.0028      2.4147      0.1512     14.2597    115.7001
   666.4000      8.0028      2.3795      0.1139     16.3932    112.5171
   666.5000      7.9847      2.3212      0.1026     19.9271    107.5870
   666.6000      7.9847      2.2438     -0.0017     24.6207    103.5695
   666.7000      7.9847      2.1682     -0.0065     29.1994    100.3145
   666.8000      7.9746      2.1032      0.0010     33.1411     96.8119
   666.9000      7.9746      2.0391     -0.0191     37.0216     94.6861
   667.0000      7.9773      1.9675     -0.0232     41.3634     93.4541
   667.1000      7.9773      1.8882     -0.0492     46.1718     88.2662
   667.2000      7.9773      1.8123     -0.1015     50.7725     78.3635
   667.3000      7.9877      1.7598     -0.1536     53.9541     69.7563
   667.4000      7.9877      1.7373     -0.1215     55.3157     66.8130
   667.5000      7.9957      1.7261     -0.1081     55.9921     66.4654
   667.6000      7.9957      1.7078     -0.1333     57.1013     64.7890
   667.7000      7.9957      1.6853     -0.1649     58.4638     61.6733
   667.8000      7.9923      1.6721     -0.1892     59.2694     58.6232
   667.9000      7.9923      1.6737     -0.1500     59.1674     56.5812
   668.0000      7.9815      1.6852     -0.1649     58.4697     54.9614
   668.1000      7.9815      1.7007     -0.1366     57.5337     53.3400
   668.2000      7.9815      1.7172     -0.1165     56.5339     52.8189
   668.3000      7.9741      1.7339     -0.1023     55.5203     53.5825
   668.4000      7.9741      1.7549     -0.1069     54.2494     54.9104
   668.5000      7.9718      1.7879     -0.0797     52.2487     57.6854
   668.6000      7.9718      1.8399     -0.0974     49.0943     61.8907
   668.7000      7.9718      1.9094     -0.0531     44.8857     66.0756
   668.8000      7.9748      1.9839     -0.0256     40.3677     71.8904
   668.9000      7.9748      2.0561      0.0013     35.9952     81.3528
   669.0000      8.0010      2.1207      0.0646     32.0774     91.0369
   669.1000      8.0010      2.1599      0.1063     29.7041     96.7362
   669.2000      8.0010      2.1582      0.1136     29.8072     99.0161
   669.3000      8.1046      2.1333      0.0710     31.3151    101.5063
   669.4000      8.1046      2.1256      0.0815     31.7821    104.2285
   669.5000      8.3207      2.1455      0.1614     30.5778    104.5785
   669.6000      8.3207      2.1619      0.2116     29.5815    103.3483
   669.7000      8.3207      2.1533      0.1799     30.1046    101.2662
   669.8000      8.5386      2.1330      0.1210     31.3349     99.1086
   669.9000      8.5386      2.1165      0.1391     32.3313     99.9368
   670.0000      8.5969      2.1012      0.1324     33.2615    105.0580
   670.1000      8.5969      2.0868      0.1027     34.1314    110.2411
   670.2000      8.5969      2.0758      0.1313     34.7991    112.7937
   670.3000      8.5396      2.0622      0.1017     35.6217    115.2183
   670.4000      8.5396      2.0486      0.0841     36.4476    115.1764
   670.5000      8.4956      2.0473      0.0719     36.5247    109.7716
   670.6000      8.4956      2.0589      0.1331     35.8229    104.0298
   670.7000      8.4956      2.0668      0.1507     35.3437    103.1430
   670.8000      8.4881      2.0591      0.1196     35.8092    107.3514
   670.9000      8.4881      2.0397      0.1294     36.9908    112.6901
   671.0000      8.4927      2.0170      0.0951     38.3663    115.1151
   671.1000      8.4927      1.9992      0.0826     39.4399    116.2439
   671.2000      8.4927      1.9958      0.0839     39.6499    119.8506
   671.3000      8.4993      2.0125      0.0883     38.6341    125.3037
   671.4000      8.4993      2.0390      0.1078     37.0327    126.5366
   671.5000      8.5008      2.0572      0.1321     35.9249    121.6550
   671.6000      8.5008      2.0669      0.1500     35.3366    117.6107
   671.7000      8.5008      2.0802      0.1360     34.5359    118.8792
   671.8000      8.4870      2.1021      0.1620     33.2076    120.6649
   671.9000      8.4870      2.1254      0.1784     31.7919    119.0466
   672.0000      8.4620      2.1406      0.1837     30.8754    115.0065
   672.1000      8.4620      2.1467      0.1640     30.5002    110.6826
   672.2000      8.4620      2.1484      0.1567     30.3970    110.3170
   672.3000      8.4386      2.1432      0.1562     30.7156    115.8888
   672.4000      8.4386      2.1271      0.1516     31.6903    126.1172
   672.5000      8.4241      2.1077      0.1035     32.8680    140.0006
   672.6000      8.4241      2.0995      0.0892     33.3615    151.1211
   672.7000      8.4241      2.1070      0.1236     32.9079    151.1254
   672.8000      8.4264      2.1191      0.1483     32.1739    141.1153
   672.9000      8.4264      2.1277      0.1411     31.6540    129.1579
   673.0000      8.4477      2.1375      0.1353     31.0615    121.8857
   673.1000      8.4477      2.1520      0.1455     30.1824    119.6443
   673.2000      8.4477      2.1667      0.1578     29.2936    119.7767
   673.3000      8.4715      2.1783      0.1768     28.5870    119.7888
   673.4000      8.4715      2.1920      0.1742     27.7566    117.8981
   673.5000      8.4845      2.2136      0.1911     26.4489    112.6740
   673.6000      8.4845      2.2371      0.2314     25.0251    104.6987
   673.7000      8.4845      2.2506      0.2156     24.2082     99.7390
   673.8000      8.4896      2.2515      0.1910     24.1513    101.8795
   673.9000      8.4896      2.2431      0.1845     24.6635    107.0208
   674.0000      8.4914      2.2296      0.1608     25.4775    108.1041
   674.1000      8.4914      2.2267      0.1608     25.6518    103.7015
   674.2000      8.4914      2.2490      0.1558     24.3005     98.2630
   674.3000      8.4928      2.2904      0.2151     21.7951     96.0539
   674.4000      8.4928      2.3394      0.2258     18.8230     98.0271
   674.5000      8.4899      2.3949      0.2507     15.4615    102.9640
   674.6000      8.4899      2.4505      0.2566     12.0927    108.6671
   674.7000      8.4899      2.4921      0.2633      9.5676    112.1097
   674.8000      8.4804      2.5097      0.2847      8.5029    112.3186
   674.9000      8.4804      2.5027      0.2570      8.9300    108.8899
   675.0000      8.4664      2.4860      0.2168      9.9409    102.6870
   675.1000      8.4664      2.4789      0.2062     10.3723     96.5811
   675.2000      8.4664      2.4814      0.2664     10.2187     92.6679
   675.3000      8.4266      2.4808      0.2483     10.2549     92.7301
   675.4000      8.4266      2.4769      0.2436     10.4905     96.9113
   675.5000      8.3505      2.4804      0.2439     10.2792    101.9793
   675.6000      8.3505      2.4901      0.2847      9.6903    104.1538
