~Version Information
VERS.                      2.0: CWLS Log ASCII Standard - VERSION 2.0
WRAP.                       NO: One line per depth step
~Well Information Block
STRT.FT               -10.0000: 
STOP.FT              1703.5000: 
STEP.FT                 0.2500: 
NULL.                -999.2500: 
COMP.          Pioneer Natural Resources: COMPANY
WELL.          Parrothead 31-31 Tr: WELL
FLD.           Purgatoire River: FIELD
LOC.           496' FNL & 1546' FEL--: LOCATION
PROV.                       CO: PROVINCE
CNTY.               Las Animas: COUNTRY
SRVC.          Patterson Wireline: SERVICE COMPANY
DATE.          Mon Nov 14 09:44:02 2005: LOG DATE
UWI.           05 071 08610 00: UNIQUE WELL ID
~Curve Information Block
DEPT.FT            0 000 00 00: Depth
CCL.                          : Casing Collar Locator
TT3.usec                      : CBL 3' Travel Time
AMP3.mV                       : CBL 3' Amplitude
GR.GAPI                       : Gamma Ray
~Parameter Information Block
~A  Depth       CCL         TT3         AMP3         GR     
# ...
  1564.5000      0.0000    388.4443     10.6716    156.1144
  1564.7500      0.0000    419.1004     10.8784    147.9003
  1565.0000      0.0000    462.9070     11.0236    136.5865
  1565.2500      0.0000    505.5890     11.1095    124.2337
  1565.5000      0.0000    526.1886     11.1696    113.1252
  1565.7500      0.0000    512.2567     11.2438    104.7295
  1566.0000      0.0000    471.0800     11.3392     99.1314
  1566.2500      0.0000    423.9554     11.4144     95.7091
  1566.5000      0.0000    389.6620     11.4046     94.2655
  1566.7500      0.0000    374.7682     11.2723     95.2176
  1567.0000      0.0000    376.9166     11.0415     98.6384
  1567.2500      0.0000    391.6584     10.7855    103.5081
  1567.5000      0.0000    413.8836     10.5858    108.2594
  1567.7500      0.0000    435.6808     10.5020    112.0212
  1568.0000      0.0000    447.3340     10.5626    115.2597
  1568.2500      0.0000    442.9242     10.7565    119.3645
  1568.5000      0.0000    424.9807     11.0277    125.6493
  1568.7500      0.0000    402.8343     11.3000    134.3325
  1569.0000      0.0000    386.4786     11.5191    144.0415
  1569.2500      0.0000    382.3456     11.6770    152.4760
  1569.5000      0.0000    394.0664     11.7996    158.0275
  1569.7500      0.0000    424.9850     11.9163    160.6929
  1570.0000      0.0000    477.4931     12.0359    161.2075
  1570.2500      0.0000    548.3474     12.1430    159.9582
  1570.5000      0.0000    625.1530     12.2177    157.6584
  1570.7500      0.0000    690.2036     12.2529    156.4197
  1571.0000      0.0000    729.5674     12.2490    158.4923
  1571.2500      0.0000    738.6031     12.1913    163.6254
  1571.5000      0.0000    721.2825     12.0443    168.9126
  1571.7500      0.0000    688.1503     11.7730    171.8187
  1572.0000      0.0000    653.5781     11.3743    172.3755
  1572.2500      0.0000    629.4016     10.8897    171.8969
  1572.5000      0.0000    619.3898     10.3885    170.7796
  1572.7500      0.0000    621.2816      9.9329    168.5948
  1573.0000      0.0000    632.1354      9.5570    165.5523
  1573.2500      0.0000    648.9020      9.2731    162.6555
  1573.5000      0.0000    666.7075      9.0885    160.4534
  1573.7500      0.0000    680.6307      9.0039    158.5415
  1574.0000      0.0000    688.8724      8.9972    156.6010
  1574.2500      0.0000    692.7882      9.0240    155.4064
  1574.5000      0.0000    694.6271      9.0478    156.4396
  1574.7500      0.0000    696.1513      9.0652    160.5733
  1575.0000      0.0000    698.8638      9.0938    167.2785
  1575.2500      0.0000    704.5231      9.1370    175.0715
  1575.5000      0.0000    714.6948      9.1693    182.7225
  1575.7500      0.0000    729.2766      9.1580    189.6733
  1576.0000      0.0000    745.6238      9.0904    195.0391
  1576.2500      0.0000    759.8170      8.9790    197.0132
  1576.5000      0.0000    769.1467      8.8464    194.3211
  1576.7500      0.0000    773.2738      8.7116    188.0805
  1577.0000      0.0000    773.3192      8.5858    181.2934
  1577.2500      0.0000    770.5092      8.4774    176.4753
  1577.5000      0.0000    765.7254      8.3970    174.3328
  1577.7500      0.0000    759.6897      8.3555    174.3204
  1578.0000      0.0000    753.1213      8.3578    175.3550
  1578.2500      0.0000    746.8002      8.3998    175.8974
  1578.5000      0.0000    741.5270      8.4736    174.2102
  1578.7500      0.0000    737.9826      8.5757    168.9871
  1579.0000      0.0000    736.8505      8.7115    159.6567
  1579.2500      0.0000    739.0219      8.8861    146.3343
  1579.5000      0.0000    744.8708      9.0815    130.1689
  1579.7500      0.0000    752.7761      9.2443    113.8958
  1580.0000      0.0000    758.9583      9.3050    101.2803
  1580.2500      0.0000    759.7284      9.2275     95.1976
  1580.5000      0.0000    754.3398      9.0504     96.2259
  1580.7500      0.0000    745.7911      8.8786    103.2232
  1581.0000      0.0000    738.8797      8.8192    114.7710
  1581.2500      0.0000    737.1017      8.9117    129.3144
  1581.5000      0.0000    740.7623      9.1070    143.9606
  1581.7500      0.0000    747.0970      9.3019    154.5045
  1582.0000      0.0000    751.6340      9.3904    158.0554
  1582.2500      0.0000    750.3971      9.3069    155.6171
  1582.5000      0.0000    742.6484      9.0473    151.1101
  1582.7500      0.0000    732.2358      8.6641    147.5638
  1583.0000      0.0000    725.4435      8.2410    144.8310
  1583.2500      0.0000    726.4771      7.8670    141.1360
  1583.5000      0.0000    734.5803      7.6165    136.1468
  1583.7500      0.0000    745.3651      7.5322    131.8397
  1584.0000      0.0000    754.7373      7.6159    130.1509
  1584.2500      0.0000    761.4393      7.8314    130.1721
  1584.5000      0.0000    766.2352      8.1138    128.4292
  1584.7500      0.0000    769.6312      8.3862    122.1896
  1585.0000      0.0000    770.5721      8.5918    112.1016
  1585.2500      0.0000    766.1043      8.7211    101.4234
  1585.5000      0.0000    751.0356      8.8108     93.1667
  1585.7500      0.0000    718.6452      8.9184     88.2394
  1586.0000      0.0000    664.8275      9.0881     85.8194
  1586.2500      0.0000    594.8367      9.3151     84.9052
  1586.5000      0.0000    526.4974      9.5131     85.3991
  1586.7500      0.0000    483.9892      9.5160     87.9104
  1587.0000      0.0000    484.5772      9.1609     92.8585
  1587.2500      0.0000    527.8346      8.4390     99.9648
  1587.5000      0.0000    595.5771      7.5816    108.3759
  1587.7500      0.0000    662.9396      6.9451    117.0205
  1588.0000      0.0000    712.2308      6.7644    124.9228
  1588.2500      0.0000    738.8666      7.0151    131.4112
  1588.5000      0.0000    747.4550      7.4960    136.3072
  1588.7500      0.0000    745.4206      7.9997    139.9343
  1589.0000      2.0000    739.7675      8.3971    142.3807
  1589.2500      0.0000    735.9393      8.6288    142.4165
  1589.5000      0.0000    736.2901      8.6935    137.9572
  1589.7500      0.0000    739.1721      8.6690    128.4193
  1590.0000      0.0000    740.3239      8.6914    116.1314
  1590.2500      0.0000    735.8192      8.8437    104.7635
  1590.5000      0.0000    724.7591      9.0697     96.7582
  1590.7500      0.0000    710.1752      9.2438     92.7168
  1591.0000      0.0000    696.0897      9.3085     92.5227
  1591.2500      0.0000    681.9009      9.3015     95.9342
  1591.5000      0.0000    661.5106      9.2717    101.9719
  1591.7500      0.0000    631.7848      9.2170    108.4299
  1592.0000      0.0000    601.5189      9.0922    112.5289
  1592.2500      0.0000    587.7049      8.8538    112.3061
  1592.5000      0.0000    600.5031      8.5023    107.6675
  1592.7500      0.0000    633.1539      8.0971    100.3172
  1593.0000      0.0000    667.6013      7.7388     92.6203
  1593.2500      0.0000    688.2514      7.5373     86.3772
  1593.5000      0.0000    688.7428      7.5752     82.5468
  1593.7500      0.0000    668.5718      7.8576     81.6961
  1594.0000      0.0000    629.5409      8.2844     83.9895
  1594.2500      0.0000    579.4988      8.6857     88.5412
  1594.5000      0.0000    536.7169      8.9075     93.5267
  1594.7500      0.0000    523.2164      8.8889     97.6781
  1595.0000      0.0000    548.6833      8.6883    101.3864
  1595.2500      0.0000    601.6308      8.4425    105.9162
  1595.5000      0.0000    658.4685      8.2771    111.8205
  1595.7500      0.0000    700.8525      8.2400    118.4372
  1596.0000      0.0000    724.0339      8.3113    124.7800
  1596.2500      0.0000    732.2079      8.4560    130.5306
  1596.5000      0.0000    730.1021      8.6461    135.9183
  1596.7500      0.0000    719.6269      8.8430    140.9082
  1597.0000      0.0000    702.6541      8.9810    144.9445
  1597.2500      0.0000    685.0670      8.9817    147.3708
  1597.5000      0.0000    675.6865      8.7944    147.7144
  1597.7500      0.0000    679.6066      8.4304    145.6027
