~Version Information
VERS.                      2.0: CWLS Log ASCII Standard - VERSION 2.0
WRAP.                       NO: One line per depth step
~Well Information Block
STRT.FT               645.0000: 
STOP.FT              2131.0000: 
STEP.FT                 0.1000: 
NULL.                -999.2500: 
COMP.          Pioneer Natural Resources: COMPANY
WELL.          Gunslinger 13-24: WELL
FLD.           Purgatoire River: FIELD
LOC.           1968' FSL & 633' FWL: LOCATION
PROV.                 Colorado: PROVINCE
CNTY.               Las Animas: COUNTRY
SRVC.                Patterson: SERVICE COMPANY
DATE.          Sat Jul 30 08:07:53 2005: LOG DATE
UWI.           05 071 08442 00: UNIQUE WELL ID
~Curve Information Block
DEPT.FT            0 000 00 00: Depth
DCAL.in                       : CDL Caliper
RHOB.g/cc                     : CDL Bulk Density
RHOC.g/cc                     : CDL Density Correction
DPOR.pu                       : CDL Density Porosity
GR.GAPI                       : Gamma Ray
NPOR.pu                       : Neutron Porosity
~Parameter Information Block
~A  Depth       DCAL        RHOB        RHOC        DPOR         GR         NPOR    
# ...
  1624.2000      8.1379      2.3585     -0.0566     17.6646    146.2316     27.0173
  1624.3000      8.1500      2.3575     -0.0772     17.7245    153.7953     27.2402
  1624.4000      8.1500      2.4011     -0.0065     15.0838    158.9088     27.6784
  1624.5000      8.1595      2.4585      0.0477     11.6055    159.5840     28.0785
  1624.6000      8.1595      2.4935      0.0231      9.4847    158.7876     28.1487
  1624.7000      8.1595      2.5039      0.0414      8.8533    160.4783     27.7253
  1624.8000      8.1672      2.5059      0.0664      8.7358    160.7360     27.1961
  1624.9000      8.1672      2.5057      0.0627      8.7438    154.9116     26.7034
  1625.0000      8.1680      2.4963      0.0861      9.3123    149.2514     25.9332
  1625.1000      8.1680      2.4854      0.0063      9.9783    147.3922     24.9325
  1625.2000      8.1680      2.4984      0.0388      9.1882    143.6847     24.1562
  1625.3000      8.1646      2.5305      0.0918      7.2421    138.3870     23.7924
  1625.4000      8.1646      2.5533      0.0138      5.8611    136.5136     23.7373
  1625.5000      8.1843      2.5640      0.0044      5.2102    135.9678     23.8215
  1625.6000      8.1843      2.5718      0.0241      4.7381    133.9420     23.6972
  1625.7000      8.1843      2.5718      0.0692      4.7410    131.9448     23.1152
  1625.8000      8.0909      2.5666      0.0464      5.0546    129.0285     22.6106
  1625.9000      8.0909      2.5723      0.0372      4.7106    121.9696     22.5384
  1626.0000      8.0581      2.5852      0.0554      3.9270    109.5955     22.4163
  1626.1000      8.0581      2.5828      0.0214      4.0755     97.4684     21.9575
  1626.2000      8.0581      2.5647      0.0232      5.1718     92.2151     21.3938
  1626.3000      7.9773      2.5586     -0.0057      5.5391     91.7179     21.1091
  1626.4000      7.9773      2.5809      0.0418      4.1861     91.2377     20.9436
  1626.5000      7.9734      2.6148      0.0704      2.1329     90.1551     20.2503
  1626.6000      7.9734      2.6349      0.0499      0.9144     87.2520     19.2707
  1626.7000      7.9734      2.6330      0.0660      1.0281     81.3064     19.2373
  1626.8000      7.9865      2.6181      0.0544      1.9311     73.0150     20.3058
  1626.9000      7.9865      2.6071      0.0440      2.6022     64.7343     21.2104
  1627.0000      7.9830      2.6038      0.0305      2.8007     59.9677     21.4329
  1627.1000      7.9830      2.5947      0.0270      3.3529     61.5055     21.2301
  1627.2000      7.9830      2.5761      0.0077      4.4804     67.5368     20.6215
  1627.3000      7.9832      2.5621     -0.0329      5.3281     70.9877     19.8053
  1627.4000      7.9832      2.5581     -0.0032      5.5707     70.3273     19.2072
  1627.5000      7.9967      2.5583     -0.0013      5.5603     70.3572     19.2364
  1627.6000      7.9967      2.5658      0.0249      5.1048     73.4867     19.7483
  1627.7000      7.9967      2.5812      0.0509      4.1727     75.5201     20.2018
  1627.8000      8.0018      2.5934      0.0467      3.4286     71.0203     20.7207
  1627.9000      8.0018      2.5983     -0.0188      3.1349     63.0487     21.8480
  1628.0000      8.0020      2.5967      0.0724      3.2309     59.3837     23.4024
  1628.1000      8.0020      2.5932      0.0516      3.4417     61.3561     24.2518
  1628.2000      8.0020      2.6036      0.0562      2.8142     66.5976     23.8506
  1628.3000      8.0243      2.6275      0.0963      1.3644     74.0374     23.5267
  1628.4000      8.0243      2.6420      0.1333      0.4860     81.6300     24.2034
  1628.5000      8.0345      2.6303      0.1122      1.1946     87.1141     25.0166
  1628.6000      8.0345      2.5944      0.0877      3.3693     90.7961     25.2437
  1628.7000      8.0345      2.5572      0.0088      5.6269     95.9267     25.2085
  1628.8000      8.0432      2.5381      0.0609      6.7825    104.1225     25.4013
  1628.9000      8.0432      2.5257      0.0599      7.5346    111.2000     26.0459
  1629.0000      7.9892      2.5048      0.0163      8.8015    113.5259     26.9259
  1629.1000      7.9892      2.4817      0.0239     10.2029    116.2494     27.2487
  1629.2000      7.9892      2.4726      0.0070     10.7504    123.3675     26.7161
  1629.3000      7.9729      2.4869      0.0338      9.8865    131.1254     26.2229
  1629.4000      7.9729      2.5084      0.0606      8.5841    136.8777     26.7984
  1629.5000      7.9463      2.5177     -0.0333      8.0193    141.6521     27.8985
  1629.6000      7.9463      2.5175     -0.0091      8.0318    146.7077     27.9128
  1629.7000      7.9463      2.5082      0.0453      8.5966    152.8170     26.9289
  1629.8000      7.9560      2.4858      0.0574      9.9539    156.3533     26.3761
  1629.9000      7.9560      2.4632     -0.0105     11.3219    153.3636     26.5917
  1630.0000      7.9543      2.4547      0.0102     11.8352    147.8756     27.0448
  1630.1000      7.9543      2.4568      0.0042     11.7076    146.3292     27.3871
  1630.2000      7.9543      2.4541      0.0133     11.8741    150.8303     27.2589
  1630.3000      7.9386      2.4329      0.0007     13.1587    155.5798     26.6918
  1630.4000      7.9386      2.3948      0.0076     15.4651    152.6562     26.3812
  1630.5000      7.9351      2.3536      0.0186     17.9612    142.3971     26.3811
  1630.6000      7.9351      2.3274     -0.0149     19.5543    132.8411     26.4643
  1630.7000      7.9351      2.3297     -0.0155     19.4112    129.8343     26.8770
  1630.8000      7.9249      2.3492      0.0127     18.2280    129.9942     27.3598
  1630.9000      7.9249      2.3560      0.0314     17.8209    127.9208     27.7708
  1631.0000      7.9245      2.3412      0.0072     18.7182    123.4996     28.6375
  1631.1000      7.9245      2.3222      0.0558     19.8648    118.4471     29.7642
  1631.2000      7.9245      2.3267     -0.0068     19.5955    114.8747     30.4345
  1631.3000      7.9402      2.3704      0.0504     16.9476    115.1085     30.3704
  1631.4000      7.9402      2.4160      0.1934     14.1828    116.2706     29.5912
  1631.5000      8.0380      2.4223      0.0451     13.8003    116.3474     28.7891
  1631.6000      8.0380      2.4205      0.0439     13.9096    116.9113     28.7349
  1631.7000      8.0380      2.4496      0.0892     12.1438    114.9292     28.9660
  1631.8000      8.1461      2.4897      0.1382      9.7124    110.4769     29.1172
  1631.9000      8.1461      2.5064      0.1148      8.7005    109.5462     29.6671
  1632.0000      8.1362      2.5034      0.0825      8.8858    115.5494     30.4764
  1632.1000      8.1362      2.4999      0.0750      9.0956    121.2913     30.7902
  1632.2000      8.1362      2.4925      0.0559      9.5456    117.6466     30.2370
  1632.3000      8.0073      2.4716      0.0582     10.8113    110.5639     29.5449
  1632.4000      8.0073      2.4513      0.0335     12.0451    111.6550     29.7184
  1632.5000      7.9988      2.4454      0.0531     12.4003    119.2730     30.1501
  1632.6000      7.9988      2.4500      0.0443     12.1241    126.6756     29.7639
  1632.7000      7.9988      2.4664      0.0588     11.1299    132.3827     28.7436
  1632.8000      7.9918      2.4998      0.0882      9.1035    135.9091     27.8834
  1632.9000      7.9918      2.5422      0.1170      6.5361    135.8171     27.4905
  1633.0000      7.9805      2.5746      0.1582      4.5720    134.5121     27.1062
  1633.1000      7.9805      2.5793      0.1766      4.2857    133.4899     26.8071
  1633.2000      7.9805      2.5661      0.0874      5.0848    132.5522     27.0876
  1633.3000      8.0239      2.5638      0.1173      5.2258    132.1274     27.1655
  1633.4000      8.0239      2.5828      0.0648      4.0739    129.5494     26.0967
  1633.5000      8.0352      2.6155      0.1303      2.0939    122.7066     24.4823
  1633.6000      8.0352      2.6432      0.0964      0.4151    111.5943     23.3389
  1633.7000      8.0352      2.6429      0.1106      0.4322    100.5881     22.8641
