~Version Information
VERS.                      2.0: CWLS Log ASCII Standard - VERSION 2.0
WRAP.                       NO: One line per depth step
~Well Information Block
STRT.FT                -7.5000: 
STOP.FT              1350.7500: 
STEP.FT                 0.2500: 
NULL.                -999.2500: 
COMP.          Pioneer Natural Resources: COMPANY
WELL.            Gamma 13-3 Tr: WELL
FLD.           Purgatorie River: FIELD
LOC.           2127' FSL & 738' FWL: LOCATION
STAT.                       CO: State
CNTY.               Las Animas: COUNTY
CTRY.                      USA: Country
SECT.                        3: Section
TOWN.                      33S: Township
RANG.                      67W: Range
SRVC.          Patterson Wireline: SERVICE COMPANY
DATE.          Fri Sep 23 13:24:40 2005: LOG DATE
API.           05 071 08524 00: API
~Curve Information Block
DEPT.FT            0 000 00 00: Depth
CCL.                          : Casing Collar Locator
TT3.usec                      : CBL 3' Travel Time
AMP3.mV                       : CBL 3' Amplitude
GR.GAPI                       : Gamma Ray
~Parameter Information Block
~A  Depth       CCL         TT3         AMP3         GR     
# ...
   696.0000      0.0000    496.6625     13.0963    100.0426
   696.2500      0.0000    544.9106     12.7388    100.5326
   696.5000      0.0000    586.3012     12.3896    101.5041
   696.7500      0.0000    619.9778     12.1293    103.6061
   697.0000      0.0000    650.9089     11.9845    106.5877
   697.2500      0.0000    680.7807     11.9294    108.7198
   697.5000      0.0000    706.4881     11.9089    108.4188
   697.7500      0.0000    725.1539     11.8749    106.0402
   698.0000      0.0000    736.6630     11.8089    103.5557
   698.2500      0.0000    742.1278     11.7191    102.8335
   698.5000      0.0000    742.5544     11.6201    104.4106
   698.7500      0.0000    739.2379     11.5201    107.3311
   699.0000      0.0000    734.2534     11.4224    110.0409
   699.2500      0.0000    729.9955     11.3288    111.9444
   699.5000      0.0000    728.2201     11.2389    114.0653
   699.7500      0.0000    729.2991     11.1482    117.7168
   700.0000      0.0000    732.0637     11.0527    122.6304
   700.2500      0.0000    734.3330     10.9544    126.8340
   700.5000      0.0000    734.2443     10.8660    128.4533
   700.7500      0.0000    731.5656     10.8069    127.3836
   701.0000      0.0000    727.6178     10.7933    125.1306
   701.2500      0.0000    723.8245     10.8270    123.2564
   701.5000      0.0000    720.4328     10.8882    122.2057
   701.7500      0.0000    716.4808     10.9326    121.6925
   702.0000      0.0000    710.7613     10.9020    121.9326
   702.2500      0.0000    702.9984     10.7576    123.8602
   702.5000      0.0000    694.4095     10.5112    127.8216
   702.7500      0.0000    687.1227     10.2240    132.4625
   703.0000      0.0000    682.9879      9.9730    135.1411
   703.2500      0.0000    682.9240      9.8113    133.3761
   703.5000      0.0000    686.9693      9.7505    126.2446
   703.7500      0.0000    694.2740      9.7690    115.0764
   704.0000      0.0000    703.0024      9.8391    102.9393
   704.2500      0.0000    710.9162      9.9501     93.0438
   704.5000      0.0000    716.5328     10.1101     87.4456
   704.7500      0.0000    719.7056     10.3284     86.8582
   705.0000      0.0000    721.0953     10.5980     90.8819
   705.2500      0.0000    721.2233     10.8958     98.0375
   705.5000      0.0000    719.8842     11.1948    106.0560
   705.7500      0.0000    716.2560     11.4708    112.7869
   706.0000      0.0000    709.9117     11.6997    117.1426
   706.2500      0.0000    702.2849     11.8575    119.4361
   706.5000      0.0000    696.8226     11.9290    120.8297
   706.7500      0.0000    696.5785     11.9167    122.0335
   707.0000      0.0000    701.2286     11.8392    122.4054
   707.2500      0.0000    707.0613     11.7215    120.7225
   707.5000      0.0000    710.1076     11.5879    116.9292
   707.7500      0.0000    708.8791     11.4598    112.6208
   708.0000      0.0000    704.3162     11.3576    109.5719
   708.2500      0.0000    698.1259     11.2996    108.3425
   708.5000      0.0000    691.7279     11.2976    108.6337
   708.7500      0.0000    686.2330     11.3501    110.1847
   709.0000      0.0000    682.5471     11.4411    112.6602
   709.2500      0.0000    681.3309     11.5444    115.1349
   709.5000      0.0000    683.0673     11.6324    116.4487
   709.7500      0.0000    687.9272     11.6819    116.1253
   710.0000      0.0000    695.0935     11.6764    114.7513
   710.2500      0.0000    702.3419     11.6100    113.6041
   710.5000      0.0000    706.9658     11.4929    113.8883
   710.7500      0.0000    707.3030     11.3507    115.8216
   711.0000      0.0000    703.0302     11.2128    118.1925
   711.2500      0.0000    694.4760     11.0982    119.1395
   711.5000      0.0000    683.1062     11.0119    117.7293
   711.7500      0.0000    672.8623     10.9530    114.8390
   712.0000      0.0000    669.0042     10.9226    112.4754
   712.2500      0.0000    673.8518     10.9203    112.0971
   712.5000      0.0000    684.0016     10.9363    113.4460
   712.7500      0.0000    692.7891     10.9512    114.9950
   713.0000      0.0000    695.6183     10.9472    115.4278
   713.2500      0.0000    692.7435     10.9211    114.3743
   713.5000      0.0000    687.5937     10.8860    111.8920
   713.7500      0.0000    683.5439     10.8610    108.1350
   714.0000      0.0000    682.4337     10.8615    103.7838
   714.2500      0.0000    684.9274     10.8965     99.8198
   714.5000      0.0000    690.5920     10.9664     96.4240
   714.7500      0.0000    696.9775     11.0599     92.7979
   715.0000      0.0000    699.7864     11.1597     88.3399
   715.2500      0.0000    695.9028     11.2582     83.4056
   715.5000      0.0000    686.9453     11.3687     78.7510
   715.7500      0.0000    679.0387     11.5144     74.5312
   716.0000      0.0000    678.5285     11.7030     70.0410
   716.2500      0.0000    687.3939     11.9092     64.7084
   716.5000      0.0000    701.3936     12.0821     59.4521
   716.7500      0.0000    712.0471     12.1711     56.5816
   717.0000      0.0000    712.2561     12.1491     57.9397
   717.2500      0.0000    701.8005     12.0167     63.2984
   717.5000      0.0000    687.3011     11.7949     70.6350
   717.7500      0.0000    676.7669     11.5211     77.7355
   718.0000      0.0000    674.3251     11.2464     83.5879
   718.2500      0.0000    678.7567     11.0230     88.6208
   718.5000      0.0000    685.3386     10.8865     93.7801
   718.7500      0.0000    689.3856     10.8509     99.4003
   719.0000      0.0000    689.2567     10.9109    105.0488
   719.2500      0.0000    686.5532     11.0372    110.1880
   719.5000      0.0000    683.8680     11.1770    114.3949
   719.7500      0.0000    682.8847     11.2760    117.0948
   720.0000      0.0000    684.2100     11.3090    118.0022
   720.2500      0.0000    687.7009     11.2867    117.8758
   720.5000      0.0000    692.1655     11.2358    118.0768
   720.7500      0.0000    695.2313     11.1753    119.4338
   721.0000      0.0000    694.5881     11.1083    122.1449
   721.2500      0.0000    689.7743     11.0291    126.3429
   721.5000      0.0000    682.5441     10.9367    131.6879
   721.7500      0.0000    675.5856     10.8444    136.4240
   722.0000      0.0000    671.0735     10.7764    137.9880
   722.2500      0.0000    669.8853     10.7518    135.0248
   722.5000      0.0000    671.4710     10.7698    128.4010
   722.7500      0.0000    674.5767     10.8123    120.2884
   723.0000      0.0000    678.6294     10.8618    112.7374
   723.2500      0.0000    684.5455     10.9149    106.8940
   723.5000      0.0000    693.8958     10.9786    102.8858
   723.7500      0.0000    706.9593     11.0555    100.3399
   724.0000      0.0000    721.6091     11.1378     99.2589
   724.2500      0.0000    734.3943     11.2127    100.1401
   724.5000      0.0000    742.7624     11.2736    102.8504
   724.7500      0.0000    746.0464     11.3257    105.7726
   725.0000      0.0000    744.7573     11.3801    106.8239
   725.2500      0.0000    739.9301     11.4424    105.3413
   725.5000      0.0000    733.4382     11.5082    102.5284
   725.7500      0.0000    727.9189     11.5724    100.0670
   726.0000      0.0000    725.2024     11.6363     98.6849
   726.2500      0.0000    724.9218     11.7034     98.0544
   726.5000      0.0000    725.5540     11.7721     97.5895
   726.7500      0.0000    726.7689     11.8369     97.0500
   727.0000      0.0000    729.7509     11.8927     96.7540
   727.2500      0.0000    734.9999     11.9379     97.4622
   727.5000      0.0000    740.8076     11.9732     99.7382
   727.7500      0.0000    744.4260     12.0020    103.2778
   728.0000      0.0000    744.2273     12.0288    107.1857
   728.2500      0.0000    740.6115     12.0575    110.7634
   728.5000      0.0000    735.4811     12.0879    113.5494
   728.7500      0.0000    731.1227     12.1150    115.0048
   729.0000      0.0000    729.0341     12.1329    114.9174
   729.2500      0.0000    728.8307     12.1395    113.8187
