~Version Information
VERS.                      2.0: CWLS Log ASCII Standard - VERSION 2.0
WRAP.                       NO: One line per depth step
~Well Information Block
STRT.FT               588.7000: 
STOP.FT              1820.2000: 
STEP.FT                 0.1000: 
NULL.                -999.2500: 
COMP.          Pioneer Natural Resources: COMPANY
WELL.           Loews 41-32 Tr: WELL
FLD.           Purgatoire River: FIELD
LOC.           706' FNL & 224' FEL--: LOCATION
CNTY.               Las Animas: COUNTY
SRVC.                Patterson: SERVICE COMPANY
DATE.          Tue Feb 21 10:23:46 2006: LOG DATE
UWI.           05 071 08690 00: UNIQUE WELL ID
STAT.                 Colorado: STATE
~Curve Information Block
DEPT.FT            0 000 00 00: Depth
DCAL.in                       : CDL Caliper
RHOB.g/cc                     : CDL Bulk Density
RHOC.g/cc                     : CDL Density Correction
DPOR.pu                       : CDL Density Porosity
GR.GAPI                       : Gamma Ray
~Parameter Information Block
~A  Depth       DCAL        RHOB        RHOC        DPOR         GR     
# ...
  1070.3000      7.9661      2.5804      0.1259      4.2194    100.6747
  1070.4000      7.9661      2.5842      0.1090      3.9885     99.2522
  1070.5000      7.9685      2.5845      0.1429      3.9717     94.4297
  1070.6000      7.9685      2.5817      0.1067      4.1368     88.3310
  1070.7000      7.9685      2.5814      0.1175      4.1604     86.2087
  1070.8000      7.9718      2.5857      0.0292      3.8995     86.1111
  1070.9000      7.9718      2.5928      0.0826      3.4637     86.3090
  1071.0000      7.9755      2.5945      0.0998      3.3656     85.8573
  1071.1000      7.9755      2.5927      0.0543      3.4728     82.7615
  1071.2000      7.9755      2.5928      0.0993      3.4648     79.6238
  1071.3000      7.9815      2.5859      0.0853      3.8836     79.3774
  1071.4000      7.9815      2.5744      0.0385      4.5824     79.6254
  1071.5000      7.9875      2.5741      0.0341      4.5995     78.7645
  1071.6000      7.9875      2.5866      0.0580      3.8430     80.3203
  1071.7000      7.9875      2.5976      0.0701      3.1746     86.0834
  1071.8000      7.9920      2.5881      0.1019      3.7488     91.0879
  1071.9000      7.9920      2.5560      0.0342      5.6973     91.4327
  1072.0000      7.9941      2.5313      0.0080      7.1912     90.4257
  1072.1000      7.9941      2.5370      0.0189      6.8479     91.8959
  1072.2000      7.9941      2.5561      0.0360      5.6938     95.1324
  1072.3000      7.9925      2.5599      0.0496      5.4625     97.2374
  1072.4000      7.9925      2.5438      0.0121      6.4386     98.8867
  1072.5000      7.9914      2.5233      0.0159      7.6761    102.8178
  1072.6000      7.9914      2.5152     -0.0029      8.1725    104.7218
  1072.7000      7.9914      2.5282      0.0142      7.3815    101.6735
  1072.8000      7.9919      2.5505      0.1067      6.0289     98.8120
  1072.9000      7.9919      2.5629      0.0258      5.2778     99.4409
  1073.0000      7.9923      2.5643      0.0584      5.1969    101.1966
  1073.1000      7.9923      2.5565      0.0871      5.6642    102.9815
  1073.2000      7.9923      2.5425      0.0675      6.5140    105.6651
  1073.3000      7.9937      2.5366      0.0168      6.8746    108.8105
  1073.4000      7.9937      2.5503      0.0938      6.0431    113.9858
  1073.5000      7.9963      2.5771      0.0976      4.4210    121.1734
  1073.6000      7.9963      2.6021      0.0836      2.9031    126.4763
  1073.7000      7.9963      2.6134      0.1047      2.2175    127.1971
  1073.8000      7.9986      2.6077      0.0954      2.5657    125.8141
  1073.9000      7.9986      2.5964      0.0554      3.2497    125.5046
  1074.0000      7.9997      2.5902      0.0457      3.6271    124.6022
  1074.1000      7.9997      2.5854      0.0429      3.9124    122.6365
  1074.2000      7.9997      2.5818      0.0229      4.1307    123.8200
  1074.3000      7.9993      2.5873      0.0500      3.8013    127.1476
  1074.4000      7.9993      2.5937      0.0952      3.4106    127.1311
  1074.5000      7.9995      2.5836      0.0440      4.0233    123.7153
  1074.6000      7.9995      2.5627      0.0152      5.2936    120.1173
  1074.7000      7.9995      2.5529     -0.0138      5.8831    117.1904
  1074.8000      8.0035      2.5605     -0.0028      5.4264    116.1786
  1074.9000      8.0035      2.5692      0.0467      4.8970    119.6680
  1075.0000      8.0098      2.5677      0.0907      4.9898    125.7861
  1075.1000      8.0098      2.5636      0.0383      5.2352    128.1237
  1075.2000      8.0098      2.5654      0.0517      5.1281    125.4376
  1075.3000      8.0128      2.5680      0.0814      4.9698    121.4941
  1075.4000      8.0128      2.5674      0.0679      5.0065    116.9532
  1075.5000      8.0114      2.5704      0.0974      4.8239    111.0650
  1075.6000      8.0114      2.5853      0.0644      3.9186    107.3306
  1075.7000      8.0114      2.6056      0.0767      2.6914    112.1100
  1075.8000      8.0111      2.6101      0.0888      2.4212    123.8359
  1075.9000      8.0111      2.5927      0.0595      3.4721    130.8615
  1076.0000      8.0139      2.5709      0.0333      4.7962    129.0045
  1076.1000      8.0139      2.5491      0.0480      6.1160    125.3658
  1076.2000      8.0139      2.5171      0.0350      8.0551    123.7763
  1076.3000      8.0157      2.4867     -0.0111      9.8954    121.8569
  1076.4000      8.0157      2.4826      0.0027     10.1455    120.1683
  1076.5000      8.0163      2.5064      0.0305      8.7057    119.3826
  1076.6000      8.0163      2.5366      0.0779      6.8735    117.3333
  1076.7000      8.0163      2.5521      0.0829      5.9354    116.2099
  1076.8000      8.0160      2.5478      0.0645      6.1946    118.9579
  1076.9000      8.0160      2.5273      0.0706      7.4378    122.9945
  1077.0000      8.0154      2.5009      0.0136      9.0350    126.3246
  1077.1000      8.0154      2.4853      0.0064      9.9847    130.6427
  1077.2000      8.0154      2.4870      0.0241      9.8770    137.1356
  1077.3000      8.0141      2.5040      0.0379      8.8474    141.3167
  1077.4000      8.0141      2.5337      0.0276      7.0470    139.5410
  1077.5000      8.0124      2.5659      0.0800      5.0972    134.0875
  1077.6000      8.0124      2.5866      0.0360      3.8433    126.5925
  1077.7000      8.0124      2.5876      0.0957      3.7793    117.6438
  1077.8000      8.0107      2.5640      0.0693      5.2109    111.5706
  1077.9000      8.0107      2.5310      0.0192      7.2148    110.3940
  1078.0000      8.0090      2.5165     -0.0158      8.0879    109.6381
  1078.1000      8.0090      2.5210      0.0558      7.8206    107.1758
  1078.2000      8.0090      2.5248      0.0436      7.5885    105.6176
  1078.3000      8.0088      2.5207      0.0689      7.8345    107.2797
  1078.4000      8.0088      2.5114      0.0658      8.4029    111.9448
  1078.5000      8.0111      2.5052      0.0386      8.7764    115.6279
  1078.6000      8.0111      2.5031      0.0801      8.9013    116.0866
  1078.7000      8.0111      2.4906      0.0746      9.6622    117.1402
  1078.8000      8.0135      2.4707      0.0278     10.8679    119.9710
  1078.9000      8.0135      2.4711      0.0059     10.8443    121.2504
  1079.0000      8.0143      2.4985      0.0838      9.1844    121.1607
  1079.1000      8.0143      2.5235      0.1360      7.6640    121.2735
  1079.2000      8.0143      2.5304      0.0653      7.2467    121.2468
  1079.3000      8.0152      2.5390      0.0724      6.7260    123.8651
  1079.4000      8.0152      2.5624      0.1287      5.3113    130.9712
  1079.5000      8.0149      2.5900      0.0947      3.6366    136.0977
  1079.6000      8.0149      2.6046      0.1191      2.7514    134.6510
  1079.7000      8.0149      2.5977      0.0679      3.1701    131.3869
  1079.8000      8.0132      2.5819      0.1019      4.1254    131.0495
  1079.9000      8.0132      2.5721      0.0704      4.7219    132.9766
  1080.0000      8.0128      2.5691      0.1112      4.9054    135.6350
  1080.1000      8.0128      2.5681      0.0918      4.9630    136.0492
  1080.2000      8.0128      2.5633      0.1194      5.2562    131.8351
  1080.3000      8.0129      2.5560      0.0611      5.6996    128.3891
  1080.4000      8.0129      2.5549      0.0868      5.7630    129.6549
  1080.5000      8.0069      2.5492      0.1202      6.1100    129.8049
  1080.6000      8.0069      2.5255      0.0743      7.5474    128.1451
  1080.7000      8.0069      2.4959      0.0671      9.3388    132.0351
  1080.8000      7.9958      2.4716      0.0290     10.8109    140.3392
  1080.9000      7.9958      2.4570     -0.0105     11.6989    143.5947
  1081.0000      7.9904      2.4624      0.0210     11.3687    142.1417
  1081.1000      7.9904      2.4847      0.0392     10.0180    143.5508
  1081.2000      7.9904      2.5020      0.0648      8.9709    146.3446
  1081.3000      7.9917      2.5027      0.0648      8.9275    146.3031
  1081.4000      7.9917      2.4984      0.0497      9.1897    144.1991
