~Version Information
VERS.                      2.0: CWLS Log ASCII Standard - VERSION 2.0
WRAP.                       NO: One line per depth step
~Well Information Block
STRT.FT               695.5000: 
STOP.FT              1499.5000: 
STEP.FT                 0.2500: 
NULL.                -999.2500: 
COMP.          Pioneer Natural Resources: COMPANY
WELL.          Pallet Ranch 34-25 Tr: WELL
FLD.           Purgatoire River: FIELD
LOC.           465' FSL & 2138' FEL: LOCATION
PROV.                 Colorado: PROVINCE
CNTY.               Las Animas: COUNTRY
SRVC.                Patterson: SERVICE COMPANY
DATE.          Wed Jan 18 18:58:46 2006: LOG DATE
UWI.           05 071 08657 00: UNIQUE WELL ID
~Curve Information Block
DEPT.FT            0 000 00 00: Depth
SN.Ohm-m                      : IEL Short Normal
SP.mV                         : IEL Spontaneous Potential
DIR.Ohm-m                     : IEL Induction Resistivity
GR.GAPI                       : Gamma Ray
~Parameter Information Block
~A  Depth        SN          SP         DIR          GR     
# ...
  1164.5000     10.8726     25.4076      6.3269    120.9808
  1164.7500     10.4475     25.4472      6.2574    119.1898
  1165.0000      9.9867     25.5245      6.2875    118.0010
  1165.2500      9.3729     25.6282      6.4585    118.4128
  1165.5000      8.8131     25.7407      6.8252    119.8572
  1165.7500      8.5332     25.8448      7.4753    120.6517
  1166.0000      8.4900     25.9253      8.5870    121.4112
  1166.2500      8.4790     25.9732     10.6076    122.1344
  1166.5000      8.3710     25.9858     14.9615    124.0358
  1166.7500      8.2094     25.9643     29.2159    125.4281
  1167.0000      8.0931     25.9086 100000.0000    126.6932
  1167.2500      8.1001     25.8196 100000.0000    126.9842
  1167.5000      8.3784     25.7022 100000.0000    127.4747
  1167.7500      9.0102     25.5634 100000.0000    128.2520
  1168.0000      9.7077     25.4082 100000.0000    130.2260
  1168.2500     10.0522     25.2393 100000.0000    132.0408
  1168.5000     10.0173     25.0599 100000.0000    135.3001
  1168.7500      9.8599     24.8697 100000.0000    137.4674
  1169.0000      9.6967     24.6560 100000.0000    140.0681
  1169.2500      9.5306     24.3852 100000.0000    141.4498
  1169.5000      9.4382     24.0068 100000.0000    143.6815
  1169.7500      9.4973     23.4683 100000.0000    145.2266
  1170.0000      9.6613     22.7374 100000.0000    146.2433
  1170.2500      9.7948     21.8144 100000.0000    145.2405
  1170.5000      9.8008     20.7207 100000.0000    141.3995
  1170.7500      9.7255     19.4595 100000.0000    138.2287
  1171.0000      9.6950     17.9671 100000.0000    134.2540
  1171.2500      9.6937     16.0787 100000.0000    132.6932
  1171.5000      9.5229     13.5306 100000.0000    132.2493
  1171.7500      9.0481     10.0043     14.2627    133.0370
  1172.0000      8.4050      5.1911      3.2320    134.8859
  1172.2500      7.8091     -1.1603      1.5370    135.5918
  1172.5000      7.1990     -9.2157      0.8850    133.6750
  1172.7500      6.3311    -19.0015      0.5436    129.2343
  1173.0000      5.2070    -30.2891      0.3320    117.0588
  1173.2500      4.1381    -42.4690      0.1919    105.9034
  1173.5000      3.4182    -54.5506      0.1036     87.1714
  1173.7500      3.1043    -65.3923      0.0547     75.0645
  1174.0000      3.0986    -74.0953      0.0305     59.7329
  1174.2500      3.3872    -80.3081      0.0191     52.1393
  1174.5000      4.0568    -84.2109      0.0138     45.2683
  1174.7500      4.9611    -86.1972      0.0113     43.7983
  1175.0000      5.6006    -86.5053      0.0104     46.0786
  1175.2500      5.5814    -85.0521      0.0105     50.2543
  1175.5000      5.0354    -81.5321      0.0111     59.4983
  1175.7500      4.4634    -75.6814      0.0123     66.7335
  1176.0000      4.3254    -67.5503      0.0138     76.8404
  1176.2500      4.9246    -57.6329      0.0154     81.3918
  1176.5000      6.6739    -46.7673      0.0173     82.7534
  1176.7500     10.1612    -35.8509      0.0199     80.0441
  1177.0000     15.4801    -25.5571      0.0246     73.3345
  1177.2500     21.4693    -16.2425      0.0344     69.5264
  1177.5000     26.2045     -8.0536      0.0565     67.9035
  1177.7500     28.6703     -1.0625      0.1074     69.8363
  1178.0000     29.4575      4.7084      0.2197     75.3820
  1178.2500     29.5693      9.3353      0.4507     79.2871
  1178.5000     29.2641     12.9999      0.9593     83.8225
  1178.7500     28.3511     15.9260      2.5069     86.0140
  1179.0000     27.0613     18.3068     18.6199     89.2755
  1179.2500     26.0837     20.2671 100000.0000     92.1997
  1179.5000     25.7491     21.8567 100000.0000     98.3440
  1179.7500     25.5825     23.0760 100000.0000    103.5111
  1180.0000     24.9290     23.9325 100000.0000    112.1137
  1180.2500     23.8319     24.4902 100000.0000    117.7396
  1180.5000     22.8456     24.8681 100000.0000    124.4724
  1180.7500     22.1474     25.1899 100000.0000    139.5249
  1181.0000     21.4972     25.5318 100000.0000    138.5841
  1181.2500     20.8776     25.9113 100000.0000    134.6156
  1181.5000     20.4568     26.3116 100000.0000    125.0416
  1181.7500     20.1080     26.7126 100000.0000    128.6104
  1182.0000     19.5873     27.1075 100000.0000    119.2334
  1182.2500     19.1245     27.5011 100000.0000    116.0095
  1182.5000     19.2597     27.8999 100000.0000    116.0792
  1182.7500     20.0686     28.2982 100000.0000    118.3436
  1183.0000     21.0808     28.6697 100000.0000    122.0342
  1183.2500     21.8659     28.9769 100000.0000    122.9780
  1183.5000     22.3288     29.1930 100000.0000    120.7525
  1183.7500     22.5286     29.3204 100000.0000    117.2666
  1184.0000     22.4810     29.3909 100000.0000    110.8159
  1184.2500     22.3441     29.4498 100000.0000    106.5029
  1184.5000     22.5671     29.5321 100000.0000    100.5131
  1184.7500     23.4362     29.6487     57.9294     97.0082
  1185.0000     24.6685     29.7922     21.3488     93.0476
  1185.2500     25.7609     29.9558     14.7040     91.5441
  1185.5000     26.4341     30.1401     12.3752     90.8123
  1185.7500     26.5397     30.3436     11.4979     90.8852
  1186.0000     25.9540     30.5507     11.2810     90.9533
  1186.2500     24.9687     30.7371     11.4263     90.5635
  1186.5000     24.4864     30.8868     11.8213     88.8591
  1186.7500     25.2620     31.0050     12.4429     86.8706
  1187.0000     27.0255     31.1105     13.3071     82.8672
  1187.2500     28.7228     31.2148     14.4281     79.9571
  1187.5000     29.5065     31.3111     15.7836     76.2932
  1187.7500     29.2811     31.3866     17.2934     74.9053
  1188.0000     28.6513     31.4410     18.8231     75.0020
  1188.2500     28.5014     31.4882     20.2229     76.5240
  1188.5000     29.1889     31.5447     21.3898     80.3669
  1188.7500     30.2138     31.6203     22.3113     83.3244
  1189.0000     30.9457     31.7152     23.0570     87.2463
  1189.2500     31.2724     31.8199     23.7267     89.1092
  1189.5000     31.3883     31.9184     24.3935     90.5868
  1189.7500     31.4450     31.9970     25.0766     90.8219
  1190.0000     31.4598     32.0505     25.7441     90.5388
  1190.2500     31.3467     32.0839     26.3309     90.2433
  1190.5000     31.1465     32.1079     26.7618     89.8948
  1190.7500     31.1274     32.1358     26.9816     89.4990
  1191.0000     31.3563     32.1820     26.9860     87.7373
  1191.2500     31.4337     32.2592     26.8313     85.4506
  1191.5000     31.0660     32.3715     26.6109     81.1657
  1191.7500     30.5858     32.5067     26.4161     78.8898
  1192.0000     30.5731     32.6344     26.3059     77.8660
  1192.2500     31.1392     32.7165     26.2988     78.7144
  1192.5000     31.7761     32.7286     26.3802     81.0380
  1192.7500     31.9573     32.6770     26.5204     82.6783
  1193.0000     31.6863     32.5958     26.6892     85.0765
  1193.2500     31.2868     32.5249     26.8621     86.7262
  1193.5000     30.9465     32.4885     27.0183     89.0293
  1193.7500     30.5833     32.4898     27.1421     89.9246
  1194.0000     30.0600     32.5178     27.2300     89.0751
  1194.2500     29.6145     32.5579     27.2963     86.5303
  1194.5000     29.7553     32.5981     27.3671     79.8814
  1194.7500     30.5862     32.6298     27.4670     74.2367
  1195.0000     31.7446     32.6481     27.6090     65.3640
  1195.2500     32.8856     32.6532     27.7979     59.7693
  1195.5000     33.7935     32.6513     28.0445     52.4659
  1195.7500     34.3602     32.6494     28.3728     48.5445
  1196.0000     34.7577     32.6473     28.8140     44.0522
  1196.2500     35.3666     32.6356     29.3899     41.6769
  1196.5000     36.3485     32.6023     30.1004     38.5298
  1196.7500     37.4659     32.5432     30.9244     36.6852
  1197.0000     38.2510     32.4672     31.8265     34.6328
  1197.2500     38.1741     32.3909     32.7497     33.9645
  1197.5000     37.2409     32.3301     33.5873     34.2533
  1197.7500     36.5401     32.2934     34.1618     35.2093
