~Version Information
VERS.                      2.0: CWLS Log ASCII Standard - VERSION 2.0
WRAP.                       NO: One line per depth step
~Well Information Block
STRT.FT                -9.0000: 
STOP.FT              1754.0000: 
STEP.FT                 0.2500: 
NULL.                -999.2500: 
COMP.          Pioneer Natural Resources: COMPANY
WELL.          Touchstone 11-32 Tr: WELL
FLD.           Purgatorie River: FIELD
LOC.           782' FNL & 840' FWL--: LOCATION
CNTY.               Las Animas: COUNTY
SRVC.          Patterson Wireline: SERVICE COMPANY
DATE.          Mon Mar 06 09:18:09 2006: LOG DATE
UWI.           05 071 08626 00: UNIQUE WELL ID
STAT.                       CO: STATE
~Curve Information Block
DEPT.FT            0 000 00 00: Depth
CCL.                          : Casing Collar Locator
TT3.usec                      : CBL 3' Travel Time
AMP3.mV                       : CBL 3' Amplitude
GR.GAPI                       : Gamma Ray
~Parameter Information Block
~A  Depth       CCL         TT3         AMP3         GR     
# ...
  1029.5000      0.0000    748.2870      8.5220    129.9198
  1029.7500      0.0000    719.1462      8.5659    131.9166
  1030.0000      0.0000    695.4554      8.6007    134.9157
  1030.2500      0.0000    688.3575      8.6220    137.7618
  1030.5000      0.0000    694.0395      8.6282    139.5392
  1030.7500      0.0000    697.0303      8.6186    139.9466
  1031.0000      0.0000    687.0817      8.5934    139.3709
  1031.2500      0.0000    669.6708      8.5555    138.5359
  1031.5000      0.0000    657.8643      8.5134    137.7450
  1031.7500      0.0000    657.7232      8.4796    136.4181
  1032.0000      0.0000    665.4650      8.4626    133.6242
  1032.2500      0.0000    675.5974      8.4597    129.2110
  1032.5000      0.0000    686.0097      8.4599    124.3284
  1032.7500      0.0000    696.0531      8.4548    120.6136
  1033.0000      0.0000    704.5044      8.4423    118.8420
  1033.2500      0.0000    709.7495      8.4213    118.5336
  1033.5000      0.0000    709.5668      8.3857    118.7136
  1033.7500      0.0000    701.4074      8.3289    118.7451
  1034.0000      0.0000    684.9817      8.2523    118.5855
  1034.2500      0.0000    664.4974      8.1670    118.5351
  1034.5000      0.0000    647.4359      8.0860    118.6587
  1034.7500      0.0000    640.6246      8.0131    118.4348
  1035.0000      0.0000    646.7929      7.9426    117.3523
  1035.2500      0.0000    663.5782      7.8693    115.9849
  1035.5000      0.0000    684.8403      7.7996    116.0716
  1035.7500      0.0000    703.3152      7.7504    119.1521
  1036.0000      0.0000    713.9010      7.7378    124.9531
  1036.2500      0.0000    716.0669      7.7615    130.9369
  1036.5000      0.0000    713.7499      7.8011    133.7503
  1036.7500      0.0000    713.0596      7.8286    131.9469
  1037.0000      0.0000    719.2357      7.8297    127.5612
  1037.2500      0.0000    733.6932      7.8137    124.5847
  1037.5000      0.0000    752.7849      7.8026    125.8051
  1037.7500      0.0000    770.4524      7.8146    131.2910
  1038.0000      0.0000    783.1888      7.8553    139.3079
  1038.2500      0.0000    792.0932      7.9217    147.6034
  1038.5000      0.0000    799.8508      8.0077    153.7910
  1038.7500      0.0000    806.4460      8.1027    155.7558
  1039.0000      0.0000    808.2992      8.1895    152.7187
  1039.2500      0.0000    801.3477      8.2495    145.7662
  1039.5000      0.0000    784.8969      8.2750    136.9862
  1039.7500      0.0000    762.8167      8.2786    128.2209
  1040.0000      0.0000    741.2352      8.2871    120.5490
  1040.2500      0.0000    724.9030      8.3244    114.1543
  1040.5000      0.0000    715.2051      8.3940    108.4039
  1040.7500      0.0000    710.7735      8.4741    102.6168
  1041.0000      0.0000    709.3734      8.5294     96.9873
  1041.2500      0.0000    709.2844      8.5348     92.4289
  1041.5000      0.0000    709.5738      8.4935     89.5089
  1041.7500      0.0000    709.5950      8.4322     87.8851
  1042.0000      0.0000    708.4252      8.3814     86.7831
  1042.2500      0.0000    705.2590      8.3589     85.7128
  1042.5000      0.0000    701.0002      8.3696     84.7018
  1042.7500      0.0000    699.0750      8.4168     84.2158
  1043.0000      0.0000    702.9906      8.5101     85.0466
  1043.2500      0.0000    712.6141      8.6526     87.9626
  1043.5000      0.0000    724.0629      8.8211     92.9950
  1043.7500      0.0000    733.2570      8.9610     98.9608
  1044.0000      0.0000    738.0972      9.0109    103.7602
  1044.2500      0.0000    737.7840      8.9415    105.2496
  1044.5000      0.0000    732.5959      8.7759    102.3951
  1044.7500      0.0000    724.8310      8.5723     96.1140
  1045.0000      0.0000    718.3162      8.3828     88.7906
  1045.2500      0.0000    716.5460      8.2272     82.6036
  1045.5000      0.0000    721.6200      8.1029     78.3008
  1045.7500      0.0000    733.6443      8.0137     75.3900
  1046.0000      0.0000    749.5594      7.9764     73.1254
  1046.2500      0.0000    763.6766      7.9988     71.3166
  1046.5000      0.0000    772.0124      8.0584     70.4315
  1046.7500      0.0000    776.2508      8.1115     70.9439
  1047.0000      0.0000    781.2667      8.1230     72.5217
  1047.2500      0.0000    789.0126      8.0882     73.9171
  1047.5000      0.0000    797.2169      8.0279     73.7615
  1047.7500      0.0000    803.4780      7.9654     71.6397
  1048.0000      0.0000    807.1445      7.9074     68.4523
  1048.2500      0.0000    806.7200      7.8423     65.5826
  1048.5000      0.0000    798.9158      7.7531     63.6025
  1048.7500      0.0000    782.6334      7.6303     61.8648
  1049.0000      0.0000    762.9384      7.4770     59.3270
  1049.2500      0.0000    749.3765      7.3082     55.5683
  1049.5000      0.0000    749.6187      7.1462     51.0497
  1049.7500      0.0000    764.0192      7.0128     46.7013
  1050.0000      0.0000    785.1766      6.9194     43.3753
  1050.2500      0.0000    802.4277      6.8611     41.4924
  1050.5000      0.0000    807.8839      6.8206     40.9773
  1050.7500      0.0000    800.0290      6.7782     41.4463
  1051.0000      0.0000    783.2484      6.7234     42.4621
  1051.2500      0.0000    764.4501      6.6595     43.7291
  1051.5000      0.0000    749.2043      6.6016     45.1828
  1051.7500      0.0000    739.7977      6.5694     46.7784
  1052.0000      0.0000    735.9757      6.5806     48.1552
  1052.2500      0.0000    736.8450      6.6461     48.8133
  1052.5000      0.0000    741.9421      6.7688     48.6950
  1052.7500      0.0000    751.1345      6.9419     48.3789
  1053.0000      0.0000    764.5729      7.1515     48.7036
  1053.2500      0.0000    782.9810      7.3815     50.3876
  1053.5000      0.0000    806.4892      7.6167     53.9506
  1053.7500      0.0000    831.3132      7.8417     59.8284
  1054.0000      0.0000    848.2598      8.0431     68.3557
  1054.2500      0.0000    847.7093      8.2149     79.4171
  1054.5000      0.0000    828.0469      8.3597     91.9522
  1054.7500      0.0000    798.7542      8.4796    104.0185
  1055.0000      0.0000    774.5682      8.5670    113.7718
  1055.2500      0.0000    765.7786      8.6093    120.6350
  1055.5000      0.0000    772.3035      8.6001    125.5246
  1055.7500      0.0000    785.9164      8.5462    129.8518
  1056.0000      0.0000    798.5142      8.4653    134.2141
  1056.2500      0.0000    808.0449      8.3804    137.8750
  1056.5000      0.0000    816.4014      8.3127    139.4009
  1056.7500      0.0000    823.8388      8.2706    137.9424
  1057.0000      0.0000    827.7849      8.2448    134.1788
  1057.2500      0.0000    826.1945      8.2180    130.2331
  1057.5000      0.0000    820.3044      8.1812    128.6081
  1057.7500      0.0000    814.3209      8.1425    130.8259
  1058.0000      0.0000    813.1768      8.1204    136.5090
  1058.2500      0.0000    820.3292      8.1271    143.4776
  1058.5000      0.0000    836.1186      8.1571    148.9855
  1058.7500      0.0000    856.4146      8.1913    151.3434
  1059.0000      0.0000    872.8468      8.2146    150.7135
  1059.2500      0.0000    877.0244      8.2326    148.5874
  1059.5000      0.0000    866.9968      8.2707    146.5994
  1059.7500      0.0000    848.9403      8.3583    145.6409
  1060.0000      0.0000    831.5176      8.5127    145.7404
  1060.2500      0.0000    819.6295      8.7318    146.4083
  1060.5000      0.0000    813.4895      8.9940    146.9338
  1060.7500      0.0000    811.0072      9.2627    146.5057
  1061.0000      0.0000    809.8639      9.4984    144.4423
  1061.2500      0.0000    808.6132      9.6702    140.4793
  1061.5000      0.0000    806.7003      9.7640    134.8900
  1061.7500      0.0000    803.3435      9.7830    128.5568
  1062.0000      0.0000    796.9894      9.7431    122.8435
  1062.2500      0.0000    786.7662      9.6666    118.8314
  1062.5000      0.0000    773.7824      9.5795    116.4518
  1062.7500      0.0000    759.5271      9.5116    114.6617
