~Version Information
VERS.                      2.0: CWLS Log ASCII Standard - VERSION 2.0
WRAP.                       NO: One line per depth step
~Well Information Block
STRT.FT              1585.0000: 
STOP.FT              2353.0000: 
STEP.FT                 0.2500: 
NULL.                -999.2500: 
COMP.          XTO Energy Inc.: COMPANY
WELL.          Hill Ranch 15-11: WELL
FLD.           Purgatrorie River: FIELD
LOC.           1862' FSL & 1801' FWL: LOCATION
STAT.                       CO: State
CNTY.               Las Animas: COUNTY
CTRY. USA : Country
SECT. 15 : Section
TOWN. 35S : Township
RANG. 67W : Range
SRVC.          Patterson Wireline: SERVICE COMPANY
DATE.          Thu Dec 08 10:20:02 2005: LOG DATE
API.              05 071 08472: UNIQUE WELL ID
~Curve Information Block
DEPT.FT            0 000 00 00: Depth
CCL.                          : Casing Collar Locator
TT3.usec                      : CBL 3' Travel Time
AMP3.mV                       : CBL 3' Amplitude
BONDIX.                       : CBL Bond Index
GR.GAPI                       : Gamma Ray
~Parameter Information Block
~A  Depth       CCL         TT3         AMP3       BONDIX        GR     
# ...
  1641.0000      0.0000    697.6019      2.3987      0.8078    175.0612
  1641.2500      0.0000    688.3787      2.3462      0.8127    170.3819
  1641.5000      0.0000    683.3519      2.2925      0.8177    167.7784
  1641.7500      0.0000    682.4432      2.2483      0.8220    169.3206
  1642.0000      0.0000    686.7296      2.2204      0.8248    172.6630
  1642.2500      0.0000    696.6544      2.2109      0.8257    173.5751
  1642.5000      0.0000    710.2979      2.2168      0.8251    170.2064
  1642.7500      0.0000    723.6451      2.2306      0.8237    164.7895
  1643.0000      0.0000    733.2219      2.2428      0.8226    161.3002
  1643.2500      0.0000    738.2526      2.2457      0.8223    161.7328
  1643.5000      0.0000    739.7663      2.2384      0.8230    164.5148
  1643.7500      0.0000    738.7559      2.2263      0.8242    165.9327
  1644.0000      0.0000    736.2797      2.2164      0.8251    162.8530
  1644.2500      0.0000    733.8802      2.2129      0.8255    154.5756
  1644.5000      0.0000    731.8319      2.2151      0.8253    142.8336
  1644.7500      0.0000    727.6029      2.2187      0.8249    130.4393
  1645.0000      0.0000    718.5051      2.2188      0.8249    120.1652
  1645.2500      0.0000    706.5602      2.2136      0.8254    114.5688
  1645.5000      0.0000    699.2925      2.2072      0.8261    115.7308
  1645.7500      0.0000    704.2152      2.2058      0.8262    123.8786
  1646.0000      0.0000    721.6854      2.2109      0.8257    136.1539
  1646.2500      0.0000    742.8863      2.2182      0.8250    147.6907
  1646.5000      0.0000    755.9583      2.2229      0.8245    154.6279
  1646.7500      0.0000    755.8961      2.2251      0.8243    156.1250
  1647.0000      0.0000    748.5167      2.2297      0.8238    153.6244
  1647.2500      0.0000    743.8914      2.2440      0.8224    148.7271
  1647.5000      0.0000    746.4980      2.2749      0.8194    142.1228
  1647.7500      0.0000    752.3179      2.3263      0.8145    134.3076
  1648.0000      0.0000    753.7946      2.3937      0.8082    126.6143
  1648.2500      0.0000    746.0989      2.4602      0.8022    120.9726
  1648.5000      0.0000    730.0136      2.5027      0.7985    118.7554
  1648.7500      0.0000    711.0832      2.5058      0.7982    120.0272
  1649.0000      0.0000    696.0186      2.4710      0.8013    123.8118
  1649.2500      0.0000    688.3059      2.4133      0.8065    129.0052
  1649.5000      0.0000    686.2300      2.3529      0.8120    135.2547
  1649.7500      0.0000    684.9073      2.3085      0.8162    143.1387
  1650.0000      0.0000    680.3870      2.2916      0.8178    153.4568
  1650.2500      0.0000    672.0768      2.3015      0.8169    166.0906
  1650.5000      0.0000    661.9854      2.3261      0.8145    179.4642
  1650.7500      0.0000    652.6253      2.3477      0.8125    191.3591
  1651.0000      0.0000    645.6953      2.3533      0.8120    200.4781
  1651.2500      0.0000    641.8696      2.3401      0.8132    207.0688
  1651.5000      0.0000    641.1907      2.3141      0.8157    211.9635
  1651.7500      0.0000    643.7536      2.2831      0.8186    215.2918
  1652.0000      0.0000    650.0059      2.2516      0.8217    216.2102
  1652.2500      0.0000    659.8525      2.2214      0.8247    213.7768
  1652.5000      0.0000    671.1761      2.1948      0.8273    208.0765
  1652.7500      0.0000    680.0944      2.1750      0.8293    200.3425
  1653.0000      0.0000    683.8397      2.1649      0.8303    191.8247
  1653.2500      0.0000    683.3734      2.1649      0.8303    182.8621
  1653.5000      0.0000    682.7647      2.1734      0.8295    173.4916
  1653.7500      0.0000    686.3250      2.1870      0.8281    164.5809
  1654.0000      0.0000    696.0190      2.2010      0.8267    157.5305
  1654.2500      0.0000    709.9901      2.2112      0.8257    152.7640
  1654.5000      0.0000    722.9184      2.2144      0.8254    149.1636
  1654.7500      0.0000    729.2371      2.2084      0.8259    145.4610
  1655.0000      0.0000    727.3971      2.1934      0.8274    141.9534
  1655.2500      0.0000    721.0269      2.1734      0.8295    140.5346
  1655.5000      0.0000    715.4167      2.1561      0.8312    143.1198
  1655.7500      0.0000    712.6636      2.1509      0.8317    150.0071
  1656.0000      0.0000    710.3035      2.1641      0.8304    159.2089
  1656.2500      0.0000    704.6894      2.1959      0.8272    166.9988
  1656.5000      0.0000    695.1158      2.2370      0.8231    169.8206
  1656.7500      0.0000    684.1117      2.2728      0.8196    166.7871
  1657.0000      0.0000    674.3731      2.2908      0.8179    160.5396
  1657.2500      0.0000    666.5362      2.2891      0.8181    155.2681
  1657.5000      0.0000    659.9588      2.2758      0.8193    153.4383
  1657.7500      0.0000    654.6416      2.2614      0.8207    154.0868
  1658.0000      0.0000    651.8660      2.2513      0.8217    154.1531
  1658.2500      0.0000    653.1489      2.2446      0.8224    151.4009
  1658.5000      0.0000    658.6803      2.2362      0.8232    146.1123
  1658.7500      0.0000    666.7086      2.2219      0.8246    140.5224
  1659.0000      0.0000    674.8899      2.2027      0.8265    137.1164
  1659.2500      0.0000    682.2828      2.1852      0.8283    137.2138
  1659.5000      0.0000    688.8094      2.1768      0.8291    140.5652
  1659.7500      0.0000    692.5811      2.1810      0.8287    145.6925
  1660.0000      0.0000    690.1874      2.1951      0.8273    150.2990
  1660.2500      0.0000    681.0978      2.2127      0.8255    151.8588
  1660.5000      0.0000    670.1030      2.2272      0.8241    149.0081
  1660.7500      0.0000    663.9421      2.2353      0.8233    142.7387
  1661.0000      0.0000    666.0438      2.2398      0.8228    135.6463
  1661.2500      0.0000    674.4540      2.2479      0.8221    129.7618
  1661.5000      0.0000    683.7064      2.2681      0.8201    125.2146
  1661.7500      0.0000    688.5899      2.3064      0.8164    120.8579
  1662.0000      0.0000    687.2627      2.3633      0.8111    115.8905
  1662.2500      0.0000    681.7646      2.4299      0.8049    110.7455
  1662.5000      0.0000    676.1621      2.4898      0.7996    106.4915
  1662.7500      0.0000    674.0699      2.5277      0.7963    103.8736
  1663.0000      0.0000    677.1213      2.5381      0.7954    103.2159
  1663.2500      0.0000    684.5953      2.5231      0.7967    104.9140
  1663.5000      0.0000    693.7419      2.4868      0.7999    109.3344
  1663.7500      0.0000    701.0394      2.4359      0.8044    115.9353
  1664.0000      0.0000    704.7638      2.3854      0.8090    122.9128
  1664.2500      0.0000    706.5754      2.3564      0.8117    128.2027
  1664.5000      0.0000    709.2961      2.3653      0.8109    130.8450
  1664.7500      0.0000    712.8771      2.4129      0.8065    131.3331
  1665.0000      0.0000    714.0968      2.4843      0.8001    130.9734
  1665.2500      0.0000    710.7578      2.5558      0.7939    130.8182
  1665.5000      0.0000    704.4102      2.6029      0.7898    130.5880
  1665.7500      0.0000    697.5742      2.6065      0.7895    128.7249
  1666.0000      0.0000    689.8145      2.5627      0.7933    124.3796
  1666.2500      0.0000    678.9940      2.4882      0.7997    119.2512
  1666.5000      0.0000    665.9567      2.4124      0.8065    116.2871
  1666.7500      0.0000    655.1526      2.3576      0.8116    116.4562
  1667.0000      0.0000    649.8727      2.3279      0.8144    117.8828
  1667.2500      0.0000    648.8926      2.3143      0.8157    118.2904
  1667.5000      0.0000    648.6969      2.3066      0.8164    117.1768
  1667.7500      0.0000    647.3196      2.3006      0.8170    115.3062
  1668.0000      0.0000    645.1718      2.2982      0.8172    113.1952
  1668.2500      0.0000    643.5759      2.3041      0.8166    111.0795
  1668.5000      0.0000    643.8724      2.3214      0.8150    109.9048
  1668.7500      0.0000    647.5187      2.3483      0.8125    111.2460
