~Version Information
VERS.                      2.0: CWLS Log ASCII Standard - VERSION 2.0
WRAP.                       NO: One line per depth step
~Well Information Block
STRT.FT               670.0000: 
STOP.FT              2108.5000: 
STEP.FT                 0.1000: 
NULL.                -999.2500: 
COMP.          Petrogulf Corporation: COMPANY
WELL.           Montoya 12-44R: WELL
FLD.           Purgatorie River: FIELD
LOC.           713' FSL & 798' FEL: LOCATION
PROV.                 Colorado: PROVINCE
CNTY.               Las Animas: COUNTRY
SRVC.                Patterson: SERVICE COMPANY
DATE.          Mon Oct 03 07:50:59 2005: LOG DATE
UWI.           05-071-08538               : UNIQUE WELL ID
~Curve Information Block
DEPT.FT            0 000 00 00: Depth
DCAL.in                       : CDL Caliper
RHOB.g/cc                     : CDL Bulk Density
RHOC.g/cc                     : CDL Density Correction
DPOR.pu                       : CDL Density Porosity
GR.GAPI                       : Gamma Ray
NPOR.pu                       : Neutron Porosity
~Parameter Information Block
~A  Depth       DCAL        RHOB        RHOC        DPOR         GR         NPOR    
# ...
  1716.4000      7.6549      2.5660      0.0712      5.0913    132.0616     29.6225
  1716.5000      7.5271      2.5737      0.0564      4.6260    138.7888     29.7272
  1716.6000      7.5271      2.5708      0.0217      4.7986    143.4570     29.8186
  1716.7000      7.5271      2.5587      0.0286      5.5322    142.8773     29.9211
  1716.8000      7.5611      2.5506      0.0251      6.0224    138.8678     29.8303
  1716.9000      7.5611      2.5579      0.0446      5.5799    134.3146     29.3694
  1717.0000      7.7527      2.5714      0.0452      4.7656    131.1389     28.7864
  1717.1000      7.7527      2.5775      0.0422      4.3917    131.1342     28.3759
  1717.2000      7.7527      2.5780      0.0642      4.3628    134.9335     28.2155
  1717.3000      7.8015      2.5771      0.0680      4.4203    137.5515     28.2035
  1717.4000      7.8015      2.5809      0.0731      4.1897    133.2501     28.3014
  1717.5000      7.8084      2.5979      0.0559      3.1583    125.7983     28.6303
  1717.6000      7.8084      2.6227      0.1047      1.6541    125.2800     29.1364
  1717.7000      7.8084      2.6397      0.0999      0.6240    132.7302     29.5958
  1717.8000      7.7835      2.6505      0.0425     -0.0329    139.6305     29.6624
  1717.9000      7.7835      2.6735      0.0388     -1.4228    141.7988     29.1768
  1718.0000      7.7792      2.7055      0.1544     -3.3617    142.1204     28.6965
  1718.1000      7.7792      2.7201      0.1594     -4.2456    142.7441     28.7556
  1718.2000      7.7792      2.7136      0.0547     -3.8523    143.1913     28.9201
  1718.3000      7.7734      2.7016      0.0457     -3.1296    143.4294     28.6887
  1718.4000      7.7734      2.6879      0.0709     -2.2986    143.9956     28.4585
  1718.5000      7.7814      2.6750      0.0416     -1.5177    144.3155     28.6838
  1718.6000      7.7814      2.6681      0.0440     -1.0971    141.9801     29.1386
  1718.7000      7.7814      2.6606      0.0673     -0.6409    137.2781     29.4543
  1718.8000      7.8282      2.6426      0.0677      0.4504    135.0129     29.5292
  1718.9000      7.8282      2.6164     -0.0003      2.0391    137.3490     29.4080
  1719.0000      7.8633      2.5937     -0.0235      3.4109    139.5086     29.3534
  1719.1000      7.8633      2.5784      0.0443      4.3395    137.2108     29.5169
  1719.2000      7.8633      2.5637      0.0317      5.2324    134.5152     29.7066
  1719.3000      7.8691      2.5495      0.0080      6.0914    137.3176     29.8076
  1719.4000      7.8691      2.5424     -0.0159      6.5215    142.7519     29.6283
  1719.5000      7.8596      2.5393      0.0156      6.7108    145.0972     29.0578
  1719.6000      7.8596      2.5325     -0.0194      7.1199    144.5688     28.4256
  1719.7000      7.8596      2.5320      0.0235      7.1544    143.7629     28.0081
  1719.8000      7.8559      2.5560      0.0198      5.6986    143.6577     27.6927
  1719.9000      7.8559      2.5956      0.0713      3.2987    143.9893     27.5135
  1720.0000      7.8659      2.6166      0.0426      2.0268    144.4753     27.6076
  1720.1000      7.8659      2.6073      0.0337      2.5853    144.8324     27.7584
  1720.2000      7.8659      2.5816      0.0059      4.1455    145.4626     27.9448
  1720.3000      7.8529      2.5560      0.0060      5.6982    146.3384     28.2994
  1720.4000      7.8529      2.5469      0.0289      6.2510    147.3410     28.6420
  1720.5000      7.8397      2.5632      0.0443      5.2589    145.6576     28.6548
  1720.6000      7.8397      2.5919      0.0823      3.5222    140.9749     28.4171
  1720.7000      7.8397      2.6068      0.0700      2.6185    138.3701     28.5177
  1720.8000      7.8253      2.5950      0.0626      3.3352    139.0196     29.0076
  1720.9000      7.8253      2.5605      0.0470      5.4219    142.7810     29.2499
  1721.0000      7.8423      2.5211      0.0145      7.8102    149.5217     29.1114
  1721.1000      7.8423      2.5033     -0.0321      8.8917    153.7728     28.9735
  1721.2000      7.8423      2.5170      0.0334      8.0623    152.2839     28.8660
  1721.3000      7.8528      2.5415      0.0289      6.5773    149.2918     28.6266
  1721.4000      7.8528      2.5586      0.0290      5.5381    146.9159     28.3362
  1721.5000      7.8283      2.5715      0.0647      4.7574    142.3137     28.0692
  1721.6000      7.8283      2.5820      0.0844      4.1234    135.6913     27.6947
  1721.7000      7.8283      2.5912      0.0683      3.5606    131.4777     27.1688
  1721.8000      7.8082      2.6104      0.0671      2.3986    130.6287     26.8368
  1721.9000      7.8082      2.6373      0.1176      0.7703    127.4245     26.7480
  1722.0000      7.8059      2.6479      0.0886      0.1296    120.3184     26.5172
  1722.1000      7.8059      2.6302      0.0874      1.1986    114.4933     25.9158
  1722.2000      7.8059      2.6021      0.0026      2.9048    110.7571     25.0150
  1722.3000      7.8338      2.5818      0.0255      4.1333    107.0864     24.0679
  1722.4000      7.8338      2.5692      0.0394      4.8943    105.0522     23.2357
  1722.5000      7.8721      2.5688      0.0361      4.9214    107.4567     22.5884
  1722.6000      7.8721      2.5867      0.0445      3.8381    112.5608     22.2739
  1722.7000      7.8721      2.6067      0.0846      2.6245    115.0816     22.4031
  1722.8000      7.8308      2.6089      0.0646      2.4915    114.9487     22.7199
  1722.9000      7.8308      2.5938      0.0687      3.4067    115.6143     22.8762
  1723.0000      7.8135      2.5721      0.0518      4.7204    116.8854     22.7690
  1723.1000      7.8135      2.5568      0.0459      5.6509    117.9868     22.4473
  1723.2000      7.8135      2.5667      0.0013      5.0471    120.1104     22.2210
  1723.3000      7.8075      2.6041      0.0670      2.7843    124.7163     22.3339
  1723.4000      7.8075      2.6344      0.1220      0.9462    129.8051     22.5956
  1723.5000      7.8185      2.6359      0.0641      0.8541    131.2131     22.8791
  1723.6000      7.8185      2.6299      0.0884      1.2207    129.4131     23.3358
  1723.7000      7.8185      2.6287      0.1046      1.2930    125.9918     23.8285
  1723.8000      7.8161      2.6192      0.0959      1.8646    121.4692     24.1101
  1723.9000      7.8161      2.6006      0.0285      2.9926    118.5368     24.1249
  1724.0000      7.8183      2.5855      0.0539      3.9089    119.6648     23.9204
  1724.1000      7.8183      2.5827      0.0031      4.0782    122.3885     23.5475
  1724.2000      7.8183      2.5976      0.0540      3.1767    122.9464     22.9931
  1724.3000      7.8385      2.6211      0.0249      1.7522    123.1960     22.5033
  1724.4000      7.8385      2.6345      0.0550      0.9404    125.0446     22.3817
  1724.5000      7.8359      2.6296      0.0786      1.2368    127.1845     22.6066
  1724.6000      7.8359      2.6114      0.0705      2.3390    129.2448     23.1978
  1724.7000      7.8359      2.5924      0.0460      3.4883    131.4099     24.2162
  1724.8000      7.8263      2.5856      0.0755      3.9050    134.0494     25.2161
  1724.9000      7.8263      2.5874      0.1062      3.7916    138.5308     25.7064
  1725.0000      7.8291      2.5871      0.0789      3.8148    142.7429     26.0284
  1725.1000      7.8291      2.5845      0.0685      3.9715    141.8803     26.7530
  1725.2000      7.8291      2.5859      0.0510      3.8864    138.2117     27.6380
  1725.3000      7.8473      2.5927      0.0584      3.4708    137.1864     28.0390
  1725.4000      7.8473      2.6000      0.0619      3.0276    139.9420     27.8687
  1725.5000      7.8758      2.6035      0.0452      2.8207    146.3349     27.5581
  1725.6000      7.8758      2.5979      0.1201      3.1591    151.7443     27.5394
  1725.7000      7.8758      2.5856      0.0190      3.9010    148.7486     27.7562
  1725.8000      7.8837      2.5834      0.0548      4.0349    142.4587     27.9618
  1725.9000      7.8837      2.5919      0.0631      3.5200    144.3325     28.2046
