~Version Information
VERS.                      2.0: CWLS Log ASCII Standard - VERSION 2.0
WRAP.                       NO: One line per depth step
~Well Information Block
STRT.FT               410.0000: 
STOP.FT              1253.0000: 
STEP.FT                 0.1000: 
NULL.                -999.2500: 
COMP.          Petrogulf Corporation: COMPANY
WELL.           Parsons 15-23R: WELL
FLD.           Purgatorie River: FIELD
LOC.           2244' FSL & 1932' FWL: LOCATION
PROV.                 Colorado: PROVINCE
CNTY.               Las Animas: COUNTRY
SRVC.                Patterson: SERVICE COMPANY
DATE.          Mon Sep 12 10:28:25 2005: LOG DATE
UWI.                          : UNIQUE WELL ID
~Curve Information Block
DEPT.FT            0 000 00 00: Depth
DCAL.in                       : CDL Caliper
RHOB.g/cc                     : CDL Bulk Density
RHOC.g/cc                     : CDL Density Correction
DPOR.pu                       : CDL Density Porosity
GR.GAPI                       : Gamma Ray
NPOR.pu                       : Neutron Porosity
~Parameter Information Block
~A  Depth       DCAL        RHOB        RHOC        DPOR         GR         NPOR    
# ...
   630.8000      7.8997      2.5692      0.1474      4.8963    170.5040     28.9899
   630.9000      7.8997      2.5990      0.1765      3.0930    169.2497     29.4450
   631.0000      7.9043      2.6056      0.1415      2.6937    169.0151     29.6711
   631.1000      7.9043      2.5965      0.1404      3.2408    169.5322     29.4589
   631.2000      7.9043      2.5836      0.1180      4.0254    169.0423     28.9559
   631.3000      7.9163      2.5670      0.0904      5.0273    171.2247     28.6156
   631.4000      7.9163      2.5499      0.0093      6.0641    178.4637     28.3574
   631.5000      7.9183      2.5403      0.0420      6.6464    184.9559     27.7043
   631.6000      7.9183      2.5354      0.0391      6.9467    186.0406     27.0253
   631.7000      7.9183      2.5285      0.0664      7.3611    181.2704     27.0121
   631.8000      7.9404      2.5203      0.0517      7.8579    173.0044     27.5400
   631.9000      7.9404      2.5110      0.0617      8.4264    166.4548     27.9632
   632.0000      7.9683      2.5020      0.0737      8.9692    163.5026     27.8797
   632.1000      7.9683      2.5041      0.0427      8.8432    160.8690     27.3695
   632.2000      7.9683      2.5164      0.0809      8.0988    157.7722     26.9473
   632.3000      7.9527      2.5204      0.0882      7.8529    155.9758     27.0036
   632.4000      7.9527      2.5137      0.0450      8.2623    155.1134     27.2005
   632.5000      7.9432      2.5119      0.0841      8.3708    155.4643     27.1026
   632.6000      7.9432      2.5234      0.0785      7.6732    155.7660     26.9736
   632.7000      7.9432      2.5490      0.0588      6.1206    153.4442     27.0964
   632.8000      7.9383      2.5817      0.0898      4.1389    151.3749     27.0825
   632.9000      7.9383      2.6133      0.0545      2.2237    151.6440     26.7196
   633.0000      7.9456      2.6455      0.1168      0.2722    150.1149     26.5806
   633.1000      7.9456      2.6746      0.1245     -1.4882    145.5357     26.8109
   633.2000      7.9456      2.6918      0.1403     -2.5351    141.1799     26.7301
   633.3000      7.9416      2.6907      0.1440     -2.4687    139.3747     26.3127
   633.4000      7.9416      2.6711      0.1207     -1.2814    140.5741     26.2201
   633.5000      7.9188      2.6558      0.0479     -0.3520    146.1201     26.6634
   633.6000      7.9188      2.6684      0.0677     -1.1142    155.7782     27.3690
   633.7000      7.9188      2.7053      0.0938     -3.3537    162.5215     27.8258
   633.8000      7.9097      2.7543      0.0942     -6.3223    159.2053     27.5935
   633.9000      7.9097      2.7969      0.1963     -8.9050    148.4893     27.0076
   634.0000      7.8505      2.8076      0.2046     -9.5527    140.4441     26.7065
   634.1000      7.8505      2.7812      0.1745     -7.9517    141.3394     26.8611
   634.2000      7.8505      2.7413      0.0656     -5.5318    146.3913     27.3508
   634.3000      7.8471      2.7034      0.0944     -3.2391    147.2541     27.8106
   634.4000      7.8471      2.6605     -0.0496     -0.6334    144.2648     27.8902
   634.5000      7.8604      2.6182     -0.1122      1.9300    143.0512     27.7360
   634.6000      7.8604      2.5890     -0.1121      3.6991    146.2532     27.6478
   634.7000      7.8604      2.5736     -0.1056      4.6331    151.0516     27.6277
   634.8000      7.9281      2.5710     -0.0526      4.7867    152.3886     27.5148
   634.9000      7.9281      2.5795     -0.0285      4.2709    150.5462     27.3344
   635.0000      7.9666      2.5937      0.0426      3.4124    149.3996     27.1916
   635.1000      7.9666      2.6025      0.0635      2.8759    151.2127     27.1873
   635.2000      7.9666      2.5963      0.0666      3.2517    155.5509     27.2939
   635.3000      7.9717      2.5821      0.0187      4.1181    159.4410     27.2994
   635.4000      7.9717      2.5752      0.0542      4.5350    161.2241     27.1331
   635.5000      7.9768      2.5766      0.0511      4.4489    162.8331     26.9829
   635.6000      7.9768      2.5779      0.0839      4.3689    165.4726     27.0427
   635.7000      7.9768      2.5770      0.0626      4.4231    167.1566     27.2213
   635.8000      7.9602      2.5783      0.0324      4.3428    166.5319     27.3480
   635.9000      7.9602      2.5845      0.0818      3.9727    165.9296     27.3948
   636.0000      7.9312      2.5967      0.0502      3.2319    165.6017     27.5123
   636.1000      7.9312      2.6188      0.1080      1.8883    163.3899     27.6661
   636.2000      7.9312      2.6479      0.1305      0.1295    160.6153     27.5820
   636.3000      7.8518      2.6752      0.0951     -1.5280    158.8248     27.2169
   636.4000      7.8518      2.6920      0.1069     -2.5474    157.0302     26.9055
   636.5000      7.8905      2.6998      0.0618     -3.0175    156.5554     26.8744
   636.6000      7.8905      2.7146      0.0687     -3.9165    159.5500     26.9455
   636.7000      7.8905      2.7354      0.1546     -5.1787    164.3429     26.8368
   636.8000      7.9076      2.7404      0.0898     -5.4760    167.4069     26.4704
   636.9000      7.9076      2.7249      0.0159     -4.5384    168.2027     26.1023
   637.0000      7.8610      2.7001      0.0256     -3.0386    167.7992     26.1071
   637.1000      7.8610      2.6693      0.0204     -1.1687    167.3911     26.5729
   637.2000      7.8610      2.6289      0.0431      1.2812    168.0509     27.1661
   637.3000      7.9264      2.5863      0.0796      3.8617    169.6651     27.7120
   637.4000      7.9264      2.5610      0.1288      5.3941    171.2236     28.2763
   637.5000      7.9447      2.5543      0.1548      5.7977    170.4292     28.6295
   637.6000      7.9447      2.5489      0.1864      6.1298    166.0871     28.5947
   637.7000      7.9447      2.5409      0.1260      6.6131    161.3651     28.3776
   637.8000      7.9562      2.5349      0.1556      6.9733    161.7456     28.1883
   637.9000      7.9562      2.5282      0.1016      7.3828    167.4156     28.0932
   638.0000      7.9677      2.5206      0.1218      7.8442    172.1020     28.1067
   638.1000      7.9677      2.5080      0.1360      8.6091    171.6747     28.3428
   638.2000      7.9677      2.4846      0.1430     10.0249    169.2168     28.7179
   638.3000      7.9751      2.4616      0.0866     11.4154    169.0227     28.8454
   638.4000      7.9751      2.4561      0.0840     11.7537    169.0079     28.7273
   638.5000      7.9770      2.4645      0.1058     11.2402    167.0513     28.7002
   638.6000      7.9770      2.4658      0.1080     11.1648    167.0780     28.8329
   638.7000      7.9770      2.4521      0.0879     11.9919    169.8613     28.9623
   638.8000      7.9852      2.4440      0.0126     12.4857    170.1319     29.0475
   638.9000      7.9852      2.4573      0.1065     11.6768    164.8888     29.0039
   639.0000      7.9930      2.4815      0.1127     10.2147    157.8040     28.6489
   639.1000      7.9930      2.4987      0.1362      9.1720    155.4592     28.2554
   639.2000      7.9930      2.5025      0.0757      8.9379    159.2505     28.2141
   639.3000      7.9907      2.5019      0.0933      8.9732    163.4894     28.4655
   639.4000      7.9907      2.5011      0.1074      9.0266    163.5862     28.6548
   639.5000      7.9884      2.4940      0.0979      9.4529    160.0417     28.6408
   639.6000      7.9884      2.4823      0.0636     10.1617    154.9960     28.6241
   639.7000      7.9884      2.4711      0.0539     10.8423    151.9588     28.7069
   639.8000      7.9816      2.4578      0.0627     11.6456    154.1042     28.6446
   639.9000      7.9816      2.4500     -0.0042     12.1214    159.6380     28.1678
   640.0000      7.9763      2.4632      0.0407     11.3237    163.5286     27.4996
   640.1000      7.9763      2.4964      0.0572      9.3099    163.3322     27.2254
   640.2000      7.9763      2.5419      0.0930      6.5539    159.8159     27.5371
   640.3000      7.9631      2.5871      0.1148      3.8107    153.8685     27.8534
