~Version Information
VERS.                      2.0: CWLS Log ASCII Standard - VERSION 2.0
WRAP.                       NO: One line per depth step
~Well Information Block
STRT.FT                -6.0000: 
STOP.FT              1295.2500: 
STEP.FT                 0.2500: 
NULL.                -999.2500: 
COMP.          Pioneer Natural Resources: COMPANY
WELL.            Erin 21-15 Tr: WELL
FLD.           Purgatoire River: FIELD
LOC.           1217' FNL & 2284' FWL--: LOCATION
CNTY.               Las Animas: COUNTY
SRVC.                         : SERVICE COMPANY
DATE.          Fri Mar 10 09:14:17 2006: LOG DATE
UWI.           05 071 08712 00: UNIQUE WELL ID
STAT.                       CO: STATE
~Curve Information Block
DEPT.FT            0 000 00 00: Depth
GR.GAPI                       : Gamma Ray
CCL.                          : Casing Collar Locator
TT3.usec                      : CBL 3' Travel Time
AMP3.mV                       : CBL 3' Amplitude
~Parameter Information Block
~A  Depth        GR         CCL         TT3         AMP3    
# ...
   831.5000    140.1994      0.0000    735.2431     11.4728
   831.7500    141.0926      0.0000    724.9918     10.5739
   832.0000    140.4280      0.0000    717.6693      9.7649
   832.2500    138.9055      0.0000    717.6910      9.1523
   832.5000    136.7013      0.0000    725.2151      8.6788
   832.7500    133.7278      0.0000    734.0667      8.2083
   833.0000    129.8782      0.0000    737.1633      7.6907
   833.2500    125.0061      0.0000    733.3934      7.1865
   833.5000    119.3577      0.0000    727.9392      6.7633
   833.7500    114.0345      0.0000    726.9454      6.4386
   834.0000    110.3520     -2.0000    732.6976      6.2107
   834.2500    108.6321      0.0000    743.2444      6.1006
   834.5000    107.9979      0.0000    755.6836      6.1492
   834.7500    107.4093      0.0000    768.1586      6.3645
   835.0000    106.7038      0.0000    778.0513      6.6654
   835.2500    106.5828      0.0000    781.2126      6.9065
   835.5000    107.6693      0.0000    775.8428      6.9932
   835.7500    109.7896      0.0000    765.7842      6.9545
   836.0000    112.1961      0.0000    757.7538      6.8849
   836.2500    114.1199      0.0000    755.8147      6.8463
   836.5000    115.0487      0.0000    759.2232      6.8438
   836.7500    114.9929      0.0000    764.5278      6.8602
   837.0000    114.7490      0.0000    768.5156      6.8840
   837.2500    115.3947      0.0000    769.5600      6.9133
   837.5000    117.1016      0.0000    767.5399      6.9481
   837.7500    118.6208      0.0000    763.4470      6.9848
   838.0000    118.3399      0.0000    758.7238      7.0146
   838.2500    115.9803      0.0000    754.0327      7.0315
   838.5000    112.9736      0.0000    748.6475      7.0391
   838.7500    110.9736      0.0000    741.9254      7.0506
   839.0000    110.3042      0.0000    735.2217      7.0769
   839.2500    109.9930      0.0000    731.1268      7.1159
   839.5000    108.8374      0.0000    730.8317      7.1515
   839.7500    106.3243      0.0000    733.5482      7.1626
   840.0000    103.0194      0.0000    738.3469      7.1336
   840.2500    100.3009      0.0000    744.8085      7.0613
   840.5000     99.4745      0.0000    751.5366      6.9579
   840.7500    100.9153      0.0000    755.4974      6.8464
   841.0000    103.8356      0.0000    753.6179      6.7495
   841.2500    106.7550      0.0000    744.8839      6.6773
   841.5000    108.5722      0.0000    731.1408      6.6244
   841.7500    109.4438      0.0000    716.2147      6.5777
   842.0000    110.2263      0.0000    703.8815      6.5266
   842.2500    110.9943      0.0000    696.0442      6.4658
   842.5000    110.7807      0.0000    692.3894      6.3937
   842.7500    108.9848      0.0000    691.3959      6.3110
   843.0000    106.4475      0.0000    691.5153      6.2220
   843.2500    104.6930      0.0000    691.7584      6.1354
   843.5000    104.2605      0.0000    691.7241      6.0605
   843.7500    104.0532      0.0000    691.3988      6.0054
   844.0000    102.3397      0.0000    690.9524      5.9742
   844.2500     98.3611      0.0000    690.6072      5.9652
   844.5000     93.0869      0.0000    690.5535      5.9694
   844.7500     88.4414      0.0000    690.8635      5.9747
   845.0000     85.5995      0.0000    691.4678      5.9755
   845.2500     84.0053      0.0000    692.2798      5.9746
   845.5000     82.1209      0.0000    693.3993      5.9776
   845.7500     78.9306      0.0000    695.0974      5.9870
   846.0000     74.6211      0.0000    697.4492      6.0033
   846.2500     70.3255      0.0000    700.1550      6.0272
   846.5000     67.5125      0.0000    703.3239      6.0594
   846.7500     67.0898      0.0000    708.8926      6.1005
   847.0000     68.5320      0.0000    720.5167      6.1523
   847.2500     70.0602      0.0000    740.4229      6.2179
   847.5000     70.1300      0.0000    765.6797      6.2992
   847.7500     68.7111      0.0000    788.8248      6.3939
   848.0000     66.9242      0.0000    803.5947      6.4969
   848.2500     65.6706      0.0000    809.9291      6.6063
   848.5000     64.9425      0.0000    813.0480      6.7249
   848.7500     64.2329      0.0000    818.4622      6.8579
   849.0000     63.0948      0.0000    828.1179      7.0115
   849.2500     61.2924      0.0000    839.9667      7.1918
   849.5000     58.9026      0.0000    849.9981      7.3974
   849.7500     56.5320      0.0000    854.5789      7.6122
   850.0000     55.2003      0.0000    851.7109      7.8122
   850.2500     55.7184      0.0000    841.8751      7.9867
   850.5000     58.1830      0.0000    829.1089      8.1509
   850.7500     62.1169      0.0000    820.2352      8.3294
   851.0000     66.9612      0.0000    820.3734      8.5256
   851.2500     72.3675      0.0000    828.4456      8.7117
   851.5000     78.1900      0.0000    838.2169      8.8560
   851.7500     84.3006      0.0000    843.5778      8.9557
   852.0000     90.2589      0.0000    841.6174      9.0346
   852.2500     95.0805      0.0000    831.6962      9.1098
   852.5000     97.6662      0.0000    814.6667      9.1680
   852.7500     97.8905      0.0000    794.0661      9.1729
   853.0000     97.1686      0.0000    775.8303      9.0949
   853.2500     97.5510      0.0000    764.5781      8.9368
   853.5000    100.1156      0.0000    760.0244      8.7346
   853.7500    104.3279      0.0000    757.4769      8.5340
   854.0000    108.7461      0.0000    751.7966      8.3596
   854.2500    111.9541      0.0000    741.3023      8.2052
   854.5000    113.0703      0.0000    728.9128      8.0486
   854.7500    112.2643      0.0000    720.0174      7.8766
   855.0000    111.0615      0.0000    718.5896      7.6959
   855.2500    111.5283      0.0000    724.5327      7.5257
   855.5000    114.7059      0.0000    734.5140      7.3833
   855.7500    119.9668      0.0000    745.4918      7.2749
   856.0000    125.8955      0.0000    757.0130      7.1959
   856.2500    131.3507      0.0000    769.4883      7.1367
   856.5000    135.4975      0.0000    781.0753      7.0875
   856.7500    137.4944      0.0000    787.9500      7.0440
   857.0000    136.8454      0.0000    787.9178      7.0115
   857.2500    133.9418      0.0000    782.7203      7.0054
   857.5000    129.9513      0.0000    776.5206      7.0454
   857.7500    126.3811      0.0000    772.7494      7.1499
   858.0000    124.6934      0.0000    772.3217      7.3293
   858.2500    125.7077      0.0000    774.0156      7.5798
   858.5000    128.9761      0.0000    776.1165      7.8841
   858.7500    132.9926      0.0000    777.8918      8.2164
   859.0000    136.1567      0.0000    779.9435      8.5449
   859.2500    137.5670      0.0000    783.4016      8.8354
   859.5000    137.2001      0.0000    788.4232      9.0584
   859.7500    135.6493      0.0000    793.1049      9.1994
   860.0000    133.5854      0.0000    794.2170      9.2588
   860.2500    131.3431      0.0000    789.6725      9.2438
   860.5000    129.1629      0.0000    780.2985      9.1641
   860.7500    127.6323      0.0000    769.2217      9.0325
   861.0000    127.3011      0.0000    760.0428      8.8624
   861.2500    127.7151      0.0000    755.3576      8.6627
   861.5000    127.3665      0.0000    755.7950      8.4401
   861.7500    125.0705      0.0000    759.7512      8.2071
   862.0000    121.2620      0.0000    764.3666      7.9854
   862.2500    117.7300      0.0000    767.1328      7.7913
   862.5000    116.1757      0.0000    766.9302      7.6225
   862.7500    117.0715      0.0000    764.3640      7.4595
   863.0000    119.5871      0.0000    761.7946      7.2815
   863.2500    122.4527      0.0000    762.3806      7.0815
   863.5000    124.9341      0.0000    767.7176      6.8718
   863.7500    126.9547      0.0000    775.9496      6.6801
   864.0000    128.5454      0.0000    782.6522      6.5366
   864.2500    129.6336      0.0000    783.7853      6.4567
   864.5000    130.2293      0.0000    777.8757      6.4364
   864.7500    130.2412      0.0000    766.1821      6.4627
