~Version Information
VERS.                      2.0: CWLS Log ASCII Standard - VERSION 2.0
WRAP.                       NO: One line per depth step
~Well Information Block
STRT.FT               845.0000: 
STOP.FT              2102.0000: 
STEP.FT                 0.1000: 
NULL.                -999.2500: 
COMP.          Petrogulf Corporation: COMPANY
WELL.               YWAM 7-32R: WELL
FLD.           Purgatorie River: FIELD
LOC.           2355' FNL & 2376' FEL: LOCATION
PROV.                 Colorado: PROVINCE
CNTY.               Las Animas: COUNTRY
SRVC.                Patterson: SERVICE COMPANY
DATE.          Fri Sep 30 11:07:31 2005: LOG DATE
UWI.                          : UNIQUE WELL ID
~Curve Information Block
DEPT.FT            0 000 00 00: Depth
DCAL.in                       : CDL Caliper
RHOB.g/cc                     : CDL Bulk Density
RHOC.g/cc                     : CDL Density Correction
DPOR.pu                       : CDL Density Porosity
GR.GAPI                       : Gamma Ray
NPOR.pu                       : Neutron Porosity
~Parameter Information Block
~A  Depth       DCAL        RHOB        RHOC        DPOR         GR         NPOR    
# ...
  2083.4000      7.8224      2.5096      0.0635      8.5095     77.5943   -999.2500
  2083.5000      7.8221      2.5233      0.0336      7.6772     67.2730   -999.2500
  2083.6000      7.8221      2.5327      0.0379      7.1066     58.3426   -999.2500
  2083.7000      7.8221      2.5405      0.0115      6.6377     55.0821   -999.2500
  2083.8000      7.8235      2.5473      0.0555      6.2268     55.3368   -999.2500
  2083.9000      7.8235      2.5529      0.0311      5.8849     53.6714   -999.2500
  2084.0000      7.7980      2.5569      0.0534      5.6420     49.7434   -999.2500
  2084.1000      7.7980      2.5517      0.0889      5.9583     46.9331   -999.2500
  2084.2000      7.7980      2.5371      0.0416      6.8401     47.1376   -999.2500
  2084.3000      7.7840      2.5263      0.0920      7.4982     47.9458   -999.2500
  2084.4000      7.7840      2.5212      0.0434      7.8066     45.8132   -999.2500
  2084.5000      7.7599      2.5147      0.0527      8.1990     42.4430   -999.2500
  2084.6000      7.7599      2.5072      0.0063      8.6551     41.1834   -999.2500
  2084.7000      7.7599      2.5062      0.0303      8.7157     41.6314   -999.2500
  2084.8000      7.7402      2.5179     -0.0183      8.0032     42.8989   -999.2500
  2084.9000      7.7402      2.5421      0.0234      6.5406     44.5333   -999.2500
  2085.0000      7.7875      2.5629      0.0615      5.2783     44.2658   -999.2500
  2085.1000      7.7875      2.5634      0.0304      5.2473     40.9241   -999.2500
  2085.2000      7.7875      2.5493     -0.0052      6.1022     37.5932   -999.2500
  2085.3000      7.7932      2.5382     -0.0147      6.7730     36.8777   -999.2500
  2085.4000      7.7932      2.5408     -0.0161      6.6175     37.9186   -999.2500
  2085.5000      7.7694      2.5571     -0.0137      5.6292     39.3745   -999.2500
  2085.6000      7.7694      2.5814      0.0033      4.1562     40.5786   -999.2500
  2085.7000      7.7694      2.6034      0.0354      2.8273     41.8218   -999.2500
  2085.8000      7.7919      2.6079      0.0477      2.5525     43.3837   -999.2500
  2085.9000      7.7919      2.5930      0.0043      3.4573     43.6374   -999.2500
  2086.0000      7.7977      2.5736      0.0018      4.6305     42.1435   -999.2500
  2086.1000      7.7977      2.5636     -0.0268      5.2372     41.6748   -999.2500
  2086.2000      7.7977      2.5688     -0.0425      4.9214     43.4322   -999.2500
  2086.3000      7.8210      2.5842      0.0329      3.9887     44.0434   -999.2500
  2086.4000      7.8210      2.5954      0.0151      3.3069     40.8075   -999.2500
  2086.5000      7.8035      2.5946      0.0334      3.3570     35.9163   -999.2500
  2086.6000      7.8035      2.5877     -0.0018      3.7774     32.0702   -999.2500
  2086.7000      7.8035      2.5877     -0.0084      3.7758     30.2649   -999.2500
  2086.8000      7.8089      2.5959      0.0358      3.2764     30.9703   -999.2500
  2086.9000      7.8089      2.5985      0.0535      3.1208     33.3338   -999.2500
  2087.0000      7.7950      2.5921      0.0413      3.5116     35.2678   -999.2500
  2087.1000      7.7950      2.5856      0.0416      3.9045     35.1555   -999.2500
  2087.2000      7.7950      2.5800      0.0727      4.2431     34.1848   -999.2500
  2087.3000      7.7886      2.5748      0.0327      4.5552     34.1671   -999.2500
  2087.4000      7.7886      2.5757      0.0231      4.5017     35.1987   -999.2500
  2087.5000      7.7315      2.5760      0.0756      4.4845     37.6856   -999.2500
  2087.6000      7.7315      2.5615      0.0576      5.3613     41.9745   -999.2500
  2087.7000      7.7315      2.5427      0.0261      6.5030     46.6375   -999.2500
  2087.8000      7.7418      2.5441      0.0237      6.4175     49.1187   -999.2500
  2087.9000      7.7418      2.5637      0.0706      5.2281     49.9575   -999.2500
  2088.0000      7.6845      2.5762      0.0790      4.4742     51.8825   -999.2500
  2088.1000      7.6845      2.5743      0.0647      4.5864     51.0740   -999.2500
  2088.2000      7.6845      2.5774      0.0861      4.3979     40.1261   -999.2500
  2088.3000      7.5108      2.5962      0.1425      3.2632     21.4825   -999.2500
  2088.4000      7.5108      2.6160      0.1738      2.0606      7.0063   -999.2500
  2088.5000      7.4453      2.6224      0.1432      1.6704      1.3009   -999.2500
  2088.6000      7.4453      2.6166      0.1353      2.0269      0.1324   -999.2500
  2088.7000      7.4453      2.6019      0.1128      2.9157      0.0071   -999.2500
  2088.8000      7.3986      2.5866      0.0783      3.8424      0.0000   -999.2500
  2088.9000      7.3986      2.5844      0.0382      3.9779   -999.2500   -999.2500
  2089.0000      7.6461      2.5872      0.1130      3.8055   -999.2500   -999.2500
  2089.1000      7.6461      2.5712      0.0610      4.7732   -999.2500   -999.2500
  2089.2000      7.6461      2.5356      0.0530      6.9308   -999.2500   -999.2500
  2089.3000      7.7019      2.4966      0.0177      9.2986   -999.2500   -999.2500
  2089.4000      7.7019      2.4678     -0.0095     11.0446   -999.2500   -999.2500
  2089.5000      7.7249      2.4514      0.0180     12.0358   -999.2500   -999.2500
  2089.6000      7.7249      2.4424     -0.0118     12.5843   -999.2500   -999.2500
  2089.7000      7.7249      2.4419      0.0104     12.6133   -999.2500   -999.2500
  2089.8000      7.7960      2.4459      0.0316     12.3700   -999.2500   -999.2500
  2089.9000      7.7960      2.4464      0.0210     12.3374   -999.2500   -999.2500
  2090.0000      7.7924      2.4463      0.0038     12.3441   -999.2500   -999.2500
  2090.1000      7.7924      2.4543      0.0135     11.8594   -999.2500   -999.2500
  2090.2000      7.7924      2.4733      0.0246     10.7063   -999.2500   -999.2500
  2090.3000      7.7932      2.4945      0.0593      9.4233   -999.2500   -999.2500
  2090.4000      7.7932      2.5044      0.0493      8.8265   -999.2500   -999.2500
  2090.5000      7.8127      2.5038      0.0173      8.8633   -999.2500   -999.2500
  2090.6000      7.8127      2.5019      0.0556      8.9755   -999.2500   -999.2500
  2090.7000      7.8127      2.4931      0.0659      9.5087   -999.2500   -999.2500
  2090.8000      7.8221      2.4726      0.0043     10.7532   -999.2500   -999.2500
  2090.9000      7.8221      2.4547      0.0114     11.8372   -999.2500   -999.2500
  2091.0000      7.8195      2.4528      0.0215     11.9522   -999.2500   -999.2500
  2091.1000      7.8195      2.4658      0.0099     11.1624   -999.2500   -999.2500
  2091.2000      7.8195      2.4811      0.0195     10.2390   -999.2500   -999.2500
  2091.3000      7.8472      2.4836      0.0380     10.0829   -999.2500   -999.2500
  2091.4000      7.8472      2.4739      0.0337     10.6753   -999.2500   -999.2500
  2091.5000      7.8232      2.4653      0.0116     11.1932   -999.2500   -999.2500
  2091.6000      7.8232      2.4687      0.0296     10.9865   -999.2500   -999.2500
  2091.7000      7.8232      2.4860      0.0095      9.9364   -999.2500   -999.2500
  2091.8000      7.7824      2.5118      0.0368      8.3772   -999.2500   -999.2500
  2091.9000      7.7824      2.5339      0.0432      7.0373   -999.2500   -999.2500
  2092.0000      7.8068      2.5453      0.0653      6.3469   -999.2500   -999.2500
  2092.1000      7.8068      2.5486      0.0646      6.1470   -999.2500   -999.2500
  2092.2000      7.8068      2.5486      0.0544      6.1475   -999.2500   -999.2500
  2092.3000      7.7932      2.5479      0.0370      6.1863   -999.2500   -999.2500
  2092.4000      7.7932      2.5464      0.0516      6.2804   -999.2500   -999.2500
  2092.5000      7.8121      2.5456     -0.0065      6.3262   -999.2500   -999.2500
  2092.6000      7.8121      2.5539      0.0396      5.8244   -999.2500   -999.2500
  2092.7000      7.8121      2.5708      0.0138      4.8016   -999.2500   -999.2500
  2092.8000      7.8116      2.5881      0.0368      3.7539   -999.2500   -999.2500
  2092.9000      7.8116      2.6019      0.0520      2.9136   -999.2500   -999.2500
