~Version Information
VERS.                      2.0: CWLS Log ASCII Standard - VERSION 2.0
WRAP.                       NO: One line per depth step
~Well Information Block
STRT.FT               260.0000: 
STOP.FT               713.2000: 
STEP.FT                 0.1000: 
NULL.                -999.2500: 
COMP.          Pioneer Natural Resources: COMPANY
WELL.           Quintessa 23-7: WELL
FLD.           Purgatoire River: FIELD
LOC.           1964' FSL & 2589' FWL--: LOCATION
PROV.                 Colorado: PROVINCE
CNTY.               Las Animas: COUNTRY
SRVC.                Patterson: SERVICE COMPANY
DATE.          Sat Nov 19 09:15:07 2005: LOG DATE
UWI.           05 071 08558 00: UNIQUE WELL ID
~Curve Information Block
DEPT.FT            0 000 00 00: Depth
DCAL.in                       : CDL Caliper
RHOB.g/cc                     : CDL Bulk Density
RHOC.g/cc                     : CDL Density Correction
DPOR.pu                       : CDL Density Porosity
NPOR.pu                       : Neutron Porosity
GR.GAPI                       : Gamma Ray
~Parameter Information Block
~A  Depth       DCAL        RHOB        RHOC        DPOR        NPOR         GR     
# ...
   288.8000      7.9844      2.5019      0.0697      8.9786     24.9491    130.6849
   288.9000      7.9844      2.4816      0.0430     10.2041     23.7310    128.8422
   289.0000      8.0240      2.4817      0.0381     10.2001     22.6528    130.3931
   289.1000      8.0240      2.4838     -0.0030     10.0723     21.9549    134.5520
   289.2000      8.0240      2.4817      0.0123     10.2007     21.9695    138.3018
   289.3000      8.1007      2.4819      0.0091     10.1851     22.4948    142.8151
   289.4000      8.1007      2.4856      0.0973      9.9610     22.9400    147.9828
   289.5000      8.1325      2.4927      0.0711      9.5320     23.2765    148.0443
   289.6000      8.1325      2.5236      0.0363      7.6609     24.1222    141.3951
   289.7000      8.1325      2.5977      0.1007      3.1674     25.7047    132.4516
   289.8000      8.0958      2.6959      0.2062     -2.7808     27.7095    125.2953
   289.9000      8.0958      2.7630      0.2992     -6.8458     29.8520    120.7485
   290.0000      8.0566      2.7576      0.1944     -6.5215     31.8375    115.5361
   290.1000      8.0566      2.6977      0.1184     -2.8905     33.7215    108.8623
   290.2000      8.0566      2.6327      0.0167      1.0467     35.6632    104.5444
   290.3000      8.0274      2.5923     -0.0028      3.4996     37.3211    104.6667
   290.4000      8.0274      2.5750     -0.0799      4.5468     38.5317    106.0740
   290.5000      8.0003      2.5662     -0.0905      5.0793     39.2338    105.9945
   290.6000      8.0003      2.5387     -0.0586      6.7435     39.3413    106.0862
   290.7000      8.0003      2.4725     -0.1646     10.7584     38.7464    107.5681
   290.8000      7.9974      2.3929     -0.2147     15.5840     37.0792    110.8870
   290.9000      7.9974      2.3480     -0.2049     18.3034     34.3608    116.8436
   291.0000      8.0085      2.3611     -0.1331     17.5105     31.3798    125.6328
   291.1000      8.0085      2.4150     -0.0054     14.2452     28.8077    133.9552
   291.2000      8.0085      2.4736      0.0587     10.6936     26.7014    137.6157
   291.3000      8.0224      2.5114      0.1055      8.3982     25.3099    138.5652
   291.4000      8.0224      2.5271      0.0847      7.4467     24.7256    140.7083
   291.5000      8.0332      2.5314      0.0971      7.1850     24.4408    143.3756
   291.6000      8.0332      2.5265      0.1365      7.4875     24.0488    144.1056
   291.7000      8.0332      2.5141      0.0975      8.2363     23.6264    144.8267
   291.8000      8.0310      2.5039      0.0766      8.8548     23.4327    148.2028
   291.9000      8.0310      2.4969      0.0887      9.2762     23.4731    150.5771
   292.0000      8.0235      2.4894      0.0761      9.7313     23.5343    147.4243
   292.1000      8.0235      2.4840      0.0848     10.0625     23.7034    141.0583
   292.2000      8.0235      2.4803      0.0843     10.2869     24.1541    138.7009
   292.3000      8.0194      2.4686      0.0893     10.9920     24.5493    142.6002
   292.4000      8.0194      2.4416      0.0552     12.6274     24.7330    146.3114
   292.5000      8.0157      2.4091      0.0133     14.5992     24.6981    143.5483
   292.6000      8.0157      2.3858      0.0165     16.0112     24.1021    137.6446
   292.7000      8.0157      2.3757      0.0412     16.6254     23.2258    135.6027
   292.8000      8.0068      2.3813      0.0057     16.2829     22.8797    138.2334
   292.9000      8.0068      2.4074      0.0092     14.7020     23.0631    140.1150
   293.0000      7.9931      2.4508      0.0173     12.0725     22.9217    135.6001
   293.1000      7.9931      2.4989      0.0991      9.1590     22.0109    128.3914
   293.2000      7.9931      2.5304      0.1661      7.2501     20.9037    126.3189
   293.3000      7.9774      2.5342      0.1591      7.0201     20.3162    131.6312
   293.4000      7.9774      2.5319      0.0883      7.1556     20.4642    139.4556
   293.5000      7.9696      2.5470      0.1246      6.2411     21.3005    144.5909
   293.6000      7.9696      2.5677      0.1384      4.9901     22.5801    147.8059
   293.7000      7.9696      2.5772      0.0989      4.4149     23.7982    149.7148
   293.8000      7.9835      2.5801      0.0701      4.2371     24.7307    146.5206
   293.9000      7.9835      2.5828      0.0678      4.0736     25.3284    137.2595
   294.0000      7.9949      2.5836      0.0054      4.0254     25.6674    127.7486
   294.1000      7.9949      2.5829      0.0496      4.0658     26.2093    122.4107
   294.2000      7.9949      2.5827      0.0127      4.0793     27.0666    120.0155
   294.3000      7.9814      2.5841      0.0051      3.9910     27.6781    118.7742
   294.4000      7.9814      2.5817      0.0523      4.1367     27.7554    118.6948
   294.5000      7.9636      2.5685      0.0325      4.9406     27.5708    119.5898
   294.6000      7.9636      2.5507      0.0031      6.0204     27.1700    120.5940
   294.7000      7.9636      2.5339      0.0194      7.0338     26.5286    121.0654
   294.8000      7.9652      2.5138     -0.0186      8.2535     26.0455    121.0807
   294.9000      7.9652      2.4944      0.0029      9.4304     25.9226    122.8115
   295.0000      7.9841      2.4816     -0.0084     10.2071     25.8756    126.8868
   295.1000      7.9841      2.4611      0.0216     11.4456     25.4447    131.4511
   295.2000      7.9841      2.4195     -0.0162     13.9669     24.7246    134.1680
   295.3000      8.0103      2.3709     -0.0477     16.9160     24.2751    135.4362
   295.4000      8.0103      2.3330     -0.0424     19.2111     24.1935    137.4421
   295.5000      8.0256      2.3065     -0.0566     20.8169     24.1488    140.0245
   295.6000      8.0256      2.2924     -0.0592     21.6756     23.8971    142.8640
   295.7000      8.0256      2.2919     -0.0060     21.7043     23.4864    146.1808
   295.8000      8.0281      2.2965     -0.0166     21.4269     23.0578    147.4475
   295.9000      8.0281      2.3033      0.0313     21.0103     22.6390    142.6064
   296.0000      8.0234      2.3254      0.0272     19.6740     22.3131    135.4050
   296.1000      8.0234      2.3723      0.0838     16.8282     21.9115    132.9748
   296.2000      8.0234      2.4301      0.1520     13.3244     21.3408    135.0747
   296.3000      8.0175      2.4792      0.1547     10.3498     20.8447    138.6350
   296.4000      8.0175      2.5121      0.1966      8.3605     20.5371    143.8424
   296.5000      8.0215      2.5245      0.1385      7.6089     20.4758    146.9009
   296.6000      8.0215      2.5256      0.1093      7.5412     20.8639    142.8930
   296.7000      8.0215      2.5390      0.0452      6.7289     21.6498    135.9874
   296.8000      8.0235      2.5756      0.0890      4.5077     22.3124    130.8641
   296.9000      8.0235      2.6283      0.0846      1.3135     22.7103    126.4928
   297.0000      8.0091      2.6852      0.1616     -2.1308     23.3975    118.9551
   297.1000      8.0091      2.7289      0.2075     -4.7807     24.6460    105.2559
   297.2000      8.0091      2.7462      0.1887     -5.8297     26.2193     90.5454
   297.3000      7.9809      2.7443      0.1203     -5.7143     27.6569     80.6504
   297.4000      7.9809      2.7475      0.0966     -5.9108     28.6776     74.9660
   297.5000      7.9510      2.7707      0.0878     -7.3127     29.5002     71.6197
   297.6000      7.9510      2.7970      0.1055     -8.9066     30.2599     69.6205
   297.7000      7.9510      2.7911      0.0925     -8.5492     30.6100     70.9598
   297.8000      7.9350      2.7481     -0.0282     -5.9435     30.3191     76.8893
   297.9000      7.9350      2.6983     -0.0099     -2.9247     29.5441     81.3636
   298.0000      7.9371      2.6594     -0.0056     -0.5679     28.1968     78.1329
   298.1000      7.9371      2.6347      0.0330      0.9279     26.2173     71.2853
   298.2000      7.9371      2.6240      0.0588      1.5771     24.4403     68.8523
   298.3000      7.9457      2.6160      0.0556      2.0634     23.4928     70.4094
