~Version Information
VERS.                      2.0: CWLS Log ASCII Standard - VERSION 2.0
WRAP.                       NO: One line per depth step
~Well Information Block
STRT.FT               875.0000: 
STOP.FT              2053.0000: 
STEP.FT                 0.1000: 
NULL.                -999.2500: 
COMP.          Pioneer Natural Resources: COMPANY
WELL.          Woodstock 43-19: WELL
FLD.           Purgatoire River: FIELD
LOC.           2195' FSL & 250' FEL: LOCATION
CNTY.               Las Animas: COUNTY
SRVC.                Patterson: SERVICE COMPANY
DATE.          Thu Feb 02 12:45:04 2006: LOG DATE
UWI.           05 071 08677 00: UNIQUE WELL ID
STAT.                 Colorado: STATE
~Curve Information Block
DEPT.FT            0 000 00 00: Depth
DCAL.in                       : CDL Caliper
RHOB.g/cc                     : CDL Bulk Density
RHOC.g/cc                     : CDL Density Correction
DPOR.pu                       : CDL Density Porosity
GR.GAPI                       : Gamma Ray
NPOR.pu                       : Neutron Porosity
~Parameter Information Block
~A  Depth       DCAL        RHOB        RHOC        DPOR         GR         NPOR    
# ...
  1028.6000      7.9585      2.6517      0.1060     -0.1046    112.7669     26.3054
  1028.7000      7.9585      2.6632      0.0928     -0.7977    110.1739     26.1403
  1028.8000      7.9272      2.6734      0.1034     -1.4161    114.2497     26.1792
  1028.9000      7.9272      2.6684      0.1148     -1.1160    121.6123     26.5670
  1029.0000      7.9270      2.6340      0.1135      0.9720    124.7996     26.6168
  1029.1000      7.9270      2.5770      0.0489      4.4231    122.2841     26.1931
  1029.2000      7.9270      2.5331     -0.0598      7.0841    116.9665     25.8388
  1029.3000      7.9307      2.5243     -0.0587      7.6164    112.4429     25.8114
  1029.4000      7.9307      2.5423     -0.0528      6.5271    113.0152     26.0822
  1029.5000      7.9787      2.5733     -0.0122      4.6457    120.0577     26.4522
  1029.6000      7.9787      2.6015      0.0204      2.9389    127.6421     26.4692
  1029.7000      7.9787      2.6177      0.0321      1.9555    128.2636     26.1356
  1029.8000      7.9825      2.6260      0.0012      1.4549    124.3085     26.0809
  1029.9000      7.9825      2.6201      0.0253      1.8101    125.3333     26.5262
  1030.0000      8.0034      2.5885      0.0417      3.7278    132.6891     26.8029
  1030.1000      8.0034      2.5489     -0.0398      6.1252    135.6687     26.6177
  1030.2000      8.0034      2.5296     -0.0318      7.2979    129.4848     26.4598
  1030.3000      8.0279      2.5296     -0.0406      7.2992    122.1618     26.3182
  1030.4000      8.0279      2.5355     -0.0018      6.9406    121.2109     25.9603
  1030.5000      8.0049      2.5427     -0.0588      6.5052    126.8130     25.5304
  1030.6000      8.0049      2.5519      0.0078      5.9433    135.8175     25.2687
  1030.7000      8.0049      2.5579      0.0376      5.5836    145.9989     25.1469
  1030.8000      8.0277      2.5464      0.0335      6.2783    153.4629     25.0116
  1030.9000      8.0277      2.5180     -0.0474      7.9976    153.6056     24.8110
  1031.0000      8.0401      2.5020     -0.0600      8.9712    148.6171     24.2031
  1031.1000      8.0401      2.5162     -0.0166      8.1067    142.4000     22.9565
  1031.2000      8.0401      2.5299      0.0655      7.2762    139.5742     21.5371
  1031.3000      8.0459      2.4941      0.0659      9.4459    144.9315     20.2868
  1031.4000      8.0459      2.4003     -0.0415     15.1341    153.7642     18.8865
  1031.5000      8.1024      2.2850     -0.1361     22.1242    154.6875     17.3634
  1031.6000      8.1024      2.1727     -0.1055     28.9285    147.0686     16.2725
  1031.7000      8.1024      2.0436     -0.0951     36.7508    140.3097     15.7179
  1031.8000      8.1159      1.8868     -0.1737     46.2573    139.5463     15.2476
  1031.9000      8.1159      1.7413     -0.2263     55.0750    143.3759     14.5660
  1032.0000      8.1576      1.6435     -0.2212     61.0011    146.8945     13.9539
  1032.1000      8.1576      1.5785     -0.0905     64.9422    145.7558     13.5641
  1032.2000      8.1576      1.5145     -0.0825     68.8200    139.8465     13.1515
  1032.3000      8.2268      1.4525     -0.0632     72.5767    132.3093     12.6540
  1032.4000      8.2268      1.4111      0.0907     75.0828    125.2239     12.1264
  1032.5000      8.2601      1.3976      0.1848     75.9041    116.7738     11.4316
  1032.6000      8.2601      1.4067      0.1964     75.3502    104.6926     10.7187
  1032.7000      8.2601      1.4232      0.2033     74.3498     91.9845     10.3166
  1032.8000      8.2785      1.4280      0.2337     74.0617     82.7251     10.1023
  1032.9000      8.2785      1.4193      0.1706     74.5899     75.3857      9.8823
  1033.0000      8.3449      1.4099      0.2260     75.1588     66.7104      9.5691
  1033.1000      8.3449      1.3968      0.2546     75.9518     55.1798      9.2479
  1033.2000      8.3449      1.3689      0.2043     77.6394     45.3794      9.1636
  1033.3000      8.4407      1.3243      0.1783     80.3459     45.0175      9.2552
  1033.4000      8.4407      1.2631      0.0999     84.0548     49.7054      9.4857
  1033.5000      8.6170      1.1955      0.0487     88.1516     50.3548     10.0913
  1033.6000      8.6170      1.1578      0.0345     90.4381     47.1493     10.8202
  1033.7000      8.6170      1.1940      0.0678     88.2410     44.4955     11.4031
  1033.8000      8.6708      1.3012      0.3097     81.7475     45.1040     12.3803
  1033.9000      8.6708      1.4303      0.3506     73.9209     47.9744     14.0522
  1034.0000      8.4097      1.5529      0.3697     66.4920     50.5322     16.1045
  1034.1000      8.4097      1.6809      0.4049     58.7339     54.0727     18.3815
  1034.2000      8.4097      1.8328      0.3973     49.5297     58.9301     20.8289
  1034.3000      8.3810      1.9886      0.4718     40.0836     62.4930     23.1930
  1034.4000      8.3810      2.1062      0.4578     32.9575     65.4881     25.0448
  1034.5000      8.3966      2.1952      0.3855     27.5648     70.3328     26.2512
  1034.6000      8.3966      2.3019      0.3706     21.0984     74.9809     27.1774
  1034.7000      8.3966      2.4196      0.4331     13.9621     75.5991     28.0076
  1034.8000      8.4296      2.4990      0.3470      9.1491     75.8390     28.4806
  1034.9000      8.4296      2.5321      0.1324      7.1446     82.9520     28.5782
  1035.0000      8.5320      2.5508      0.0572      6.0093     97.2871     28.6940
  1035.1000      8.5320      2.5726      0.0505      4.6886    112.4187     28.9688
  1035.2000      8.5320      2.5836      0.1335      4.0213    123.6607     29.0303
  1035.3000      8.2006      2.5674      0.0539      5.0041    131.5627     28.6665
  1035.4000      8.2006      2.5298      0.0583      7.2845    137.7579     28.2017
  1035.5000      8.0251      2.4911     -0.0279      9.6302    141.7627     28.1398
  1035.6000      8.0251      2.4771     -0.0029     10.4786    144.0678     28.2199
  1035.7000      8.0251      2.4965     -0.0001      9.3023    145.7399     27.8528
  1035.8000      7.9990      2.5298      0.0689      7.2840    146.6689     27.1237
  1035.9000      7.9990      2.5485      0.0738      6.1507    148.7334     26.4226
  1036.0000      7.9958      2.5436      0.0674      6.4506    154.5484     26.0453
  1036.1000      7.9958      2.5321      0.0489      7.1444    162.1689     26.0285
  1036.2000      7.9958      2.5269      0.0447      7.4588    166.2376     26.2124
  1036.3000      7.9818      2.5127      0.0624      8.3236    165.2136     26.5789
  1036.4000      7.9818      2.4813     -0.0265     10.2216    163.7563     27.0582
  1036.5000      7.9947      2.4497     -0.0183     12.1411    163.9062     27.1041
  1036.6000      7.9947      2.4307     -0.0042     13.2927    162.9839     26.7592
  1036.7000      7.9947      2.4281     -0.0205     13.4488    162.1541     26.8866
  1036.8000      8.0225      2.4363     -0.0128     12.9530    165.5987     27.5295
  1036.9000      8.0225      2.4484     -0.0640     12.2152    170.2717     27.8121
  1037.0000      8.0320      2.4723      0.0079     10.7714    170.8505     27.4333
  1037.1000      8.0320      2.5142      0.0461      8.2294    168.0765     26.9497
  1037.2000      8.0320      2.5641      0.0893      5.2087    165.3288     26.7456
  1037.3000      8.0209      2.6019      0.1208      2.9131    164.1152     26.6105
  1037.4000      8.0209      2.6140      0.1458      2.1818    164.2298     26.2220
  1037.5000      8.0194      2.6013      0.1449      2.9510    167.4748     25.8837
  1037.6000      8.0194      2.5780      0.0725      4.3618    168.7322     25.8397
  1037.7000      8.0194      2.5664      0.0121      5.0686    161.5645     25.5834
  1037.8000      8.1102      2.5817      0.0174      4.1410    151.8796     24.8987
  1037.9000      8.1102      2.6087      0.0453      2.5048    144.2761     24.2167
  1038.0000      7.9883      2.6184      0.0437      1.9134    136.0296     23.6342
  1038.1000      7.9883      2.6031      0.0629      2.8444    127.4562     23.0254
