~Version Information
VERS.                      2.0: CWLS Log ASCII Standard - VERSION 2.0
WRAP.                       NO: One line per depth step
~Well Information Block
STRT.FT               230.0000: 
STOP.FT               707.5000: 
STEP.FT                 0.2500: 
NULL.                -999.2500: 
COMP.          Pioneer Natural Resources: COMPANY
WELL.          Razor Clam 23-27: WELL
FLD.           Purgatoire River: FIELD
LOC.           2499' FSL & 2636' FWL: LOCATION
CNTY.               Las Animas: COUNTY
SRVC.                Patterson: SERVICE COMPANY
DATE.          Sun Feb 12 15:35:16 2006: LOG DATE
UWI.           05 071 08667 00: UNIQUE WELL ID
STAT.                 Colorado: STATE
~Curve Information Block
DEPT.FT            0 000 00 00: Depth
SN.Ohm-m                      : IEL Short Normal
SP.mV                         : IEL Spontaneous Potential
DIR.Ohm-m                     : IEL Induction Resistivity
GR.GAPI                       : Gamma Ray
~Parameter Information Block
~A  Depth        SN          SP         DIR          GR     
# ...
   498.0000     15.6068     18.5657     14.8399     78.2490
   498.2500     15.8669     18.2866     15.2803     78.2754
   498.5000     16.1700     18.0650     15.7036     79.3293
   498.7500     16.5340     17.8942     16.0874     80.2548
   499.0000     16.7926     17.7620     16.4175     80.8340
   499.2500     16.8255     17.6499     16.6887     80.3496
   499.5000     16.7359     17.5346     16.9015     78.4804
   499.7500     16.6837     17.3943     17.0604     76.8251
   500.0000     16.7490     17.2175     17.1746     74.6476
   500.2500     16.9737     17.0090     17.2610     74.0186
   500.5000     17.3378     16.7889     17.3426     74.8505
   500.7500     17.7500     16.5844     17.4424     76.2897
   501.0000     18.1363     16.4161     17.5718     78.6565
   501.2500     18.4431     16.2880     17.7241     79.9591
   501.5000     18.6162     16.1855     17.8768     81.5021
   501.7500     18.6662     16.0840     18.0031     82.2635
   502.0000     18.6829     15.9596     18.0830     82.5340
   502.2500     18.7525     15.7974     18.1089     81.9076
   502.5000     18.8836     15.5967     18.0842     80.1561
   502.7500     18.9815     15.3720     18.0193     78.9881
   503.0000     18.9101     15.1462     17.9268     77.8641
   503.2500     18.6334     14.9391     17.8166     77.5508
   503.5000     18.2568     14.7576     17.6949     77.4560
   503.7500     17.9331     14.5916     17.5692     77.4558
   504.0000     17.7700     14.4172     17.4515     77.3589
   504.2500     17.7741     14.2063     17.3552     77.3892
   504.5000     17.8817     13.9406     17.2868     78.4406
   504.7500     18.0339     13.6203     17.2431     80.2285
   505.0000     18.1862     13.2612     17.2184     83.9681
   505.2500     18.2935     12.8799     17.2170     86.1011
   505.5000     18.3163     12.4790     17.2589     87.2315
   505.7500     18.2782     12.0435     17.3729     86.6284
   506.0000     18.2844     11.5513     17.5811     84.9577
   506.2500     18.4320     10.9908     17.8871     83.9391
   506.5000     18.7428     10.3727     18.2775     82.2603
   506.7500     19.1526      9.7298     18.7322     80.3142
   507.0000     19.5618      9.1051     19.2334     75.4145
   507.2500     19.9750      8.5354     19.7650     71.2093
   507.5000     20.5905      8.0395     20.3101     64.8613
   507.7500     21.6624      7.6123     20.8567     61.0733
   508.0000     23.2424      7.2290     21.4085     56.0658
   508.2500     25.1198      6.8555     21.9893     53.2045
   508.5000     27.0061      6.4648     22.6333     50.0469
   508.7500     28.7061      6.0507     23.3651     48.7578
   509.0000     30.1422      5.6329     24.1783     47.4327
   509.2500     31.3016      5.2473     25.0198     46.5750
   509.5000     32.1755      4.9251     25.7932     45.4360
   509.7500     32.7277      4.6786     26.3935     45.1582
   510.0000     32.9608      4.5019     26.7609     45.8818
   510.2500     32.9721      4.3818     26.9182     47.0503
   510.5000     32.8443      4.3059     26.9540     49.3523
   510.7500     32.5568      4.2684     26.9671     50.8808
   511.0000     32.0790      4.2728     27.0179     52.5594
   511.2500     31.4702      4.3337     27.1169     53.1208
   511.5000     30.8355      4.4710     27.2404     53.4214
   511.7500     30.2256      4.6976     27.3537     53.5615
   512.0000     29.6370      5.0075     27.4285     53.8069
   512.2500     29.1072      5.3731     27.4490     53.7631
   512.5000     28.7728      5.7542     27.4100     53.0930
   512.7500     28.7870      6.1105     27.3104     52.4606
   513.0000     29.1619      6.4115     27.1531     51.9202
   513.2500     29.6936      6.6405     26.9532     51.9293
   513.5000     30.0850      6.7922     26.7450     51.9831
   513.7500     30.2246      6.8689     26.5749     51.7515
   514.0000     30.2599      6.8740     26.4814     51.1328
   514.2500     30.3236      6.8083     26.4768     50.9133
   514.5000     30.3808      6.6698     26.5407     51.3929
   514.7500     30.3746      6.4538     26.6302     52.1839
   515.0000     30.3202      6.1564     26.6995     53.3478
   515.2500     30.2128      5.7810     26.7155     53.6621
   515.5000     30.0010      5.3472     26.6571     53.2617
   515.7500     29.6688      4.8952     26.5001     52.7169
   516.0000     29.2588      4.4772     26.2122     52.2724
   516.2500     28.8610      4.1394     25.7759     52.5591
   516.5000     28.5566      3.9007     25.2227     54.1121
   516.7500     28.3083      3.7439     24.6348     55.9888
   517.0000     27.9727      3.6250     24.0987     60.0798
   517.2500     27.4251      3.4979     23.6498     63.3443
   517.5000     26.6211      3.3393     23.2521     67.8511
   517.7500     25.5860      3.1644     22.8261     69.7660
   518.0000     24.3853      3.0241     22.3071     69.9438
   518.2500     23.1041      2.9873     21.6928     68.1527
   518.5000     21.8541      3.1149     21.0450     63.7115
   518.7500     20.7707      3.4372     20.4493     60.9308
   519.0000     20.0238      3.9445     19.9709     59.3973
   519.2500     19.7537      4.5900     19.6357     60.6795
   519.5000     19.8810      5.3030     19.4390     64.9709
   519.7500     20.1028      6.0079     19.3619     68.1351
   520.0000     20.1945      6.6409     19.3813     71.5866
   520.2500     20.2017      7.1608     19.4693     72.6476
   520.5000     20.2890      7.5530     19.5917     72.5830
   520.7500     20.5152      7.8299     19.7158     71.7402
   521.0000     20.8127      8.0287     19.8258     69.6685
   521.2500     21.1352      8.2016     19.9325     67.8343
   521.5000     21.5406      8.3982     20.0689     64.5406
   521.7500     22.1009      8.6474     20.2716     62.2069
   522.0000     22.8072      8.9440     20.5645     59.0996
   522.2500     23.6110      9.2524     20.9510     57.6649
   522.5000     24.4485      9.5294     21.4188     57.0435
   522.7500     25.2175      9.7551     21.9484     57.8506
   523.0000     25.8363      9.9425     22.5212     60.6517
   523.2500     26.3055     10.1183     23.1212     62.9996
   523.5000     26.6867     10.2951     23.7324     65.8136
   523.7500     27.0374     10.4650     24.3313     66.5116
   524.0000     27.3800     10.6093     24.8828     65.3801
   524.2500     27.7280     10.7118     25.3425     63.4370
   524.5000     28.0986     10.7660     25.6700     59.7495
   524.7500     28.4941     10.7797     25.8473     57.4927
   525.0000     28.9068     10.7753     25.8894     55.3541
   525.2500     29.3337     10.7833     25.8376     54.8646
   525.5000     29.7763     10.8289     25.7408     54.9904
   525.7500     30.2630     10.9209     25.6393     55.2437
   526.0000     30.8558     11.0491     25.5626     55.4897
   526.2500     31.6169     11.1889     25.5377     55.4896
   526.5000     32.6106     11.3071     25.6004     55.1920
   526.7500     33.8757     11.3721     25.8048     54.7772
   527.0000     35.3802     11.3684     26.2289     53.7566
   527.2500     37.1020     11.3102     26.9745     52.7650
   527.5000     39.0781     11.2404     28.1518     51.0297
   527.7500     41.3240     11.2125     29.8473     50.0952
   528.0000     43.7924     11.2647     32.0774     49.6957
   528.2500     46.3880     11.4063     34.7474     50.1927
   528.5000     49.0032     11.6217     37.6560     51.8660
   528.7500     51.5903     11.8854     40.5880     53.5269
   529.0000     54.1873     12.1739     43.4551     56.8929
   529.2500     56.8378     12.4684     46.3290     59.6772
   529.5000     59.5159     12.7537     49.2639     64.2566
   529.7500     62.1586     13.0181     52.0388     67.2064
   530.0000     64.7046     13.2560     54.1416     70.9030
   530.2500     67.0419     13.4696     55.1848     72.7634
   530.5000     68.9618     13.6660     55.3549     74.8679
   530.7500     70.2308     13.8538     55.2772     75.8932
   531.0000     70.6913     14.0400     55.4614     76.3550
   531.2500     70.2736     14.2312     55.9566     75.4576
