~Version Information
VERS.                      2.0: CWLS Log ASCII Standard - VERSION 2.0
WRAP.                       NO: One line per depth step
~Well Information Block
STRT.FT                 0.0000: 
STOP.FT               968.2500: 
STEP.FT                 0.2500: 
NULL.                -999.2500: 
COMP.          Pioneer Natural Resources: COMPANY
WELL.              Atlas 32-18: WELL
FLD.           Purgatorie River: FIELD
LOC.           1892' FNL & 1456' FEL: LOCATION
PROV.                 Colorado: PROVINCE
CNTY.               Las Animas: COUNTRY
SRVC.                Patterson: SERVICE COMPANY
DATE.          Fri Dec 02 11:37:22 2005: LOG DATE
UWI.                          : UNIQUE WELL ID
~Curve Information Block
DEPT.FT            0 000 00 00: Depth
CCL.                          : Casing Collar Locator
TT3.usec                      : CBL 3' Travel Time
AMP3.mV                       : CBL 3' Amplitude
GR.GAPI                       : Gamma Ray
~Parameter Information Block
~A  Depth       CCL         TT3         AMP3         GR     
# ...
   134.0000      0.0000    730.5204      9.0768     37.0771
   134.2500      0.0000    735.2253      9.1784     41.0662
   134.5000      0.0000    743.2924      9.2836     44.6890
   134.7500      0.0000    750.4265      9.4043     46.2990
   135.0000      0.0000    750.4835      9.5978     45.6096
   135.2500      0.0000    743.2331      9.8440     43.8002
   135.5000      0.0000    734.0757     10.0387     42.3301
   135.7500      0.0000    726.4462     10.1218     41.7916
   136.0000      0.0000    721.3935     10.1344     41.8430
   136.2500      0.0000    722.0383     10.1102     41.8457
   136.5000      0.0000    729.4061     10.0026     41.3274
   136.7500      0.0000    736.9610      9.7866     40.0708
   137.0000      0.0000    738.2314      9.5556     38.1371
   137.2500      0.0000    734.8469      9.4347     35.9258
   137.5000      0.0000    731.5458      9.4414     34.0611
   137.7500      0.0000    729.9387      9.4923     33.0441
   138.0000      0.0000    729.4066      9.5142     32.9476
   138.2500      0.0000    729.5767      9.5041     33.4896
   138.5000      0.0000    731.2203      9.5063     34.3484
   138.7500      0.0000    736.0715      9.5556     35.2573
   139.0000      0.0000    744.3947      9.6279     35.9228
   139.2500      0.0000    751.7243      9.6447     36.1864
   139.5000      0.0000    751.8489      9.5654     36.2790
   139.7500      0.0000    744.7266      9.4636     36.6511
   140.0000      0.0000    736.2805      9.4226     37.5159
   140.2500      0.0000    730.1565      9.4076     38.7024
   140.5000      0.0000    725.1055      9.3548     39.9796
   140.7500      0.0000    720.1107      9.3019     41.3413
   141.0000      0.0000    717.4969      9.3269     42.7622
   141.2500      0.0000    718.5201      9.4201     43.7263
   141.5000      0.0000    719.6155      9.4969     43.3754
   141.7500      0.0000    717.7431      9.5070     41.4183
   142.0000      0.0000    714.9421      9.4470     38.8188
   142.2500      0.0000    712.7595      9.2851     37.3032
   142.5000      0.0000    708.2456      8.9858     37.9496
   142.7500      0.0000    700.4222      8.6180     40.2599
   143.0000      0.0000    694.0593      8.3226     42.7410
   143.2500      0.0000    694.2908      8.1686     44.2826
   143.5000      0.0000    701.9379      8.1145     44.8037
   143.7500      0.0000    713.1633      8.0881     44.7677
   144.0000      0.0000    722.5190      8.0610     44.5018
   144.2500      0.0000    727.6223      8.0449     44.0393
   144.5000      0.0000    729.7369      8.0447     43.3022
   144.7500      0.0000    730.6538      8.0428     42.1720
   145.0000      0.0000    731.1014      8.0054     40.4349
   145.2500      0.0000    731.2600      7.9019     37.8781
   145.5000      0.0000    731.3400      7.7518     34.6942
   145.7500      0.0000    731.7148      7.6264     31.7716
   146.0000      0.0000    733.0905      7.5776     30.2870
   146.2500      0.0000    736.3291      7.6031     30.8873
   146.5000      0.0000    740.6297      7.6851     33.3831
   146.7500      0.0000    742.3919      7.7991     37.2363
   147.0000      0.0000    739.3013      7.8839     42.1959
   147.2500      0.0000    734.0485      7.8774     48.5016
   147.5000      0.0000    730.4366      7.7834     56.5111
   147.7500      0.0000    729.1578      7.6663     65.9394
   148.0000      0.0000    729.0141      7.5846     75.3716
   148.2500      0.0000    729.0872      7.5540     82.8170
   148.5000      0.0000    729.1459      7.5586     87.0658
   148.7500      0.0000    729.3138      7.5738     88.5962
   149.0000      0.0000    729.8083      7.5797     89.0771
   149.2500      0.0000    730.8850      7.5767     90.0135
   149.5000      0.0000    733.2263      7.5900     91.9219
   149.7500      0.0000    738.3173      7.6120     94.4592
   150.0000      0.0000    746.4852      7.5722     96.7894
   150.2500      0.0000    753.6075      7.4222     97.8233
   150.5000      0.0000    753.8385      7.2118     96.6114
   150.7500      0.0000    747.4970      7.0383     92.9138
   151.0000      0.0000    741.5049      6.9573     87.5885
   151.2500      0.0000    741.9232      6.9667     82.3963
   151.5000      0.0000    749.3936      7.0454     79.1449
   151.7500      0.0000    759.0584      7.1874     78.7695
   152.0000      0.0000    763.7681      7.3913     81.0421
   152.2500      0.0000    760.8036      7.6286     84.8728
   152.5000      0.0000    755.5631      7.8432     88.8589
   152.7500      0.0000    755.7444      7.9773     91.9841
   153.0000      0.0000    761.6762      7.9971     94.0459
   153.2500      0.0000    766.3408      7.9206     95.4383
   153.5000      0.0000    764.9609      7.8229     96.5842
   153.7500      0.0000    759.2418      7.7892     97.4565
   154.0000      0.0000    752.0558      7.8539     97.4909
   154.2500      0.0000    744.3250      7.9864     96.1671
   154.5000      0.0000    737.6325      8.1281     93.7871
   154.7500      0.0000    734.0203      8.2277     91.3978
   155.0000      0.0000    734.2603      8.2626     89.8777
   155.2500      0.0000    738.9826      8.2537     89.3666
   155.5000      0.0000    748.2701      8.2273     89.5720
   155.7500      0.0000    758.5114      8.1859     90.3213
   156.0000      0.0000    763.0965      8.1475     91.6488
   156.2500      0.0000    758.6312      8.1477     93.2865
   156.5000      0.0000    748.7125      8.1997     94.1645
   156.7500      0.0000    740.0221      8.2836     92.8823
   157.0000      0.0000    735.8644      8.3549     89.1121
   157.2500      0.0000    734.9982      8.3742     84.4191
   157.5000      0.0000    735.0660      8.3435     81.2623
   157.7500      0.0000    734.9602      8.2990     80.9833
   158.0000      0.0000    734.7435      8.2783     82.8719
   158.2500      0.0000    735.0367      8.3099     85.2104
   158.5000      0.0000    736.9018      8.3945     86.8713
   158.7500      0.0000    741.7064      8.5040     87.6015
   159.0000      0.0000    749.2829      8.6221     87.1618
   159.2500      0.0000    755.3033      8.7272     84.9971
   159.5000      0.0000    753.9415      8.7634     81.0580
   159.7500      0.0000    744.5147      8.7069     76.5661
   160.0000      0.0000    730.5256      8.5994     73.4818
   160.2500      0.0000    713.2179      8.4913     73.1265
   160.5000      0.0000    692.7311      8.4164     75.4641
   160.7500      0.0000    673.5103      8.3730     79.4322
   161.0000      0.0000    664.0043      8.2029     83.4337
   161.2500      0.0000    671.8967      7.6515     85.6873
   161.5000      0.0000    697.1314      6.8078     84.9753
   161.7500      0.0000    727.0767      6.1261     81.5650
   162.0000      0.0000    744.8785      5.8304     77.2122
   162.2500     -2.0000    746.3478      5.7719     73.9692
   162.5000      0.0000    741.7330      5.7711     72.8397
   162.7500      0.0000    737.3440      5.7521     73.4559
   163.0000      0.0000    727.4042      5.7187     74.8719
   163.2500      0.0000    710.8370      5.7886     76.4000
   163.5000      0.0000    699.2264      6.1638     77.6053
   163.7500      0.0000    701.3240      6.9159     77.8706
   164.0000      0.0000    712.7307      7.8722     76.5370
   164.2500      0.0000    723.5878      8.7390     73.6361
   164.5000      0.0000    729.2009      9.2349     70.1435
   164.7500      0.0000    730.8815      9.2731     67.2730
   165.0000      0.0000    731.0136      9.0561     65.7861
   165.2500      0.0000    730.7444      8.8511     66.0290
   165.5000      0.0000    730.5435      8.7514     68.0949
   165.7500      0.0000    730.7177      8.6903     71.5803
   166.0000      0.0000    731.4752      8.5785     75.5349
   166.2500      0.0000    733.1624      8.3876     79.0630
   166.5000      0.0000    736.0289      8.1491     81.7879
   166.7500      0.0000    738.7875      7.9118     83.5621
   167.0000      0.0000    739.2614      7.6997     84.1026
   167.2500      0.0000    738.9132      7.5029     83.3499
