~Version Information
VERS.                      2.0: CWLS Log ASCII Standard - VERSION 2.0
WRAP.                       NO: One line per depth step
~Well Information Block
STRT.FT                -7.7500: 
STOP.FT              2248.5000: 
STEP.FT                 0.2500: 
NULL.                -999.2500: 
COMP.          Pioneer Natural Resources: COMPANY
WELL.          Interceptor 43-13 Tr: WELL
FLD.           Purgatoire River: FIELD
LOC.           2006' FSL & 438' FEL--: LOCATION
PROV.                       CO: PROVINCE
CNTY.               Las Animas: COUNTRY
SRVC.          Patterson Wireline: SERVICE COMPANY
DATE.          Thu Nov 17 10:14:59 2005: LOG DATE
UWI.           05 071 08549 00: UNIQUE WELL ID
~Curve Information Block
DEPT.FT            0 000 00 00: Depth
CCL.                          : Casing Collar Locator
TT3.usec                      : CBL 3' Travel Time
AMP3.mV                       : CBL 3' Amplitude
GR.GAPI                       : Gamma Ray
~Parameter Information Block
~A  Depth       CCL         TT3         AMP3         GR     
# ...
  1030.7500      0.0000    787.3825      8.3159     64.0728
  1031.0000      0.0000    787.2922      8.2665     67.0696
  1031.2500      0.0000    785.9669      8.2675     68.8570
  1031.5000      0.0000    783.5208      8.3059     69.4819
  1031.7500      0.0000    780.3887      8.3543     69.5750
  1032.0000      0.0000    777.0143      8.3850     69.5542
  1032.2500      0.0000    773.2249      8.3840     69.0666
  1032.5000      0.0000    768.4026      8.3553     67.4282
  1032.7500      0.0000    762.5499      8.3110     64.6070
  1033.0000      0.0000    756.7394      8.2559     61.5040
  1033.2500      0.0000    752.2173      8.1853     59.1942
  1033.5000      0.0000    749.4096      8.0922     58.1735
  1033.7500      0.0000    747.9333      7.9723     58.4660
  1034.0000      0.0000    747.2028      7.8253     60.1112
  1034.2500      0.0000    746.8184      7.6586     63.0743
  1034.5000      0.0000    746.5823      7.4901     66.7439
  1034.7500      0.0000    746.3152      7.3425     69.9763
  1035.0000      0.0000    745.6248      7.2246     71.7915
  1035.2500      0.0000    743.7629      7.1076     71.9667
  1035.5000      0.0000    740.2259      6.9162     71.1395
  1035.7500      0.0000    736.4492      6.5641     70.4556
  1036.0000      0.0000    737.3068      6.0382     70.7417
  1036.2500      0.0000    749.0070      5.4591     71.6947
  1036.5000      0.0000    772.8525      5.0278     72.0261
  1036.7500      0.0000    801.3432      4.8755     70.5774
  1037.0000      0.0000    824.0326      4.9714     67.2758
  1037.2500      0.0000    838.4590      5.1813     63.1374
  1037.5000      2.0000    852.1857      5.3934     59.6481
  1037.7500     -2.0000    872.6845      5.5714     58.1136
  1038.0000      0.0000    897.9338      5.7111     59.0966
  1038.2500      0.0000    917.2960      5.7967     62.0814
  1038.5000      0.0000    918.6505      5.8274     65.7329
  1038.7500      0.0000    895.9815      5.8664     68.6805
  1039.0000      0.0000    854.7482      6.0105     70.2128
  1039.2500      0.0000    809.9084      6.3015     70.3889
  1039.5000      0.0000    775.6919      6.6917     69.7035
  1039.7500      0.0000    756.8362      7.0941     68.8941
  1040.0000      0.0000    749.4918      7.4384     69.0405
  1040.2500      0.0000    747.6911      7.6913     71.4680
  1040.5000      0.0000    747.6251      7.8522     77.2117
  1040.7500      0.0000    747.8474      7.9391     86.4439
  1041.0000      0.0000    748.0685      7.9782     98.2349
  1041.2500      0.0000    748.3074      8.0003    110.7674
  1041.5000      0.0000    748.6151      8.0321    121.9883
  1041.7500      0.0000    749.0269      8.0811    130.4968
  1042.0000      0.0000    749.5458      8.1331    136.1612
  1042.2500      0.0000    750.1306      8.1700    139.9329
  1042.5000      0.0000    750.7075      8.1914    142.8996
  1042.7500      0.0000    751.2084      8.2177    145.3698
  1043.0000      0.0000    751.6083      8.2743    146.8997
  1043.2500      0.0000    751.9537      8.3814    147.1866
  1043.5000      0.0000    752.3807      8.5583    146.6425
  1043.7500      0.0000    753.1073      8.8286    145.9928
  1044.0000      0.0000    754.0948      9.2094    145.6793
  1044.2500      0.0000    753.9732      9.6912    145.7496
  1044.5000      0.0000    748.4445     10.2321    145.7829
  1044.7500      0.0000    729.8649     10.7772    144.8464
  1045.0000      0.0000    690.3638     11.2815    142.3220
  1045.2500      0.0000    628.2701     11.7147    139.0943
  1045.5000      0.0000    552.6988     12.0562    137.1718
  1045.7500      0.0000    480.2670     12.2962    137.6127
  1046.0000      0.0000    425.2247     12.4397    139.2144
  1046.2500      0.0000    391.9552     12.5002    139.6327
  1046.5000      0.0000    376.0284     12.4860    137.6342
  1046.7500      0.0000    370.5211     12.3892    134.1728
  1047.0000      0.0000    370.8798     12.1930    131.4097
  1047.2500      0.0000    375.4848     11.9003    130.6598
  1047.5000      0.0000    383.2168     11.5554    131.1829
  1047.7500      0.0000    391.0246     11.2289    130.9729
  1048.0000      0.0000    394.4821     10.9807    128.6356
  1048.2500      0.0000    391.3290     10.8403    124.4548
  1048.5000      0.0000    383.8733     10.8068    119.8654
  1048.7500      0.0000    377.3928     10.8501    116.2601
  1049.0000      0.0000    377.3307     10.9140    114.1954
  1049.2500      0.0000    388.7331     10.9355    113.1701
  1049.5000      0.0000    416.6667     10.8739    112.0616
  1049.7500      0.0000    464.4388     10.7230    110.1623
  1050.0000      0.0000    529.9466     10.4983    107.8910
  1050.2500      0.0000    603.7415     10.2129    106.2986
  1050.5000      0.0000    671.6580      9.8636    105.9196
  1050.7500      0.0000    721.3508      9.4396    106.2471
  1051.0000      0.0000    748.4548      8.9468    106.1519
  1051.2500      0.0000    757.4318      8.4223    104.6067
  1051.5000      0.0000    756.8006      7.9162    101.1357
  1051.7500      0.0000    753.5286      7.4590     95.8709
  1052.0000      0.0000    750.8192      7.0507     89.3274
  1052.2500      0.0000    749.1604      6.6833     82.2234
  1052.5000      0.0000    748.1331      6.3668     75.4989
  1052.7500      0.0000    747.3691      6.1239     70.2189
  1053.0000      0.0000    746.6832      5.9642     67.0094
  1053.2500      0.0000    745.8487      5.8651     65.3662
  1053.5000      0.0000    744.3721      5.7793     63.6960
  1053.7500      0.0000    741.4251      5.6609     60.4661
  1054.0000      0.0000    736.1967      5.4899     55.6776
  1054.2500      0.0000    728.6559      5.2789     51.1722
  1054.5000      0.0000    720.0364      5.0603     49.1989
  1054.7500      0.0000    712.2698      4.8668     50.5310
  1055.0000      0.0000    706.7417      4.7171     53.8960
  1055.2500      0.0000    703.6129      4.6153     57.0881
  1055.5000      0.0000    702.1945      4.5588     58.6540
  1055.7500      0.0000    701.6800      4.5431     58.7590
  1056.0000      0.0000    701.5146      4.5576     58.6686
  1056.2500      0.0000    701.3807      4.5837     59.4435
  1056.5000      0.0000    701.1147      4.6032     61.0378
  1056.7500      0.0000    700.6849      4.6100     62.5617
  1057.0000      0.0000    700.1606      4.6121     63.2764
  1057.2500      0.0000    699.6438      4.6272     63.1787
  1057.5000      0.0000    699.2115      4.6742     62.6879
  1057.7500      0.0000    698.9071      4.7607     62.0763
  1058.0000      0.0000    698.7439      4.8715     61.3844
  1058.2500      0.0000    698.6970      4.9714     60.7098
  1058.5000      0.0000    698.7080      5.0229     60.2174
  1058.7500      0.0000    698.7272      5.0071     59.8504
  1059.0000      0.0000    698.7626      4.9297     59.3721
  1059.2500      0.0000    698.8828      4.8135     58.7670
  1059.5000      0.0000    699.1683      4.6820     58.3371
  1059.7500      0.0000    699.6606      4.5459     58.4503
  1060.0000      0.0000    700.3450      4.4059     59.4726
  1060.2500      0.0000    701.1696      4.2722     61.7663
  1060.5000      0.0000    702.1028      4.1721     65.3634
  1060.7500      0.0000    703.2419      4.1317     69.6896
  1061.0000      0.0000    704.9377      4.1546     73.8228
  1061.2500      0.0000    707.7576      4.2260     76.9911
  1061.5000      0.0000    711.9878      4.3389     78.8914
  1061.7500      0.0000    716.8542      4.5103     79.6624
  1062.0000      0.0000    720.4782      4.7706     79.5186
  1062.2500      0.0000    721.2964      5.1316     78.5822
  1062.5000      0.0000    719.6510      5.5570     77.2880
  1062.7500      0.0000    717.3929      5.9695     76.5845
  1063.0000      0.0000    715.7900      6.2953     77.3642
  1063.2500      0.0000    714.4551      6.5073     79.8269
  1063.5000      0.0000    712.4866      6.6240     83.5413
  1063.7500      0.0000    709.9126      6.6740     88.0885
  1064.0000      0.0000    707.5873      6.6653     93.6188
