~Version Information
VERS.                      2.0: CWLS Log ASCII Standard - VERSION 2.0
WRAP.                       NO: One line per depth step
~Well Information Block
STRT.FT               525.0000: 
STOP.FT              2377.2500: 
STEP.FT                 0.2500: 
NULL.                -999.2500: 
COMP.          Pioneer Natural Resources: COMPANY
WELL.          Sparrowhawk 22-12: WELL
FLD.           Purgatoire River: FIELD
LOC.           2049' FNL & 2060' FWL--: LOCATION
CNTY.               Las Animas: COUNTY
SRVC.                Patterson: SERVICE COMPANY
DATE.          Thu Mar 23 10:52:44 2006: LOG DATE
UWI.           05 071 08484 00: UNIQUE WELL ID
STAT.                 Colorado: STATE
~Curve Information Block
DEPT.FT            0 000 00 00: Depth
SN.Ohm-m                      : IEL Short Normal
SP.mV                         : IEL Spontaneous Potential
DIR.Ohm-m                     : IEL Induction Resistivity
GR.GAPI                       : Gamma Ray
~Parameter Information Block
~A  Depth        SN          SP         DIR          GR     
# ...
   994.0000   2000.0000   1979.0000     12.7865    130.8732
   994.2500   2000.0000   1979.0000     12.4827    130.8885
   994.5000   2000.0000   1979.0000     12.2339    128.9766
   994.7500   2000.0000   1979.0000     12.0271    127.1666
   995.0000   2000.0000   1979.0000     11.8545    125.0588
   995.2500   2000.0000   1979.0000     11.7128    124.7597
   995.5000   2000.0000   1979.0000     11.6037    126.5093
   995.7500   2000.0000   1979.0000     11.5352    128.8344
   996.0000   2000.0000   1979.0000     11.5185    132.5863
   996.2500   2000.0000   1979.0000     11.5644    134.3199
   996.5000   2000.0000   1979.0000     11.6808    134.8768
   996.7500   2000.0000   1979.0000     11.8730    133.7921
   997.0000   2000.0000   1979.0000     12.1460    129.8990
   997.2500   2000.0000   1979.0000     12.5071    125.6342
   997.5000   2000.0000   1979.0000     12.9644    116.8065
   997.7500   2000.0000   1979.0000     13.5195    109.8007
   998.0000   2000.0000   1979.0000     14.1556     98.8134
   998.2500   2000.0000   1979.0000     14.8248     91.7795
   998.5000   2000.0000   1979.0000     15.4434     82.8856
   998.7500   2000.0000   1979.0000     15.9083     79.1467
   999.0000   2000.0000   1979.0000     16.1334     78.6970
   999.2500   2000.0000   1979.0000     16.0871     82.2347
   999.5000   2000.0000   1979.0000     15.8045     92.0942
   999.7500   2000.0000   1979.0000     15.3656    100.1315
  1000.0000   2000.0000   1979.0000     14.8595    111.3239
  1000.2500   2000.0000   1979.0000     14.3582    116.9192
  1000.5000   2000.0000   1979.0000     13.9066    121.9249
  1000.7500   2000.0000   1979.0000     13.5247    123.4332
  1001.0000   2000.0000   1979.0000     13.2177    123.8506
  1001.2500   2000.0000   1979.0000     12.9862    123.0778
  1001.5000   2000.0000   1979.0000     12.8329    120.4020
  1001.7500   2000.0000   1979.0000     12.7624    117.9805
  1002.0000   2000.0000   1979.0000     12.7749    114.7760
  1002.2500   2000.0000   1979.0000     12.8591    113.6982
  1002.5000   2000.0000   1979.0000     12.9874    114.0421
  1002.7500   2000.0000   1979.0000     13.1180    115.2812
  1003.0000   2000.0000   1979.0000     13.2029    118.0962
  1003.2500   2000.0000   1979.0000     13.2018    120.5155
  1003.5000   2000.0000   1979.0000     13.0979    124.8613
  1003.7500   2000.0000   1979.0000     12.9061    127.9589
  1004.0000   2000.0000   1979.0000     12.6673    132.1289
  1004.2500   2000.0000   1979.0000     12.4309    134.1165
  1004.5000   2000.0000   1979.0000     12.2367    135.1214
  1004.7500   2000.0000   1979.0000     12.1059    134.1201
  1005.0000   2000.0000   1979.0000     12.0414    130.2802
  1005.2500   2000.0000   1979.0000     12.0351    126.9244
  1005.5000   2000.0000   1979.0000     12.0731    122.5244
  1005.7500   2000.0000   1979.0000     12.1396    120.7126
  1006.0000   2000.0000   1979.0000     12.2156    119.5373
  1006.2500   2000.0000   1979.0000     12.2791    119.2246
  1006.5000   2000.0000   1979.0000     12.3073    118.9635
  1006.7500   2000.0000   1979.0000     12.2826    119.2076
  1007.0000   2000.0000   1979.0000     12.1993    120.9332
  1007.2500   2000.0000   1979.0000     12.0669    123.0445
  1007.5000   2000.0000   1979.0000     11.9071    126.9217
  1007.7500   2000.0000   1979.0000     11.7466    129.2767
  1008.0000   2000.0000   1979.0000     11.6081    131.4024
  1008.2500   2000.0000   1979.0000     11.5073    131.7609
  1008.5000   2000.0000   1979.0000     11.4528    131.4642
  1008.7500   2000.0000   1979.0000     11.4498    131.1568
  1009.0000   2000.0000   1979.0000     11.5025    130.3421
  1009.2500   2000.0000   1979.0000     11.6161    129.0758
  1009.5000   2000.0000   1979.0000     11.7965    125.6064
  1009.7500   2000.0000   1979.0000     12.0501    122.3839
  1010.0000   2000.0000   1979.0000     12.3824    116.9901
  1010.2500   2000.0000   1979.0000     12.7974    113.6838
  1010.5000   2000.0000   1979.0000     13.2970    110.1130
  1010.7500   2000.0000   1979.0000     13.8821    108.7866
  1011.0000   2000.0000   1979.0000     14.5517    107.8532
  1011.2500   2000.0000   1979.0000     15.2997    107.4559
  1011.5000   2000.0000   1979.0000     16.1103    106.3945
  1011.7500   2000.0000   1979.0000     16.9544    104.9896
  1012.0000   2000.0000   1979.0000     17.7901    101.6592
  1012.2500   2000.0000   1979.0000     18.5684     99.0092
  1012.5000   2000.0000   1979.0000     19.2423     95.6788
  1012.7500   2000.0000   1979.0000     19.7752     94.5406
  1013.0000   2000.0000   1979.0000     20.1432     94.6382
  1013.2500   2000.0000   1979.0000     20.3345     95.4949
  1013.5000   2000.0000   1979.0000     20.3487     97.1755
  1013.7500   2000.0000   1979.0000     20.2012     98.4653
  1014.0000   2000.0000   1979.0000     19.9259    101.0723
  1014.2500   2000.0000   1979.0000     19.5734    103.4874
  1014.5000   2000.0000   1979.0000     19.2036    108.0382
  1014.7500   2000.0000   1979.0000     18.8750    111.3649
  1015.0000   2000.0000   1979.0000     18.6346    115.9220
  1015.2500   2000.0000   1979.0000     18.5107    118.0699
  1015.5000   2000.0000   1979.0000     18.5105    119.0705
  1015.7500   2000.0000   1979.0000     18.6247    118.0472
  1016.0000   2000.0000   1979.0000     18.8392    114.3844
  1016.2500   2000.0000   1979.0000     19.1481    111.0617
  1016.5000   2000.0000   1979.0000     19.5616    105.5020
  1016.7500   2000.0000   1979.0000     20.1029    101.6210
  1017.0000   2000.0000   1979.0000     20.7931     96.1303
  1017.2500   2000.0000   1979.0000     21.6303     93.3794
  1017.5000   2000.0000   1979.0000     22.5731     91.5371
  1017.7500   2000.0000   1979.0000     23.5344     91.6152
  1018.0000   2000.0000   1979.0000     24.3960     92.2686
  1018.2500   2000.0000   1979.0000     25.0438     92.3340
  1018.5000   2000.0000   1979.0000     25.4092     91.6692
  1018.7500   2000.0000   1979.0000     25.4869     91.0367
  1019.0000   2000.0000   1979.0000     25.3190     90.3793
  1019.2500   2000.0000   1979.0000     24.9642     90.3136
  1019.5000   2000.0000   1979.0000     24.4819     90.9274
  1019.7500   2000.0000   1979.0000     23.9286     91.8677
  1020.0000   2000.0000   1979.0000     23.3533     94.0658
  1020.2500   2000.0000   1979.0000     22.7880     96.0014
  1020.5000   2000.0000   1979.0000     22.2417     99.5353
  1020.7500   2000.0000   1979.0000     21.7065    102.2540
  1021.0000   2000.0000   1979.0000     21.1715    106.4910
  1021.2500   2000.0000   1979.0000     20.6340    108.9413
  1021.5000   2000.0000   1979.0000     20.1031    111.0951
  1021.7500   2000.0000   1979.0000     19.5986    111.3317
  1022.0000   2000.0000   1979.0000     19.1458    110.7289
  1022.2500   2000.0000   1979.0000     18.7696    110.4560
  1022.5000   2000.0000   1979.0000     18.4846    110.6569
  1022.7500   2000.0000   1979.0000     18.2884    110.8149
  1023.0000   2000.0000   1979.0000     18.1632    110.5661
  1023.2500   2000.0000   1979.0000     18.0840    110.2774
  1023.5000   2000.0000   1979.0000     18.0258    110.2194
  1023.7500   2000.0000   1979.0000     17.9630    110.4577
  1024.0000   2000.0000   1979.0000     17.8636    110.9601
  1024.2500   2000.0000   1979.0000     17.6873    111.3442
  1024.5000   2000.0000   1979.0000     17.3966    112.1184
  1024.7500   2000.0000   1979.0000     16.9764    112.8074
  1025.0000   2000.0000   1979.0000     16.4480    114.0880
  1025.2500   2000.0000   1979.0000     15.8640    115.1717
  1025.5000   2000.0000   1979.0000     15.2887    117.4473
  1025.7500   2000.0000   1979.0000     14.7777    119.5021
  1026.0000   2000.0000   1979.0000     14.3670    123.0925
  1026.2500   2000.0000   1979.0000     14.0724    125.4593
  1026.5000   2000.0000   1979.0000     13.8942    128.3154
  1026.7500   2000.0000   1979.0000     13.8223    129.3447
  1027.0000   2000.0000   1979.0000     13.8411    128.7167
  1027.2500   2000.0000   1979.0000     13.9330    126.4131
