~Version Information
VERS.                      2.0: CWLS Log ASCII Standard - VERSION 2.0
WRAP.                       NO: One line per depth step
~Well Information Block
STRT.FT               262.2500: 
STOP.FT              1942.0000: 
STEP.FT                 0.2500: 
NULL.                -999.2500: 
COMP.          XTO Energy Inc.: COMPANY
WELL.          Golden Eagle 19-11: WELL
FLD.           Purgatoire River: FIELD
LOC.           2351' FSL & 1926' FWL--: LOCATION
CNTY.               Las Animas: COUNTY
SRVC.                Patterson: SERVICE COMPANY
DATE.          Wed Mar 08 23:33:01 2006: LOG DATE
UWI.           05 071 08696 00: UNIQUE WELL ID
STAT.                 Colorado: STATE
~Curve Information Block
DEPT.FT            0 000 00 00: Depth
SP.mV                         : DIL Spontaneous Potential
RILD.Ohm-m                    : DIL Deep Resistivity
RILM.Ohm-m                    : DIL Medium Resistivity
RLL3.Ohm-m                    : DIL Shallow Resistivity
GR.GAPI                       : Gamma Ray
~Parameter Information Block
~A  Depth        SP         RILD        RILM        RLL3         GR     
# ...
  1046.2500   -999.2500     18.7954     24.1926   2000.0000     61.3244
  1046.5000   -999.2500     17.8180     22.7453   2000.0000     70.7602
  1046.7500   -999.2500     16.8841     21.0591   2000.0000     78.2591
  1047.0000   -999.2500     16.0188     19.2717   2000.0000     90.6442
  1047.2500   -999.2500     15.2298     17.5202   2000.0000     99.2699
  1047.5000   -999.2500     14.5123     15.9134   2000.0000    111.9497
  1047.7500   -999.2500     13.8569     14.5185   2000.0000    119.5457
  1048.0000   -999.2500     13.2567     13.3614   2000.0000    128.4066
  1048.2500   -999.2500     12.7107     12.4352   2000.0000    132.2784
  1048.5000   -999.2500     12.2209     11.7110   2000.0000    135.4894
  1048.7500   -999.2500     11.7870     11.1499   2000.0000    136.4659
  1049.0000   -999.2500     11.4044     10.7139   2000.0000    136.8712
  1049.2500   -999.2500     11.0671     10.3731   2000.0000    136.6591
  1049.5000   -999.2500     10.7744     10.1097   2000.0000    136.1965
  1049.7500   -999.2500     10.5337      9.9158   2000.0000    136.2498
  1050.0000   -999.2500     10.3580      9.7904   2000.0000    137.1540
  1050.2500   -999.2500     10.2593      9.7354   2000.0000    137.9241
  1050.5000   -999.2500     10.2433      9.7529   2000.0000    138.2610
  1050.7500   -999.2500     10.3072      9.8439   2000.0000    137.6184
  1051.0000   -999.2500     10.4397     10.0069   2000.0000    135.7045
  1051.2500   -999.2500     10.6249     10.2371   2000.0000    134.2587
  1051.5000   -999.2500     10.8459     10.5260   2000.0000    132.3347
  1051.7500   -999.2500     11.0882     10.8615   2000.0000    131.1724
  1052.0000   -999.2500     11.3404     11.2291   2000.0000    129.3316
  1052.2500   -999.2500     11.5921     11.6122   2000.0000    128.1498
  1052.5000   -999.2500     11.8333     11.9916   2000.0000    127.2301
  1052.7500   -999.2500     12.0542     12.3449   2000.0000    127.5607
  1053.0000   -999.2500     12.2464     12.6495   2000.0000    129.2049
  1053.2500   -999.2500     12.4046     12.8904   2000.0000    130.5414
  1053.5000   -999.2500     12.5273     13.0671   2000.0000    132.3677
  1053.7500   -999.2500     12.6149     13.1926   2000.0000    133.6400
  1054.0000   -999.2500     12.6677     13.2843   2000.0000    136.2511
  1054.2500   -999.2500     12.6855     13.3545   2000.0000    138.4919
  1054.5000   -999.2500     12.6703     13.4071   2000.0000    141.7757
  1054.7500   -999.2500     12.6314     13.4410   2000.0000    143.2865
  1055.0000   -999.2500     12.5851     13.4552   2000.0000    144.1795
  1055.2500   -999.2500     12.5504     13.4508   2000.0000    144.2607
  1055.5000   -999.2500     12.5442     13.4307   2000.0000    144.8697
  1055.7500   -999.2500     12.5777     13.3988   2000.0000    146.1593
  1056.0000   -999.2500     12.6569     13.3640   2000.0000    149.2646
  1056.2500   -999.2500     12.7836     13.3445   2000.0000    151.3770
  1056.5000   -999.2500     12.9555     13.3681   2000.0000    152.9981
  1056.7500   -999.2500     13.1664     13.4674   2000.0000    152.2432
  1057.0000   -999.2500     13.4054     13.6704   2000.0000    147.2966
  1057.2500   -999.2500     13.6608     13.9924   2000.0000    141.1724
  1057.5000   -999.2500     13.9244     14.4317   2000.0000    128.4259
  1057.7500   -999.2500     14.1964     14.9693   2000.0000    118.6526
  1058.0000   -999.2500     14.4872     15.5735   2000.0000    104.4393
  1058.2500   -999.2500     14.8147     16.2105   2000.0000     96.4730
  1058.5000   -999.2500     15.2001     16.8564   2000.0000     88.0754
  1058.7500   -999.2500     15.6640     17.5051   2000.0000     84.9874
  1059.0000   -999.2500     16.2199     18.1661   2000.0000     83.3441
  1059.2500   -999.2500     16.8690     18.8558   2000.0000     83.3776
  1059.5000   -999.2500     17.5945     19.5858   2000.0000     83.3854
  1059.7500   -999.2500     18.3608     20.3561   2000.0000     82.4115
  1060.0000   -999.2500     19.1187     21.1541   2000.0000     78.4212
  1060.2500   -999.2500     19.8177     21.9574   2000.0000     74.0759
  1060.5000   -999.2500     20.4237     22.7413   2000.0000     66.2855
  1060.7500   -999.2500     20.9315     23.4829   2000.0000     61.3304
  1061.0000   -999.2500     21.3611     24.1642   2000.0000     55.5606
  1061.2500   -999.2500     21.7391     24.7718   2000.0000     52.9591
  1061.5000   -999.2500     22.0808     25.2968   2000.0000     50.5393
  1061.7500   -999.2500     22.3863     25.7357   2000.0000     49.7267
  1062.0000   -999.2500     22.6504     26.0909   2000.0000     49.6699
  1062.2500   -999.2500     22.8723     26.3682   2000.0000     50.3828
  1062.5000   -999.2500     23.0575     26.5729   2000.0000     52.1709
  1062.7500   -999.2500     23.2140     26.7067   2000.0000     53.4479
  1063.0000   -999.2500     23.3492     26.7688   2000.0000     54.9868
  1063.2500   -999.2500     23.4681     26.7621   2000.0000     55.6542
  1063.5000   -999.2500     23.5709     26.6952   2000.0000     55.9839
  1063.7500   -999.2500     23.6537     26.5806   2000.0000     55.6798
  1064.0000   -999.2500     23.7115     26.4314   2000.0000     54.7176
  1064.2500   -999.2500     23.7442     26.2632   2000.0000     54.1976
  1064.5000   -999.2500     23.7591     26.0972   2000.0000     54.2173
  1064.7500   -999.2500     23.7665     25.9567   2000.0000     54.6416
  1065.0000   -999.2500     23.7695     25.8597   2000.0000     55.0646
  1065.2500   -999.2500     23.7580     25.8138   2000.0000     54.8145
  1065.5000   -999.2500     23.7152     25.8198   2000.0000     53.5913
  1065.7500   -999.2500     23.6340     25.8746   2000.0000     52.3867
  1066.0000   -999.2500     23.5276     25.9677   2000.0000     50.1989
  1066.2500   -999.2500     23.4248     26.0741   2000.0000     48.5071
  1066.5000   -999.2500     23.3538     26.1556   2000.0000     45.7043
  1066.7500   -999.2500     23.3308     26.1764   2000.0000     43.8135
  1067.0000   -999.2500     23.3559     26.1214   2000.0000     41.3349
  1067.2500   -999.2500     23.4140     26.0031   2000.0000     40.1493
  1067.5000   -999.2500     23.4804     25.8520   2000.0000     39.3534
  1067.7500   -999.2500     23.5315     25.7030   2000.0000     39.5302
  1068.0000   -999.2500     23.5572     25.5865   2000.0000     40.7084
  1068.2500   -999.2500     23.5645     25.5253   2000.0000     41.8874
  1068.5000   -999.2500     23.5675     25.5306   2000.0000     43.6891
  1068.7500   -999.2500     23.5707     25.5940   2000.0000     44.5485
  1069.0000   -999.2500     23.5574     25.6852   2000.0000     44.9418
  1069.2500   -999.2500     23.4947     25.7632   2000.0000     44.6942
  1069.5000   -999.2500     23.3539     25.7933   2000.0000     44.1998
  1069.7500   -999.2500     23.1321     25.7560   2000.0000     44.1968
  1070.0000   -999.2500     22.8558     25.6403   2000.0000     44.9697
  1070.2500   -999.2500     22.5639     25.4352   2000.0000     45.9189
  1070.5000   -999.2500     22.2869     25.1321   2000.0000     47.8210
  1070.7500   -999.2500     22.0387     24.7364   2000.0000     49.4679
  1071.0000   -999.2500     21.8217     24.2730   2000.0000     52.7104
  1071.2500   -999.2500     21.6364     23.7789   2000.0000     55.3446
  1071.5000   -999.2500     21.4841     23.2946   2000.0000     59.6020
  1071.7500   -999.2500     21.3627     22.8568   2000.0000     62.3948
  1072.0000   -999.2500     21.2601     22.4944   2000.0000     66.2501
  1072.2500   -999.2500     21.1517     22.2228   2000.0000     68.4324
  1072.5000   -999.2500     21.0058     22.0364   2000.0000     70.6640
  1072.7500   -999.2500     20.7966     21.9039   2000.0000     71.1911
  1073.0000   -999.2500     20.5133     21.7722   2000.0000     70.4554
  1073.2500   -999.2500     20.1590     21.5835   2000.0000     69.1998
  1073.5000   -999.2500     19.7410     21.2980   2000.0000     66.9111
  1073.7500   -999.2500     19.2654     20.9072   2000.0000     65.5431
  1074.0000   -999.2500     18.7414     20.4293   2000.0000     64.3242
