~Version Information
VERS.                      2.0: CWLS Log ASCII Standard - VERSION 2.0
WRAP.                       NO: One line per depth step
~Well Information Block
STRT.FT               245.0000: 
STOP.FT              1208.2500: 
STEP.FT                 0.2500: 
NULL.                -999.2500: 
COMP.          Pioneer Natural Resources: COMPANY
WELL.              Davida 34-8: WELL
FLD.           Purgatoire River: FIELD
LOC.           418' FSL & 1923' FEL--: LOCATION
CNTY.               Las Animas: COUNTY
SRVC.                Patterson: SERVICE COMPANY
DATE.          Sat Mar 18 07:00:13 2006: LOG DATE
UWI.           05 071 08722 00: UNIQUE WELL ID
STAT.                 Colorado: STATE
~Curve Information Block
DEPT.FT            0 000 00 00: Depth
GR.GAPI                       : Gamma Ray
DIR.Ohm-m                     : IEL Induction Resistivity
~Parameter Information Block
~A  Depth        GR         DIR     
# ...
   746.7500    110.7958     13.5618
   747.0000    116.3207     13.2883
   747.2500    118.1969     13.0320
   747.5000    118.8544     12.7986
   747.7500    118.5643     12.5861
   748.0000    117.4325     12.3908
   748.2500    115.7859     12.2125
   748.5000    111.4064     12.0553
   748.7500    107.5832     11.9262
   749.0000    101.9073     11.8319
   749.2500     98.8604     11.7758
   749.5000     96.0797     11.7549
   749.7500     95.6981     11.7595
   750.0000     97.6352     11.7759
   750.2500    100.4762     11.7910
   750.5000    106.1340     11.7957
   750.7500    109.9889     11.7863
   751.0000    114.4564     11.7641
   751.2500    116.0805     11.7358
   751.5000    116.6798     11.7136
   751.7500    116.4623     11.7139
   752.0000    116.3835     11.7529
   752.2500    116.7835     11.8403
   752.5000    117.3875     11.9747
   752.7500    116.9243     12.1429
   753.0000    113.7445     12.3245
   753.2500    110.0264     12.5005
   753.5000    103.5577     12.6615
   753.7500     99.8880     12.8088
   754.0000     96.8896     12.9498
   754.2500     96.7370     13.0898
   754.5000     98.3831     13.2294
   754.7500     99.8353     13.3677
   755.0000    101.1986     13.5088
   755.2500    101.2468     13.6642
   755.5000    100.2798     13.8492
   755.7500     99.1624     14.0754
   756.0000     96.5975     14.3458
   756.2500     93.9818     14.6514
   756.5000     88.7324     14.9749
   756.7500     84.9763     15.2978
   757.0000     80.5754     15.6085
   757.2500     79.2102     15.9039
   757.5000     79.7690     16.1850
   757.7500     81.3549     16.4508
   758.0000     84.0707     16.6986
   758.2500     85.4245     16.9303
   758.5000     86.3949     17.1578
   758.7500     86.4233     17.4026
   759.0000     85.8382     17.6841
   759.2500     85.3074     18.0021
   759.5000     84.9746     18.3256
   759.7500     85.3566     18.6035
   760.0000     86.6828     18.7996
   760.2500     87.6208     18.9255
   760.5000     88.4548     19.0462
   760.7500     88.7559     19.2577
   761.0000     89.9690     19.6630
   761.2500     91.9332     20.3619
   761.5000     96.5423     21.4494
   761.7500     99.9886     23.0113
   762.0000    104.2776     25.1089
   762.2500    105.9662     27.7434
   762.5000    106.0481     30.7928
   762.7500    104.2363     33.9414
   763.0000     99.2727     36.6666
   763.2500     95.5654     38.3529
   763.5000     91.8269     38.5093
   763.7500     91.4681     36.9505
   764.0000     94.1733     33.8825
   764.2500     97.4647     29.8810
   764.5000    102.7730     25.7037
   764.7500    105.3240     21.9773
   765.0000    106.3626     18.9989
   765.2500    105.4610     16.7649
   765.5000    103.4663     15.1110
   765.7500    102.6186     13.8422
   766.0000    102.4469     12.8177
   766.2500    102.6996     11.9800
   766.5000    102.5645     11.3294
   766.7500    101.4585     10.8782
   767.0000     97.4405     10.6223
   767.2500     93.1350     10.5390
   767.5000     85.0698     10.5971
   767.7500     79.4685     10.7662
   768.0000     72.0745     11.0190
   768.2500     68.2039     11.3274
   768.5000     64.0263     11.6577
   768.7500     62.3155     11.9711
   769.0000     61.4374     12.2323
   769.2500     61.7901     12.4204
   769.5000     62.8036     12.5342
   769.7500     63.2666     12.5880
   770.0000     63.4548     12.6037
   770.2500     63.4592     12.6025
   770.5000     63.4111     12.6014
   770.7500     63.1230     12.6096
   771.0000     62.0501     12.6299
   771.2500     61.1069     12.6612
   771.5000     59.8971     12.7031
   771.7500     59.3172     12.7570
   772.0000     58.5416     12.8245
   772.2500     57.9249     12.9032
   772.5000     56.7244     12.9861
   772.7500     55.7329     13.0670
   773.0000     54.1120     13.1480
   773.2500     53.1449     13.2421
   773.5000     52.1936     13.3666
   773.7500     51.9338     13.5318
   774.0000     51.9579     13.7326
   774.2500     52.1302     13.9498
   774.5000     52.4380     14.1598
   774.7500     52.6231     14.3479
   775.0000     52.9289     14.5138
   775.2500     53.1886     14.6666
   775.5000     53.5613     14.8151
   775.7500     53.6427     14.9626
   776.0000     53.1725     15.1083
   776.2500     52.3228     15.2517
   776.5000     50.3960     15.3948
   776.7500     49.0219     15.5420
   777.0000     47.4788     15.6976
   777.2500     47.0028     15.8640
   777.5000     47.1426     16.0388
   777.7500     47.7144     16.2146
   778.0000     48.9211     16.3825
   778.2500     49.5731     16.5379
   778.5000     49.7034     16.6851
   778.7500     49.2725     16.8368
   779.0000     48.8667     17.0061
   779.2500     49.4724     17.1982
   779.5000     51.9170     17.4062
   779.7500     53.8887     17.6124
   780.0000     55.7109     17.7956
   780.2500     55.7033     17.9381
   780.5000     54.3791     18.0327
   780.7500     53.2677     18.0878
   781.0000     52.0499     18.1281
   781.2500     51.6956     18.1879
   781.5000     51.7018     18.3009
   781.7500     51.7529     18.4903
   782.0000     51.2560     18.7644
   782.2500     50.3658     19.1175
   782.5000     48.3222     19.5325
   782.7500     46.6277     19.9858
   783.0000     43.7993     20.4528
   783.2500     41.9624     20.9123
   783.5000     39.8980     21.3488
   783.7500     39.2448     21.7506
   784.0000     39.3309     22.1050
   784.2500     39.8701     22.3938
   784.5000     40.9840     22.5944
   784.7500     41.7992     22.6864
   785.0000     42.9786     22.6619
   785.2500     43.5429     22.5257
   785.5000     43.7391     22.2842
   785.7500     43.5851     21.9357
   786.0000     43.8313     21.4759
   786.2500     44.7619     20.9161
   786.5000     47.1072     20.2915
   786.7500     48.7282     19.6516
   787.0000     50.4152     19.0395
   787.2500     50.9054     18.4790
   787.5000     50.6912     17.9761
   787.7500     49.8738     17.5303
   788.0000     47.8621     17.1440
   788.2500     46.5462     16.8226
   788.5000     45.8761     16.5655
   788.7500     46.7127     16.3563
   789.0000     49.6431     16.1619
   789.2500     52.2895     15.9436
   789.5000     56.7184     15.6719
   789.7500     59.8121     15.3374
   790.0000     64.6303     14.9491
   790.2500     68.0747     14.5257
   790.5000     73.7955     14.0856
   790.7500     77.8861     13.6433
   791.0000     83.7371     13.2098
   791.2500     86.9644     12.7968
   791.5000     90.7116     12.4199
   791.7500     93.0039     12.0982
   792.0000     96.9288     11.8495
   792.2500     99.5887     11.6837
   792.5000    102.1269     11.5975
   792.7500    102.1806     11.5755
   793.0000    100.0716     11.5968
   793.2500     98.0303     11.6451
   793.5000     95.5197     11.7147
   793.7500     94.6571     11.8096
   794.0000     94.5197     11.9369
   794.2500     95.0718     12.0988
   794.5000     97.0957     12.2846
   794.7500     99.4373     12.4670
   795.0000    103.9594     12.6034
   795.2500    106.8123     12.6486
   795.5000    109.5212     12.5724
   795.7500    110.1737     12.3737
   796.0000    110.3867     12.0787
   796.2500    110.6928     11.7252
   796.5000    111.8379     11.3476
   796.7500    112.8997     10.9703
   797.0000    114.6150     10.6093
   797.2500    115.8603     10.2774
   797.5000    118.0985      9.9869
   797.7500    119.8481      9.7489
   798.0000    122.4436      9.5716
   798.2500    123.6688      9.4587
   798.5000    123.8303      9.4092
   798.7500    122.5763      9.4191
   799.0000    119.2636      9.4815
   799.2500    117.0090      9.5877
   799.5000    115.1258      9.7268
   799.7500    115.1742      9.8870
   800.0000    116.3645     10.0573
   800.2500    117.0697     10.2305
   800.5000    117.0097     10.4051
   800.7500    116.0698     10.5847
   801.0000    113.3938     10.7765
   801.2500    110.7822     10.9893
   801.5000    105.4411     11.2319
   801.7500    100.7989     11.5119
   802.0000     92.3695     11.8369
   802.2500     86.2729     12.2150
