~Version Information
VERS.                      2.0: CWLS Log ASCII Standard - VERSION 2.0
WRAP.                       NO: One line per depth step
~Well Information Block
STRT.FT                -7.5000: 
STOP.FT               988.5000: 
STEP.FT                 0.2500: 
NULL.                -999.2500: 
COMP.          Pioneer Natural Resources: COMPANY
WELL.          Stags Leap 13-30: WELL
FLD.           Purgatorie River: FIELD
LOC.           1813' FSL & 117' FWL--: LOCATION
PROV.                       CO: PROVINCE
CNTY.               Las Animas: COUNTRY
SRVC.          Patterson Wireline: SERVICE COMPANY
DATE.          Tue Dec 13 11:29:26 2005: LOG DATE
UWI.           05 071 08595 00: UNIQUE WELL ID
~Curve Information Block
DEPT.FT            0 000 00 00: Depth
CCL.                          : Casing Collar Locator
TT3.usec                      : CBL 3' Travel Time
AMP3.mV                       : CBL 3' Amplitude
GR.GAPI                       : Gamma Ray
~Parameter Information Block
~A  Depth       CCL         TT3         AMP3         GR     
# ...
   696.0000      0.0000    790.6826     10.5649     98.1711
   696.2500      0.0000    788.4575     10.4886     99.9433
   696.5000      0.0000    781.5127     10.3681    103.2355
   696.7500      0.0000    762.4999     10.2257    106.6712
   697.0000      0.0000    727.7897     10.0735    108.1476
   697.2500      0.0000    682.3403      9.8958    106.4391
   697.5000      0.0000    640.7512      9.6609    101.7178
   697.7500      0.0000    619.8622      9.3502     95.2412
   698.0000      0.0000    626.5698      8.9708     88.7660
   698.2500      0.0000    653.1673      8.5333     83.6791
   698.5000      0.0000    685.5156      8.0229     80.3054
   698.7500      0.0000    714.1179      7.4337     78.2435
   699.0000      0.0000    736.9708      6.8542     77.2922
   699.2500      0.0000    756.3428      6.4698     77.6491
   699.5000      0.0000    776.0325      6.4223     79.1790
   699.7500      0.0000    798.1063      6.6708     80.9302
   700.0000      0.0000    818.5728      7.0202     81.7039
   700.2500     -2.0000    828.8126      7.2668     81.0191
   700.5000      0.0000    824.3708      7.3005     79.3965
   700.7500      0.0000    810.6688      7.1274     77.8068
   701.0000      0.0000    798.0671      6.8691     76.8407
   701.2500      0.0000    792.9363      6.7155     76.1688
   701.5000      0.0000    794.8915      6.8059     74.7504
   701.7500      0.0000    800.6111      7.1591     71.8811
   702.0000      0.0000    807.5588      7.7397     68.2763
   702.2500      0.0000    814.0399      8.5363     66.0081
   702.5000      0.0000    817.8580      9.5197     67.1057
   702.7500      0.0000    816.5715     10.5716     72.1546
   703.0000      0.0000    809.3234     11.5215     80.0598
   703.2500      0.0000    798.3256     12.2442     88.6514
   703.5000      0.0000    787.8407     12.6980     95.4578
   703.7500      0.0000    780.6299     12.8984     98.8063
   704.0000      0.0000    775.2933     12.8937     99.0778
   704.2500      0.0000    767.9615     12.7570     98.7449
   704.5000      0.0000    756.6956     12.5708    100.5694
   704.7500      0.0000    743.5981     12.4052    105.4883
   705.0000      0.0000    732.5153     12.3057    112.1237
   705.2500      0.0000    725.3018     12.2947    118.1924
   705.5000      0.0000    720.5255     12.3823    122.3386
   705.7500      0.0000    714.7913     12.5819    124.7079
   706.0000      0.0000    703.8665     12.9078    126.1753
   706.2500      0.0000    682.6763     13.3486    127.5972
   706.5000      0.0000    646.5995     13.8490    129.7024
   706.7500      0.0000    596.3463     14.3331    132.9481
   707.0000      0.0000    541.9578     14.7452    136.9827
   707.2500      0.0000    497.4893     15.0639    140.2996
   707.5000      0.0000    468.4315     15.2876    140.7083
   707.7500      0.0000    447.6511     15.4203    136.6673
   708.0000      0.0000    427.4388     15.4675    128.6261
   708.2500      0.0000    411.0612     15.4405    119.0700
   708.5000      0.0000    406.4512     15.3697    111.1178
   708.7500      0.0000    411.4709     15.3056    106.8179
   709.0000      0.0000    412.7138     15.2921    106.2294
   709.2500      0.0000    399.8349     15.3337    107.5929
   709.5000      0.0000    376.0161     15.4000    108.3730
   709.7500      0.0000    352.6729     15.4539    106.6769
   710.0000      0.0000    338.3209     15.4600    102.2433
   710.2500      0.0000    335.2221     15.3769     96.3144
   710.5000      0.0000    343.0107     15.1702     90.6090
   710.7500      0.0000    361.0328     14.8493     86.2888
   711.0000      0.0000    386.9518     14.4815     83.5667
   711.2500      0.0000    417.0678     14.1551     82.0111
   711.5000      0.0000    451.3759     13.9149     81.1785
   711.7500      0.0000    496.3215     13.7279     81.0617
   712.0000      0.0000    557.4010     13.5158     82.0530
   712.2500      0.0000    628.4647     13.2259     84.5723
   712.5000      0.0000    693.0600     12.8758     88.6747
   712.7500      0.0000    737.6492     12.5351     93.7765
   713.0000      0.0000    760.5533     12.2748     98.8860
   713.2500      0.0000    768.4355     12.1348    103.3950
   713.5000      0.0000    768.3998     12.1190    107.2563
   713.7500      0.0000    764.8129     12.1957    109.9749
   714.0000      0.0000    760.6935     12.3076    110.1986
   714.2500      0.0000    759.2997     12.3959    107.2104
   714.5000      0.0000    763.3904     12.4225    102.2490
   714.7500      0.0000    772.9213     12.3634     97.3531
   715.0000      0.0000    784.0098     12.1981     93.3328
   715.2500      0.0000    790.9340     11.9261     89.7100
   715.5000      0.0000    789.5853     11.5975     86.3315
   715.7500      0.0000    779.8636     11.3126     84.1589
   716.0000      0.0000    765.8034     11.1761     84.2580
   716.2500      0.0000    753.2431     11.2407     86.5248
   716.5000      0.0000    746.3221     11.4778     89.8727
   716.7500      0.0000    745.5878     11.7933     93.4122
   717.0000      0.0000    748.9624     12.0756     96.7940
   717.2500      0.0000    753.6130     12.2416     99.4596
   717.5000      0.0000    756.7869     12.2479    100.4207
   717.7500      0.0000    756.1050     12.0758     99.2192
   718.0000      0.0000    750.3981     11.7282     96.6933
   718.2500      0.0000    740.8924     11.2504     94.4770
   718.5000      0.0000    731.3154     10.7418     93.7164
   718.7500      0.0000    725.9932     10.3209     94.2312
   719.0000      0.0000    726.9961     10.0594     94.9653
   719.2500      0.0000    732.8337      9.9455     95.2601
   719.5000      0.0000    740.0739      9.9078     95.3283
   719.7500      0.0000    746.4698      9.8767     95.5348
   720.0000      0.0000    752.4603      9.8313     96.0175
   720.2500      0.0000    759.4380      9.8032     97.1685
   720.5000      0.0000    767.1031      9.8414     99.4913
   720.7500      0.0000    773.4696      9.9691    102.5747
   721.0000      0.0000    777.1816     10.1700    105.0551
   721.2500      0.0000    778.6752     10.4109    106.0281
   721.5000      0.0000    779.1974     10.6692    105.8755
   721.7500      0.0000    779.9918     10.9384    105.4795
   722.0000      0.0000    782.1406     11.2125    105.1943
   722.2500      0.0000    785.5663     11.4707    104.8569
   722.5000      0.0000    788.3455     11.6814    104.3467
   722.7500      0.0000    788.8166     11.8307    103.7272
   723.0000      0.0000    788.2471     11.9505    102.8310
   723.2500      0.0000    789.8659     12.1098    101.1469
   723.5000      0.0000    795.1672     12.3667     98.5819
   723.7500      0.0000    801.9080     12.7236     96.2502
   724.0000      0.0000    805.3360     13.1320     95.8430
   724.2500      0.0000    800.3925     13.5398     97.9064
   724.5000      0.0000    781.9989     13.9367    100.8565
   724.7500      0.0000    743.9636     14.3583    101.9310
   725.0000      0.0000    681.0295     14.8474     99.5028
   725.2500      0.0000    595.8096     15.4091     94.7306
   725.5000      0.0000    503.1220     16.0019     90.7415
   725.7500      0.0000    423.3245     16.5639     90.0469
   726.0000      0.0000    369.3288     17.0417     92.8054
   726.2500      0.0000    340.6936     17.4039     97.3113
   726.5000      0.0000    328.7905     17.6420    101.6086
   726.7500      0.0000    324.9039     17.7670    104.4619
   727.0000      0.0000    323.9535     17.7997    105.2777
   727.2500      0.0000    324.0558     17.7561    103.9623
   727.5000      0.0000    325.3425     17.6361    101.1554
   727.7500      0.0000    329.9111     17.4246     98.0604
   728.0000      0.0000    342.7058     17.1076     95.5302
   728.2500      0.0000    371.2831     16.6877     93.3923
   728.5000      0.0000    421.6712     16.1858     90.9880
   728.7500      0.0000    491.3469     15.6382     88.4169
   729.0000      0.0000    566.5481     15.0953     86.8727
   729.2500      0.0000    629.6495     14.6159     87.3432
