~Version Information
VERS.                      2.0: CWLS Log ASCII Standard - VERSION 2.0
WRAP.                       NO: One line per depth step
~Well Information Block
STRT.FT               860.0000: 
STOP.FT              2360.5000: 
STEP.FT                 0.1000: 
NULL.                -999.2500: 
COMP.          Pioneer Natural Resources: COMPANY
WELL.            Cayenne 23-23: WELL
FLD.           Purgatoire River: FIELD
LOC.           2555' FSL & 2386' FWL: LOCATION
PROV.                 Colorado: PROVINCE
CNTY.               Las Animas: COUNTRY
SRVC.                Patterson: SERVICE COMPANY
DATE.          Wed Aug 17 08:28:25 2005: LOG DATE
UWI.           05 071 08476 00: UNIQUE WELL ID
~Curve Information Block
DEPT.FT            0 000 00 00: Depth
DCAL.in                       : CDL Caliper
RHOB.g/cc                     : CDL Bulk Density
RHOC.g/cc                     : CDL Density Correction
DPOR.pu                       : CDL Density Porosity
GR.GAPI                       : Gamma Ray
NPOR.pu                       : Neutron Porosity
~Parameter Information Block
~A  Depth       DCAL        RHOB        RHOC        DPOR         GR         NPOR    
# ...
  2252.0000      7.8865      2.4093      0.0056     14.5871     75.8814     22.1459
  2252.1000      7.8865      2.4134     -0.0229     14.3420     74.0251     21.8024
  2252.2000      7.8865      2.4272      0.0515     13.5049     71.8249     20.9800
  2252.3000      7.8804      2.4302      0.0480     13.3203     70.1983     20.4844
  2252.4000      7.8804      2.4222      0.0160     13.8038     70.4876     20.4744
  2252.5000      7.8803      2.4265     -0.0228     13.5454     72.3059     20.6061
  2252.6000      7.8803      2.4431      0.0586     12.5389     74.1045     20.5267
  2252.7000      7.8803      2.4451      0.0328     12.4179     74.5071     19.9192
  2252.8000      7.8766      2.4231      0.0335     13.7488     72.1057     19.4666
  2252.9000      7.8766      2.3984     -0.0130     15.2470     68.9313     19.5002
  2253.0000      7.8781      2.3933     -0.0401     15.5600     70.2959     19.2216
  2253.1000      7.8781      2.4087      0.0058     14.6237     78.3768     18.7971
  2253.2000      7.8781      2.4330      0.0061     13.1491     88.8506     18.8916
  2253.3000      7.8775      2.4533      0.0173     11.9197     95.3654     19.1221
  2253.4000      7.8775      2.4600      0.0567     11.5138     97.5442     18.8883
  2253.5000      7.8803      2.4533      0.0486     11.9229     98.0856     18.6193
  2253.6000      7.8803      2.4445      0.0358     12.4528     99.0582     18.7523
  2253.7000      7.8803      2.4427      0.0470     12.5659    101.3311     18.6798
  2253.8000      7.8800      2.4505      0.0220     12.0921    103.2726     17.9367
  2253.9000      7.8800      2.4680      0.0455     11.0306    103.6278     16.9893
  2254.0000      7.8876      2.4895      0.0526      9.7298    101.0102     16.1550
  2254.1000      7.8876      2.5123      0.0513      8.3474     97.1716     15.1420
  2254.2000      7.8876      2.5351      0.0619      6.9612     96.4871     14.4034
  2254.3000      7.8865      2.5542      0.0426      5.8066     95.9869     14.3586
  2254.4000      7.8865      2.5657      0.0555      5.1091     91.5929     14.7917
  2254.5000      7.8790      2.5702      0.0143      4.8341     87.8775     15.3720
  2254.6000      7.8790      2.5737      0.0314      4.6229     88.6997     15.9322
  2254.7000      7.8790      2.5742      0.0622      4.5938     92.1022     16.3025
  2254.8000      7.8904      2.5579      0.0964      5.5831     93.2568     16.3185
  2254.9000      7.8904      2.5197      0.0420      7.8949     90.6705     16.1012
  2255.0000      7.9008      2.4829      0.0012     10.1302     88.7163     15.7238
  2255.1000      7.9008      2.4743     -0.0136     10.6507     90.6525     15.5764
  2255.2000      7.9008      2.4954      0.0346      9.3718     95.7881     15.9387
  2255.3000      7.8956      2.5295      0.0560      7.3060    102.4838     16.2989
  2255.4000      7.8956      2.5509      0.1155      6.0079    107.4761     16.6975
  2255.5000      7.8983      2.5406      0.0545      6.6293    110.3312     17.4577
  2255.6000      7.8983      2.5204     -0.0035      7.8522    114.3567     17.8352
  2255.7000      7.8983      2.5201      0.0235      7.8746    120.6762     17.5238
  2255.8000      7.8750      2.5251      0.0639      7.5712    127.6611     16.8830
  2255.9000      7.8750      2.5131     -0.0095      8.2985    128.4462     16.4286
  2256.0000      7.8964      2.4915      0.0256      9.6074    119.2279     16.6129
  2256.1000      7.8964      2.4758     -0.0377     10.5590    105.1030     16.9449
  2256.2000      7.8964      2.4727     -0.0039     10.7447     92.8507     16.9599
  2256.3000      7.9014      2.4741      0.0154     10.6590     84.7373     16.7685
  2256.4000      7.9014      2.4608      0.0796     11.4677     80.5763     16.6584
  2256.5000      7.9032      2.4310     -0.0279     13.2700     83.5072     17.1191
  2256.6000      7.9032      2.4121     -0.0233     14.4176     91.8902     17.7161
  2256.7000      7.9032      2.4176     -0.0041     14.0844     96.4763     17.8978
  2256.8000      7.9013      2.4339     -0.0047     13.0973     93.1337     18.2589
  2256.9000      7.9013      2.4524      0.0276     11.9771     85.6314     19.0156
  2257.0000      7.8994      2.4710      0.0844     10.8487     77.4613     19.6213
  2257.1000      7.8994      2.4801      0.0940     10.2955     70.4211     20.0777
  2257.2000      7.8994      2.4720      0.0469     10.7901     67.8405     20.6044
  2257.3000      7.8999      2.4480      0.0415     12.2401     71.4705     20.7946
  2257.4000      7.8999      2.4226     -0.0179     13.7814     77.1867     20.3796
  2257.5000      7.8919      2.4149      0.0019     14.2515     78.8507     19.5486
  2257.6000      7.8919      2.4221      0.0718     13.8144     77.6934     18.4983
  2257.7000      7.8919      2.4288      0.0092     13.4078     78.5593     17.6091
  2257.8000      7.8925      2.4311      0.0545     13.2671     81.6734     17.3568
  2257.9000      7.8925      2.4265      0.0438     13.5443     84.3066     17.8658
  2258.0000      7.8948      2.4182      0.0094     14.0457     83.9366     18.4705
  2258.1000      7.8948      2.4229      0.0086     13.7665     81.3578     18.2156
  2258.2000      7.8948      2.4391      0.0800     12.7806     79.1553     17.6346
  2258.3000      7.8936      2.4471      0.0528     12.2995     79.5848     17.8967
  2258.4000      7.8936      2.4424      0.0309     12.5816     80.9337     18.5455
  2258.5000      7.8928      2.4289      0.0538     13.3984     78.9997     18.4873
  2258.6000      7.8928      2.4147      0.0206     14.2617     75.1502     18.4712
  2258.7000      7.8928      2.4199      0.0299     13.9457     74.1416     19.2213
  2258.8000      7.8957      2.4473      0.0403     12.2875     74.9039     19.4008
  2258.9000      7.8957      2.4799      0.0354     10.3087     74.5498     18.3060
  2259.0000      7.9012      2.5042      0.0749      8.8374     74.5972     17.4624
  2259.1000      7.9012      2.5113      0.0848      8.4084     79.0210     17.8263
  2259.2000      7.9012      2.5033      0.0712      8.8904     87.2827     18.5700
  2259.3000      7.9019      2.4866      0.0809      9.9038     92.8318     18.9624
  2259.4000      7.9019      2.4656      0.0181     11.1784     91.8203     18.8924
  2259.5000      7.9013      2.4484      0.0524     12.2183     87.1486     18.3311
  2259.6000      7.9013      2.4380      0.0785     12.8503     80.5945     17.7640
  2259.7000      7.9013      2.4355      0.0269     12.9988     74.3925     17.5489
  2259.8000      7.9011      2.4436      0.0665     12.5083     72.7291     17.2852
  2259.9000      7.9011      2.4559      0.0572     11.7649     74.6604     16.8729
  2260.0000      7.9038      2.4592      0.0789     11.5637     76.1964     17.1350
  2260.1000      7.9038      2.4498      0.0198     12.1318     76.9166     18.5045
  2260.2000      7.9038      2.4375      0.0588     12.8777     77.4776     19.8638
  2260.3000      7.9060      2.4289      0.0436     13.4001     75.4461     20.1332
  2260.4000      7.9060      2.4242      0.0448     13.6846     71.2044     19.5428
  2260.5000      7.9000      2.4232      0.0318     13.7434     72.5811     18.7831
  2260.6000      7.9000      2.4179      0.0872     14.0663     80.5459     18.5646
  2260.7000      7.9000      2.3982      0.0547     15.2629     83.8369     18.8081
  2260.8000      7.9003      2.3839     -0.0191     16.1255     78.9125     18.6708
  2260.9000      7.9003      2.3955      0.0561     15.4266     73.9310     18.4272
  2261.0000      7.9034      2.4114      0.0475     14.4623     74.0366     19.2459
  2261.1000      7.9034      2.4158      0.0046     14.1955     77.6398     21.0659
  2261.2000      7.9034      2.4164      0.0099     14.1549     80.2996     22.0126
  2261.3000      7.9083      2.4203      0.0327     13.9226     80.8144     21.0259
  2261.4000      7.9083      2.4339      0.0182     13.0946     81.8515     19.4957
  2261.5000      7.9116      2.4530      0.0554     11.9410     84.5120     18.8817
