~Version Information
VERS.                      2.0: CWLS Log ASCII Standard - VERSION 2.0
WRAP.                       NO: One line per depth step
~Well Information Block
STRT.FT               -12.0000: 
STOP.FT              1728.0000: 
STEP.FT                 0.2500: 
NULL.                -999.2500: 
COMP.          XTO Energy Inc.: COMPANY
WELL.          Apache Canyon 35-06: WELL
FLD.              Vermejo Coal: FIELD
LOC.           2422' FNL & 1889' FWL--: LOCATION
STAT.                       CO: State
CNTY.               Las Animas: COUNTY
CTRY. USA : Country
SECT.  : Section
TOWN.  : Township
RANG.  : Range
SRVC.          Patterson Wireline: SERVICE COMPANY
DATE.          Fri Jan 06 08:11:44 2006: LOG DATE
API.              05 071 08540: UNIQUE WELL ID
~Curve Information Block
DEPT.FT            0 000 00 00: Depth
CCL.                          : Casing Collar Locator
TT3.usec                      : CBL 3' Travel Time
AMP3.mV                       : CBL 3' Amplitude
GR.GAPI                       : Gamma Ray
~Parameter Information Block
~A  Depth       CCL         TT3         AMP3         GR     
# ...
   658.0000      0.0000    723.6731      5.7759     96.8774
   658.2500      0.0000    738.1342      5.7814     90.9326
   658.5000      0.0000    736.8929      5.7856     81.8674
   658.7500      0.0000    726.2751      5.7805     72.5203
   659.0000      0.0000    719.4683      5.7669     66.0640
   659.2500      0.0000    727.6285      5.7509     64.2049
   659.5000      0.0000    749.2627      5.7375     66.4675
   659.7500      0.0000    769.7915      5.7265     70.7890
   660.0000      0.0000    772.8112      5.7156     74.8573
   660.2500      0.0000    751.2106      5.7026     77.1745
   660.5000      0.0000    709.7152      5.6861     77.3340
   660.7500      0.0000    660.6566      5.6665     75.8683
   661.0000      0.0000    616.9595      5.6457     73.9829
   661.2500      0.0000    585.7523      5.6260     72.9704
   661.5000      0.0000    566.7596      5.6114     73.4374
   661.7500      0.0000    556.2158      5.6074     74.8844
   662.0000      0.0000    551.3389      5.6189     76.0386
   662.2500      0.0000    551.1694      5.6448     75.9352
   662.5000      0.0000    555.2193      5.6772     75.0487
   662.7500      0.0000    563.6069      5.7074     75.1689
   663.0000      0.0000    578.3351      5.7320     77.7859
   663.2500      0.0000    601.6515      5.7535     82.5745
   663.5000      0.0000    631.1284      5.7753     87.5666
   663.7500      0.0000    658.1143      5.7978     90.6520
   664.0000      0.0000    674.3557      5.8193     90.9676
   664.2500      0.0000    679.9999      5.8401     89.4226
   664.5000      0.0000    682.4991      5.8628     88.1511
   664.7500      0.0000    687.7504      5.8890     88.9150
   665.0000      0.0000    694.6773      5.9151     91.6191
   665.2500      0.0000    698.3020      5.9337     94.5929
   665.5000      0.0000    695.4283      5.9396     96.3627
   665.7500      0.0000    686.2364      5.9335     96.8130
   666.0000      0.0000    671.8829      5.9207     96.6518
   666.2500      0.0000    652.4937      5.9041     96.2702
   666.5000      0.0000    628.3789      5.8819     95.5839
   666.7500      0.0000    602.6729      5.8501     94.7338
   667.0000      0.0000    581.2389      5.8091     94.3217
   667.2500      0.0000    569.1454      5.7663     94.8066
   667.5000      0.0000    567.9175      5.7299     96.1774
   667.7500      0.0000    576.7686      5.7056     98.3681
   668.0000      0.0000    595.1061      5.6971    101.6340
   668.2500      0.0000    621.9147      5.7088    106.3887
   668.5000      0.0000    653.1648      5.7416    112.6074
   668.7500      0.0000    682.4305      5.7884    119.1369
   669.0000      0.0000    705.4532      5.8369    123.7792
   669.2500      0.0000    723.1779      5.8781    124.8695
   669.5000      0.0000    739.4695      5.9097    123.0651
   669.7500      0.0000    756.0094      5.9333    121.0628
   670.0000      0.0000    769.5703      5.9496    121.1629
   670.2500      0.0000    774.2291      5.9569    123.4113
   670.5000      0.0000    766.1636      5.9531    126.2330
   670.7500      0.0000    746.1064      5.9374    128.2496
   671.0000      0.0000    717.5969      5.9113    129.0098
   671.2500      0.0000    684.4996      5.8785    128.4764
   671.5000      0.0000    651.3204      5.8442    126.7951
   671.7500      0.0000    624.8268      5.8131    124.6677
   672.0000      0.0000    612.6931      5.7882    123.3300
   672.2500      0.0000    618.2455      5.7688    123.7627
   672.5000      0.0000    636.0325      5.7483    125.8250
   672.7500      0.0000    654.4792      5.7162    128.1378
   673.0000      0.0000    664.9207      5.6659    129.0881
   673.2500      0.0000    667.5870      5.6052    128.4094
   673.5000      0.0000    668.4713      5.5614    127.8447
   673.7500      0.0000    672.7348      5.5667    129.8148
   674.0000      0.0000    682.1578      5.6236    135.0094
   674.2500      0.0000    696.0289      5.6934    141.3872
   674.5000      0.0000    712.2953      5.7370    145.6974
   674.7500      0.0000    728.9321      5.7564    145.9305
   675.0000      0.0000    744.8824      5.7786    142.5389
   675.2500      0.0000    758.8528      5.8125    137.8222
   675.5000     -2.0000    768.1646      5.8446    134.1769
   675.7500      0.0000    771.0571      5.8641    132.4638
   676.0000      0.0000    769.4139      5.8812    131.7659
   676.2500      0.0000    766.6470      5.9237    130.4827
   676.5000      0.0000    763.0548      6.0092    127.4593
   676.7500      0.0000    755.9506      6.1096    122.4799
   677.0000      0.0000    744.4506      6.1618    116.3429
   677.2500      0.0000    731.3893      6.1342    110.4919
   677.5000      0.0000    719.8102      6.0644    106.3969
   677.7500      0.0000    709.9115      6.0117    105.1348
   678.0000      0.0000    700.8027      5.9951    107.0482
   678.2500      0.0000    694.1710      5.9929    111.3558
   678.5000      0.0000    694.6292      5.9796    116.4589
   678.7500      0.0000    705.8517      5.9461    121.1473
   679.0000      0.0000    726.4545      5.8950    125.4969
   679.2500      0.0000    749.4037      5.8314    130.4919
   679.5000      0.0000    765.4122      5.7613    136.9433
   679.7500      0.0000    768.5466      5.6912    144.7767
   680.0000      0.0000    760.0121      5.6281    153.0616
   680.2500      0.0000    745.5729      5.5766    160.5193
   680.5000      0.0000    728.6008      5.5401    166.0691
   680.7500      0.0000    707.5261      5.5204    169.2117
   681.0000      0.0000    681.3826      5.5175    170.1530
   681.2500      0.0000    655.1074      5.5260    169.5042
   681.5000      0.0000    635.6085      5.5364    167.6520
   681.7500      0.0000    623.2510      5.5386    164.3911
   682.0000      0.0000    611.2203      5.5277    159.3887
   682.2500      0.0000    594.4847      5.5049    153.0844
   682.5000      0.0000    576.5979      5.4759    146.9945
   682.7500      0.0000    565.8296      5.4475    143.1168
   683.0000      0.0000    565.9558      5.4249    142.9560
   683.2500      0.0000    572.4152      5.4096    146.6819
   683.5000      0.0000    577.6550      5.4028    152.7442
   683.7500      0.0000    579.8378      5.4062    158.4853
   684.0000      0.0000    585.3685      5.4202    161.7192
   684.2500      0.0000    601.9584      5.4409    161.7599
   684.5000      0.0000    629.3615      5.4619    158.8437
   684.7500      0.0000    657.6583      5.4779    153.4041
   685.0000      0.0000    675.3653      5.4865    146.6611
   685.2500      0.0000    678.7231      5.4874    141.0162
   685.5000      0.0000    671.7299      5.4816    138.7369
   685.7500      0.0000    658.6179      5.4717    140.3857
   686.0000      0.0000    640.5396      5.4616    144.7987
   686.2500      0.0000    619.7036      5.4558    150.1215
   686.5000      0.0000    601.9266      5.4570    154.8595
   686.7500      0.0000    592.7250      5.4631    158.5139
   687.0000      0.0000    593.3231      5.4667    161.4312
   687.2500      0.0000    602.0665      5.4585    163.9123
   687.5000      0.0000    617.8257      5.4306    165.4936
   687.7500      0.0000    639.8608      5.3768    165.3042
   688.0000      0.0000    665.0760      5.2914    163.0788
   688.2500      0.0000    687.8586      5.1687    159.5204
   688.5000      0.0000    703.7767      5.0043    155.6983
   688.7500      0.0000    712.8837      4.7984    152.2912
   689.0000      0.0000    719.6490      4.5622    149.2207
   689.2500      0.0000    730.6904      4.3203    145.5816
   689.5000      0.0000    751.7923      4.1007    140.1143
   689.7500      0.0000    784.2340      3.9201    132.2692
   690.0000      0.0000    822.1489      3.7805    122.9284
   690.2500      0.0000    854.0873      3.6800    113.9710
   690.5000      0.0000    868.7653      3.6218    107.4100
   690.7500      0.0000    861.0571      3.6146    104.8807
   691.0000      0.0000    834.7386      3.6687    107.1821
   691.2500      0.0000    800.5057      3.7910    113.6854
