~Version Information
VERS.                      2.0: CWLS Log ASCII Standard - VERSION 2.0
WRAP.                       NO: One line per depth step
~Well Information Block
STRT.FT                -6.7500: 
STOP.FT              1250.5000: 
STEP.FT                 0.2500: 
NULL.                -999.2500: 
COMP.          Pioneer Natural Resources: COMPANY
WELL.          Irish Eyes 33-21: WELL
FLD.           Purgatorie River: FIELD
LOC.           1379' FSL & 2544' FEL--: LOCATION
PROV.                       CO: PROVINCE
CNTY.               Las Animas: COUNTRY
SRVC.          Patterson Wireline: SERVICE COMPANY
DATE.          Mon Jan 23 11:57:23 2006: LOG DATE
UWI.           05 071 08658 00: UNIQUE WELL ID
~Curve Information Block
DEPT.FT            0 000 00 00: Depth
CCL.                          : Casing Collar Locator
TT3.usec                      : CBL 3' Travel Time
AMP3.mV                       : CBL 3' Amplitude
GR.GAPI                       : Gamma Ray
~Parameter Information Block
~A  Depth       CCL         TT3         AMP3         GR     
    -6.7500   -999.2500   -999.2500   -999.2500    110.3936
    -6.5000   -999.2500   -999.2500   -999.2500    109.7304
    -6.2500   -999.2500   -999.2500   -999.2500    108.2190
    -6.0000   -999.2500   -999.2500   -999.2500    107.2623
    -5.7500   -999.2500   -999.2500   -999.2500    106.9124
    -5.5000   -999.2500   -999.2500   -999.2500    105.9500
    -5.2500   -999.2500   -999.2500   -999.2500    103.5260
    -5.0000   -999.2500   -999.2500   -999.2500    100.3194
    -4.7500   -999.2500   -999.2500   -999.2500     98.0453
    -4.5000   -999.2500   -999.2500   -999.2500     98.0910
    -4.2500   -999.2500   -999.2500   -999.2500    100.5770
    -4.0000   -999.2500   -999.2500   -999.2500    104.3819
    -3.7500   -999.2500   -999.2500   -999.2500    107.9231
    -3.5000   -999.2500   -999.2500   -999.2500    110.0762
    -3.2500   -999.2500   -999.2500   -999.2500    110.5157
    -3.0000   -999.2500   -999.2500   -999.2500    109.3931
    -2.7500   -999.2500   -999.2500   -999.2500    106.8931
    -2.5000   -999.2500   -999.2500   -999.2500    103.1507
    -2.2500   -999.2500   -999.2500   -999.2500     98.5445
    -2.0000   -999.2500   -999.2500   -999.2500     93.9505
    -1.7500   -999.2500   1161.0000     -0.5664     90.4755
    -1.5000   -999.2500   1161.0000     -0.5553     88.6982
    -1.2500   -999.2500   1161.0000     -0.5550     88.0941
    -1.0000   -999.2500   1161.0000     -0.5572     87.4183
    -0.7500   -999.2500   1161.0000     -0.5536     85.7944
    -0.5000   -999.2500   1161.0000     -0.5437     83.3245
    -0.2500   -999.2500   1161.0000     -0.5341     80.7689
     0.0000   -999.2500   1161.0000     -0.5324     78.8634
     0.2500   -999.2500   1161.0000     -0.5537     76.2775
     0.5000   -999.2500   1161.0000     -0.5682     72.8148
     0.7500   -999.2500   1161.0000     -0.5820     66.0275
     1.0000   -999.2500   1161.0000     -0.5946     56.3845
     1.2500   -999.2500   1161.0000     -0.6046     45.9786
     1.5000   -999.2500   1161.0000     -0.6101     37.3718
     1.7500   -999.2500   1161.0000     -0.6108     32.6631
     2.0000   -999.2500   1161.0000     -0.6084     32.9842
     2.2500   -999.2500   1161.0000     -0.6046     38.0437
     2.5000   -999.2500   1161.0000     -0.6002     46.0642
     2.7500   -999.2500   1161.0000     -0.5958     54.6334
     3.0000   -999.2500   1161.0000     -0.5944     61.8967
     3.2500   -999.2500   1161.0000     -0.5994     67.1289
     3.5000   -999.2500   1161.0000     -0.6103     70.7539
     3.7500      0.0000   1161.0000     -0.6204     74.0120
     4.0000      0.0000   1161.0000     -0.6208     77.9836
     4.2500      0.0000   1161.0000     -0.6068     82.4512
     4.5000      0.0000   1161.0000     -0.5822     85.9318
     4.7500      0.0000   1160.9698     -0.5568     87.0172
     5.0000      0.0000   1160.7433     -0.5337     85.5505
     5.2500      0.0000   1159.5499     -0.4904     82.6716
     5.5000      0.0000   1154.6123     -0.3032     80.0383
     5.7500      0.0000   1138.5413      0.4412     78.7932
     6.0000      0.0000   1097.3333      2.7378     78.8036
     6.2500      0.0000   1013.9761      8.2274     78.7798
     6.5000      0.0000    880.7905     18.4422     77.3623
     6.7500      0.0000    712.5538     33.2703     74.4391
     7.0000      0.0000    544.4611     50.0835     71.5914
     7.2500      0.0000    411.6126     65.0045     71.0785
     7.5000      0.0000    328.5969     75.4217     74.0065
     7.7500      0.0000    287.6116     81.2217     79.2745
     8.0000      0.0000    271.6363     83.8854     84.4622
     8.2500      0.0000    266.7161     84.9644     87.8752
     8.5000      0.0000    265.5081     85.3835     89.5397
     8.7500      0.0000    265.2613     85.5527     90.1822
     9.0000      0.0000    265.2163     85.6439     89.7256
     9.2500      0.0000    265.2101     85.7200     87.1991
     9.5000      0.0000    265.2137     85.7772     82.0339
     9.7500      0.0000    265.2278     85.7914     75.1291
    10.0000      0.0000    265.2511     85.7705     68.4373
    10.2500      0.0000    265.2779     85.7533     63.5785
    10.5000      0.0000    265.2996     85.7565     60.9255
    10.7500      0.0000    265.3103     85.7175     59.7456
    11.0000      0.0000    265.3120     85.4691     58.9420
    11.2500      0.0000    265.3171     84.7493     57.7645
    11.5000      0.0000    265.3525     83.2551     56.1861
    11.7500      0.0000    265.4658     80.7473     54.8557
    12.0000      0.0000    265.7504     77.1661     54.7189
    12.2500      0.0000    266.4122     72.6657     56.5525
    12.5000      0.0000    267.8950     67.5190     60.7236
    12.7500      0.0000    270.9239     61.9709     67.1534
    13.0000      0.0000    276.4043     56.1600     75.2071
    13.2500      0.0000    285.2433     50.1430     83.5217
    13.5000      0.0000    299.0063     43.9650     90.2743
    13.7500      0.0000    321.7202     37.7674     94.0382
    14.0000      0.0000    361.2976     31.8995     94.5220
    14.2500      0.0000    427.7050     26.8631     92.4910
    14.5000      0.0000    525.1317     23.0049     89.0176
    14.7500      0.0000    641.2422     20.2650     84.8571
    15.0000      0.0000    745.8651     18.3301     80.3724
    15.2500      0.0000    810.1642     16.9665     75.7837
    15.5000      0.0000    833.1782     16.0856     71.3775
    15.7500      0.0000    844.9927     15.5842     67.6580
    16.0000      0.0000    877.8899     15.2963     65.4635
    16.2500      2.0000    934.5786     15.0881     65.6160
    16.5000      0.0000    985.7484     14.9365     68.0494
    16.7500      0.0000    996.6479     14.9262     71.3926
    17.0000      0.0000    955.4025     15.1765     73.7278
    17.2500      0.0000    879.4916     15.7256     73.7601
    17.5000      0.0000    798.9459     16.4862     71.2126
    17.7500      0.0000    733.0373     17.3517     66.4217
    18.0000      0.0000    682.2631     18.2707     60.1091
    18.2500      0.0000    640.8608     19.1488     53.5480
    18.5000      0.0000    611.8496     19.7743     48.2029
    18.7500      0.0000    606.5900     19.9555     44.7727
    19.0000      0.0000    628.7093     19.7040     42.9687
    19.2500      0.0000    659.6689     19.2298     42.4585
    19.5000      0.0000    665.9758     18.7766     43.5357
    19.7500      0.0000    627.0732     18.4763     46.5302
    20.0000      0.0000    555.9760     18.3223     50.8777
    20.2500      0.0000    491.6638     18.2279     55.1571
    20.5000      0.0000    473.9919     18.1054     58.0025
    20.7500      0.0000    523.6334     17.9113     58.8910
    21.0000      0.0000    633.4620     17.6471     58.3182
    21.2500      0.0000    769.5198     17.3352     57.4651
    21.5000      0.0000    886.2250     16.9950     57.6318
    21.7500      0.0000    952.6664     16.6364     59.8659
    22.0000      0.0000    968.8893     16.2720     64.8243
    22.2500      0.0000    956.5653     15.9252     72.2515
    22.5000      0.0000    935.1315     15.6209     80.2237
    22.7500      0.0000    908.0193     15.3672     85.6244
    23.0000      0.0000    869.3925     15.1544     86.2889
    23.2500      0.0000    819.0087     14.9733     82.8873
    23.5000      0.0000    765.3829     14.8302     78.3948
    23.7500      0.0000    716.6992     14.7448     75.6570
    24.0000      0.0000    678.5295     14.7369     75.5022
    24.2500      0.0000    661.3811     14.8128     76.8476
    24.5000      0.0000    676.7064     14.9593     78.0353
    24.7500      0.0000    718.3661     15.1472     78.0174
    25.0000      0.0000    757.8563     15.3382     76.8564
    25.2500      0.0000    765.6176     15.4930     75.5527
    25.5000      0.0000    733.8340     15.5833     75.2806
    25.7500      0.0000    677.3643     15.6048     76.5117
    26.0000      0.0000    618.0666     15.5748     78.8242
    26.2500      0.0000    570.1851     15.5159     81.5371
    26.5000      0.0000    534.3706     15.4494     84.3540
