~Version Information
VERS.                      2.0: CWLS Log ASCII Standard - VERSION 2.0
WRAP.                       NO: One line per depth step
~Well Information Block
STRT.FT                -9.5000: 
STOP.FT              2305.7500: 
STEP.FT                 0.2500: 
NULL.                -999.2500: 
COMP.          Pioneer Natural Resources: COMPANY
WELL.          Fittipaldi 21-12: WELL
FLD.           Purgatorie River: FIELD
LOC.           207' FNL & 2110' FWL--: LOCATION
CNTY.               Las Animas: COUNTY
SRVC.          Patterson Wireline: SERVICE COMPANY
DATE.          Wed Apr 12 10:38:25 2006: LOG DATE
UWI.           05 071 08492 00: UNIQUE WELL ID
STAT.                       CO: STATE
~Curve Information Block
DEPT.FT            0 000 00 00: Depth
CCL.                          : Casing Collar Locator
TT3.usec                      : CBL 3' Travel Time
AMP3.mV                       : CBL 3' Amplitude
GR.GAPI                       : Gamma Ray
~Parameter Information Block
~A  Depth       CCL         TT3         AMP3         GR     
# ...
  1062.5000      0.0000    682.4229      3.2626    112.0644
  1062.7500      0.0000    681.4615      3.2854    111.7634
  1063.0000      0.0000    680.9750      3.3592    112.4864
  1063.2500      0.0000    680.7797      3.4392    114.8530
  1063.5000      0.0000    680.6449      3.4847    118.7725
  1063.7500      0.0000    680.5282      3.4791    123.4399
  1064.0000      0.0000    680.4776      3.4340    127.5692
  1064.2500      0.0000    680.4998      3.3755    130.0666
  1064.5000      0.0000    680.5222      3.3270    130.9030
  1064.7500      0.0000    680.3315      3.3031    131.0305
  1065.0000      0.0000    679.4095      3.3109    131.1229
  1065.2500      0.0000    676.9916      3.3491    130.7780
  1065.5000      0.0000    672.7915      3.4041    129.2249
  1065.7500      0.0000    668.0812      3.4540    126.3806
  1066.0000      0.0000    665.6598      3.4839    122.9187
  1066.2500      0.0000    667.7662      3.4982    119.7489
  1066.5000      0.0000    673.7197      3.5144    117.5829
  1066.7500      0.0000    680.2894      3.5429    116.4816
  1067.0000      0.0000    684.6942      3.5764    115.7289
  1067.2500      0.0000    686.6998      3.6003    114.4941
  1067.5000      0.0000    687.6894      3.6092    112.5415
  1067.7500      0.0000    688.5107      3.6066    110.1354
  1068.0000      0.0000    688.7961      3.5933    107.6413
  1068.2500      0.0000    687.9834      3.5618    105.4621
  1068.5000      0.0000    686.2629      3.5077    104.0632
  1068.7500      0.0000    684.3357      3.4442    103.9233
  1069.0000      0.0000    682.4464      3.4052    105.5159
  1069.2500      0.0000    679.5112      3.4264    109.0157
  1069.5000      0.0000    672.4340      3.5148    113.9137
  1069.7500      0.0000    656.1251      3.6370    119.3884
  1070.0000      0.0000    625.8097      3.7441    124.9702
  1070.2500      0.0000    581.6321      3.8080    130.1160
  1070.5000      0.0000    531.2476      3.8286    133.3580
  1070.7500      0.0000    485.8605      3.8135    133.0219
  1071.0000      0.0000    452.5242      3.7633    128.9725
  1071.2500      0.0000    430.7372      3.6779    122.9705
  1071.5000      0.0000    416.0961      3.5701    117.2911
  1071.7500      0.0000    405.8277      3.4675    113.2991
  1072.0000      0.0000    400.9160      3.4005    111.1912
  1072.2500      0.0000    404.4424      3.3834    110.6770
  1072.5000      0.0000    418.3607      3.4041    111.4419
  1072.7500      0.0000    440.8070      3.4348    112.9098
  1073.0000      0.0000    465.8542      3.4551    114.3943
  1073.2500      0.0000    486.4681      3.4628    116.0668
  1073.5000      0.0000    498.2976      3.4659    118.9995
  1073.7500      0.0000    500.6893      3.4714    123.4840
  1074.0000      0.0000    494.5011      3.4837    127.9518
  1074.2500      0.0000    480.1492      3.5055    130.3521
  1074.5000      0.0000    458.6545      3.5341    130.2660
  1074.7500      0.0000    433.8114      3.5594    129.0650
  1075.0000      0.0000    411.4709      3.5696    128.2127
  1075.2500      0.0000    395.9635      3.5597    127.9465
  1075.5000      0.0000    387.8406      3.5338    127.6563
  1075.7500      0.0000    385.0335      3.5007    127.2747
  1076.0000      0.0000    385.4832      3.4693    128.1030
  1076.2500      0.0000    388.8572      3.4465    131.9294
  1076.5000      0.0000    396.8840      3.4351    139.0327
  1076.7500      0.0000    412.0068      3.4342    147.3343
  1077.0000      0.0000    434.0405      3.4431    153.8648
  1077.2500      0.0000    457.2454      3.4630    156.9292
  1077.5000      0.0000    472.5459      3.4924    156.7570
  1077.7500      0.0000    474.9506      3.5233    154.3816
  1078.0000      0.0000    468.5576      3.5443    150.2149
  1078.2500      0.0000    463.7524      3.5460    143.7872
  1078.5000      0.0000    470.7493      3.5258    134.7300
  1078.7500      0.0000    495.0244      3.4897    123.7807
  1079.0000      0.0000    534.6760      3.4508    112.8642
  1079.2500      0.0000    579.8547      3.4223    104.2745
  1079.5000      0.0000    617.3259      3.4096     99.3942
  1079.7500      0.0000    638.7622      3.4119     97.8371
  1080.0000      0.0000    645.0364      3.4304     98.0611
  1080.2500      0.0000    642.0151      3.4708     98.9950
  1080.5000      0.0000    633.1913      3.5306    100.7570
  1080.7500      0.0000    617.6703      3.5899    103.6618
  1081.0000      0.0000    594.4352      3.6217    107.1134
  1081.2500      0.0000    565.8654      3.6113    110.1391
  1081.5000      0.0000    536.4602      3.5649    112.8740
  1081.7500      0.0000    510.0134      3.5011    116.6636
  1082.0000      0.0000    488.6906      3.4368    122.2461
  1082.2500      0.0000    473.6373      3.3786    128.3267
  1082.5000      0.0000    465.5900      3.3290    132.5974
  1082.7500      0.0000    464.6895      3.2982    133.9527
  1083.0000      0.0000    469.7966      3.3044    133.1004
  1083.2500      0.0000    478.5528      3.3574    131.0810
  1083.5000      0.0000    488.1588      3.4466    127.7036
  1083.7500      0.0000    495.1326      3.5499    121.7247
  1084.0000      0.0000    494.7769      3.6496    112.6927
  1084.2500      0.0000    483.7799      3.7355    102.3982
  1084.5000      0.0000    465.0941      3.7970     93.9021
  1084.7500      0.0000    447.9221      3.8193     88.8078
  1085.0000      0.0000    439.9544      3.7917     85.8764
  1085.2500      0.0000    439.7354      3.7159     82.6735
  1085.5000      0.0000    438.4612      3.6078     78.3437
  1085.7500      0.0000    429.5633      3.4927     74.4415
  1086.0000      0.0000    414.9562      3.4005     73.1071
  1086.2500      0.0000    401.5031      3.3586     74.7014
  1086.5000      0.0000    393.6422      3.3803     77.5852
  1086.7500      0.0000    390.8452      3.4531     80.1698
  1087.0000      0.0000    390.4040      3.5403     82.4669
  1087.2500      0.0000    390.4825      3.6011     85.3444
  1087.5000      0.0000    390.6574      3.6151     89.0640
  1087.7500      0.0000    391.2977      3.5916     93.1247
  1088.0000      0.0000    393.5848      3.5588     96.9970
  1088.2500      0.0000    400.1012      3.5441    100.3993
  1088.5000      0.0000    413.9674      3.5588    103.1612
  1088.7500      0.0000    435.1435      3.5970    105.3218
  1089.0000      0.0000    457.0980      3.6433    107.2759
  1089.2500      0.0000    469.6924      3.6820    109.6191
  1089.5000      0.0000    467.7683      3.7019    112.9070
  1089.7500      0.0000    455.8407      3.6987    117.2270
  1090.0000      0.0000    443.0153      3.6779    121.6182
  1090.2500      0.0000    434.8452      3.6543    124.3879
  1090.5000      0.0000    431.0448      3.6452    124.7587
  1090.7500      0.0000    428.7676      3.6588    124.1384
  1091.0000      0.0000    426.0061      3.6890    125.2048
  1091.2500      0.0000    422.5063      3.7212    129.5886
  1091.5000      0.0000    419.1768      3.7448    136.5570
  1091.7500      0.0000    417.4774      3.7606    143.7278
  1092.0000      0.0000    419.0471      3.7753    148.9204
  1092.2500      0.0000    425.2343      3.7902    151.6055
  1092.5000      0.0000    436.9448      3.7972    152.7438
  1092.7500      0.0000    455.0061      3.7868    153.2116
  1093.0000      0.0000    479.7196      3.7578    152.8404
  1093.2500      0.0000    509.0219      3.7194    151.4665
  1093.5000      0.0000    537.5694      3.6838    150.3615
  1093.7500      0.0000    559.1049      3.6580    151.4466
  1094.0000      0.0000    570.3234      3.6443    155.0516
  1094.2500      0.0000    572.4143      3.6473    159.4088
  1094.5000      0.0000    568.9517      3.6740    162.5078
  1094.7500      0.0000    563.3124      3.7207    163.6534
  1095.0000      0.0000    559.3439      3.7636    162.9895
  1095.2500      0.0000    562.7629      3.7697    160.3433
  1095.5000      0.0000    577.8514      3.7215    155.5306
  1095.7500      0.0000    601.9334      3.6284    149.7090
