~Version Information
 VERS.                                  2.0 : CWLS LAS VERSION
 WRAP.                                   NO : WRAPING MODE
 SWARE .                 MController 2.5.0N : SOFTWARE VERSION
~Well Information
 WELL.                            AMX 13-13 : WELL
 COMP.  Pioneer Natural Resources USA, Inc. : COMPANY
 FLD.                      Purgatoire River : FIELD
 LOC.                      NW/SW 13-32S-68W : LOCATION
 DATE.                          12/18-19/05 : DATE(S) LOGGED
 SRVC.       BLANCO Geological Services LLC : SERVICE COMPANY
 STAT.                                   CO : STATE
 CNTY.                           Las Animas : COUNTY
 CTRY.                                  USA : COUNTRY
 API.                          05-071-08630 : API NUMBER
 STRT.FT                             496.00 : START DEPTH
 STOP.FT                            2875.00 : STOP DEPTH
 STEP.FT                               1.00 : DEPTH INCREMENT
 NULL.                                -9999 : NULL VALUE
~Curve information
 DEPTH.FT                                   :
 ROP.MIN/FT                                 :
 GAS.UNITS                                  :
~ASCII Log data
# ...
      1896.0         0.27        440.0 
      1897.0         0.23        166.6 
      1898.0         0.23        160.8 
      1899.0         0.27        157.3 
      1900.0         0.27        154.9 
      1901.0         0.23        156.3 
      1902.0         0.28        159.1 
      1903.0         0.33        161.2 
      1904.0         0.40        162.6 
      1905.0         0.43        162.7 
      1906.0         0.33        161.1 
      1907.0         0.27        156.6 
      1908.0         0.23        151.6 
      1909.0         0.23        146.3 
      1910.0         0.20        145.3 
      1911.0         0.23        152.2 
      1912.0         0.23        159.5 
      1913.0         0.23        163.3 
      1914.0         0.25        162.7 
      1915.0         0.33        151.8 
      1916.0         2.13       2418.6 
      1917.0         0.33       2457.0 
      1918.0         0.37       2397.0 
      1919.0         0.38       2007.3 
      1920.0         0.67       1383.3 
      1921.0         0.43        765.5 
      1922.0         0.30        608.3 
      1923.0         0.43        567.0 
      1924.0         0.40        537.3 
      1925.0         0.23        501.4 
      1926.0         0.27        480.5 
      1927.0         0.23        468.9 
      1928.0         0.32        472.0 
      1929.0         0.33        472.3 
      1930.0         0.30        464.5 
      1931.0         0.27        453.0 
      1932.0         0.30        444.2 
      1933.0         0.30        520.8 
      1934.0         0.63        980.2 
      1935.0         0.87       1103.0 
      1936.0         1.32        712.0 
      1937.0         0.47        174.8 
      1938.0         0.30        186.7 
      1939.0         0.40        190.0 
      1940.0         0.43        188.8 
      1941.0         0.47        180.7 
      1942.0         0.42        171.8 
      1943.0         0.47        165.7 
      1944.0         0.40        162.2 
      1945.0         0.33        154.1 
      1946.0         3.38       1536.7 
      1947.0         0.30       1515.5 
      1948.0         0.50       1516.7 
      1949.0         0.30       1310.8 
      1950.0         0.23       1050.2 
      1951.0         0.17        884.2 
      1952.0         0.28        805.2 
      1953.0         0.70        722.3 
      1954.0         0.40        650.5 
      1955.0         0.40        626.1 
      1956.0         0.40        607.0 
      1957.0         0.27        562.7 
      1958.0         0.20        538.3 
      1959.0         0.20        547.7 
      1960.0         0.23        569.8 
      1961.0         0.33        594.2 
      1962.0         0.35        594.2 
      1963.0         0.30        571.7 
      1964.0         0.27        550.8 
      1965.0         0.27        545.8 
      1966.0         0.33        540.5 
      1967.0         0.30        526.1 
      1968.0         0.37        519.8 
      1969.0         0.47        544.8 
      1970.0         0.43        540.8 
      1971.0         0.37        548.3 
      1972.0         0.42        621.4 
      1973.0         0.33        684.2 
      1974.0         0.33        687.0 
      1975.0         0.50        642.7 
      1976.0         2.82       2048.9 
      1977.0         0.43       2135.5 
      1978.0         0.50       2120.5 
      1979.0         0.40       1761.7 
      1980.0         0.33       1282.0 
      1981.0         0.37        988.3 
      1982.0         0.30        788.6 
      1983.0         0.38        707.7 
      1984.0         0.37        666.7 
      1985.0         0.40        650.2 
      1986.0         0.30        612.3 
      1987.0         0.37        583.6 
      1988.0         0.30        560.2 
      1989.0         0.33        543.6 
      1990.0         0.33        535.2 
      1991.0         0.27        517.3 
      1992.0         0.17        503.6 
      1993.0         0.25        500.5 
      1994.0         0.27        496.1 
      1995.0         0.33        493.6 
      1996.0         0.40        489.8 
      1997.0         0.37        484.5 
      1998.0         0.37        477.6 
      1999.0         0.30        475.1 
      2000.0         0.27        475.8 
      2001.0         0.40        477.0 
      2002.0         0.33        474.2 
      2003.0         0.48        472.6 
      2004.0         0.57        446.4 
      2005.0         0.30        163.3 
      2006.0         3.18       1974.5 
      2007.0         0.47       1974.8 
      2008.0         0.40       1775.1 
      2009.0         0.37       1321.7 
      2010.0         0.37        971.4 
      2011.0         0.30        767.7 
      2012.0         0.30        666.7 
      2013.0         0.35        620.5 
      2014.0         0.33        595.2 
      2015.0         0.27        567.7 
      2016.0         0.23        547.0 
      2017.0         0.20        528.9 
      2018.0         0.27        513.9 
      2019.0         0.20        498.3 
      2020.0         0.20        489.5 
      2021.0         0.20        490.5 
      2022.0         0.17        497.0 
      2023.0         0.23        515.2 
      2024.0         0.23        528.0 
      2025.0         0.30        531.7 
      2026.0         0.35        529.8 
      2027.0         0.37        519.2 
      2028.0         0.33        499.5 
      2029.0         0.27        487.6 
      2030.0         0.33        489.2 
      2031.0         0.33        490.5 
      2032.0         0.40        489.8 
      2033.0         0.33        489.2 
      2034.0         0.30        481.4 
      2035.0         0.27        440.5 
      2036.0         2.95       2420.8 
      2037.0         0.50       2157.3 
      2038.0         0.62       1423.3 
      2039.0         0.43        835.2 
      2040.0         0.33        662.3 
      2041.0         0.53        609.8 
      2042.0         0.50        577.0 
      2043.0         0.40        563.0 
      2044.0         0.40        544.8 
      2045.0         0.33        528.3 
      2046.0         0.28        515.5 
      2047.0         0.30        505.1 
      2048.0         0.30        502.0 
      2049.0         0.30        498.6 
      2050.0         0.30        490.5 
      2051.0         0.27        476.1 
      2052.0         0.27        468.9 
      2053.0         0.23        457.6 
      2054.0         0.13        450.8 
      2055.0         0.20        449.8 
      2056.0         0.20        455.8 
      2057.0         0.20        458.9 
      2058.0         0.27        459.8 
      2059.0         0.22        459.8 
      2060.0         0.20        463.9 
      2061.0         0.20        468.0 
      2062.0         0.23        467.0 
      2063.0         0.33        452.6 
      2064.0         0.20        440.0 
      2065.0         0.20        155.1 
      2066.0         4.45       3224.8 
      2067.0         0.37        766.4 
      2068.0         0.48        646.1 
      2069.0         0.73        596.1 
      2070.0         0.50        560.2 
      2071.0         0.47        519.8 
      2072.0         0.50        498.0 
      2073.0         0.37        471.1 
      2074.0         0.30        455.1 
      2075.0         0.35        455.5 
      2076.0         0.33        459.2 
      2077.0         0.40        461.4 
      2078.0         0.37        459.8 
      2079.0         0.33        456.1 
      2080.0         0.33        455.5 
      2081.0         0.33        456.1 
      2082.0         0.30        454.8 
      2083.0         0.33        457.6 
      2084.0         0.40        463.6 
      2085.0         0.42        464.2 
      2086.0         0.40        468.3 
      2087.0         0.47        473.9 
      2088.0         0.40        519.5 
      2089.0         0.27        563.6 
      2090.0         0.37        578.9 
      2091.0         0.37        564.5 
      2092.0         0.20        483.3 
      2093.0         0.27        446.7 
      2094.0         0.33        440.0 
      2095.0         0.32        193.9 
