~Version Information
 VERS.                                  2.0 : CWLS LAS VERSION
 WRAP.                                   NO : WRAPING MODE
 SWARE .                 MController 2.5.0N : SOFTWARE VERSION
~Well Information
 WELL.                        Cleaver 24-12 : WELL
 COMP.    Pioneer Natural Resources USA Inc : COMPANY
 FLD.                      Purgatoire River : FIELD
 LOC.                SE/SW Sec 12 T32S R67W : LOCATION
 DATE.                         1/05-06/2006 : DATE(S) LOGGED
 SRVC.       BLANCO Geological Services LLC : SERVICE COMPANY
 STAT.                                   CO : STATE
 CNTY.                           Las Animas : COUNTY
 CTRY.                                  USA : COUNTRY
 API.                       05-071-08634-00 : API NUMBER
 STRT.FT                             461.00 : START DEPTH
 STOP.FT                            3055.00 : STOP DEPTH
 STEP.FT                               1.00 : DEPTH INCREMENT
 NULL.                                -9999 : NULL VALUE
~Curve information
 DEPTH.FT                                   :
 ROP.MIN/FT                                 :
 GAS.UNITS                                  :
~ASCII Log data
       461.0       707.80         12.4 
       462.0        10.62          5.2 
       463.0         0.17          1.6 
       464.0         0.20          1.6 
       465.0         0.32          1.8 
       466.0         0.33          2.1 
       467.0         0.37          2.1 
       468.0         0.33          2.3 
       469.0         0.33          2.4 
       470.0         0.30          2.5 
       471.0         0.37          2.4 
       472.0         0.33          2.5 
       473.0         0.47          2.5 
       474.0         0.42          2.5 
       475.0         0.20          2.3 
       476.0         3.82          2.6 
       477.0         0.17          2.7 
       478.0         0.17          2.6 
       479.0         0.07          2.4 
       480.0         0.10          2.5 
       481.0         0.23          2.3 
       482.0         0.40          2.2 
       483.0         0.30          2.2 
       484.0         0.30          2.0 
       485.0         0.33          2.1 
       486.0         0.33          2.0 
       487.0         0.42          2.2 
       488.0         0.27          2.2 
       489.0         0.43          2.1 
       490.0         0.27          2.2 
       491.0         0.23          1.9 
       492.0         0.23          2.1 
       493.0         0.27          1.9 
       494.0         0.27          2.0 
       495.0         0.30          2.0 
       496.0         0.30          2.0 
       497.0         0.30          2.1 
       498.0         0.28          2.0 
       499.0         0.27          2.1 
       500.0         0.27          2.2 
       501.0         0.33          2.0 
       502.0         0.20          2.0 
       503.0         0.40          1.9 
       504.0         0.37          1.9 
       505.0         0.33          2.0 
       506.0         2.52          1.8 
       507.0         0.43          1.7 
       508.0         0.30          1.6 
       509.0         0.27          1.6 
       510.0         0.23          1.6 
       511.0         0.27          1.8 
       512.0         0.28          1.8 
       513.0         0.23          1.9 
       514.0         0.23          1.9 
       515.0         0.27          2.0 
       516.0         0.30          2.0 
       517.0         0.30          2.2 
       518.0         0.23          2.1 
       519.0         0.23          2.1 
       520.0         0.30          2.1 
       521.0         0.30          2.2 
       522.0         0.27          2.3 
       523.0         0.27          1.9 
       524.0         0.27          2.1 
       525.0         0.28          2.1 
       526.0         0.23          2.1 
       527.0         0.23          2.1 
       528.0         0.27          2.1 
       529.0         0.23          2.0 
       530.0         0.23          2.0 
       531.0         0.27          1.8 
       532.0         0.27          1.8 
       533.0         0.23          1.8 
       534.0         0.27          1.7 
       535.0         0.37          1.8 
       536.0         2.95          1.8 
       537.0         0.23          1.5 
       538.0         0.30          1.4 
       539.0         0.27          1.4 
       540.0         0.25          1.4 
       541.0         0.27          1.3 
       542.0         0.23          1.3 
       543.0         0.27          1.3 
       544.0         0.23          1.3 
       545.0         0.27          1.4 
       546.0         0.33          1.4 
       547.0         0.27          1.5 
       548.0         0.27          1.6 
       549.0         0.23          1.6 
       550.0         0.23          1.6 
       551.0         0.27          1.6 
       552.0         0.23          1.8 
       553.0         0.28          1.9 
       554.0         0.27          1.8 
       555.0         0.30          1.9 
       556.0         0.30          1.8 
       557.0         0.23          1.8 
       558.0         0.27          1.7 
       559.0         0.30          1.8 
       560.0         0.27          1.8 
       561.0         0.27          1.6 
       562.0         0.23          1.6 
       563.0         0.27          1.8 
       564.0         0.45          1.8 
       565.0         0.37          1.6 
       566.0         4.02        202.6 
       567.0         0.10          3.4 
       568.0         0.13          3.3 
       569.0         0.27          3.1 
       570.0         0.20          2.9 
       571.0         0.27          2.9 
       572.0         0.27          2.4 
       573.0         0.27          2.5 
       574.0         0.20          2.4 
       575.0         0.20          2.6 
       576.0         0.23          2.8 
       577.0         0.25          2.9 
       578.0         0.20          3.0 
       579.0         0.23          3.1 
       580.0         0.20          3.3 
       581.0         0.20          3.4 
       582.0         0.23          3.7 
       583.0         0.30          3.9 
       584.0         0.27          4.1 
       585.0         0.27          4.1 
       586.0         0.23          4.2 
       587.0         0.27          4.4 
       588.0         0.27          4.4 
       589.0         0.33          4.5 
       590.0         0.35          4.6 
       591.0         0.30          4.6 
       592.0         0.30          4.5 
       593.0         0.20          4.4 
       594.0         0.17          4.6 
       595.0         0.33          4.4 
       596.0         5.60          5.0 
       597.0         0.33          4.8 
       598.0         0.23          4.7 
       599.0         0.23          4.7 
       600.0         0.27          4.6 
       601.0         0.23          4.9 
       602.0         0.27          4.7 
       603.0         0.30          4.6 
       604.0         0.23          4.7 
       605.0         0.30          4.8 
       606.0         0.30          4.6 
       607.0         0.32          4.7 
       608.0         0.23          4.9 
       609.0         0.27          4.9 
       610.0         0.27          4.9 
       611.0         0.33          5.0 
       612.0         0.30          5.0 
       613.0         0.27          5.1 
       614.0         0.23          5.0 
       615.0         0.33          5.3 
       616.0         0.33          5.3 
       617.0         0.33          5.2 
       618.0         0.30          5.3 
       619.0         0.35          5.2 
       620.0         0.33          5.2 
       621.0         0.33          4.9 
       622.0         0.30          4.9 
       623.0         0.67          5.0 
       624.0         1.40          5.3 
       625.0         0.88          5.4 
       626.0         2.17          5.9 
       627.0         0.30          5.8 
       628.0         0.38          5.8 
       629.0         0.40          5.9 
       630.0         0.27          5.8 
       631.0         0.47          5.8 
       632.0         0.23          5.7 
       633.0         0.30          5.8 
       634.0         0.23          5.7 
       635.0         0.27          5.6 
       636.0         0.30          5.7 
       637.0         0.43          5.9 
       638.0         0.38          5.9 
       639.0         0.37          5.6 
       640.0         0.30          5.6 
       641.0         0.37          5.7 
       642.0         0.40          5.7 
       643.0         0.43          5.7 
       644.0         0.47          5.8 
       645.0         0.37          5.8 
       646.0         0.42          5.7 
       647.0         0.33          5.8 
       648.0         0.33          6.0 
       649.0         0.33          5.9 
       650.0         0.33          5.8 
       651.0         0.27          5.8 
       652.0         0.30          5.8 
       653.0         0.33          5.9 
       654.0         0.23          5.7 
       655.0         0.27          5.8 
       656.0         4.30          5.8 
       657.0         0.17          1.0 
       658.0         0.40          1.1 
       659.0         0.37          1.1 
       660.0         0.43          1.1 
