~Version Information
 VERS.                                  2.0 : CWLS LAS VERSION
 WRAP.                                   NO : WRAPING MODE
 SWARE .                 MController 2.5.0N : SOFTWARE VERSION
~Well Information
 WELL.                 Flying Horse 12-11Tr : WELL
 COMP.    Pioneer Natural Resources USA Inc : COMPANY
 FLD.                      Purgatoire River : FIELD
 LOC.                 SW/NW SEC11 T32S R66W : LOCATION
 DATE.                             09/03/05 : DATE(S) LOGGED
 SRVC.       Blanco Geological Services LLC : SERVICE COMPANY
 STAT.                             Colorado : STATE
 CNTY.                           Las Animas : COUNTY
 CTRY.                                 USA : COUNTRY
 API.                       05-071-08485-00 : API NUMBER
 STRT.FT                             565.00 : START DEPTH
 STOP.FT                            1978.00 : STOP DEPTH
 STEP.FT                               1.00 : DEPTH INCREMENT
 NULL.                                -9999 : NULL VALUE
~Curve information
 DEPTH.FT                                   :
 ROP.MIN/FT                                 :
 GAS.UNITS                                  :
~ASCII Log data
# ...
      1365.0         0.20        646.3 
      1366.0         0.20        618.9 
      1367.0         0.23        599.9 
      1368.0         0.33        589.9 
      1369.0         0.35        552.2 
      1370.0         0.23        440.0 
      1371.0         0.20        440.0 
      1372.0         0.23        139.5 
      1373.0         0.23        144.6 
      1374.0         0.20        151.3 
      1375.0         0.30        232.0 
      1376.0         2.38       1071.4 
      1377.0         0.40        729.1 
      1378.0         0.33        672.1 
      1379.0         0.23        676.9 
      1380.0         0.30        666.3 
      1381.0         0.23        646.3 
      1382.0         0.23        614.7 
      1383.0         0.30        602.5 
      1384.0         0.27        565.7 
      1385.0         0.20        555.1 
      1386.0         0.17        559.3 
      1387.0         0.28        572.8 
      1388.0         0.13        576.4 
      1389.0         0.20        576.7 
      1390.0         0.13        573.5 
      1391.0         0.17        573.5 
      1392.0         0.27        596.0 
      1393.0         0.20        599.6 
      1394.0         0.20        579.6 
      1395.0         0.23        556.4 
      1396.0         0.27        539.3 
      1397.0         0.23        531.2 
      1398.0         0.33        516.7 
      1399.0         0.30        440.0 
      1400.0         0.30        169.6 
      1401.0         0.20        164.3 
      1402.0         0.25        176.6 
      1403.0         0.20        223.5 
      1404.0         0.17        305.6 
      1405.0         0.27        387.5 
      1406.0         1.70       1082.6 
      1407.0         0.37        903.5 
      1408.0         0.37        783.6 
      1409.0         0.35        810.0 
      1410.0         0.30        799.4 
      1411.0         0.27        762.3 
      1412.0         0.23        753.6 
      1413.0         0.27        724.3 
      1414.0         0.30        716.2 
      1415.0         0.27        722.4 
      1416.0         0.27        729.8 
      1417.0         0.20        729.4 
      1418.0         0.30        726.2 
      1419.0         0.23        719.8 
      1420.0         0.27        708.2 
      1421.0         0.22        687.9 
      1422.0         0.27        686.6 
      1423.0         0.27        670.5 
      1424.0         0.27        671.8 
      1425.0         0.30        676.3 
      1426.0         0.20        649.8 
      1427.0         0.20        572.5 
      1428.0         0.23        513.8 
      1429.0         0.20        513.8 
      1430.0         0.20        540.3 
      1431.0         0.17        575.1 
      1432.0         0.20        675.6 
      1433.0         0.17        869.0 
      1434.0         0.27        956.6 
      1435.0         1.18       1201.9 
      1436.0         1.80       1092.6 
      1437.0         0.50        821.6 
      1438.0         0.42        810.7 
      1439.0         0.33        772.9 
      1440.0         0.37        747.8 
      1441.0         0.37        714.9 
      1442.0         0.30        690.4 
      1443.0         0.23        651.8 
      1444.0         0.23        641.5 
      1445.0         0.20        633.7 
      1446.0         0.23        634.4 
      1447.0         0.23        647.3 
      1448.0         0.20        645.7 
      1449.0         0.27        609.9 
      1450.0         0.22        609.9 
      1451.0         0.17        593.8 
      1452.0         0.27        584.4 
      1453.0         0.23        575.4 
      1454.0         0.20        569.6 
      1455.0         0.27        559.6 
      1456.0         0.20        569.0 
      1457.0         0.23        581.2 
      1458.0         0.20        581.2 
      1459.0         0.20        591.8 
      1460.0         0.37        595.1 
      1461.0         0.57        593.1 
      1462.0         0.55        510.0 
      1463.0         0.50        274.6 
      1464.0         0.37        368.8 
      1465.0         0.10        384.5 
      1466.0         3.38       1496.1 
      1467.0         0.30        786.8 
      1468.0         0.27        752.3 
      1469.0         0.30        767.1 
      1470.0         0.23        765.9 
      1471.0         0.27        757.5 
      1472.0         0.27        728.8 
      1473.0         0.30        699.1 
      1474.0         0.38        663.1 
      1475.0         0.30        586.0 
      1476.0         0.30        580.9 
      1477.0         0.27        580.2 
      1478.0         0.33        588.3 
      1479.0         0.23        586.7 
      1480.0         0.27        592.8 
      1481.0         0.30        592.5 
      1482.0         0.30        589.9 
      1483.0         0.30        580.6 
      1484.0         0.27        576.0 
      1485.0         0.30        604.1 
      1486.0         0.28        584.4 
      1487.0         0.30        564.4 
      1488.0         0.27        546.7 
      1489.0         0.27        520.3 
      1490.0         0.27        505.8 
      1491.0         0.30        440.0 
      1492.0         0.33        184.0 
      1493.0         0.30        207.9 
      1494.0         0.27        277.1 
      1495.0         0.85        945.4 
      1496.0         1.80       1007.6 
      1497.0         0.40        636.0 
      1498.0         0.33        646.9 
      1499.0         0.30        659.5 
      1500.0         0.27        661.8 
      1501.0         0.32        652.1 
      1502.0         0.33        614.1 
      1503.0         0.33        602.8 
      1504.0         0.23        545.1 
      1505.0         0.23        541.2 
      1506.0         0.30        535.8 
      1507.0         0.27        533.2 
      1508.0         0.23        534.5 
      1509.0         0.23        536.4 
      1510.0         0.20        547.0 
      1511.0         0.20        547.0 
      1512.0         0.27        562.2 
      1513.0         0.27        548.3 
      1514.0         0.22        529.3 
      1515.0         0.20        523.5 
      1516.0         0.23        508.0 
      1517.0         0.23        486.8 
      1518.0         0.23        479.4 
      1519.0         0.27        183.8 
      1520.0         0.23        160.8 
      1521.0         0.27        180.2 
      1522.0         0.27        241.2 
      1523.0         0.20        327.4 
      1524.0         0.27        428.7 
      1525.0         1.18       1079.1 
      1526.0         0.60       1031.4 
      1527.0         0.47        796.8 
      1528.0         0.37        624.1 
      1529.0         0.50        625.0 
      1530.0         0.53        639.2 
      1531.0         0.58        626.0 
      1532.0         0.57        590.2 
      1533.0         0.60        558.3 
      1534.0         0.60        549.0 
      1535.0         0.67        539.3 
      1536.0         0.43        521.3 
      1537.0         0.20        471.3 
      1538.0         0.25        467.4 
      1539.0         0.30        480.7 
      1540.0         0.33        517.1 
      1541.0         0.20        551.6 
      1542.0         0.10        551.6 
      1543.0         0.13        542.8 
      1544.0         0.10        542.8 
      1545.0         0.13        530.9 
      1546.0         0.10        530.9 
      1547.0         0.20        515.5 
      1548.0         0.27        508.4 
      1549.0         0.30        483.2 
      1550.0         0.23        443.6 
      1551.0         0.27        152.3 
      1552.0         0.27        150.2 
      1553.0         0.27        168.2 
      1554.0         0.28        223.2 
      1555.0         0.27        304.9 
      1556.0         3.55       1112.9 
      1557.0         0.40        725.6 
      1558.0         0.30        725.6 
      1559.0         0.30        711.1 
      1560.0         0.43        667.2 
      1561.0         0.40        607.3 
      1562.0         0.37        560.3 
      1563.0         0.33        523.2 
      1564.0         0.28        479.4 
