~Version Information
VERS.                      2.0: CWLS Log ASCII Standard - VERSION 2.0
WRAP.                       NO: One line per depth step
~Well Information Block
STRT.FT                -7.7500: 
STOP.FT              1793.5000: 
STEP.FT                 0.2500: 
NULL.                -999.2500: 
COMP.          Pioneer Natural Resources: COMPANY
WELL.           Loews 41-32 Tr: WELL
FLD.           Purgatorie River: FIELD
LOC.           706' FNL & 224' FEL--: LOCATION
CNTY.               Las Animas: COUNTY
SRVC.          Patterson Wireline: SERVICE COMPANY
DATE.          Fri Feb 24 11:31:48 2006: LOG DATE
UWI.           05 071 08690 00: UNIQUE WELL ID
STAT.                       CO: STATE
~Curve Information Block
DEPT.FT            0 000 00 00: Depth
CCL.                          : Casing Collar Locator
TT3.usec                      : CBL 3' Travel Time
AMP3.mV                       : CBL 3' Amplitude
GR.GAPI                       : Gamma Ray
~Parameter Information Block
~A  Depth       CCL         TT3         AMP3         GR     
# ...
   226.7500      0.0000    373.0947     18.9727     77.3942
   227.0000      0.0000    397.3869     18.7398     81.0239
   227.2500      0.0000    421.2151     18.5179     84.5846
   227.5000      0.0000    431.5463     18.3380     87.5084
   227.7500      0.0000    421.7825     18.2299     89.9568
   228.0000      0.0000    398.4269     18.1889     92.8520
   228.2500      0.0000    374.4732     18.1843     96.6434
   228.5000      0.0000    358.1792     18.1974    100.3381
   228.7500      0.0000    349.6063     18.2447    102.2485
   229.0000      0.0000    344.8087     18.3581    101.7258
   229.2500      0.0000    340.5396     18.5411     99.7027
   229.5000      0.0000    336.1170     18.7414     97.5083
   229.7500      0.0000    332.9329     18.8686     95.8293
   230.0000      0.0000    332.6085     18.8524     94.8987
   230.2500      0.0000    335.1634     18.6939     94.7217
   230.5000      0.0000    338.9633     18.4583     94.7371
   230.7500      0.0000    342.2045     18.2180     94.0014
   231.0000      0.0000    344.1526     18.0122     92.0975
   231.2500      0.0000    345.0658     17.8543     89.4286
   231.5000      0.0000    345.4622     17.7516     86.5213
   231.7500      0.0000    345.6650     17.6986     83.4740
   232.0000      0.0000    345.7920     17.6623     80.2248
   232.2500      0.0000    345.9319     17.5924     77.0852
   232.5000      0.0000    346.2630     17.4534     74.7915
   232.7500      0.0000    347.3149     17.2484     73.9957
   233.0000      0.0000    350.4981     17.0157     74.7628
   233.2500      0.0000    358.6780     16.8038     76.5911
   233.5000      0.0000    375.1572     16.6431     78.7964
   233.7500      0.0000    399.6182     16.5331     80.6993
   234.0000      0.0000    424.4014     16.4513     81.5582
   234.2500      0.0000    438.7561     16.3712     80.8438
   234.5000      0.0000    440.9729     16.2744     78.8762
   234.7500      0.0000    444.0219     16.1567     76.7832
   235.0000      0.0000    463.3145     16.0363     75.4518
   235.2500      0.0000    497.5251     15.9518     74.8762
   235.5000      0.0000    525.4500     15.9443     74.7444
   235.7500      0.0000    525.4407     16.0333     74.9727
   236.0000      0.0000    497.6191     16.1993     75.2720
   236.2500      0.0000    464.2587     16.3861     74.9099
   236.5000      0.0000    448.6135     16.5289     73.4618
   236.7500      0.0000    457.0282     16.5934     71.4256
   237.0000      0.0000    482.4659     16.5878     69.8360
   237.2500      0.0000    519.8732     16.5380     69.4550
   237.5000      0.0000    570.4890     16.4655     70.1804
   237.7500      0.0000    631.5860     16.3876     70.9284
   238.0000      0.0000    690.7523     16.3185     70.1859
   238.2500      0.0000    734.5868     16.2592     67.0988
   238.5000      0.0000    758.5640     16.1969     62.3974
   238.7500      0.0000    765.6457     16.1227     58.2901
   239.0000      0.0000    758.2593     16.0396     56.9941
   239.2500      0.0000    734.2468     15.9483     58.9876
   239.5000      0.0000    691.2488     15.8291     62.7949
   239.7500      0.0000    635.1913     15.6409     66.3824
   240.0000      0.0000    582.2395     15.3470     68.4033
   240.2500      0.0000    549.1248     14.9532     68.4585
   240.5000      0.0000    543.4341     14.4979     67.1338
   240.7500      0.0000    565.7672     13.9808     65.8768
   241.0000      0.0000    614.2985     13.3394     66.0431
   241.2500      0.0000    679.4390     12.5448     67.6892
   241.5000      0.0000    740.3083     11.6862     69.6831
   241.7500      0.0000    777.1707     10.9194     71.0620
   242.0000      0.0000    786.8138     10.3584     71.6752
   242.2500      2.0000    780.0313     10.0363     71.3838
   242.5000     -2.0000    765.6907      9.9360     69.5923
   242.7500      0.0000    742.4266     10.0452     66.2080
   243.0000      0.0000    704.9988     10.4103     62.3500
   243.2500      0.0000    654.0169     11.1254     59.3841
   243.5000      0.0000    598.3428     12.1997     57.6881
   243.7500      0.0000    550.7550     13.4259     56.8690
   244.0000      0.0000    522.0990     14.4577     56.5579
   244.2500      0.0000    517.5711     15.0543     56.3351
   244.5000      0.0000    536.5139     15.2174     55.5187
   244.7500      0.0000    573.5449     15.1094     53.7612
   245.0000      0.0000    619.0859     14.9051     51.4976
   245.2500      0.0000    661.9757     14.7152     49.3868
   245.5000      0.0000    694.6494     14.5847     47.6633
   245.7500      0.0000    715.6560     14.5210     46.1990
   246.0000      0.0000    727.4672     14.5212     44.9421
   246.2500      0.0000    733.1710     14.5818     44.2335
   246.5000      0.0000    734.7643     14.6950     44.7674
   246.7500      0.0000    732.2203     14.8458     47.0184
   247.0000      0.0000    722.5226     15.0122     50.5901
   247.2500      0.0000    700.3676     15.1681     54.3380
   247.5000      0.0000    662.9266     15.2893     57.2110
   247.7500      0.0000    616.7648     15.3621     58.8286
   248.0000      0.0000    577.2210     15.3890     59.3122
   248.2500      0.0000    554.9447     15.3901     58.9353
   248.5000      0.0000    543.8171     15.3940     58.1446
   248.7500      0.0000    529.8069     15.4191     57.6436
   249.0000      0.0000    512.2429     15.4554     58.0204
   249.2500      0.0000    507.2991     15.4685     59.2199
   249.5000      0.0000    526.2754     15.4262     60.5197
   249.7500      0.0000    556.6523     15.3250     61.0335
   250.0000      0.0000    570.4167     15.1952     60.3545
   250.2500      0.0000    549.7372     15.0831     59.0407
   250.5000      0.0000    501.1976     15.0269     58.4586
   250.7500      0.0000    446.2159     15.0503     59.6253
   251.0000      0.0000    402.2116     15.1673     61.9719
   251.2500      0.0000    374.0876     15.3783     63.6409
   251.5000      0.0000    358.4724     15.6592     63.2878
   251.7500      0.0000    350.5350     15.9681     61.3195
   252.0000      0.0000    346.8257     16.2737     59.2355
   252.2500      0.0000    345.2542     16.5722     58.1237
   252.5000      0.0000    344.5930     16.8699     57.9954
   252.7500      0.0000    344.2301     17.1554     58.1999
   253.0000      0.0000    343.9493     17.3997     58.0569
   253.2500      0.0000    343.7405     17.5768     57.2246
   253.5000      0.0000    343.6304     17.6824     55.9129
   253.7500      0.0000    343.6154     17.7317     54.8152
   254.0000      0.0000    343.6674     17.7437     54.5708
   254.2500      0.0000    343.7651     17.7230     55.2013
   254.5000      0.0000    343.9049     17.6584     56.1165
   254.7500      0.0000    344.0816     17.5427     56.5589
   255.0000      0.0000    344.2685     17.3890     55.9935
   255.2500      0.0000    344.4265     17.2221     54.3593
   255.5000      0.0000    344.5309     17.0573     52.1830
   255.7500      0.0000    344.6176     16.8925     50.2258
   256.0000      0.0000    344.8181     16.7215     48.8085
   256.2500      0.0000    345.6661     16.5475     47.6510
   256.5000      0.0000    348.7481     16.3804     46.4786
   256.7500      0.0000    357.6492     16.2257     45.4874
   257.0000      0.0000    377.8121     16.0760     45.0343
   257.2500      0.0000    413.8280     15.9128     45.2603
   257.5000      0.0000    465.6509     15.7175     46.3864
   257.7500      0.0000    528.0765     15.4823     48.9192
   258.0000      0.0000    593.9346     15.2153     52.8948
   258.2500      0.0000    656.1394     14.9406     57.1701
   258.5000      0.0000    707.6489     14.6931     60.1152
   258.7500      0.0000    743.4036     14.5038     60.9575
   259.0000      0.0000    763.4188     14.3788     60.1789
   259.2500      0.0000    772.2594     14.2922     58.8678
   259.5000      0.0000    775.3139     14.2052     57.9182
   259.7500      0.0000    776.1336     14.0955     57.6944
   260.0000      0.0000    776.2962     13.9683     58.1998
