~Version Information Section
 VERS.      2.0         :CWLS LAS VERSION
 WRAP.      NO          :WRAPING MODE
 WARE.      oller 2.5.0J:SOFTWARE VERSION
~Well Information Section
#MNEM.UNIT               VALUE/NAME                 DESCRIPTION
#----.----     ----------------------------------   --------------------
 WELL.         Dicks 35-05R                         :WELL
 COMP.         Pioneer Natrual Resources USA Inc.   :COMPANY
 FLD .         Purgatoire River                     :FIELD
 LOC .         SW/NE SEC05 T33S R65W                :LOCATION
 DATE.         12/08/05                             :DATE(S) LOGGED
 SRVC.         Blanco Geological Services LLC       :SERVICE COMPANY
 STAT.         Colorado                             :STATE
 CNTY.         Las Animas                           :COUNTY
 CTRY.         USA                                  :COUNTRY
 API .         05-071-08596-00                      :API NUMBER
 STRT.FT           400.0000                         :START DEPTH
 STOP.FT          1345.0000                         :STOP DEPTH
 STEP.FT             1.0000                         :DEPTH INCREMENT
 NULL.           -9999.0000                         :NULL VALUE
~Curve Information Section
#MNEM .UNIT         CURVE DESCRIPTION
#---- .----         -------------------------
 DEPTH.FT           :1
 ROP  .MIN/FT       :2
 GAS  .UNITS        :3
~Parameter Information Section
#MNEM.UNIT                  VALUE                   DESCRIPTION
#----.----     ----------------------------------   --------------------
~A  DEPTH     ROP        GAS    
# ...
 1129.0000     0.2700    30.9000
 1130.0000     0.2700    28.1000
 1131.0000     0.2700    27.6000
 1132.0000     0.3700    51.6000
 1133.0000     0.2800    97.0000
 1134.0000     0.1300    97.0000
 1135.0000     0.2700   157.8000
 1136.0000     0.3300   231.7000
 1137.0000     0.2700   230.9000
 1138.0000     0.2700   212.5000
 1139.0000     0.2700   206.9000
 1140.0000     0.3000   177.8000
 1141.0000     0.3000   115.6000
 1142.0000     0.2700    93.9000
 1143.0000     0.2000    93.9000
 1144.0000     0.2700    77.4000
 1145.0000     0.2700    65.9000
 1146.0000     0.2800    56.9000
 1147.0000     0.2700    48.4000
 1148.0000     0.2700    41.0000
 1149.0000     0.2700    35.8000
 1150.0000     0.3300    31.6000
 1151.0000     0.2700    32.7000
 1152.0000     0.2700    34.0000
 1153.0000     0.2700    32.9000
 1154.0000     0.2700    33.4000
 1155.0000     0.2700    35.1000
 1156.0000     0.2700    38.3000
 1157.0000     0.2700    43.2000
 1158.0000     0.2800    44.7000
 1159.0000     0.2700    41.3000
 1160.0000     0.2700    38.7000
 1161.0000     0.2700    39.1000
 1162.0000     0.2700    67.3000
 1163.0000     0.2700   110.3000
 1164.0000     0.2700   171.3000
 1165.0000     0.2700   254.0000
 1166.0000     0.2700   314.3000
 1167.0000     0.2000   342.0000
 1168.0000     0.3000   325.6000
 1169.0000     0.2700   282.7000
 1170.0000     0.2800   236.4000
 1171.0000     0.2700   189.0000
 1172.0000     0.4000   149.3000
 1173.0000     0.1300   118.7000
 1174.0000     0.2700    96.1000
 1175.0000     0.2700    80.4000
 1176.0000     0.2700    68.4000
 1177.0000     0.2700    59.8000
 1178.0000     0.2700    52.4000
 1179.0000     0.2700    47.5000
 1180.0000     0.2700    46.5000
 1181.0000     0.2700    42.3000
 1182.0000     0.2700    41.5000
 1183.0000     0.2800    37.1000
 1184.0000     0.2700    35.0000
 1185.0000     0.2700    33.8000
 1186.0000     0.2700    33.3000
 1187.0000     0.2700    30.4000
 1188.0000     0.2700    29.3000
 1189.0000     0.2700    29.0000
 1190.0000     0.2700    28.7000
 1191.0000     0.3300    28.9000
 1192.0000     0.2700    28.5000
 1193.0000     0.4000    27.0000
 1194.0000     0.2700    25.6000
 1195.0000     0.2800    20.3000
 1196.0000     0.3700    22.6000
 1197.0000     0.2700    25.8000
 1198.0000     0.3300    63.0000
 1199.0000     0.2700    89.8000
 1200.0000     0.2700   109.7000
 1201.0000     0.2700   122.1000
 1202.0000     0.2700   129.9000
 1203.0000     0.2700   132.3000
 1204.0000     0.2700   124.6000
 1205.0000     0.1300   124.6000
 1206.0000     0.2700   110.8000
 1207.0000     0.2800   108.7000
 1208.0000     0.4000    82.7000
 1209.0000     0.2700    63.7000
 1210.0000     0.2700    54.0000
 1211.0000     0.2700    47.1000
 1212.0000     0.2700    42.3000
 1213.0000     0.2700    39.6000
 1214.0000     0.2700    38.7000
 1215.0000     0.2700    38.5000
 1216.0000     0.2700    37.9000
 1217.0000     0.3000    37.0000
 1218.0000     0.2700    36.6000
 1219.0000     0.2800    34.8000
 1220.0000     0.2700    32.9000
 1221.0000     0.2700    31.9000
 1222.0000     0.2700    30.1000
 1223.0000     0.2700    29.0000
 1224.0000     0.2700    26.0000
 1225.0000     0.8000    25.5000
 1226.0000     0.2300    20.5000
 1227.0000     0.2700    21.0000
 1228.0000     0.2700    20.6000
 1229.0000     0.4800    21.4000
 1230.0000     0.2700    22.7000
 1231.0000     0.3300    23.8000
 1232.0000     0.3700    24.3000
 1233.0000     0.2700    21.1000
 1234.0000     0.8700    23.1000
 1235.0000     0.2700    38.2000
 1236.0000     0.5300   106.7000
 1237.0000     0.2800   147.7000
 1238.0000     0.4300   182.4000
 1239.0000     0.2700   172.7000
 1240.0000     0.2700   158.9000
 1241.0000     0.2700   157.0000
 1242.0000     0.4700   121.5000
 1243.0000     0.2700    89.1000
 1244.0000     0.2700    77.8000
 1245.0000     0.2700    69.5000
 1246.0000     0.2700    62.4000
 1247.0000     0.2700    55.6000
 1248.0000     0.2800    49.5000
 1249.0000     0.2700    45.2000
 1250.0000     0.2700    43.8000
 1251.0000     0.3000    40.8000
 1252.0000     0.2700    36.1000
 1253.0000     0.2700    34.4000
 1254.0000     0.2700    30.8000
 1255.0000     0.2700    28.4000
 1256.0000     0.2700    26.3000
 1257.0000     0.5300    23.2000
 1258.0000     0.2700    16.9000
 1259.0000     0.2700    15.0000
 1260.0000     0.3200    14.6000
 1261.0000     0.2700    13.7000
 1262.0000     0.1300    13.5000
 1263.0000     0.3300    12.8000
 1264.0000     0.2700    13.4000
 1265.0000     0.1000    13.4000
 1266.0000     0.3700    13.3000
 1267.0000     0.3300    11.3000
 1268.0000     0.2700    13.4000
 1269.0000     0.2700    19.9000
 1270.0000     0.2700    34.2000
 1271.0000     0.2300    62.1000
 1272.0000     0.2800    95.7000
 1273.0000     0.2700   120.2000
 1274.0000     0.5300   134.4000
 1275.0000     0.2700   133.4000
 1276.0000     0.5300   127.0000
 1277.0000     0.2700   106.1000
 1278.0000     0.5300    96.9000
 1279.0000     0.2700    88.9000
 1280.0000     0.2700    89.9000
 1281.0000     0.2700    91.3000
 1282.0000     0.2800    93.2000
 1283.0000     0.3000    96.1000
 1284.0000     0.2700    99.8000
 1285.0000     0.2700   100.7000
 1286.0000     0.4700    98.9000
 1287.0000     0.2700    96.4000
 1288.0000     0.3300    96.0000
 1289.0000     0.2700    96.4000
 1290.0000     0.2700    98.5000
 1291.0000     0.2700   101.3000
 1292.0000     0.2700   102.9000
 1293.0000     0.2800   103.9000
 1294.0000     0.5300   105.1000
 1295.0000     0.2700   106.1000
 1296.0000     0.2700   107.5000
 1297.0000     0.2700   108.4000
 1298.0000     0.2700   109.1000
 1299.0000     0.2700   110.1000
 1300.0000     0.2700   110.3000
 1301.0000     0.2700   110.0000
 1302.0000     0.2700   110.3000
 1303.0000     0.2700   111.0000
 1304.0000     0.2700   112.1000
 1305.0000     0.2500   113.2000
 1306.0000     0.2700   115.1000
 1307.0000     0.2700   112.0000
 1308.0000     0.2700   104.5000
 1309.0000     0.2700   102.9000
 1310.0000     0.2700    92.5000
 1311.0000     0.2700    85.1000
 1312.0000     0.2700    87.3000
 1313.0000     0.2700    93.7000
 1314.0000     0.2700    99.8000
 1315.0000     0.2700   117.1000
 1316.0000     0.2700   149.4000
 1317.0000     0.4200   259.4000
 1318.0000     0.6000   436.5000
 1319.0000     0.7000   997.1000
 1320.0000     0.5300   971.7000
 1321.0000     0.8700   894.9000
 1322.0000     0.5500   627.9000
 1323.0000     0.8000   509.9000
 1324.0000     0.5300   411.8000
 1325.0000     0.5700   400.0000
 1326.0000     0.6000   129.1000
 1327.0000     0.5300   126.8000
 1328.0000     0.7200   126.5000
 1329.0000     0.5300   124.5000
 1330.0000     0.5000   122.1000
 1331.0000     0.5300   118.2000
 1332.0000     0.8000   112.0000
 1333.0000     0.5500   107.1000
 1334.0000     0.5300   113.8000
 1335.0000     0.8000   133.6000
 1336.0000     0.7700   136.3000
 1337.0000     0.7300   144.9000
 1338.0000     0.9200   409.8000
 1339.0000     0.9300  1101.2000
 1340.0000     0.8000  1056.1000
 1341.0000     1.4800   790.8000
 1342.0000     1.3300   420.0000
 1343.0000     1.8500    99.0000
 1344.0000     2.0300   106.9000
 1345.0000     3.2200 -9999.0000
