~Version Information
VERS.                      2.0: CWLS Log ASCII Standard - VERSION 2.0
WRAP.                       NO: One line per depth step
~Well Information Block
STRT.FT                -2.7500: 
STOP.FT               973.2500: 
STEP.FT                 0.2500: 
NULL.                -999.2500: 
COMP.          Pioneer Natural Resources: COMPANY
WELL.          Red Raider 22-15: WELL
FLD.           Purgatoire River: FIELD
LOC.           1809' FNL & 2107' FWL: LOCATION
CNTY.               Las Animas: COUNTY
SRVC.                Patterson: SERVICE COMPANY
DATE.          Mon Apr 17 16:50:50 2006: LOG DATE
UWI.           05 071 08718 00: UNIQUE WELL ID
STAT.                 Colorado: STATE
~Curve Information Block
DEPT.FT            0 000 00 00: Depth
GR.GAPI                       : Gamma Ray
CCL.                          : Casing Collar Locator
TT3.usec                      : CBL 3' Travel Time
AMP3.mV                       : CBL 3' Amplitude
~Parameter Information Block
~A  Depth        GR         CCL         TT3         AMP3    
# ...
   801.2500    108.5451      0.0000    740.4856      8.0806
   801.5000    111.3336      0.0000    743.0717      8.3306
   801.7500    109.6950      0.0000    746.8510      8.7088
   802.0000    103.9270      0.0000    746.8580      9.0972
   802.2500     95.3250      0.0000    739.5959      9.3466
   802.5000     86.3055      0.0000    725.3741      9.3421
   802.7500     79.7143      0.0000    708.9094      9.0790
   803.0000     77.2551      0.0000    696.1735      8.6737
   803.2500     78.5184      0.0000    689.8215      8.2789
   803.5000     81.7856      0.0000    687.5862      7.9852
   803.7500     85.6506      0.0000    683.9472      7.8090
   804.0000     89.5595      0.0000    672.8570      7.7461
   804.2500     93.1620      3.0000    651.7771      7.8021
   804.5000     95.9146      0.0000    625.6122      7.9867
   804.7500     97.4960      0.0000    604.1719      8.3063
   805.0000     98.1773      0.0000    592.2825      8.7424
   805.2500     98.4774      0.0000    583.9412      9.2040
   805.5000     98.4944      0.0000    568.8014      9.5355
   805.7500     97.8655      0.0000    542.9143      9.6295
   806.0000     96.6587      0.0000    511.5110      9.5206
   806.2500     96.0784      0.0000    483.4232      9.3349
   806.5000     97.7143      0.0000    464.9142      9.1742
   806.7500    101.9092      0.0000    457.5570      9.0715
   807.0000    107.0146      0.0000    459.5625      9.0184
   807.2500    110.3437      0.0000    468.3343      8.9960
   807.5000    110.0090      0.0000    481.9258      8.9865
   807.7500    106.2149      0.0000    498.5790      8.9779
   808.0000    101.0647      0.0000    516.1600      8.9706
   808.2500     96.9898      0.0000    533.4342      8.9779
   808.5000     94.9928      0.0000    550.9896      9.0134
   808.7500     94.1583      0.0000    569.4423      9.0762
   809.0000     92.6691      0.0000    587.8934      9.1535
   809.2500     89.0889      0.0000    605.9706      9.2344
   809.5000     82.9254      0.0000    625.5902      9.3179
   809.7500     74.7445      0.0000    647.9134      9.4059
   810.0000     66.1053      0.0000    669.8367      9.4933
   810.2500     58.9544      0.0000    686.1959      9.5675
   810.5000     54.6903      0.0000    694.7159      9.6223
   810.7500     53.7007      0.0000    697.0317      9.6727
   811.0000     55.4563      0.0000    695.8993      9.7483
   811.2500     58.7770      0.0000    693.2880      9.8615
   811.5000     62.3508      0.0000    690.8099      9.9804
   811.7500     65.4865      0.0000    689.9405     10.0436
   812.0000     68.3139      0.0000    690.4874     10.0076
   812.2500     71.1060      0.0000    689.0691      9.8808
   812.5000     73.6180      0.0000    680.2914      9.7135
   812.7500     75.2147      0.0000    661.3024      9.5607
   813.0000     75.4450      0.0000    636.0957      9.4534
   813.2500     74.4220      0.0000    613.6465      9.3958
   813.5000     72.8179      0.0000    599.2062      9.3770
   813.7500     71.6432      0.0000    587.8185      9.3837
   814.0000     71.9642      0.0000    568.9243      9.4048
   814.2500     74.4362      0.0000    538.1508      9.4304
   814.5000     78.5988      0.0000    503.9452      9.4492
   814.7500     82.5864      0.0000    482.2856      9.4523
   815.0000     84.0695      0.0000    483.6160      9.4379
   815.2500     81.9109      0.0000    502.5771      9.4118
   815.5000     76.9423      0.0000    520.0535      9.3817
   815.7500     71.2310      0.0000    517.9894      9.3522
   816.0000     66.6894      0.0000    494.0887      9.3243
   816.2500     64.0411      0.0000    461.2802      9.2947
   816.5000     62.5903      0.0000    433.9737      9.2590
   816.7500     60.9728      0.0000    417.7583      9.2126
   817.0000     58.4280      0.0000    411.4130      9.1477
   817.2500     55.4122      0.0000    414.5212      9.0483
   817.5000     52.9921      0.0000    431.0354      8.8933
   817.7500     51.8414      0.0000    466.1587      8.6720
   818.0000     51.8438      0.0000    519.9739      8.4036
   818.2500     52.4184      0.0000    584.2141      8.1452
   818.5000     53.0648      0.0000    646.2720      7.9751
   818.7500     53.7064      0.0000    696.4748      7.9526
   819.0000     54.7146      0.0000    731.0224      8.0819
   819.2500     56.6202      0.0000    749.8228      8.3092
   819.5000     59.6192      0.0000    754.4023      8.5549
   819.7500     63.3528      0.0000    748.3653      8.7524
   820.0000     67.2393      0.0000    737.7744      8.8673
   820.2500     70.8723      0.0000    728.5587      8.8925
   820.5000     73.9832      0.0000    722.1976      8.8362
   820.7500     76.2874      0.0000    714.4673      8.7209
   821.0000     77.5829      0.0000    698.9728      8.5907
   821.2500     77.8342      0.0000    671.4528      8.5086
   821.5000     77.0658      0.0000    631.6130      8.5310
   821.7500     75.4280      0.0000    584.3402      8.6739
   822.0000     73.5803      0.0000    540.4631      8.9034
   822.2500     72.7317      0.0000    512.8447      9.1598
   822.5000     73.8154      0.0000    507.5085      9.3914
   822.7500     76.4461      0.0000    517.3526      9.5708
   823.0000     78.8878      0.0000    525.4867      9.6887
   823.2500     79.3611      0.0000    517.1002      9.7413
   823.5000     77.4825      0.0000    490.7971      9.7273
   823.7500     74.3417      0.0000    459.7097      9.6556
   824.0000     71.2168      0.0000    441.6424      9.5528
   824.2500     68.5241      0.0000    446.4655      9.4554
   824.5000     66.1458      0.0000    469.0467      9.3911
   824.7500     64.3531      0.0000    492.5144      9.3663
   825.0000     63.8496      0.0000    501.9313      9.3692
   825.2500     65.0329      0.0000    497.6891      9.3808
   825.5000     67.6151      0.0000    493.4140      9.3858
   825.7500     70.9032      0.0000    499.8442      9.3780
   826.0000     74.3165      0.0000    514.4267      9.3583
   826.2500     77.7336      0.0000    528.5549      9.3280
   826.5000     81.3537      0.0000    540.4326      9.2844
   826.7500     85.0383      0.0000    556.0080      9.2221
   827.0000     87.8379      0.0000    579.1077      9.1378
   827.2500     88.4998      0.0000    605.9587      9.0380
   827.5000     86.6339      0.0000    629.3218      8.9438
   827.7500     83.3027      0.0000    644.0530      8.8819
   828.0000     80.3808      0.0000    649.2307      8.8662
   828.2500     79.3173      0.0000    649.1021      8.8877
   828.5000     80.3770      0.0000    651.6365      8.9245
   828.7500     82.7707      0.0000    662.1970      8.9553
   829.0000     85.3429      0.0000    678.3631      8.9614
   829.2500     87.3789      0.0000    692.5859      8.9213
   829.5000     89.0741      0.0000    698.4213      8.8187
   829.7500     91.2298      0.0000    692.6326      8.6570
   830.0000     94.2604      0.0000    673.7363      8.4644
   830.2500     97.3411      0.0000    642.6483      8.2801
   830.5000     98.7770      0.0000    605.9158      8.1356
   830.7500     97.5686      0.0000    575.5673      8.0429
   831.0000     94.4920      0.0000    562.0089      7.9932
   831.2500     91.3776      0.0000    566.8065      7.9646
   831.5000     89.6124      0.0000    584.1337      7.9341
   831.7500     89.5622      0.0000    607.4111      7.8875
   832.0000     90.9314      0.0000    631.0513      7.8201
   832.2500     93.2033      0.0000    648.2755      7.7355
   832.5000     95.9102      0.0000    653.6829      7.6455
   832.7500     98.7436      0.0000    649.3004      7.5660
   833.0000    101.3183      0.0000    644.2330      7.5061
   833.2500    102.9208      0.0000    646.6832      7.4609
   833.5000    102.7959      0.0000    657.8873      7.4140
   833.7500    100.8080      0.0000    673.5024      7.3488
   834.0000     97.7717      0.0000    688.4314      7.2590
   834.2500     95.1300      0.0000    699.7858      7.1524
   834.5000     94.1881      0.0000    707.0070      7.0459
