~Version Information
VERS.                      2.0: CWLS Log ASCII Standard - VERSION 2.0
WRAP.                       NO: One line per depth step
~Well Information Block
STRT.FT                -9.0000: 
STOP.FT              1841.0000: 
STEP.FT                 0.2500: 
NULL.                -999.2500: 
COMP.          Pioneer Natural Resources: COMPANY
WELL.          Cooper 11-13 Tr: WELL
FLD.           Purgatorie River: FIELD
LOC.           476' FNL & 738' FWL: LOCATION
STAT.                       CO: State
CNTY.               Las Animas: COUNTY
CTRY. USA : Country
SECT. 13 : Section
TOWN. 32S : Township
RANG. 67W : Range
SRVC.          Patterson Wireline: SERVICE COMPANY
DATE.          Thu Sep 29 08:59:13 2005: LOG DATE
API.           05 071 08525 00: UNIQUE WELL ID
~Curve Information Block
DEPT.FT            0 000 00 00: Depth
CCL.                          : Casing Collar Locator
TT3.usec                      : CBL 3' Travel Time
AMP3.mV                       : CBL 3' Amplitude
GR.GAPI                       : Gamma Ray
~Parameter Information Block
~A  Depth       CCL         TT3         AMP3         GR     
# ...
  1063.0000      0.0000    287.1071     34.5689    127.7750
  1063.2500      0.0000    293.9001     33.4862    128.8028
  1063.5000      0.0000    307.6694     31.7846    128.6006
  1063.7500      0.0000    329.2103     29.5565    127.8929
  1064.0000      0.0000    355.3925     27.2204    128.4849
  1064.2500      0.0000    380.9779     25.2611    131.2084
  1064.5000      0.0000    402.7831     23.8463    134.6262
  1064.7500      0.0000    419.9008     22.8163    135.7623
  1065.0000      0.0000    429.3233     22.0319    132.2357
  1065.2500      0.0000    425.3690     21.5510    124.1617
  1065.5000      0.0000    406.4131     21.4396    114.2431
  1065.7500     -2.0000    379.5076     21.5777    106.0226
  1066.0000      0.0000    355.2433     21.7148    101.9466
  1066.2500      0.0000    339.3421     21.7067    102.6968
  1066.5000      0.0000    330.6492     21.7337    107.6123
  1066.7500      0.0000    325.2043     22.2700    115.1097
  1067.0000      0.0000    320.2045     23.6875    122.8633
  1067.2500      0.0000    314.8531     25.8529    128.4904
  1067.5000      0.0000    309.1365     28.2826    130.6987
  1067.7500      0.0000    302.9900     30.6576    129.8805
  1068.0000      0.0000    296.6164     32.9723    127.6715
  1068.2500      0.0000    290.8814     35.2305    125.8578
  1068.5000      0.0000    286.7055     37.2533    125.3431
  1068.7500      0.0000    284.2976     38.8272    125.8081
  1069.0000      0.0000    283.1751     39.9116    126.1853
  1069.2500      0.0000    282.7037     40.6550    125.5002
  1069.5000      0.0000    282.4662     41.2552    123.6090
  1069.7500      0.0000    282.2889     41.8378    121.5275
  1070.0000      0.0000    282.1341     42.4342    120.9097
  1070.2500      0.0000    282.0037     43.0293    122.6981
  1070.5000      0.0000    281.9002     43.6056    125.9864
  1070.7500      0.0000    281.8216     44.1580    128.3891
  1071.0000      0.0000    281.7633     44.6881    127.6828
  1071.2500      0.0000    281.7197     45.1933    122.9431
  1071.5000      0.0000    281.6833     45.6642    114.3580
  1071.7500      0.0000    281.6474     46.0926    102.8117
  1072.0000      0.0000    281.6090     46.4771     89.9590
  1072.2500      0.0000    281.5696     46.8189     78.1085
  1072.5000      0.0000    281.5334     47.1145     69.5597
  1072.7500      0.0000    281.5030     47.3554     65.9357
  1073.0000      0.0000    281.4801     47.5294     67.9629
  1073.2500      0.0000    281.4676     47.6135     75.5658
  1073.5000      0.0000    281.4706     47.5717     87.8405
  1073.7500      0.0000    281.4933     47.3722    102.7732
  1074.0000      0.0000    281.5350     47.0157    117.4276
  1074.2500      0.0000    281.5904     46.5466    129.0983
  1074.5000      0.0000    281.6518     46.0335    136.4634
  1074.7500      0.0000    281.7122     45.5355    139.6150
  1075.0000      0.0000    281.7666     45.0809    139.4024
  1075.2500      0.0000    281.8133     44.6687    137.0543
  1075.5000      0.0000    281.8528     44.2857    133.9848
  1075.7500      0.0000    281.8871     43.9205    131.3709
  1076.0000      0.0000    281.9195     43.5629    129.5021
  1076.2500      0.0000    281.9548     43.1945    127.3034
  1076.5000      0.0000    281.9980     42.7921    123.0159
  1076.7500      0.0000    282.0513     42.3472    116.2382
  1077.0000      0.0000    282.1134     41.8750    109.2164
  1077.2500      0.0000    282.1822     41.3980    105.2720
  1077.5000      0.0000    282.2589     40.9278    105.8146
  1077.7500      0.0000    282.3479     40.4711    109.2485
  1078.0000      0.0000    282.4517     40.0439    112.5968
  1078.2500      0.0000    282.5692     39.6600    113.5678
  1078.5000      0.0000    282.6985     39.3033    111.2511
  1078.7500      0.0000    282.8415     38.9224    106.0696
  1079.0000      0.0000    283.0040     38.4622     99.7838
  1079.2500      0.0000    283.1877     37.9063     94.6112
  1079.5000      0.0000    283.3831     37.2974     91.3397
  1079.7500      0.0000    283.5701     36.7175     88.9481
  1080.0000      0.0000    283.7308     36.2345     86.8976
  1080.2500      0.0000    283.8616     35.8529     86.8780
  1080.5000      0.0000    283.9730     35.5173     91.0472
  1080.7500      0.0000    284.0763     35.1726     99.0526
  1081.0000      0.0000    284.1701     34.8237    108.1097
  1081.2500      0.0000    284.2405     34.5367    115.8994
  1081.5000      0.0000    284.2730     34.3823    122.2304
  1081.7500      0.0000    284.2663     34.3762    127.8936
  1082.0000      0.0000    284.2365     34.4634    133.2448
  1082.2500      0.0000    284.2087     34.5503    138.2313
  1082.5000      0.0000    284.2037     34.5549    142.6998
  1082.7500      0.0000    284.2278     34.4417    146.2572
  1083.0000      0.0000    284.2733     34.2283    148.4017
  1083.2500      0.0000    284.3264     33.9661    148.9667
  1083.5000      0.0000    284.3768     33.7041    148.3259
  1083.7500      0.0000    284.4221     33.4639    147.3716
  1084.0000      0.0000    284.4623     33.2535    147.1669
  1084.2500      0.0000    284.4907     33.1076    148.0833
  1084.5000      0.0000    284.4909     33.0940    149.3033
  1084.7500      0.0000    284.4473     33.2663    149.6650
  1085.0000      0.0000    284.3575     33.6137    149.0224
  1085.2500      0.0000    284.2324     34.0679    148.1638
  1085.5000      0.0000    284.0846     34.5568    147.1990
  1085.7500      0.0000    283.9201     35.0462    144.8215
  1086.0000      0.0000    283.7416     35.5430    139.8255
  1086.2500      0.0000    283.5540     36.0704    133.0277
  1086.5000      0.0000    283.3670     36.6363    127.1165
  1086.7500      0.0000    283.1945     37.2122    124.5852
  1087.0000      0.0000    283.0513     37.7437    125.9801
  1087.2500      0.0000    282.9464     38.1896    129.9637
  1087.5000      0.0000    282.8786     38.5456    134.5508
  1087.7500      0.0000    282.8405     38.8306    138.2077
  1088.0000      0.0000    282.8204     39.0644    140.2801
  1088.2500      0.0000    282.8060     39.2676    140.7410
  1088.5000      0.0000    282.7922     39.4639    139.6463
  1088.7500      0.0000    282.7946     39.6621    137.0225
  1089.0000      0.0000    282.8450     39.8435    133.1830
  1089.2500      0.0000    282.9544     39.9809    128.5177
  1089.5000      0.0000    283.0735     40.0666    122.7867
  1089.7500      0.0000    283.1138     40.1162    115.3315
  1090.0000      0.0000    283.0310     40.1461    106.4751
  1090.2500      0.0000    282.8719     40.1632     98.2158
  1090.5000      0.0000    282.7242     40.1748     92.8010
  1090.7500      0.0000    282.6351     40.1950     90.6932
  1091.0000      0.0000    282.5945     40.2310     90.5391
  1091.2500      0.0000    282.5754     40.2631     91.1929
  1091.5000      0.0000    282.5702     40.2423     93.0582
  1091.7500      0.0000    282.5908     40.1109     97.0906
  1092.0000      0.0000    282.6480     39.8373    103.1083
  1092.2500      0.0000    282.7360     39.4378    109.5693
  1092.5000      0.0000    282.8333     38.9636    114.4581
  1092.7500      0.0000    282.9171     38.4668    116.0865
  1093.0000      0.0000    282.9722     37.9833    113.9612
  1093.2500      0.0000    282.9928     37.5439    109.5777
  1093.5000      0.0000    282.9776     37.1889    105.7199
  1093.7500      0.0000    282.9306     36.9541    104.1229
  1094.0000      0.0000    282.8645     36.8407    103.9801
  1094.2500      0.0000    282.7977     36.8124    103.1566
  1094.5000      0.0000    282.7427     36.8377    100.5956
  1094.7500      0.0000    282.6967     36.9240     97.1046
  1095.0000      0.0000    282.6483     37.0953     94.0639
  1095.2500      0.0000    282.5915     37.3406     91.8873
  1095.5000      0.0000    282.5301     37.6023     89.7270
  1095.7500      0.0000    282.4713     37.8101     86.2409
  1096.0000      0.0000    282.4197     37.9177     80.5225
  1096.2500      0.0000    282.3756     37.9177     72.7253
