~Version Information
VERS.                      2.0: CWLS Log ASCII Standard - VERSION 2.0
WRAP.                       NO: One line per depth step
~Well Information Block
STRT.FT               875.0000: 
STOP.FT              2053.0000: 
STEP.FT                 0.1000: 
NULL.                -999.2500: 
COMP.          Pioneer Natural Resources: COMPANY
WELL.          Woodstock 43-19: WELL
FLD.           Purgatoire River: FIELD
LOC.           2195' FSL & 250' FEL: LOCATION
CNTY.               Las Animas: COUNTY
SRVC.                Patterson: SERVICE COMPANY
DATE.          Thu Feb 02 12:45:04 2006: LOG DATE
UWI.           05 071 08677 00: UNIQUE WELL ID
STAT.                 Colorado: STATE
~Curve Information Block
DEPT.FT            0 000 00 00: Depth
DCAL.in                       : CDL Caliper
RHOB.g/cc                     : CDL Bulk Density
RHOC.g/cc                     : CDL Density Correction
DPOR.pu                       : CDL Density Porosity
GR.GAPI                       : Gamma Ray
NPOR.pu                       : Neutron Porosity
~Parameter Information Block
~A  Depth       DCAL        RHOB        RHOC        DPOR         GR         NPOR    
# ...
  1806.2000      7.8880      2.5510     -0.0370      6.0009     55.0021     23.7021
  1806.3000      7.8919      2.5672      0.0178      5.0197     51.1863     24.0613
  1806.4000      7.8919      2.5787      0.0654      4.3232     48.5931     24.2701
  1806.5000      7.8996      2.5649      0.0496      5.1573     49.1376     24.8820
  1806.6000      7.8996      2.5484     -0.0492      6.1580     50.8115     26.0744
  1806.7000      7.8996      2.5660      0.0449      5.0881     52.5084     27.0368
  1806.8000      7.8988      2.6015      0.1469      2.9422     56.0938     27.4503
  1806.9000      7.8988      2.6078      0.1222      2.5581     62.7277     27.3830
  1807.0000      7.8812      2.5776      0.0815      4.3881     71.3261     26.7373
  1807.1000      7.8812      2.5387      0.0726      6.7464     79.5379     26.2532
  1807.2000      7.8812      2.5056      0.0953      8.7516     84.8845     26.0293
  1807.3000      7.8507      2.4707      0.1020     10.8683     86.8287     25.5532
  1807.4000      7.8507      2.4306      0.0210     13.2985     88.7636     25.2396
  1807.5000      7.9180      2.4037     -0.0093     14.9262     92.3018     25.6004
  1807.6000      7.9180      2.4027      0.0188     14.9849     95.6664     26.6466
  1807.7000      7.9180      2.4063      0.0412     14.7704     96.5001     28.0005
  1807.8000      7.9339      2.3852      0.0695     16.0503     91.6946     29.1174
  1807.9000      7.9339      2.3355      0.0223     19.0580     83.5537     29.5272
  1808.0000      7.9127      2.2733     -0.0148     22.8295     80.2069     29.0342
  1808.1000      7.9127      2.2146     -0.0045     26.3877     83.2300     28.1881
  1808.2000      7.9127      2.1573      0.0013     29.8608     87.5212     27.9205
  1808.3000      7.9068      2.0845     -0.0248     34.2733     86.7532     28.2538
  1808.4000      7.9068      1.9944     -0.0748     39.7334     78.5197     28.6202
  1808.5000      7.9081      1.9028     -0.0739     45.2821     68.9133     29.0200
  1808.6000      7.9081      1.8194     -0.0700     50.3386     63.0567     29.5778
  1808.7000      7.9081      1.7350     -0.0326     55.4523     61.3442     29.9715
  1808.8000      7.9429      1.6355     -0.0527     61.4867     64.4759     30.2654
  1808.9000      7.9429      1.5338     -0.1025     67.6492     68.8547     30.9968
  1809.0000      8.0044      1.4622     -0.0777     71.9869     67.8664     32.0275
  1809.1000      8.0044      1.4238     -0.0295     74.3131     61.9023     32.9573
  1809.2000      8.0044      1.4010     -0.0842     75.6966     56.6074     33.3049
  1809.3000      8.0681      1.3995     -0.0673     75.7903     54.6312     32.9699
  1809.4000      8.0681      1.4342     -0.0148     73.6834     52.8162     32.7605
  1809.5000      8.1179      1.4966      0.0532     69.9007     47.3228     32.8001
  1809.6000      8.1179      1.5683      0.0385     65.5565     41.7234     32.5065
  1809.7000      8.1179      1.6356      0.1112     61.4779     40.7293     32.1676
  1809.8000      8.2027      1.6795      0.1252     58.8198     43.4484     32.5077
  1809.9000      8.2027      1.6953      0.0983     57.8616     47.5523     33.2503
  1810.0000      8.1796      1.7007      0.0766     57.5342     50.4961     33.3046
  1810.1000      8.1796      1.7004      0.0954     57.5506     49.8776     32.6038
  1810.2000      8.1796      1.6807      0.0418     58.7484     47.6273     31.8174
  1810.3000      8.2258      1.6340     -0.0020     61.5747     47.0544     31.1977
  1810.4000      8.2258      1.5711     -0.0709     65.3868     48.3243     30.7508
  1810.5000      8.2002      1.5164     -0.1160     68.7015     49.7112     30.7418
  1810.6000      8.2002      1.4779     -0.0472     71.0360     48.6617     31.1344
  1810.7000      8.2002      1.4428     -0.0406     73.1633     45.9136     31.5006
  1810.8000      8.0412      1.4097      0.0188     75.1675     45.4613     31.8949
  1810.9000      8.0412      1.3873      0.0093     76.5250     46.1816     32.2522
  1811.0000      7.9868      1.3750      0.0103     77.2724     44.2603     32.4741
  1811.1000      7.9868      1.3592     -0.0034     78.2315     39.7081     32.6411
  1811.2000      7.9868      1.3318     -0.0200     79.8937     35.4618     32.5584
  1811.3000      7.8943      1.3068     -0.0579     81.4038     33.1142     32.0531
  1811.4000      7.8943      1.2983     -0.0125     81.9204     31.7341     31.5630
  1811.5000      7.8810      1.3003     -0.0150     81.8016     31.2436     31.9465
  1811.6000      7.8810      1.3088      0.0097     81.2838     33.0417     33.1168
  1811.7000      7.8810      1.3387     -0.0175     79.4724     34.6678     34.3529
  1811.8000      8.0246      1.4011      0.0380     75.6897     32.1389     35.0722
  1811.9000      8.0246      1.4733      0.1377     71.3168     28.0715     34.8672
  1812.0000      8.0922      1.5322      0.1185     67.7436     27.9262     34.3111
  1812.1000      8.0922      1.6013      0.1043     63.5552     32.3265     34.1263
  1812.2000      8.0922      1.7119      0.1210     56.8545     37.4947     33.7367
  1812.3000      8.2255      1.8503      0.1882     48.4668     40.7498     32.3261
  1812.4000      8.2255      1.9790      0.2047     40.6675     43.4347     30.8163
  1812.5000      8.2482      2.0885      0.1774     34.0312     46.9031     30.7803
  1812.6000      8.2482      2.1930      0.2372     27.6940     52.2716     31.7574
  1812.7000      8.2482      2.2856      0.2739     22.0847     62.1774     32.1269
  1812.8000      7.9271      2.3429      0.2287     18.6142     76.5115     31.0733
  1812.9000      7.9271      2.3662      0.1459     17.2008     90.7380     29.1583
  1813.0000      7.9019      2.3790      0.0886     16.4219     99.2350     27.9426
  1813.1000      7.9019      2.3915      0.1069     15.6688    100.4462     27.5845
  1813.2000      7.9019      2.3990      0.0768     15.2139     98.8242     27.1159
  1813.3000      7.9073      2.4053      0.0609     14.8274     97.0133     26.5207
  1813.4000      7.9073      2.4091      0.0849     14.6025     92.1068     26.1338
  1813.5000      7.9049      2.3994      0.0386     15.1854     84.4527     26.0535
  1813.6000      7.9049      2.3817      0.0368     16.2578     78.6576     26.3289
  1813.7000      7.9049      2.3665      0.0429     17.1809     75.1704     27.3578
  1813.8000      7.9142      2.3536      0.0323     17.9654     73.1874     28.8741
  1813.9000      7.9142      2.3451     -0.0051     18.4767     72.9036     29.6314
  1814.0000      7.9035      2.3475      0.0763     18.3331     73.1472     29.4770
  1814.1000      7.9035      2.3552      0.0701     17.8659     73.4403     29.2992
  1814.2000      7.9035      2.3624      0.0472     17.4302     75.2396     29.2992
  1814.3000      7.9040      2.3770      0.0875     16.5450     77.8248     28.9455
  1814.4000      7.9040      2.3989      0.1195     15.2184     81.1004     27.7561
  1814.5000      7.9055      2.4106      0.1411     14.5095     88.5730     26.4445
  1814.6000      7.9055      2.4082      0.1377     14.6570     99.4106     26.3080
  1814.7000      7.9055      2.4140      0.1043     14.3048    106.8608     27.2422
  1814.8000      7.8632      2.4409      0.1520     12.6756    107.9267     28.3568
  1814.9000      7.8632      2.4728      0.1397     10.7366    108.0004     29.3369
  1815.0000      7.8386      2.4930      0.0987      9.5122    108.0124     30.2308
  1815.1000      7.8386      2.4951      0.1076      9.3882    104.4421     30.8426
  1815.2000      7.8386      2.4773      0.1363     10.4661     98.8783     31.0428
  1815.3000      7.8942      2.4491      0.1066     12.1774     96.3162     30.7734
  1815.4000      7.8942      2.4205      0.1151     13.9110     97.3316     30.0141
  1815.5000      8.0346      2.3870      0.0738     15.9411     98.3693     29.2368
  1815.6000      8.0346      2.3453      0.0456     18.4690     97.7384     29.0899
  1815.7000      8.0346      2.2985      0.0485     21.3016     93.2082     29.4788
