~Version Information
VERS.                      2.0: CWLS Log ASCII Standard - VERSION 2.0
WRAP.                       NO: One line per depth step
~Well Information Block
STRT.FT               550.0000: 
STOP.FT              1979.0000: 
STEP.FT                 0.1000: 
NULL.                -999.2500: 
COMP.          Pioneer Natural Resources: COMPANY
WELL.          Flying Horse 12-11 Tr: WELL
FLD.           Purgatoire River: FIELD
LOC.           2459' FNL & 410' FWL: LOCATION
STAT.                 Colorado: PROVINCE
CNTY.               Las Animas: COUNTY
CTRY. USA : Country
SECT. 11 : Section
TOWN. 32S : Township
RANG. 66W : Range
SRVC.                Patterson: SERVICE COMPANY
DATE.          Tue Sep 06 07:09:24 2005: LOG DATE
API.           05 071 08485 00: UNIQUE WELL ID
~Curve Information Block
DEPT.FT            0 000 00 00: Depth
DCAL.in                       : CDL Caliper
RHOB.g/cc                     : CDL Bulk Density
RHOC.g/cc                     : CDL Density Correction
DPOR.pu                       : CDL Density Porosity
GR.GAPI                       : Gamma Ray
NPOR.pu                       : Neutron Porosity
~Parameter Information Block
~A  Depth       DCAL        RHOB        RHOC        DPOR         GR         NPOR    
# ...
   742.0000      8.3052      2.5742      0.1007      4.5918     91.9497     25.9863
   742.1000      8.3052      2.5647      0.0423      5.1703     89.1863     26.6202
   742.2000      8.3052      2.5520      0.0513      5.9417     90.3805     27.1103
   742.3000      8.3327      2.5345     -0.0106      6.9996     95.9499     27.1405
   742.4000      8.3327      2.5157      0.0379      8.1403    101.7404     26.7573
   742.5000      8.3470      2.5011      0.0423      9.0229    108.7208     26.5905
   742.6000      8.3470      2.4890      0.0593      9.7578    116.6968     26.7020
   742.7000      8.3470      2.4808     -0.0026     10.2529    121.2004     26.6937
   742.8000      8.3409      2.4841      0.0284     10.0531    123.0533     26.7035
   742.9000      8.3409      2.4971      0.0443      9.2665    125.4760     26.9538
   743.0000      8.3641      2.5132      0.0634      8.2920    128.1042     27.2126
   743.1000      8.3641      2.5288      0.0567      7.3460    128.2239     27.3685
   743.2000      8.3641      2.5336      0.0529      7.0550    125.4111     27.6350
   743.3000      8.3951      2.5187      0.0602      7.9571    125.4252     27.7649
   743.4000      8.3951      2.4906      0.0509      9.6615    131.7020     27.3815
   743.5000      8.3632      2.4578      0.0881     11.6476    139.1373     26.7894
   743.6000      8.3632      2.4285      0.0032     13.4242    143.6394     26.5299
   743.7000      8.3632      2.4135      0.0386     14.3316    146.1602     26.6432
   743.8000      8.3440      2.4132      0.0224     14.3491    146.8036     26.7121
   743.9000      8.3440      2.4269      0.0317     13.5236    147.4040     26.6800
   744.0000      8.3554      2.4552      0.0780     11.8070    152.3208     26.8434
   744.1000      8.3554      2.4864      0.1234      9.9134    159.0322     27.1042
   744.2000      8.3554      2.5079      0.1617      8.6150    160.3628     27.3171
   744.3000      8.3993      2.5181      0.1589      7.9958    159.3928     27.5705
   744.4000      8.3993      2.5250      0.1356      7.5759    161.0226     27.7155
   744.5000      8.3757      2.5421      0.1537      6.5394    160.5756     27.5100
   744.6000      8.3757      2.5763      0.2060      4.4661    160.0541     27.2388
   744.7000      8.3757      2.6152      0.2839      2.1086    165.3183     27.4172
   744.8000      8.3820      2.6319      0.2217      1.0987    168.9618     27.9534
   744.9000      8.3820      2.6178      0.1580      1.9544    165.8092     28.3216
   745.0000      8.3066      2.5925      0.1049      3.4871    161.8654     28.3153
   745.1000      8.3066      2.5699      0.1151      4.8566    158.9142     27.9674
   745.2000      8.3066      2.5484      0.0880      6.1547    154.3828     27.2463
   745.3000      8.2814      2.5284      0.0805      7.3708    150.8767     26.5734
   745.4000      8.2814      2.5148      0.0920      8.1965    152.5030     26.7738
   745.5000      8.2628      2.5157      0.0611      8.1398    157.9503     27.6753
   745.6000      8.2628      2.5290      0.1199      7.3303    160.6338     28.5394
   745.7000      8.2628      2.5394      0.0641      6.7061    159.3188     29.1795
   745.8000      8.2655      2.5404      0.1000      6.6419    159.1849     29.5877
   745.9000      8.2655      2.5406      0.0681      6.6300    158.5699     29.7839
   746.0000      8.3233      2.5440      0.1002      6.4260    153.5431     29.6560
   746.1000      8.3233      2.5407      0.1138      6.6244    147.2588     29.0451
   746.2000      8.3233      2.5395      0.0407      6.6985    147.0911     28.2591
   746.3000      8.2935      2.5585      0.0823      5.5463    153.6747     27.6341
   746.4000      8.2935      2.5785      0.1293      4.3313    158.4025     27.1490
   746.5000      8.3276      2.5769      0.0889      4.4329    158.5403     26.6243
   746.6000      8.3276      2.5692      0.0825      4.8968    156.6778     26.0623
   746.7000      8.3276      2.5691      0.0699      4.9045    154.2928     25.6510
   746.8000      8.3495      2.5668      0.0877      5.0453    151.2848     25.5578
   746.9000      8.3495      2.5564      0.0939      5.6737    143.7255     25.7973
   747.0000      8.3603      2.5361      0.0906      6.9003    131.3733     26.1474
   747.1000      8.3603      2.5036      0.0509      8.8701    124.8576     26.1140
   747.2000      8.3603      2.4594      0.0574     11.5499    132.7523     25.4329
   747.3000      8.3037      2.4122     -0.0505     14.4149    146.9203     24.7159
   747.4000      8.3037      2.3825      0.0199     16.2129    153.8433     24.6420
   747.5000      8.2764      2.3834     -0.0206     16.1549    154.3105     24.8724
   747.6000      8.2764      2.4069      0.0412     14.7342    156.1074     24.8017
   747.7000      8.2764      2.4300      0.0880     13.3321    153.2155     24.5466
   747.8000      8.2643      2.4366      0.1135     12.9337    141.5173     24.4944
   747.9000      8.2643      2.4267      0.1340     13.5338    131.3506     24.7656
   748.0000      8.2644      2.4129      0.1698     14.3696    131.1730     25.1421
   748.1000      8.2644      2.4131      0.2292     14.3567    136.2767     25.4253
   748.2000      8.2644      2.4387      0.2224     12.8036    137.7742     25.5574
   748.3000      8.2338      2.4901      0.2314      9.6900    137.7190     25.5197
   748.4000      8.2338      2.5553      0.2704      5.7401    142.6710     25.5295
   748.5000      8.2003      2.6101      0.3595      2.4167    152.4952     25.7040
   748.6000      8.2003      2.6416      0.3872      0.5115    160.2444     25.9460
   748.7000      8.2003      2.6601      0.3928     -0.6102    160.0099     26.3103
   748.8000      8.1995      2.6756      0.4114     -1.5517    152.3438     26.8449
   748.9000      8.1995      2.6789      0.3741     -1.7543    142.6595     27.4338
   749.0000      8.2154      2.6503      0.2716     -0.0164    135.5244     27.8866
   749.1000      8.2154      2.5909      0.1858      3.5797    130.4093     28.1885
   749.2000      8.2154      2.5360      0.0923      6.9093    129.6423     28.5064
   749.3000      8.2294      2.5111      0.0968      8.4162    135.5608     28.6848
   749.4000      8.2294      2.5032      0.1620      8.8985    141.3425     28.4010
   749.5000      8.2015      2.5033      0.0651      8.8939    139.7654     27.9630
   749.6000      8.2015      2.5294      0.0760      7.3074    131.7444     28.0300
   749.7000      8.2015      2.5761      0.1290      4.4810    123.6222     28.6340
   749.8000      8.1795      2.6124      0.1385      2.2816    122.0862     28.9509
   749.9000      8.1795      2.6229      0.1434      1.6427    127.7425     28.4572
   750.0000      8.1445      2.6144      0.1105      2.1562    133.9718     27.8256
   750.1000      8.1445      2.5993      0.0767      3.0706    136.3111     27.9566
   750.2000      8.1445      2.5776      0.0890      4.3901    137.8862     28.6056
   750.3000      8.1465      2.5494     -0.0013      6.0965    138.7794     28.6662
   750.4000      8.1465      2.5250      0.0336      7.5750    136.5799     27.8101
   750.5000      8.1423      2.5100      0.0073      8.4841    133.9888     26.9614
   750.6000      8.1423      2.5165      0.0097      8.0912    133.3863     26.6744
   750.7000      8.1423      2.5537      0.0284      5.8374    134.9648     26.6756
   750.8000      8.1708      2.5947      0.1230      3.3513    140.3462     26.8902
   750.9000      8.1708      2.6066      0.0425      2.6324    147.1713     27.2839
   751.0000      8.1713      2.5916      0.1100      3.5364    148.4062     27.3828
   751.1000      8.1713      2.5683      0.0531      4.9537    144.2199     27.0192
   751.2000      8.1713      2.5569      0.0537      5.6415    143.3268     26.6832
   751.3000      8.1890      2.5571      0.0788      5.6279    144.8694     26.6987
   751.4000      8.1890      2.5470      0.0579      6.2409    142.5317     26.9646
   751.5000      8.1873      2.5312      0.0365      7.2017    139.8519     27.2790
