~Version Information
VERS.                      2.0: CWLS Log ASCII Standard - VERSION 2.0
WRAP.                       NO: One line per depth step
~Well Information Block
STRT.FT                 0.0000: 
STOP.FT               988.7500: 
STEP.FT                 0.2500: 
NULL.                -999.2500: 
COMP.          Pioneer Natural Resources: COMPANY
WELL.             Quartz 13-22: WELL
FLD.           Purgatoire River: FIELD
LOC.           1933' FSL & 675' FWL --------: LOCATION
PROV.                 Colorado: PROVINCE
CNTY.               Las Animas: COUNTRY
SRVC.                         : SERVICE COMPANY
DATE.          Thu Dec 22 09:29:32 2005: LOG DATE
UWI.                          : UNIQUE WELL ID
~Curve Information Block
DEPT.FT            0 000 00 00: Depth
CCL.                          : Casing Collar Locator
TT3.usec                      : CBL 3' Travel Time
AMP3.mV                       : CBL 3' Amplitude
AMP5.mV                       : CBL 5' Amplitude
GR.GAPI                       : Gamma Ray
~Parameter Information Block
~A  Depth       CCL         TT3         AMP3        AMP5         GR     
# ...
    56.0000      0.0000    819.0148     10.2075      1.5236     94.4897
    56.2500      0.0000    786.6414     11.3637      1.5355     90.2084
    56.5000      0.0000    761.4804     12.4067      1.5934     85.7407
    56.7500      0.0000    746.2444     13.1348      1.7517     81.3139
    57.0000      0.0000    739.6896     13.4965      2.0575     77.0079
    57.2500      0.0000    738.1818     13.5675      2.4940     73.4047
    57.5000      0.0000    737.8861     13.4715      2.9486     71.2250
    57.7500      0.0000    736.5822     13.3272      3.2746     70.6221
    58.0000      0.0000    734.2366     13.2280      3.4135     71.3660
    58.2500      0.0000    731.9538     13.2254      3.4334     73.5457
    58.5000      0.0000    730.5389     13.3256      3.4418     77.4724
    58.7500      0.0000    730.0096     13.5130      3.4914     82.7895
    59.0000      0.0000    730.0475     13.7706      3.5675     88.1011
    59.2500      0.0000    730.5639     14.0748      3.6283     91.7248
    59.5000      0.0000    731.7734     14.3884      3.6517     92.8520
    59.7500      0.0000    733.7158     14.6693      3.6516     92.1084
    60.0000      0.0000    735.7139     14.8854      3.6597     90.9698
    60.2500      0.0000    736.5740     15.0230      3.6964     90.4220
    60.5000      0.0000    735.6286     15.0900      3.7541     90.1736
    60.7500      0.0000    733.4240     15.1116      3.8047     89.2785
    61.0000      0.0000    731.1603     15.1157      3.8397     87.3603
    61.2500      0.0000    729.6422     15.1187      3.8843     85.1793
    61.5000      0.0000    728.9260     15.1207      3.9495     84.2275
    61.7500      0.0000    728.6896     15.1051      4.0042     85.6285
    62.0000      0.0000    728.6442     15.0432      4.0232     89.0870
    62.2500      0.0000    728.6497     14.9111      4.0203     93.0306
    62.5000      0.0000    728.6436     14.7104      4.0079     95.9303
    62.7500      0.0000    728.5763     14.4680      3.9774     97.1525
    63.0000      0.0000    728.4240     14.2212      3.9406     96.5325
    63.2500      0.0000    728.2225     14.0142      3.9328     93.8892
    63.5000      0.0000    728.0390     13.9041      3.9614     89.2969
    63.7500      0.0000    727.9207     13.9468      4.0051     83.3706
    64.0000      0.0000    727.8802     14.1662      4.0599     77.1106
    64.2500      0.0000    727.9176     14.5378      4.1325     71.7608
    64.5000      0.0000    728.0209     15.0046      4.2012     68.6442
    64.7500      0.0000    728.1510     15.5091      4.2280     68.5744
    65.0000      0.0000    727.9680     16.0203      4.1998     71.3564
    65.2500      0.0000    726.0565     16.5344      4.1359     76.0313
    65.5000      0.0000    718.6351     17.0445      4.0701     81.5117
    65.7500      0.0000    699.1689     17.5079      4.0355     86.9996
    66.0000      0.0000    661.7714     17.8582      4.0578     92.0873
    66.2500      0.0000    608.3146     18.0565      4.1555     96.4871
    66.5000      0.0000    552.2993     18.1226      4.3325     99.5121
    66.7500      0.0000    511.8182     18.1035      4.5626    100.0240
    67.0000      0.0000    495.6815     18.0172      4.7946     97.2186
    67.2500      0.0000    496.5861     17.8402      4.9760     91.5490
    67.5000      0.0000    498.8640     17.5493      5.0756     84.8696
    67.7500      0.0000    492.9856     17.1691      5.0992     79.5835
    68.0000      0.0000    482.5279     16.7739      5.0784     77.4027
    68.2500      0.0000    478.0911     16.4466      5.0328     78.5548
    68.5000      0.0000    486.2309     16.2367      4.9543     81.8350
    68.7500      0.0000    504.8974     16.1530      4.8329     85.4667
    69.0000      0.0000    528.6832     16.1877      4.6800     88.3886
    69.2500      0.0000    556.6156     16.3340      4.5280     90.7871
    69.5000      0.0000    591.8618     16.5738      4.4145     93.0669
    69.7500      0.0000    633.7289     16.8664      4.3654     94.6294
    70.0000      0.0000    674.3183     17.1681      4.3966     94.5213
    70.2500      0.0000    705.1946     17.4598      4.5140     93.1946
    70.5000      0.0000    724.5742     17.7402      4.6934     92.6152
    70.7500      0.0000    736.2172     17.9903      4.8793     94.2409
    71.0000      0.0000    743.2824     18.1647      5.0227     97.4387
    71.2500      0.0000    744.3383     18.2318      5.1071    100.1711
    71.5000      0.0000    735.0550     18.2073      5.1271    100.8680
    71.7500      0.0000    714.6535     18.1291      5.0768     99.4143
    72.0000      0.0000    691.6264     18.0114      4.9822     96.6831
    72.2500      0.0000    680.5150     17.8446      4.9096     93.5664
    72.5000      0.0000    689.6974     17.6279      4.9046     90.5642
    72.7500      0.0000    713.2943     17.3817      4.9469     88.0610
    73.0000      0.0000    737.1426     17.1311      4.9843     86.6427
    73.2500      0.0000    751.0787     16.8929      4.9877     86.7624
    73.5000      0.0000    753.9222     16.6756      4.9656     87.9682
    73.7500      0.0000    749.3523     16.4785      4.9446     88.7108
    74.0000      0.0000    739.8240     16.2990      4.9363     87.3049
    74.2500      0.0000    724.7597     16.1518      4.9191     83.3649
    74.5000      0.0000    704.0003     16.0699      4.8663     78.4830
    74.7500      0.0000    681.8073     16.0661      4.7830     75.3702
    75.0000      0.0000    664.3529     16.1061      4.7068     75.8844
    75.2500      0.0000    651.7311     16.1360      4.6743     79.5338
    75.5000      0.0000    635.7693     16.1272      4.6964     83.9020
    75.7500      0.0000    608.5562     16.0870      4.7624     86.6496
    76.0000      0.0000    571.2738     16.0336      4.8442     87.1172
    76.2500      0.0000    532.8933     15.9761      4.8753     86.1937
    76.5000      0.0000    502.2663     15.9147      4.7521     85.1773
    76.7500      0.0000    482.3637     15.8529      4.4265     85.1501
    77.0000      0.0000    471.4473     15.7992      4.0090     87.0485
    77.2500      0.0000    469.6850     15.7517      3.7149     91.3251
    77.5000      0.0000    482.2025     15.6821      3.6692     97.0327
    77.7500      0.0000    512.4645     15.5435      3.7911    101.8737
    78.0000      0.0000    554.5618     15.3070      3.8915    103.9989
    78.2500      0.0000    594.5892     15.0035      3.8669    103.6628
    78.5000      0.0000    617.8461     14.7222      3.7722    102.7256
    78.7500      0.0000    616.4442     14.5513      3.7104    102.7263
    79.0000      0.0000    596.5242     14.5065      3.7074    103.7432
    79.2500      0.0000    578.6817     14.5207      3.7258    104.7596
    79.5000      0.0000    583.8949     14.5048      3.7482    104.6126
    79.7500      0.0000    615.6035     14.4156      3.7710    102.8043
    80.0000      0.0000    658.4746     14.2698      3.7530     99.9600
    80.2500      0.0000    694.2747     14.1101      3.6606     97.6080
    80.5000      0.0000    715.3129     13.9770      3.5545     97.1775
    80.7500      0.0000    723.8244     13.8999      3.5406     98.8805
    81.0000      0.0000    724.1996     13.8904      3.6193    101.3726
    81.2500      0.0000    717.7907     13.9360      3.6620    102.7550
    81.5000      0.0000    703.4042     14.0151      3.5748    102.2411
    81.7500      0.0000    681.9968     14.1162      3.4379    100.6749
    82.0000      0.0000    661.1136     14.2322      3.4379     99.2175
    82.2500      0.0000    652.2833     14.3446      3.6775     97.9439
    82.5000      0.0000    661.2684     14.4358      4.0776     96.0472
    82.7500      0.0000    682.2468     14.5120      4.4542     93.0369
    83.0000      0.0000    703.6399     14.5965      4.6579     89.4473
    83.2500      0.0000    717.9791     14.7045      4.6399     86.5368
    83.5000      0.0000    724.8800     14.8327      4.4250     85.4238
    83.7500      0.0000    727.4078     14.9670      4.0616     86.4405
