~Version Information
VERS.                      2.0: CWLS Log ASCII Standard - VERSION 2.0
WRAP.                       NO: One line per depth step
~Well Information Block
STRT.FT                -6.5000: 
STOP.FT              1773.5000: 
STEP.FT                 0.2500: 
NULL.                -999.2500: 
COMP.          Pioneer Natural Resources: COMPANY
WELL.           Lynch 43-30 Tr: WELL
FLD.           Purgatorie River: FIELD
LOC.           1431' FSL & 296' FEL--: LOCATION
PROV.                       CO: PROVINCE
CNTY.               Las Animas: COUNTRY
SRVC.          Patterson Wireline: SERVICE COMPANY
DATE.          Tue Aug 02 09:28:21 2005: LOG DATE
UWI.           05 071 08447 00: UNIQUE WELL ID
~Curve Information Block
DEPT.FT            0 000 00 00: Depth
CCL.                          : Casing Collar Locator
TT3.usec                      : CBL 3' Travel Time
AMP3.mV                       : CBL 3' Amplitude
GR.GAPI                       : Gamma Ray
~Parameter Information Block
MINAMPL.mV              1.0000: Minimum Amplitude
~A  Depth       CCL         TT3         AMP3         GR     
# ...
   563.0000      0.0000    828.5622     16.0898    127.3631
   563.2500      0.0000    833.9240     15.9335    128.0594
   563.5000      0.0000    842.4957     15.8476    130.4271
   563.7500      0.0000    853.4719     15.8539    131.9178
   564.0000      0.0000    863.4056     15.9501    130.7590
   564.2500      0.0000    866.9786     16.1121    127.2514
   564.5000      0.0000    860.5155     16.3017    122.8897
   564.7500      0.0000    845.3881     16.4797    118.9430
   565.0000      0.0000    827.1741     16.6191    116.0061
   565.2500      0.0000    811.3327     16.7081    114.0825
   565.5000      0.0000    800.4546     16.7473    112.6653
   565.7500      0.0000    795.2466     16.7473    111.3140
   566.0000      0.0000    796.6715     16.7276    110.5805
   566.2500      0.0000    806.3693     16.7091    111.9593
   566.5000      0.0000    824.8099     16.7072    116.5427
   566.7500      0.0000    848.7715     16.7264    123.9693
   567.0000      0.0000    870.9695     16.7567    132.6520
   567.2500      0.0000    883.2618     16.7763    140.5602
   567.5000      0.0000    881.1019     16.7618    145.8287
   567.7500      0.0000    865.8192     16.7007    147.4419
   568.0000      0.0000    843.7619     16.5982    145.9118
   568.2500      0.0000    823.2062     16.4759    143.1796
   568.5000      0.0000    810.3948     16.3620    141.6696
   568.7500      0.0000    806.8160     16.2795    143.1162
   569.0000      0.0000    809.4672     16.2393    147.5291
   569.2500      0.0000    813.5301     16.2395    152.9758
   569.5000      0.0000    815.1342     16.2655    157.0646
   569.7500      0.0000    812.5966     16.2908    159.2031
   570.0000      0.0000    806.3583     16.2818    161.0112
   570.2500      0.0000    798.3449     16.2085    164.3008
   570.5000      0.0000    790.9028     16.0605    168.9509
   570.7500      0.0000    785.5860     15.8608    172.6812
   571.0000      0.0000    782.6160     15.6633    172.4731
   571.2500      0.0000    781.3306     15.5253    166.6321
   571.5000      0.0000    780.9493     15.4756    156.2817
   571.7500      0.0000    780.9592     15.5072    144.9832
   572.0000      0.0000    781.1089     15.5942    136.5783
   572.2500      0.0000    781.3297     15.7099    133.0482
   572.5000      0.0000    781.7369     15.8346    133.6886
   572.7500      0.0000    782.6566     15.9572    135.7586
   573.0000      0.0000    784.5882     16.0712    136.4079
   573.2500      0.0000    788.0740     16.1696    134.7325
   573.5000      0.0000    793.7665     16.2454    132.1358
   573.7500      0.0000    802.8686     16.2962    130.5904
   574.0000      0.0000    817.0668     16.3228    130.6000
   574.2500      0.0000    836.8327     16.3220    130.8005
   574.5000      0.0000    859.4564     16.2878    129.3063
   574.7500      0.0000    879.7970     16.2245    125.5639
   575.0000      0.0000    893.5638     16.1532    121.0325
   575.2500      0.0000    899.3907     16.1007    117.7943
   575.5000      0.0000    898.2238     16.0820    116.3333
   575.7500      0.0000    892.4056     16.0952    115.0495
   576.0000      0.0000    885.7750     16.1281    112.0799
   576.2500      0.0000    882.7529     16.1665    107.3270
   576.5000      0.0000    885.4580     16.1961    102.6758
   576.7500      0.0000    892.0162     16.2064    100.4494
   577.0000      0.0000    898.5115     16.1958    101.5249
   577.2500      0.0000    902.1057     16.1734    104.6525
   577.5000      0.0000    901.8700     16.1529    107.6419
   577.7500      0.0000    897.8819     16.1443    109.4046
   578.0000      0.0000    891.1589     16.1534    110.7057
   578.2500      0.0000    884.4747     16.1888    112.6149
   578.5000      0.0000    881.5936     16.2610    114.4962
   578.7500      0.0000    884.3547     16.3671    114.0704
   579.0000      0.0000    890.9224     16.4785    109.4985
   579.2500      0.0000    897.6139     16.5532    101.1413
   579.5000      0.0000    901.9169     16.5670     91.3036
   579.7500      0.0000    903.2654     16.5307     82.5603
   580.0000      0.0000    901.7453     16.4786     76.4936
   580.2500      0.0000    897.2288     16.4416     73.5413
   580.5000      0.0000    890.2103     16.4363     73.0163
   580.7500      0.0000    883.0707     16.4774     72.9662
   581.0000      0.0000    879.2553     16.5917     71.0170
   581.2500      0.0000    880.3196     16.8098     66.4442
   581.5000      0.0000    884.4511     17.1373     61.2046
   581.7500      0.0000    888.6815     17.5325     58.1333
   582.0000      0.0000    891.6510     17.9192     58.1003
   582.2500      0.0000    893.4150     18.2276     59.5242
   582.5000      0.0000    893.6325     18.4302     60.6624
   582.7500      0.0000    891.2802     18.5391     61.5732
   583.0000      0.0000    886.0150     18.5780     63.4150
   583.2500      0.0000    879.0424     18.5575     66.5054
   583.5000      0.0000    872.3900     18.4753     69.8347
   583.7500      0.0000    867.4592     18.3320     72.0278
   584.0000      0.0000    864.2265     18.1457     72.0476
   584.2500      0.0000    861.5300     17.9469     69.3358
   584.5000      0.0000    857.9485     17.7509     64.2005
   584.7500      0.0000    852.8500     17.5347     58.1869
   585.0000      0.0000    847.0253     17.2497     53.5262
   585.2500      0.0000    842.1472     16.8666     51.8279
   585.5000      0.0000    839.4230     16.4102     53.1538
   585.7500      0.0000    839.1286     15.9513     56.2280
   586.0000      0.0000    841.2377     15.5640     59.2966
   586.2500      0.0000    845.4655     15.2864     60.9393
   586.5000      0.0000    850.6608     15.1099     60.7736
   586.7500      0.0000    855.1703     14.9964     59.7338
   587.0000      0.0000    857.9989     14.9082     59.2717
   587.2500      0.0000    859.1575     14.8304     60.0614
   587.5000      0.0000    859.0145     14.7707     61.6777
   587.7500      0.0000    857.7850     14.7420     63.4061
   588.0000      0.0000    855.7245     14.7503     64.9790
   588.2500      0.0000    853.4757     14.7967     66.5487
   588.5000      0.0000    851.7700     14.8817     68.2294
   588.7500      0.0000    850.6057     15.0031     69.7299
   589.0000      0.0000    849.1794     15.1519     70.4555
   589.2500      0.0000    847.1479     15.3170     69.9911
   589.5000      0.0000    845.6100     15.4895     68.4809
   589.7500      0.0000    846.1647     15.6574     66.7296
   590.0000      0.0000    849.0877     15.7991     66.0325
   590.2500      0.0000    852.9600     15.8928     67.4162
   590.5000      0.0000    855.9952     15.9358     70.4522
   590.7500      0.0000    857.2045     15.9513     73.0284
   591.0000      0.0000    856.3856     15.9728     72.9417
   591.2500      0.0000    853.6782     16.0200     69.8759
   591.5000      0.0000    849.4422     16.0906     65.5656
   591.7500      0.0000    844.2859     16.1691     62.0928
   592.0000      0.0000    838.9890     16.2347     60.2923
   592.2500      0.0000    834.4752     16.2627     59.6821
   592.5000      0.0000    831.6870     16.2198     59.3253
   592.7500      0.0000    830.5595     16.0585     58.4621
   593.0000      0.0000    828.5806     15.7155     56.8023
   593.2500      0.0000    820.8853     15.1542     54.7031
   593.5000      0.0000    803.8591     14.4424     53.0021
   593.7500      0.0000    781.0261     13.7539     52.4395
   594.0000      0.0000    765.1205     13.2232     53.0168
   594.2500      0.0000    770.3041     12.8190     53.8322
   594.5000      0.0000    799.1941     12.4390     53.7753
   594.7500      0.0000    839.6851     12.0882     52.5940
   595.0000      0.0000    876.4017     11.8681     51.0902
   595.2500      0.0000    902.0209     11.8302     50.2107
   595.5000     -2.0000    915.9664     11.9305     50.3274
   595.7500      2.0000    917.5745     12.0962     51.4756
   596.0000      0.0000    904.7028     12.2895     53.7284
   596.2500      0.0000    877.1334     12.5409     57.0118
