~Version Information
VERS.                      2.0: CWLS Log ASCII Standard - VERSION 2.0
WRAP.                       NO: One line per depth step
~Well Information Block
STRT.FT               330.0000: 
STOP.FT              2874.7000: 
STEP.FT                 0.1000: 
NULL.                -999.2500: 
COMP.          Pioneer Natural Resources: COMPANY
WELL.                AMX 13-13: WELL
FLD.           Purgatoire River: FIELD
LOC.           2316' FSL & 865' FWL--: LOCATION
PROV.                 Colorado: PROVINCE
CNTY.               Las Animas: COUNTRY
SRVC.                Patterson: SERVICE COMPANY
DATE.          Tue Dec 20 09:57:28 2005: LOG DATE
UWI.           05 071 08630 00: UNIQUE WELL ID
~Curve Information Block
DEPT.FT            0 000 00 00: Depth
DCAL.in                       : CDL Caliper
RHOB.g/cc                     : CDL Bulk Density
RHOC.g/cc                     : CDL Density Correction
DPOR.pu                       : CDL Density Porosity
NPOR.pu                       : Neutron Porosity
GR.GAPI                       : Gamma Ray
~Parameter Information Block
~A  Depth       DCAL        RHOB        RHOC        DPOR        NPOR         GR     
# ...
   666.0000      8.5513      2.5168      0.0650      8.0757     24.0734    127.8015
   666.1000      8.5513      2.4818      0.0302     10.1959     23.9039    127.2796
   666.2000      8.5513      2.4693      0.0358     10.9544     24.1002    123.9814
   666.3000      8.4892      2.4820      0.0828     10.1846     24.4085    118.3029
   666.4000      8.4892      2.5009      0.0350      9.0391     24.1843    117.5799
   666.5000      8.4433      2.5177      0.0893      8.0202     23.5261    122.1663
   666.6000      8.4433      2.5383      0.0652      6.7715     23.0521    126.6476
   666.7000      8.4433      2.5668      0.1077      5.0448     22.9008    125.8993
   666.8000      8.4148      2.5927      0.1610      3.4738     23.0269    119.0305
   666.9000      8.4148      2.6069      0.1656      2.6149     23.6339    113.7838
   667.0000      8.3904      2.6077      0.1646      2.5612     24.7084    116.5848
   667.1000      8.3904      2.5981      0.1211      3.1433     25.8101    120.9637
   667.2000      8.3904      2.5955      0.0697      3.3003     26.5399    120.6352
   667.3000      8.3655      2.6082      0.0964      2.5333     26.7855    120.3822
   667.4000      8.3655      2.6172      0.0963      1.9861     26.5904    121.8124
   667.5000      8.3419      2.6069      0.0609      2.6101     26.0707    122.2861
   667.6000      8.3419      2.5805      0.0590      4.2124     25.3611    121.1853
   667.7000      8.3419      2.5528      0.0238      5.8888     24.6107    119.0258
   667.8000      8.3311      2.5427      0.0252      6.5058     24.2606    117.5744
   667.9000      8.3311      2.5535      0.0596      5.8514     24.5092    118.9536
   668.0000      8.3353      2.5735      0.0573      4.6358     24.8858    126.8597
   668.1000      8.3353      2.6009      0.0881      2.9753     25.0250    137.9613
   668.2000      8.3353      2.6405      0.0969      0.5783     25.0317    142.0504
   668.3000      8.3457      2.6818      0.1580     -1.9280     25.1734    137.5782
   668.4000      8.3457      2.7009      0.1329     -3.0827     25.4931    130.7672
   668.5000      8.3502      2.6827      0.1455     -1.9798     25.7131    129.0610
   668.6000      8.3502      2.6377      0.0921      0.7447     25.6919    134.6828
   668.7000      8.3502      2.5954      0.0258      3.3062     25.5706    140.8392
   668.8000      8.3496      2.5680      0.0462      4.9726     25.5365    143.4242
   668.9000      8.3496      2.5466     -0.0056      6.2664     25.6145    144.3271
   669.0000      8.3504      2.5346      0.0090      6.9939     25.6618    144.9113
   669.1000      8.3504      2.5385      0.0192      6.7579     25.6353    145.6369
   669.2000      8.3504      2.5523      0.0256      5.9203     25.5719    144.2810
   669.3000      8.3515      2.5659      0.0355      5.0991     25.4128    139.9406
   669.4000      8.3515      2.5753      0.0593      4.5255     25.4150    136.7318
   669.5000      8.3516      2.5812      0.0520      4.1674     25.7005    134.7477
   669.6000      8.3516      2.5837      0.0335      4.0190     25.8185    131.5406
   669.7000      8.3516      2.5769      0.0593      4.4300     25.9042    130.2545
   669.8000      8.3511      2.5629      0.0170      5.2791     26.1754    131.7159
   669.9000      8.3511      2.5605      0.0377      5.4253     26.1854    132.2723
   670.0000      8.3501      2.5687      0.0891      4.9302     25.8584    131.6300
   670.1000      8.3501      2.5651      0.0844      5.1461     25.5410    132.1047
   670.2000      8.3501      2.5461      0.0461      6.2986     25.3694    133.1801
   670.3000      8.3504      2.5237      0.0655      7.6565     25.4333    133.8126
   670.4000      8.3504      2.5047      0.0366      8.8073     25.7506    132.8616
   670.5000      8.3528      2.4933      0.0298      9.4981     25.9293    129.7132
   670.6000      8.3528      2.4958      0.0036      9.3466     25.7786    127.7389
   670.7000      8.3528      2.5148      0.0465      8.1969     25.5293    128.0719
   670.8000      8.3616      2.5462      0.0583      6.2886     25.2709    130.1347
   670.9000      8.3616      2.5807      0.1029      4.2023     25.0032    135.6012
   671.0000      8.3843      2.6008      0.1469      2.9847     24.8248    142.2430
   671.1000      8.3843      2.6016      0.1000      2.9330     24.7752    144.9516
   671.2000      8.3843      2.5955      0.0897      3.3028     24.6687    143.7459
   671.3000      8.4124      2.5827      0.0973      4.0809     24.4304    141.8220
   671.4000      8.4124      2.5608      0.0509      5.4074     24.1278    140.7214
   671.5000      8.4265      2.5447      0.0295      6.3842     23.5987    139.8455
   671.6000      8.4265      2.5423      0.0529      6.5244     23.0573    136.8985
   671.7000      8.4265      2.5423      0.0174      6.5291     22.8589    132.1715
   671.8000      8.4296      2.5344      0.0553      7.0082     22.6856    131.3683
   671.9000      8.4296      2.5250      0.0130      7.5773     22.3276    136.9203
   672.0000      8.4293      2.5256      0.0147      7.5420     22.0984    141.3716
   672.1000      8.4293      2.5361     -0.0005      6.9011     22.2829    137.6504
   672.2000      8.4293      2.5518      0.0089      5.9520     22.8466    129.2543
   672.3000      8.4290      2.5691      0.0436      4.9034     23.5032    125.7642
   672.4000      8.4290      2.5784      0.0890      4.3405     23.9306    126.9366
   672.5000      8.4316      2.5729      0.0348      4.6732     24.1192    123.7306
   672.6000      8.4316      2.5663      0.0401      5.0729     24.3268    114.6245
   672.7000      8.4316      2.5743      0.0498      4.5862     24.7357    106.8240
   672.8000      8.4354      2.5932      0.0340      3.4435     25.3119    106.9243
   672.9000      8.4354      2.6086      0.0998      2.5115     25.8215    111.1974
   673.0000      8.4365      2.6144      0.0478      2.1546     26.0511    112.3448
   673.1000      8.4365      2.6091      0.0740      2.4761     26.0775    112.7575
   673.2000      8.4365      2.5849      0.0564      3.9443     26.0432    115.2824
   673.3000      8.4399      2.5515      0.0000      5.9723     25.7901    116.8282
   673.4000      8.4399      2.5390      0.0129      6.7280     25.2733    114.7358
   673.5000      8.4590      2.5601      0.0473      5.4461     24.8020    110.8855
   673.6000      8.4590      2.5935      0.1171      3.4251     24.5407    108.9827
   673.7000      8.4590      2.6018      0.1593      2.9232     24.3632    109.3330
   673.8000      8.4925      2.5771      0.0382      4.4154     24.4482    111.1403
   673.9000      8.4925      2.5523      0.0238      5.9221     24.8399    113.5051
   674.0000      8.5188      2.5422      0.0455      6.5309     24.7830    113.0450
   674.1000      8.5188      2.5308      0.0087      7.2237     24.0803    111.2352
   674.2000      8.5188      2.5160     -0.0269      8.1195     23.7344    113.4743
   674.3000      8.5312      2.5156     -0.0539      8.1468     24.1354    118.4672
   674.4000      8.5312      2.5390     -0.0562      6.7284     24.5037    122.2570
   674.5000      8.5368      2.5637      0.0505      5.2322     24.3285    124.2795
   674.6000      8.5368      2.5621      0.0070      5.3275     23.8591    126.0137
   674.7000      8.5368      2.5483     -0.0230      6.1651     23.4433    127.5141
   674.8000      8.5395      2.5445      0.0032      6.3944     23.3004    126.2579
   674.9000      8.5395      2.5416      0.0325      6.5671     23.5334    123.6318
   675.0000      8.5417      2.5266      0.0343      7.4793     23.8792    121.7757
   675.1000      8.5417      2.5038      0.0043      8.8612     23.9841    118.7074
   675.2000      8.5417      2.4815     -0.0415     10.2091     23.8052    112.9091
   675.3000      8.5416      2.4658     -0.0401     11.1627     23.5355    107.4214
   675.4000      8.5416      2.4552      0.0171     11.8031     23.1234    107.4450
   675.5000      8.5401      2.4449     -0.0301     12.4331     22.3473    114.5949
