~Version Information
VERS.                      2.0: CWLS Log ASCII Standard - VERSION 2.0
WRAP.                       NO: One line per depth step
~Well Information Block
STRT.FT                -7.0000: 
STOP.FT              2328.5000: 
STEP.FT                 0.2500: 
NULL.                -999.2500: 
COMP.          Pioneer Natural Resources: COMPANY
WELL.              Rolls 14-14: WELL
FLD.           Purgatorie River: FIELD
LOC.           572' FSL & 856' FWL--: LOCATION
PROV.                       CO: PROVINCE
CNTY.               Las Animas: COUNTRY
SRVC.          Patterson Wireline: SERVICE COMPANY
DATE.          Mon Aug 08 10:10:54 2005: LOG DATE
UWI.           05 071 08455 00: UNIQUE WELL ID
~Curve Information Block
DEPT.FT            0 000 00 00: Depth
CCL.                          : Casing Collar Locator
TT3.usec                      : CBL 3' Travel Time
AMP3.mV                       : CBL 3' Amplitude
GR.GAPI                       : Gamma Ray
~Parameter Information Block
~A  Depth       CCL         TT3         AMP3         GR     
# ...
  2137.0000      0.0000    660.2266      4.0279     79.1733
  2137.2500      0.0000    664.6361      4.0508     81.9124
  2137.5000      0.0000    673.5761      4.0732     82.8181
  2137.7500      0.0000    684.3011      4.1016     81.4053
  2138.0000      0.0000    692.7085      4.1280     78.1541
  2138.2500      0.0000    695.1617      4.1356     74.3940
  2138.5000      0.0000    689.1655      4.1046     71.8360
  2138.7500      0.0000    673.5911      4.0191     71.4779
  2139.0000      0.0000    650.6690      3.8883     72.6541
  2139.2500      0.0000    628.9545      3.7562     73.5958
  2139.5000      0.0000    621.9360      3.6670     73.2936
  2139.7500      0.0000    638.9066      3.6237     72.5726
  2140.0000      0.0000    675.1685      3.5989     73.0756
  2140.2500      2.0000    713.3430      3.5706     75.4265
  2140.5000      2.0000    735.8124      3.5322     78.6873
  2140.7500      0.0000    735.7208      3.4872     81.4619
  2141.0000      0.0000    718.2875      3.4536     83.1026
  2141.2500      0.0000    695.3101      3.4561     83.8896
  2141.5000      0.0000    677.5835      3.4983     84.5835
  2141.7500      0.0000    668.6207      3.5558     85.9618
  2142.0000      0.0000    664.3793      3.6050     88.2514
  2142.2500      0.0000    659.3547      3.6464     90.6360
  2142.5000      0.0000    652.1198      3.6887     91.4344
  2142.7500      0.0000    645.3718      3.7213     89.1273
  2143.0000      0.0000    642.4811      3.7207     83.5370
  2143.2500      0.0000    644.4865      3.6832     76.1765
  2143.5000      0.0000    649.4331      3.6340     69.5484
  2143.7500      0.0000    654.0255      3.5996     65.9116
  2144.0000      0.0000    656.1708      3.5884     66.1746
  2144.2500      0.0000    656.3215      3.5998     69.4300
  2144.5000      0.0000    656.5865      3.6314     73.5204
  2144.7500      0.0000    658.6829      3.6739     76.4913
  2145.0000      0.0000    662.9038      3.7165     77.9287
  2145.2500      0.0000    668.9805      3.7577     78.9115
  2145.5000      0.0000    677.2266      3.8008     80.5738
  2145.7500      0.0000    687.8900      3.8379     82.8339
  2146.0000      0.0000    698.9340      3.8437     84.6736
  2146.2500      0.0000    704.6690      3.7798     85.3768
  2146.5000      0.0000    697.7289      3.6037     85.1185
  2146.7500      0.0000    674.6274      3.3110     84.5901
  2147.0000      0.0000    640.9343      2.9932     84.4517
  2147.2500      0.0000    609.4405      2.8107     84.8825
  2147.5000      0.0000    590.1014      2.8607     85.3004
  2147.7500      0.0000    582.3500      3.0972     84.7425
  2148.0000      0.0000    580.6432      3.4005     82.7860
  2148.2500      0.0000    585.8481      3.6744     79.9398
  2148.5000      0.0000    604.8936      3.8654     77.0639
  2148.7500      0.0000    638.8748      3.9583     74.7250
  2149.0000      0.0000    677.4930      3.9812     73.2399
  2149.2500      0.0000    706.7812      3.9740     72.9862
  2149.5000      0.0000    718.4503      3.9463     74.2745
  2149.7500      0.0000    711.8127      3.8929     76.9764
  2150.0000      0.0000    692.0637      3.8280     80.5485
  2150.2500      0.0000    669.1014      3.7677     84.2880
  2150.5000      0.0000    654.0072      3.7033     87.3244
  2150.7500      0.0000    652.1657      3.6208     88.7178
  2151.0000      0.0000    659.7446      3.5273     88.1592
  2151.2500      0.0000    668.4078      3.4375     86.4595
  2151.5000      0.0000    673.0116      3.3509     84.8506
  2151.7500      0.0000    674.3716      3.2595     83.7979
  2152.0000      0.0000    675.9408      3.1733     82.7216
  2152.2500      0.0000    679.2273      3.1188     80.7687
  2152.5000      0.0000    682.7053      3.0943     77.5880
  2152.7500      0.0000    684.6154      3.0495     73.4306
  2153.0000      0.0000    685.9676      2.9436     68.9842
  2153.2500      0.0000    690.7217      2.8124     65.3409
  2153.5000      0.0000    703.4706      2.7400     63.5367
  2153.7500      0.0000    726.3566      2.7628     63.4905
  2154.0000      0.0000    756.6279      2.8312     63.6540
  2154.2500      0.0000    786.6693      2.8649     62.3999
  2154.5000      0.0000    807.3433      2.8240     59.8256
  2154.7500      0.0000    812.3922      2.7292     57.8601
  2155.0000      0.0000    800.6882      2.6369     58.5836
  2155.2500      0.0000    776.0110      2.6039     62.4856
  2155.5000      0.0000    745.6194      2.6562     68.1379
  2155.7500      0.0000    717.4583      2.7721     73.5269
  2156.0000      0.0000    696.1294      2.8971     77.7893
  2156.2500      0.0000    680.2141      2.9816     81.4074
  2156.5000      0.0000    663.5375      3.0095     84.7411
  2156.7500      0.0000    640.6696      2.9965     87.1120
  2157.0000      0.0000    613.5425      2.9719     87.6753
  2157.2500      0.0000    592.3021      2.9693     86.5009
  2157.5000      0.0000    586.0638      3.0232     84.3929
  2157.7500      0.0000    591.5923      3.1545     82.1151
  2158.0000      0.0000    594.2001      3.3457     80.0839
  2158.2500      0.0000    581.9627      3.5401     78.5784
  2158.5000      0.0000    558.3094      3.6820     77.9815
  2158.7500      0.0000    540.1644      3.7616     78.5982
  2159.0000      0.0000    543.6649      3.8080     80.1891
  2159.2500      0.0000    570.6982      3.8346     81.8798
  2159.5000      0.0000    608.2644      3.8156     82.5693
  2159.7500      0.0000    640.1247      3.7382     81.3532
  2160.0000      0.0000    658.5643      3.6604     77.9622
  2160.2500      0.0000    666.1334      3.6773     73.1832
  2160.5000      0.0000    669.2067      3.8160     68.4780
  2160.7500      0.0000    671.8137      3.9810     64.7657
  2161.0000      0.0000    674.3340      4.0228     61.8172
  2161.2500      0.0000    675.5428      3.8710     59.0315
  2161.5000      0.0000    674.6510      3.6073     56.4430
  2161.7500      0.0000    671.6337      3.4076     54.7028
  2162.0000      0.0000    666.5437      3.4026     54.2610
  2162.2500      0.0000    659.6453      3.5786     54.9404
  2162.5000      0.0000    652.7882      3.7923     56.4327
  2162.7500      0.0000    649.5214      3.8756     58.9705
  2163.0000      0.0000    652.3023      3.7545     63.1889
  2163.2500      0.0000    659.8157      3.5038     69.3628
  2163.5000      0.0000    668.0502      3.2989     76.8575
  2163.7500      0.0000    673.8342      3.2865     84.2219
  2164.0000      0.0000    676.8892      3.4767     89.8613
  2164.2500      0.0000    678.9609      3.7429     92.8356
  2164.5000      0.0000    681.3701      3.9159     93.0049
  2164.7500      0.0000    683.1235      3.8878     90.4844
  2165.0000      0.0000    681.3254      3.6701     85.4353
  2165.2500      0.0000    673.8746      3.3869     78.5415
  2165.5000      0.0000    662.1984      3.2035     71.3156
  2165.7500      0.0000    651.1514      3.2174     65.7759
  2166.0000      0.0000    645.3047      3.3862     63.7437
  2166.2500      0.0000    644.3467      3.5628     65.8859
  2166.5000      0.0000    642.9099      3.6213     71.0708
  2166.7500      0.0000    636.5282      3.5651     76.9921
  2167.0000      0.0000    627.7015      3.5139     81.6816
  2167.2500      0.0000    624.3448      3.5804     84.3291
  2167.5000      0.0000    631.7152      3.7561     84.9798
  2167.7500      0.0000    647.2592      3.9173     84.1169
  2168.0000      0.0000    663.7110      3.9379     82.4195
  2168.2500      0.0000    675.3049      3.7983     80.3564
  2168.5000      0.0000    680.2204      3.5946     78.0519
  2168.7500      0.0000    679.4384      3.4549     75.8383
  2169.0000      0.0000    675.2819      3.4400     74.4894
  2169.2500      0.0000    670.3954      3.5104     74.3235
  2169.5000      0.0000    666.8237      3.5819     74.3747
  2169.7500      0.0000    665.7905      3.6110     73.0226
  2170.0000      0.0000    667.9493      3.6227     69.4550
  2170.2500      0.0000    673.0146      3.6609     64.3532
