~Version Information
VERS.                      2.0: CWLS Log ASCII Standard - VERSION 2.0
WRAP.                       NO: One line per depth step
~Well Information Block
STRT.FT                 0.0000: 
STOP.FT              1147.5000: 
STEP.FT                 0.2500: 
NULL.                -999.2500: 
COMP.          Pioneer Natural Resources: COMPANY
WELL.          Tin Barn 14-20 TR: WELL
FLD.           Purgatorie River: FIELD
LOC.           925 FSL & 1151 FWL: LOCATION
PROV.                 Colorado: PROVINCE
CNTY.               Las Animas: COUNTRY
SRVC.                Patterson: SERVICE COMPANY
DATE.          Wed Jan 18 12:02:25 2006: LOG DATE
UWI.                          : UNIQUE WELL ID
~Curve Information Block
DEPT.FT            0 000 00 00: Depth
CCL.                          : Casing Collar Locator
TT3.usec                      : CBL 3' Travel Time
AMP3.mV                       : CBL 3' Amplitude
GR.GAPI                       : Gamma Ray
~Parameter Information Block
~A  Depth       CCL         TT3         AMP3         GR     
# ...
   234.5000      0.0000    724.0437     14.5685     80.4646
   234.7500      0.0000    724.1651     14.4206     81.9914
   235.0000      0.0000    724.3659     14.2686     81.8412
   235.2500      0.0000    724.2878     14.1698     80.7949
   235.5000      0.0000    722.8036     14.1446     79.6738
   235.7500      0.0000    717.9093     14.1793     78.9397
   236.0000      0.0000    708.1108     14.2250     78.4319
   236.2500      0.0000    694.5749     14.2458     77.4611
   236.5000      0.0000    679.8746     14.2499     75.2063
   236.7500      0.0000    665.8010     14.2397     71.1702
   237.0000      0.0000    656.0007     14.1805     65.5782
   237.2500      0.0000    655.5427     14.0612     59.7551
   237.5000      0.0000    663.4833     13.9282     56.1182
   237.7500      0.0000    672.5760     13.8313     57.1231
   238.0000      0.0000    677.8542     13.7831     63.3628
   238.2500      0.0000    679.7106     13.7571     72.5211
   238.5000      0.0000    680.0941     13.7064     80.6228
   238.7500      0.0000    680.0667     13.6276     84.7072
   239.0000      0.0000    680.0488     13.5799     84.4246
   239.2500      0.0000    680.2064     13.6138     81.3642
   239.5000      0.0000    680.4839     13.7021     77.4271
   239.7500      0.0000    680.7697     13.7643     73.9286
   240.0000      0.0000    681.0439     13.7602     71.4603
   240.2500      0.0000    681.2794     13.7146     69.8100
   240.5000      0.0000    681.3596     13.6476     68.2251
   240.7500      0.0000    681.2155     13.5564     66.3831
   241.0000      0.0000    680.9316     13.4716     65.0328
   241.2500      0.0000    680.6657     13.4530     65.2983
   241.5000      0.0000    680.4717     13.5054     67.4403
   241.7500      0.0000    679.9616     13.5382     70.5324
   242.0000      0.0000    677.0630     13.4498     73.2400
   242.2500      0.0000    665.7188     13.2256     74.7163
   242.5000      0.0000    638.2900     12.9450     74.8577
   242.7500      0.0000    600.5500     12.6643     73.9646
   243.0000      0.0000    578.8415     12.2866     72.3117
   243.2500      0.0000    590.4462     11.8300     69.9617
   243.5000      0.0000    620.8764     11.6293     67.0145
   243.7500      0.0000    648.6891     11.8514     64.2047
   244.0000      0.0000    665.4356     12.3033     63.0485
   244.2500      2.0000    671.0011     12.8027     64.8011
   244.5000      2.0000    668.3859     13.2892     69.1637
   244.7500      0.0000    653.0823     13.6982     74.3830
   245.0000      0.0000    615.0690     14.0183     78.6574
   245.2500      0.0000    557.9583     14.5645     81.2624
   245.5000      0.0000    493.2985     15.8065     82.6008
   245.7500      0.0000    428.5636     17.5084     83.5375
   246.0000      0.0000    377.6097     18.8309     84.5029
   246.2500      0.0000    360.7882     19.4150     84.9652
   246.5000      0.0000    395.1078     19.3635     83.9595
   246.7500      0.0000    481.0832     18.8078     81.2468
   247.0000      0.0000    587.2946     18.0149     77.6940
   247.2500      0.0000    669.2734     17.2875     74.4722
   247.5000      0.0000    710.0526     16.7307     72.1856
   247.7500      0.0000    723.1870     16.2976     70.8271
   248.0000      0.0000    725.9913     15.9331     70.1630
   248.2500      0.0000    726.4742     15.6171     69.8707
   248.5000      0.0000    726.6168     15.3465     69.5690
   248.7500      0.0000    726.7036     15.1097     69.1309
   249.0000      0.0000    726.7469     14.8785     68.9219
   249.2500      0.0000    726.7545     14.6418     69.4518
   249.5000      0.0000    726.7600     14.4243     70.7923
   249.7500      0.0000    726.7451     14.2652     72.4984
   250.0000      0.0000    726.5914     14.2018     74.1360
   250.2500      0.0000    725.9070     14.2480     75.7934
   250.5000      0.0000    723.3399     14.3666     77.9151
   250.7500      0.0000    716.1608     14.4784     80.5592
   251.0000      0.0000    703.1314     14.5187     83.0026
   251.2500      0.0000    689.4930     14.4827     84.3110
   251.5000      0.0000    684.3035     14.4170     84.2573
   251.7500      0.0000    689.8351     14.3848     83.6127
   252.0000      0.0000    699.4644     14.4393     83.4732
   252.2500      0.0000    706.8632     14.5977     84.2315
   252.5000      0.0000    709.8779     14.8133     85.3025
   252.7500      0.0000    707.7413     14.9995     86.0292
   253.0000      0.0000    702.5667     15.1050     86.6968
   253.2500      0.0000    698.2997     15.1504     88.3091
   253.5000      0.0000    694.3077     15.1848     91.2895
   253.7500      0.0000    688.0283     15.2225     94.6938
   254.0000      0.0000    682.2982     15.2412     96.9086
   254.2500      0.0000    681.9946     15.2294     97.0220
   254.5000      0.0000    688.0889     15.2060     95.3910
   254.7500      0.0000    698.6941     15.1848     92.9875
   255.0000      0.0000    710.4307     15.1524     90.5121
   255.2500      0.0000    719.2632     15.0784     88.3790
   255.5000      0.0000    723.6201     14.9315     87.1616
   255.7500      0.0000    724.9759     14.7175     87.3683
   256.0000      0.0000    725.2059     14.5093     88.6486
   256.2500      0.0000    725.0175     14.3949     89.7545
   256.5000      0.0000    723.9537     14.3935     89.6427
   256.7500      0.0000    721.0505     14.4583     88.4667
   257.0000      0.0000    716.8556     14.5452     87.3168
   257.2500      0.0000    714.6174     14.6499     87.1688
   257.5000      0.0000    716.5845     14.7932     88.1636
   257.7500      0.0000    720.5883     14.9793     89.5662
   258.0000      0.0000    723.4092     15.1894     90.1600
   258.2500      0.0000    724.2416     15.3963     88.8665
   258.5000      0.0000    723.0685     15.5674     85.3444
   258.7500      0.0000    718.6295     15.6717     80.2422
   259.0000      0.0000    709.8727     15.6864     74.8501
   259.2500      0.0000    699.1481     15.5998     70.3287
   259.5000      0.0000    691.7725     15.4381     67.1385
   259.7500      0.0000    691.7961     15.2743     65.0468
   260.0000      0.0000    699.3029     15.1778     63.5352
   260.2500      0.0000    710.2593     15.1618     62.3671
   260.5000      0.0000    718.9825     15.1910     61.9121
   260.7500      0.0000    722.0774     15.2351     62.8691
   261.0000      0.0000    718.8685     15.2949     65.6830
   261.2500      0.0000    710.2851     15.3635     70.2484
   261.5000      0.0000    700.4530     15.4056     75.8290
   261.7500      0.0000    696.0357     15.3906     81.0238
   262.0000      0.0000    700.3977     15.3310     84.4100
   262.2500      0.0000    710.0457     15.2994     85.8253
   262.5000      0.0000    718.6295     15.3702     86.6623
   262.7500      0.0000    723.1324     15.5418     88.3004
   263.0000      0.0000    724.5960     15.7560     90.4565
   263.2500      0.0000    724.8687     15.9570     91.6837
   263.5000      0.0000    724.8474     16.1051     91.3440
   263.7500      0.0000    724.7565     16.1976     90.3732
   264.0000      0.0000    724.6600     16.2882     89.9777
   264.2500      0.0000    724.6069     16.4135     90.2204
   264.5000      0.0000    724.6063     16.5294     90.2882
   264.7500      0.0000    724.6277     16.5855     89.7432
   265.0000      0.0000    724.6067     16.5904     88.9989
   265.2500      0.0000    724.3063     16.5719     88.6980
   265.5000      0.0000    722.9647     16.5482     88.9368
   265.7500      0.0000    719.3683     16.5383     89.0704
   266.0000      0.0000    713.4892     16.5505     88.2435
   266.2500      0.0000    707.8382     16.5882     86.2607
   266.5000      0.0000    705.2471     16.6638     83.9578
   266.7500      0.0000    706.1072     16.7751     82.5101
   267.0000      0.0000    708.0203     16.8907     82.3785
   267.2500      0.0000    707.0852     16.9780     83.0728
   267.5000      0.0000    701.0565     17.0327     83.7572
   267.7500      0.0000    690.5591     17.0664     83.7786
