~Version Information
VERS.                      2.0: CWLS Log ASCII Standard - VERSION 2.0
WRAP.                       NO: One line per depth step
~Well Information Block
STRT.FT                -8.2500: 
STOP.FT               686.7500: 
STEP.FT                 0.2500: 
NULL.                -999.2500: 
COMP.          Pioneer Natural Resources: COMPANY
WELL.           Quintessa 23-7: WELL
FLD.           Purgatorie River: FIELD
LOC.           1964' FSL & 2589' FWL--: LOCATION
PROV.                       CO: PROVINCE
CNTY.               Las Animas: COUNTRY
SRVC.          Patterson Wireline: SERVICE COMPANY
DATE.          Wed Nov 23 10:31:07 2005: LOG DATE
UWI.           05 071 08558 00: UNIQUE WELL ID
~Curve Information Block
DEPT.FT            0 000 00 00: Depth
CCL.                          : Casing Collar Locator
TT3.usec                      : CBL 3' Travel Time
AMP3.mV                       : CBL 3' Amplitude
GR.GAPI                       : Gamma Ray
~Parameter Information Block
~A  Depth       CCL         TT3         AMP3         GR     
# ...
    92.2500      0.0000    909.1604     18.2903     95.1970
    92.5000      0.0000    864.2830     18.3488     94.2632
    92.7500      0.0000    825.7938     18.3519     92.3721
    93.0000      0.0000    793.6378     18.3158     89.6745
    93.2500      0.0000    774.5248     18.2685     87.8181
    93.5000      0.0000    772.2408     18.2340     88.7089
    93.7500      0.0000    782.4331     18.2171     92.8350
    94.0000      0.0000    800.4663     18.1986     98.8076
    94.2500      0.0000    829.0854     18.1476    104.3799
    94.5000      0.0000    875.1789     18.0434    107.7170
    94.7500      0.0000    939.6864     17.8921    107.8188
    95.0000      0.0000   1011.6982     17.7228    104.4152
    95.2500      0.0000   1073.3082     17.5677     98.2218
    95.5000      0.0000   1110.4951     17.4479     91.2307
    95.7500      0.0000   1119.5021     17.3735     85.8026
    96.0000      0.0000   1105.6954     17.3448     82.8604
    96.2500      0.0000   1079.0593     17.3516     81.3427
    96.5000      0.0000   1047.7892     17.3764     79.8045
    96.7500      0.0000   1012.4493     17.3986     78.1928
    97.0000      0.0000    968.4350     17.3958     77.7905
    97.2500      0.0000    916.2953     17.3447     79.8420
    97.5000      0.0000    865.9576     17.2320     84.4990
    97.7500      0.0000    828.5124     17.0649     90.7012
    98.0000      0.0000    807.2554     16.8682     96.6336
    98.2500      0.0000    798.1149     16.6715    100.5096
    98.5000      0.0000    795.7673     16.4976    101.5052
    98.7500      0.0000    798.1296     16.3598    100.3074
    99.0000      0.0000    807.7204     16.2619     98.7001
    99.2500      0.0000    830.8575     16.1944     98.4255
    99.5000      0.0000    873.5364     16.1345    100.2132
    99.7500      0.0000    934.5490     16.0618    103.5593
   100.0000      0.0000   1001.9582     15.9789    107.2092
   100.2500      0.0000   1058.5222     15.9086    109.8885
   100.5000      0.0000   1090.8890     15.8679    110.8773
   100.7500      0.0000   1092.7296     15.8469    110.3401
   101.0000      0.0000   1062.8481     15.8156    109.2957
   101.2500      0.0000   1006.3842     15.7508    108.8559
   101.5000      0.0000    937.5361     15.6558    109.0377
   101.7500      0.0000    875.0152     15.5612    108.6539
   102.0000      0.0000    831.4767     15.5064    106.8616
   102.2500      0.0000    808.0240     15.5144    104.3432
   102.5000      0.0000    798.2177     15.5724    102.3805
   102.7500      0.0000    795.0048     15.6365    101.3282
   103.0000      0.0000    794.1295     15.6615    100.6142
   103.2500      0.0000    793.8705     15.6291     99.6630
   103.5000      0.0000    793.7164     15.5455     98.1699
   103.7500      0.0000    793.4561     15.4203     95.9208
   104.0000      0.0000    792.7713     15.2592     92.9469
   104.2500      0.0000    791.2814     15.0795     89.6991
   104.5000      0.0000    788.9665     14.9222     86.7737
   104.7500      0.0000    786.6167     14.8431     84.5153
   105.0000      0.0000    785.5226     14.8823     83.0376
   105.2500      0.0000    786.3734     15.0312     82.4764
   105.5000      0.0000    788.5852     15.2256     82.7737
   105.7500      0.0000    790.9170     15.3864     83.1507
   106.0000      0.0000    792.5388     15.4826     82.3911
   106.2500      0.0000    793.3600     15.5494     79.9276
   106.5000      0.0000    793.6705     15.6426     76.2559
   106.7500      0.0000    793.8036     15.7802     72.3350
   107.0000      0.0000    794.3187     15.9266     69.1895
   107.2500      0.0000    796.5744     16.0264     67.8930
   107.5000      0.0000    803.2478     16.0541     68.9646
   107.7500      0.0000    817.6293     16.0384     71.5530
   108.0000      0.0000    840.5492     16.0390     73.8260
   108.2500      0.0000    867.3552     16.0986     74.4290
   108.5000      0.0000    889.8103     16.2185     73.5027
   108.7500      0.0000    901.9875     16.3718     72.4177
   109.0000      0.0000    902.6451     16.5290     72.4981
   109.2500      0.0000    893.0397     16.6677     73.8058
   109.5000      0.0000    877.4666     16.7632     75.2408
   109.7500      0.0000    865.3261     16.7844     75.8575
   110.0000      0.0000    866.1835     16.7149     75.6357
   110.2500      0.0000    881.6183     16.5808     74.7982
   110.5000      0.0000    906.2544     16.4472     73.1664
   110.7500      0.0000    936.2271     16.3784     70.8707
   111.0000      0.0000    969.8028     16.3990     69.1536
   111.2500      0.0000    998.1469     16.4880     69.5340
   111.5000      0.0000   1004.0172     16.6036     72.1018
   111.7500      0.0000    976.1517     16.7099     75.1702
   112.0000      0.0000    922.0086     16.7852     76.7426
   112.2500      0.0000    862.3525     16.8151     76.0965
   112.5000      0.0000    815.1777     16.7923     74.1139
   112.7500      0.0000    786.8745     16.7299     72.4344
   113.0000      0.0000    774.9760     16.6666     72.1691
   113.2500      0.0000    773.9910     16.6483     73.1377
   113.5000      0.0000    778.4144     16.6993     74.3290
   113.7500      0.0000    783.6972     16.8093     75.1080
   114.0000      0.0000    786.9038     16.9445     75.7578
   114.2500      0.0000    786.9073     17.0729     76.7889
   114.5000      0.0000    784.0314     17.1841     78.1039
   114.7500      0.0000    779.8348     17.2833     79.1003
   115.0000      0.0000    776.6936     17.3644     79.3675
   115.2500      0.0000    776.4377     17.3986     78.9750
   115.5000      0.0000    778.7814     17.3618     78.1242
   115.7500      0.0000    781.4329     17.2724     76.6891
   116.0000      0.0000    782.0411     17.1869     74.2629
   116.2500      0.0000    779.9650     17.1565     70.7895
   116.5000      0.0000    776.3901     17.1946     67.0043
   116.7500      0.0000    773.3128     17.2840     63.9561
   117.0000      0.0000    772.5104     17.3969     62.1913
   117.2500      0.0000    774.7554     17.5033     61.6436
   117.5000      0.0000    779.3225     17.5717     62.0258
   117.7500      0.0000    784.3949     17.5787     62.9242
   118.0000      0.0000    788.3456     17.5195     63.7780
   118.2500      0.0000    790.6633     17.4112     64.2761
   118.5000      0.0000    791.7540     17.2840     64.8047
   118.7500      0.0000    792.2168     17.1631     66.2399
   119.0000      0.0000    792.4175     17.0544     69.2449
   119.2500      0.0000    792.4827     16.9507     73.6850
   119.5000      0.0000    792.4080     16.8553     78.5946
   119.7500      0.0000    792.1479     16.7922     82.6936
   120.0000      0.0000    791.3707     16.7848     84.9816
   120.2500      0.0000    789.0957     16.8279     84.9159
   120.5000      0.0000    783.5749     16.8779     82.3331
   120.7500      0.0000    773.9460     16.8607     77.4458
   121.0000      0.0000    763.7195     16.6778     70.8712
   121.2500      0.0000    762.0465     16.2403     63.6169
   121.5000      0.0000    777.9432     15.5596     57.1146
   121.7500      0.0000    812.0494     14.8100     53.1144
   122.0000      0.0000    856.9567     14.2185     52.9482
   122.2500      0.0000    904.9930     13.8687     56.4407
   122.5000      0.0000    951.4575     13.6723     61.7196
   122.7500      0.0000    992.2414     13.5229     66.5546
   123.0000      0.0000   1025.0615     13.3920     70.0660
   123.2500      0.0000   1052.5074     13.2886     73.0931
   123.5000      2.0000   1077.2802     13.2166     77.0013
   123.7500      0.0000   1093.1055     13.1860     82.2077
   124.0000      0.0000   1083.7318     13.2400     87.8374
   124.2500      0.0000   1032.7339     13.4587     92.8410
   124.5000      0.0000    937.3283     13.9135     97.1272
   124.7500      0.0000    817.0752     14.5821    100.9825
   125.0000      0.0000    707.2142     15.3323    103.6872
   125.2500      0.0000    637.7876     16.0412    103.7037
   125.5000      0.0000    617.2086     16.6805    100.3098
