~Version Information
VERS.                      2.0: CWLS Log ASCII Standard - VERSION 2.0
WRAP.                       NO: One line per depth step
~Well Information Block
STRT.FT               390.0000: 
STOP.FT               825.0000: 
STEP.FT                 0.1000: 
NULL.                -999.2500: 
COMP.          Pioneer Natural Resources: COMPANY
WELL.             Veedol 34-28: WELL
FLD.           Purgatoire River: FIELD
LOC.           357' FSL & 2520' FEL: LOCATION
PROV.                 Colorado: PROVINCE
CNTY.               Las Animas: COUNTRY
SRVC.                Patterson: SERVICE COMPANY
DATE.          Thu Dec 22 14:38:20 2005: LOG DATE
UWI.           05 071 08628 00: UNIQUE WELL ID
~Curve Information Block
DEPT.FT            0 000 00 00: Depth
DCAL.in                       : CDL Caliper
RHOB.g/cc                     : CDL Bulk Density
RHOC.g/cc                     : CDL Density Correction
DPOR.pu                       : CDL Density Porosity
GR.GAPI                       : Gamma Ray
NPOR.pu                       : Neutron Porosity
~Parameter Information Block
~A  Depth       DCAL        RHOB        RHOC        DPOR         GR         NPOR    
# ...
   534.0000      7.9840      2.0178     -0.1090     38.3168     85.1672     13.3700
   534.1000      7.9840      1.9267     -0.0666     43.8359     85.2056     12.4993
   534.2000      7.9840      1.8263     -0.0837     49.9184     79.0466     11.7131
   534.3000      7.9945      1.7346     -0.0595     55.4775     70.4759     10.8692
   534.4000      7.9945      1.6591     -0.0402     60.0518     64.4603     10.2114
   534.5000      8.0021      1.5875      0.0204     64.3918     61.4110     10.0297
   534.6000      8.0021      1.5139     -0.0153     68.8573     58.1946     10.1563
   534.7000      8.0021      1.4528     -0.0000     72.5567     52.9194     10.2827
   534.8000      8.0077      1.4139      0.0321     74.9179     46.5930     10.2585
   534.9000      8.0077      1.3904      0.0449     76.3393     41.9976     10.0434
   535.0000      8.0152      1.3718      0.0806     77.4662     41.9442      9.8372
   535.1000      8.0152      1.3483      0.0744     78.8886     43.0495      9.6709
   535.2000      8.0152      1.3166      0.0435     80.8126     40.6095      9.2317
   535.3000      8.0291      1.2830     -0.0080     82.8461     37.3842      8.7265
   535.4000      8.0291      1.2552      0.0006     84.5356     35.9173      8.7744
   535.5000      8.0417      1.2370      0.0132     85.6334     34.2331      9.5113
   535.6000      8.0417      1.2380     -0.0037     85.5743     32.7533     10.6260
   535.7000      8.0417      1.2661      0.0479     83.8756     33.3113     11.7413
   535.8000      8.0467      1.3160      0.0909     80.8465     35.1517     12.8117
   535.9000      8.0467      1.3865      0.1127     76.5731     37.3991     14.2112
   536.0000      8.0469      1.4861      0.1651     70.5384     40.1044     16.2879
   536.1000      8.0469      1.6109      0.2396     62.9780     44.2267     18.6352
   536.2000      8.0469      1.7469      0.2664     54.7320     50.3396     20.2317
   536.3000      8.0423      1.8876      0.2981     46.2033     58.8907     20.9758
   536.4000      8.0423      2.0240      0.3474     37.9401     70.6601     21.6054
   536.5000      8.0157      2.1457      0.3406     30.5615     80.3015     22.6188
   536.6000      8.0157      2.2559      0.3160     23.8832     81.2681     23.9111
   536.7000      8.0157      2.3564      0.2934     17.7969     75.8951     25.0077
   536.8000      7.9540      2.4292      0.2913     13.3789     71.3182     25.7997
   536.9000      7.9540      2.4591      0.1968     11.5716     74.1273     26.2489
   537.0000      7.8901      2.4643      0.0501     11.2573     84.3014     26.0185
   537.1000      7.8901      2.4711      0.0721     10.8438     92.5349     25.0412
   537.2000      7.8901      2.4796      0.0682     10.3278     93.4168     23.8168
   537.3000      7.8585      2.4818      0.0532     10.1948     92.3128     22.9783
   537.4000      7.8585      2.4764      0.0723     10.5238     93.8612     22.7849
   537.5000      7.8527      2.4611      0.0433     11.4463     97.2940     23.1486
   537.6000      7.8527      2.4380      0.0200     12.8469    102.1034     23.7207
   537.7000      7.8527      2.4273     -0.0348     13.4957    106.2869     24.0889
   537.8000      7.8544      2.4476      0.0217     12.2652    105.9750     24.2996
   537.9000      7.8544      2.4808      0.0585     10.2527    100.8798     24.3209
   538.0000      7.8557      2.4953      0.0678      9.3770     93.4509     23.8619
   538.1000      7.8557      2.4903     -0.0066      9.6812     86.0669     23.1642
   538.2000      7.8557      2.4852      0.0486      9.9899     79.4981     22.6191
   538.3000      7.8555      2.4847      0.0640     10.0177     74.8781     21.8221
   538.4000      7.8555      2.4832      0.0563     10.1109     75.1061     20.5397
   538.5000      7.8549      2.4769      0.0434     10.4912     80.2537     19.7453
   538.6000      7.8549      2.4655      0.0013     11.1834     86.2123     20.3291
   538.7000      7.8549      2.4552      0.0119     11.8071     90.7516     21.8028
   538.8000      7.8545      2.4567     -0.0146     11.7181     93.2907     22.8366
   538.9000      7.8545      2.4677      0.0584     11.0479     94.5033     23.3067
   539.0000      7.8544      2.4739      0.0169     10.6737     95.7126     23.9536
   539.1000      7.8544      2.4781      0.0402     10.4186     96.0168     24.4798
   539.2000      7.8544      2.4961      0.0290      9.3287     94.2959     24.3702
   539.3000      7.8540      2.5320      0.0561      7.1539     89.3730     23.9905
   539.4000      7.8540      2.5689      0.1006      4.9163     81.4934     23.5389
   539.5000      7.8536      2.5841      0.1336      3.9937     74.5860     22.7411
   539.6000      7.8536      2.5751      0.0908      4.5406     73.6072     21.6723
   539.7000      7.8536      2.5568      0.0409      5.6459     77.2099     20.7457
   539.8000      7.8529      2.5372      0.0416      6.8348     78.2316     20.3606
   539.9000      7.8529      2.5147      0.0057      8.2024     74.4980     20.5538
   540.0000      7.8519      2.4953     -0.0390      9.3759     69.7981     20.6352
   540.1000      7.8519      2.4892     -0.0494      9.7447     66.4499     19.9526
   540.2000      7.8519      2.4948     -0.0353      9.4063     66.5401     19.0048
   540.3000      7.8502      2.5073     -0.0362      8.6485     68.5495     18.7075
   540.4000      7.8502      2.5207      0.0316      7.8334     69.0323     19.1357
   540.5000      7.8465      2.5264      0.0673      7.4880     68.6461     19.4485
   540.6000      7.8465      2.5302      0.0428      7.2595     67.4090     19.0145
   540.7000      7.8465      2.5418      0.0902      6.5548     65.8519     18.2808
   540.8000      7.8360      2.5573      0.1009      5.6209     67.6809     17.9825
   540.9000      7.8360      2.5653      0.1359      5.1321     73.6621     18.1162
   541.0000      7.8213      2.5572      0.1434      5.6236     77.5048     18.1777
   541.1000      7.8213      2.5402      0.1073      6.6542     75.1627     18.2402
   541.2000      7.8213      2.5281      0.0943      7.3854     70.8154     18.8415
   541.3000      7.8179      2.5231      0.0821      7.6897     68.9959     19.8341
   541.4000      7.8179      2.5265      0.0588      7.4832     71.0387     20.3742
   541.5000      7.8310      2.5388      0.0937      6.7401     74.2329     20.3346
   541.6000      7.8310      2.5463      0.1203      6.2874     75.5290     20.2197
   541.7000      7.8310      2.5353      0.1303      6.9523     75.9308     19.9437
   541.8000      7.8500      2.5077      0.1056      8.6253     75.3580     19.2041
   541.9000      7.8500      2.4773      0.0590     10.4672     70.9065     18.4089
   542.0000      7.8605      2.4615      0.0322     11.4247     64.2709     18.0780
   542.1000      7.8605      2.4663      0.0547     11.1351     60.8959     18.2938
   542.2000      7.8605      2.4820      0.0455     10.1834     61.8247     18.6948
   542.3000      7.8589      2.5025      0.0622      8.9397     66.7649     18.8607
   542.4000      7.8589      2.5237      0.1300      7.6571     76.1297     18.9205
   542.5000      7.8471      2.5377      0.1110      6.8042     84.5564     18.9627
   542.6000      7.8471      2.5436      0.1748      6.4465     86.3021     18.8431
   542.7000      7.8471      2.5417      0.2000      6.5655     82.3486     19.1911
   542.8000      7.8343      2.5341      0.1640      7.0214     75.8885     20.3105
   542.9000      7.8343      2.5317      0.1436      7.1711     70.5626     21.5288
   543.0000      7.8373      2.5404      0.1054      6.6399     68.4066     22.2359
   543.1000      7.8373      2.5569      0.1174      5.6403     68.9111     22.2900
   543.2000      7.8373      2.5801      0.0895      4.2348     70.4253     22.2054
   543.3000      7.8524      2.6057      0.1417      2.6860     69.0346     22.9834
   543.4000      7.8524      2.6158      0.1572      2.0744     64.2155     24.7140
   543.5000      7.8608      2.5998      0.1355      3.0435     60.0690     26.2393
