~Version Information
VERS.                      2.0: CWLS Log ASCII Standard - VERSION 2.0
WRAP.                       NO: One line per depth step
~Well Information Block
STRT.FT               695.5000: 
STOP.FT              1499.5000: 
STEP.FT                 0.2500: 
NULL.                -999.2500: 
COMP.          Pioneer Natural Resources: COMPANY
WELL.          Pallet Ranch 34-25 Tr: WELL
FLD.           Purgatoire River: FIELD
LOC.           465' FSL & 2138' FEL: LOCATION
PROV.                 Colorado: PROVINCE
CNTY.               Las Animas: COUNTRY
SRVC.                Patterson: SERVICE COMPANY
DATE.          Wed Jan 18 18:58:46 2006: LOG DATE
UWI.           05 071 08657 00: UNIQUE WELL ID
~Curve Information Block
DEPT.FT            0 000 00 00: Depth
SN.Ohm-m                      : IEL Short Normal
SP.mV                         : IEL Spontaneous Potential
DIR.Ohm-m                     : IEL Induction Resistivity
GR.GAPI                       : Gamma Ray
~Parameter Information Block
~A  Depth        SN          SP         DIR          GR     
# ...
  1097.5000     21.1775      6.8591     11.1026    106.6354
  1097.7500     20.2757      6.8115     10.2604    116.6283
  1098.0000     19.8643      6.7649      9.6276    129.3265
  1098.2500     18.8148      6.7223      9.1962    134.7385
  1098.5000     17.0297      6.6946      9.0025    137.7834
  1098.7500     15.2284      6.6939      9.1472    137.6835
  1099.0000     13.8858      6.7197      9.8427    137.3652
  1099.2500     12.8527      6.7538     11.5762    137.8850
  1099.5000     11.8983      6.7721     15.7745    138.7859
  1099.7500     11.1012      6.7600     29.1633    138.4408
  1100.0000     10.6418      6.7123    350.5378    136.2076
  1100.2500     10.5867      6.6230 100000.0000    134.4180
  1100.5000     10.8848      6.4891 100000.0000    132.8241
  1100.7500     11.3434      6.3257 100000.0000    132.7173
  1101.0000     11.7200      6.1703 100000.0000    133.3277
  1101.2500     11.9409      6.0614 100000.0000    133.6217
  1101.5000     12.1096      6.0150 100000.0000    132.9467
  1101.7500     12.2970      6.0225 100000.0000    131.5961
  1102.0000     12.4904      6.0634    237.8211    128.8727
  1102.2500     12.6604      6.1133     78.7330    127.1135
  1102.5000     12.7631      6.1443    125.7469    124.9908
  1102.7500     12.8097      6.1251 100000.0000    124.0845
  1103.0000     12.8903      6.0308 100000.0000    124.0859
  1103.2500     13.0462      5.8571 100000.0000    125.2603
  1103.5000     13.2073      5.6212 100000.0000    128.3514
  1103.7500     13.2558      5.3406 100000.0000    130.5446
  1104.0000     13.1176      5.0009 100000.0000    132.6694
  1104.2500     12.8245      4.5418 100000.0000    132.9350
  1104.5000     12.5236      3.8690 100000.0000    132.0086
  1104.7500     12.3892      2.8729 100000.0000    131.0551
  1105.0000     12.4642      1.4324 100000.0000    129.6629
  1105.2500     12.6022     -0.5986 100000.0000    128.6445
  1105.5000     12.5515     -3.4117 100000.0000    126.5845
  1105.7500     12.1127     -7.2619      4.0236    124.8994
  1106.0000     11.2720    -12.4720      1.2374    122.3634
  1106.2500     10.1889    -19.3972      0.5774    120.7372
  1106.5000      9.0064    -28.3375      0.3104    117.6695
  1106.7500      7.7815    -39.4238      0.1824    114.4503
  1107.0000      6.6372    -52.5251      0.1227    106.8179
  1107.2500      5.7176    -67.1975      0.1014     99.9126
  1107.5000      5.0372    -82.6795      0.1070     88.5523
  1107.7500      4.5478    -97.9902      0.1444     81.8980
  1108.0000      4.2676   -112.1491      0.2371     75.1794
  1108.2500      4.2432   -124.4529      0.4417     72.7158
  1108.5000      4.4023   -134.6499      0.9336     70.0234
  1108.7500      4.5751   -142.8511      2.7317     67.6554
  1109.0000      4.6414   -149.2104 100000.0000     62.2832
  1109.2500      4.5835   -153.7108 100000.0000     57.6111
  1109.5000      4.4960   -156.3498 100000.0000     49.8123
  1109.7500      4.4960   -157.4381 100000.0000     44.8060
  1110.0000      4.5830   -157.5383 100000.0000     39.1196
  1110.2500      4.6892   -157.0615 100000.0000     37.4437
  1110.5000      4.7619   -155.8621 100000.0000     39.1161
  1110.7500      4.7729   -153.0902 100000.0000     43.0571
  1111.0000      4.7323   -147.4443 100000.0000     52.2628
  1111.2500      4.6603   -137.8123 100000.0000     59.8068
  1111.5000      4.6169   -123.9550 100000.0000     72.4043
  1111.7500      4.7596   -106.7406 100000.0000     81.6125
  1112.0000      5.2465    -87.7906     22.0530     96.4672
  1112.2500      6.1609    -68.8958      1.9935    106.2607
  1112.5000      7.5788    -51.5565      0.8436    118.0179
  1112.7500      9.5858    -36.7611      0.4981    122.2631
  1113.0000     12.1510    -24.9545      0.3714    122.3626
  1113.2500     14.9091    -16.1267      0.3540    119.1784
  1113.5000     17.2666     -9.9529      0.4324    112.4711
  1113.7500     18.9187     -5.9022      0.6602    108.4022
  1114.0000     20.0506     -3.3294      1.2840    104.5969
  1114.2500     20.9478     -1.5988      4.1947    103.5910
  1114.5000     21.6624     -0.2521 100000.0000    103.5393
  1114.7500     22.1599      0.8598 100000.0000    104.5013
  1115.0000     22.4223      1.5860 100000.0000    108.8774
  1115.2500     22.2520      1.6579 100000.0000    114.3900
  1115.5000     21.3515      0.9216 100000.0000    125.2927
  1115.7500     19.6491     -0.5807 100000.0000    132.3580
  1116.0000     17.3611     -2.7433      4.5871    139.3237
  1116.2500     14.9165     -5.5808      1.4832    140.6781
  1116.5000     12.9663     -9.2965      0.7844    138.6824
  1116.7500     12.0687    -14.2494      0.5136    136.1584
  1117.0000     12.0830    -20.9081      0.3982    132.9881
  1117.2500     12.1558    -29.7733      0.3697    131.5846
  1117.5000     11.5005    -41.2012      0.4161    128.9082
  1117.7500     10.0666    -55.1722      0.5609    125.4660
  1118.0000      8.3762    -71.1776      0.8911    116.7996
  1118.2500      6.9234    -88.3121      1.6952    108.8481
  1118.5000      5.9143   -105.5413      4.2360     94.7225
  1118.7500      5.3599   -122.0088     23.2183     84.8836
  1119.0000      5.1421   -137.1627 100000.0000     71.7145
  1119.2500      5.0330   -150.5250 100000.0000     64.9300
  1119.5000      4.8362   -161.2752 100000.0000     57.8010
  1119.7500      4.5560   -168.1813 100000.0000     54.3630
  1120.0000      4.3067   -170.2114 100000.0000     49.7044
  1120.2500      4.1466   -167.4878 100000.0000     46.3586
  1120.5000      4.1537   -161.6903 100000.0000     40.7701
  1120.7500      4.3636   -155.2779 100000.0000     36.9851
  1121.0000      4.6076   -150.1401 100000.0000     32.2267
  1121.2500      4.7284   -146.9873     35.9741     30.2508
  1121.5000      4.7441   -145.7791      3.1612     29.7608
  1121.7500      4.6726   -146.2337      1.3793     31.3136
  1122.0000      4.4912   -147.7035      0.8590     36.7456
  1122.2500      4.2591   -148.7374      0.6809     42.5733
  1122.5000      4.0253   -147.1136      0.6745     54.5569
  1122.7500      3.7020   -140.6105      0.8171     64.1714
  1123.0000      3.2628   -128.0248      1.1302     79.0006
  1123.2500      2.9368   -109.7428      1.4845     87.7688
  1123.5000      2.9936    -87.6114      1.3586     97.9168
  1123.7500      3.5036    -64.2710      0.8395    102.8282
  1124.0000      4.5243    -42.2635      0.4528    108.5120
  1124.2500      6.2379    -23.3275      0.2437    111.7812
  1124.5000      8.6065     -8.1932      0.1417    116.4417
  1124.7500     11.1149      3.1251      0.1000    119.2865
  1125.0000     13.0057     10.8690      0.0928    122.1725
  1125.2500     13.7808     15.3382      0.1153    122.5009
  1125.5000     13.7199     17.0753      0.1830    120.4813
  1125.7500     13.8455     17.0409      0.3384    118.1618
  1126.0000     15.0260     16.3416      0.6941    114.8255
  1126.2500     17.1663     15.7205      1.7850    113.3384
  1126.5000     19.4532     15.3725     13.8789    112.5410
  1126.7500     21.2099     15.1723 100000.0000    112.7908
  1127.0000     22.3300     14.9544 100000.0000    113.6285
  1127.2500     23.0504     14.6417 100000.0000    114.0034
  1127.5000     23.5604     14.2774 100000.0000    113.6385
  1127.7500     23.8701     13.9887 100000.0000    112.6877
  1128.0000     23.9642     13.8738 100000.0000    110.7460
  1128.2500     23.9445     13.9035 100000.0000    109.6913
  1128.5000     23.9038     13.9480 100000.0000    109.1632
  1128.7500     23.7655     13.8963 100000.0000    109.4777
  1129.0000     23.4194     13.7441 100000.0000    110.4832
  1129.2500     22.9260     13.5781 100000.0000    111.3379
  1129.5000     22.4365     13.5004 100000.0000    112.8949
  1129.7500     22.0450     13.5655 100000.0000    114.1288
  1130.0000     21.8838     13.7647 100000.0000    116.0594
  1130.2500     22.1258     14.0480 100000.0000    117.0685
  1130.5000     22.5908     14.3593 100000.0000    117.4688
  1130.7500     22.7149     14.6592 100000.0000    116.8659
