~Version Information
 VERS.                                  2.0 : CWLS LAS VERSION
 WRAP.                                   NO : WRAPING MODE
 SWARE .                 MController 2.5.0N : SOFTWARE VERSION
~Well Information
 WELL.                      Pavillion 44-25 : WELL
 COMP.    Pioneer Natural Resouces USA Inc. : COMPANY
 FLD.                      Purgatoire River : FIELD
 LOC.             SW/SW Sec 25 , T34S, R65W : LOCATION
 DATE.                             12/13/05 : DATE(S) LOGGED
 SRVC.       BLANCO Geological Services LLC : SERVICE COMPANY
 STAT.                                   CO : STATE
 CNTY.                           Las Animas : COUNTY
 CTRY.                                  USA : COUNTRY
 API.                          05-071-08624 : API NUMBER
 STRT.FT                             258.00 : START DEPTH
 STOP.FT                            1100.00 : STOP DEPTH
 STEP.FT                               1.00 : DEPTH INCREMENT
 NULL.                                -9999 : NULL VALUE
~Curve information
 DEPTH.FT                                   :
 ROP.MIN/FT                                 :
 GAS.UNITS                                  :
~ASCII Log data    
# ...
       658.0         0.27          1.8 
       659.0         0.23          2.1 
       660.0         0.27          2.1 
       661.0         0.23          2.1 
       662.0         0.30          1.9 
       663.0         0.30          1.7 
       664.0         0.28          2.0 
       665.0         0.23          1.7 
       666.0         0.23          1.7 
       667.0         0.20          1.7 
       668.0         0.23          2.0 
       669.0         0.23          1.7 
       670.0         0.23          1.9 
       671.0         0.27          2.1 
       672.0         0.27          1.9 
       673.0         0.23          1.4 
       674.0         0.27          1.7 
       675.0         0.27          1.7 
       676.0         0.30          2.0 
       677.0         0.32          2.1 
       678.0         0.40          1.9 
       679.0         0.33          1.5 
       680.0         0.33          3.2 
       681.0         2.65          2.1 
       682.0         0.57          2.8 
       683.0         0.53          1.7 
       684.0         0.53          1.7 
       685.0         0.57          1.7 
       686.0         0.40          1.9 
       687.0         0.42          1.8 
       688.0         0.40          2.1 
       689.0         0.40          1.8 
       690.0         0.33          2.1 
       691.0         0.23          2.5 
       692.0         0.20          2.5 
       693.0         0.30          2.9 
       694.0         0.27          1.2 
       695.0         0.27          1.6 
       696.0         0.27          1.5 
       697.0         0.27          1.7 
       698.0         0.23          1.9 
       699.0         0.28          1.4 
       700.0         0.30          1.5 
       701.0         0.27          1.7 
       702.0         0.27          2.0 
       703.0         0.23          2.7 
       704.0         0.23          3.2 
       705.0         0.17          3.7 
       706.0         0.20          4.6 
       707.0         0.23          5.1 
       708.0         0.30          2.3 
       709.0         0.30          2.0 
       710.0         0.27          5.2 
       711.0         3.38          4.9 
       712.0         0.48          1.6 
       713.0         0.47          3.4 
       714.0         0.40          0.8 
       715.0         0.43          1.7 
       716.0         0.47          2.3 
       717.0         0.43          2.0 
       718.0         0.43          1.8 
       719.0         0.65          0.9 
       720.0         0.50          0.8 
       721.0         0.80          1.2 
       722.0         0.40          1.3 
       723.0         0.43          1.1 
       724.0         1.65          1.9 
       725.0         0.43          1.9 
       726.0         0.37          2.0 
       727.0         0.37          2.1 
       728.0         0.33          2.0 
       729.0         0.37          2.1 
       730.0         0.30          2.2 
       731.0         0.37          1.9 
       732.0         0.27          1.8 
       733.0         0.25          1.8 
       734.0         0.23          2.2 
       735.0         0.23          2.3 
       736.0         0.27          1.9 
       737.0         0.37          2.1 
       738.0         0.27          1.7 
       739.0         0.27          1.5 
       740.0         0.30          1.5 
       741.0         3.52          2.3 
       742.0         0.47          1.7 
       743.0         0.50          1.9 
       744.0         0.58          1.7 
       745.0         0.63          1.7 
       746.0         0.53          1.7 
       747.0         0.37          1.9 
       748.0         0.33          1.6 
       749.0         0.33          1.5 
       750.0         0.30          1.4 
       751.0         0.35          1.4 
       752.0         0.40          1.6 
       753.0         0.43          1.4 
       754.0         0.43          1.6 
       755.0         0.57          1.4 
       756.0         0.57          1.7 
       757.0         0.50          1.5 
       758.0         0.52          1.4 
       759.0         0.30          1.5 
       760.0         0.33          1.8 
       761.0         0.37          1.7 
       762.0         0.33          2.2 
       763.0         0.33          2.2 
       764.0         0.30          1.4 
       765.0         0.33          2.0 
       766.0         0.40          1.8 
       767.0         0.37          1.7 
       768.0         0.42          1.7 
       769.0         0.37          3.1 
       770.0         0.37          2.0 
       771.0         2.98          1.6 
       772.0         0.27          1.3 
       773.0         0.30          1.1 
       774.0         0.27          1.3 
       775.0         0.40          1.3 
       776.0         0.60          1.0 
       777.0         0.40          1.4 
       778.0         0.37          1.1 
       779.0         0.42          1.9 
       780.0         0.47          1.1 
       781.0         0.33          0.9 
       782.0         0.30          1.5 
       783.0         0.33          1.7 
       784.0         0.33          1.3 
       785.0         0.33          1.9 
       786.0         0.33          1.2 
       787.0         0.27          1.7 
       788.0         0.42          1.6 
       789.0         0.67          1.2 
       790.0         0.90          1.4 
       791.0         0.50          1.2 
       792.0         0.37          1.2 
       793.0         0.30          1.3 
       794.0         0.33          1.0 
       795.0         0.32          1.3 
       796.0         0.37          1.6 
       797.0         0.37          0.8 
       798.0         0.37          1.6 
       799.0         0.43          2.8 
       800.0         0.50         12.0 
       801.0         3.78          2.0 
       802.0         0.43          0.9 
       803.0         0.30          1.1 
       804.0         0.28          0.7 
       805.0         0.30          1.1 
       806.0         0.30          1.0 
       807.0         0.27          1.3 
       808.0         0.33          1.4 
       809.0         0.37          1.6 
       810.0         0.33          1.0 
       811.0         0.23          1.3 
       812.0         0.27          1.0 
       813.0         0.30          1.2 
       814.0         0.37          1.1 
       815.0         0.35          1.1 
       816.0         0.37          1.2 
       817.0         0.27          1.3 
       818.0         0.30          1.3 
       819.0         0.30          1.5 
       820.0         0.30          1.3 
       821.0         0.23          1.0 
       822.0         0.20          1.4 
       823.0         0.20          1.0 
       824.0         0.13          1.4 
       825.0         0.23          0.8 
       826.0         0.23          1.5 
       827.0         0.38          1.4 
       828.0         0.33          1.8 
       829.0         0.30          5.7 
       830.0         0.27          0.2 
       831.0         5.65          1.6 
       832.0         0.42          1.3 
       833.0         0.40          1.2 
       834.0         0.40          1.0 
       835.0         0.40          1.5 
       836.0         0.40          1.2 
       837.0         0.40          0.9 
       838.0         0.33          1.4 
       839.0         0.37          3.4 
       840.0         0.38          3.1 
       841.0         0.33          0.4 
       842.0         0.33          1.0 
       843.0         0.37          0.9 
       844.0         0.37          2.0 
       845.0         0.33          0.6 
       846.0         0.37          1.3 
       847.0         0.37          1.0 
       848.0         0.37          1.1 
       849.0         0.33          1.6 
       850.0         0.35          1.0 
       851.0         0.23          1.7 
       852.0         0.23          2.0 
       853.0         0.30          2.1 
       854.0         0.30          2.3 
       855.0         0.30          2.2 
       856.0         0.27          3.1 
       857.0         0.20          3.1 
