~Version Information
VERS.                      2.0: CWLS Log ASCII Standard - VERSION 2.0
WRAP.                       NO: One line per depth step
~Well Information Block
STRT.FT               491.0000: 
STOP.FT              1911.5000: 
STEP.FT                 0.2500: 
NULL.                -999.2500: 
COMP.          Pioneer Natural Resources: COMPANY
WELL.            Corazon 13-10: WELL
FLD.           Purgatoire River: FIELD
LOC.           2510' FSL & 439' FWL: LOCATION
PROV.                 Colorado: PROVINCE
CNTY.               Las Animas: COUNTRY
SRVC.                Patterson: SERVICE COMPANY
DATE.          Wed Nov 30 22:14:48 2005: LOG DATE
UWI.           05 071 08613 00: UNIQUE WELL ID
~Curve Information Block
DEPT.FT            0 000 00 00: Depth
SN.Ohm-m                      : IEL Short Normal
SP.mV                         : IEL Spontaneous Potential
DIR.Ohm-m                     : IEL Induction Resistivity
GR.GAPI                       : Gamma Ray
~Parameter Information Block
~A  Depth        SN          SP         DIR          GR     
# ...
  1764.0000     17.0610     72.2552     15.6134     61.2858
  1764.2500     16.7632     72.0829     15.6004     62.3918
  1764.5000     16.4493     71.9411     15.5503     63.0487
  1764.7500     16.1039     71.8262     15.4628     62.9771
  1765.0000     15.7557     71.7216     15.3507     62.2916
  1765.2500     15.5192     71.6101     15.2339     61.3470
  1765.5000     15.4970     71.4853     15.1334     59.1859
  1765.7500     15.6912     71.3540     15.0674     57.5808
  1766.0000     16.0183     71.2296     15.0490     55.8001
  1766.2500     16.3276     71.1212     15.0800     55.4146
  1766.5000     16.4926     71.0247     15.1463     56.1666
  1766.7500     16.5309     70.9235     15.2194     57.2830
  1767.0000     16.5586     70.8002     15.2677     59.0132
  1767.2500     16.6467     70.6488     15.2712     59.7352
  1767.5000     16.7696     70.4764     15.2293     59.9459
  1767.7500     16.8961     70.2955     15.1572     59.7414
  1768.0000     17.0411     70.1159     15.0751     59.3702
  1768.2500     17.1892     69.9422     14.9990     58.9999
  1768.5000     17.2850     69.7754     14.9372     57.6960
  1768.7500     17.3370     69.6142     14.8948     56.2489
  1769.0000     17.4108     69.4557     14.8758     54.0202
  1769.2500     17.5150     69.2986     14.8801     53.2172
  1769.5000     17.6069     69.1463     14.8970     53.7830
  1769.7500     17.6729     69.0094     14.9027     55.2474
  1770.0000     17.7299     68.9052     14.8673     58.0574
  1770.2500     17.7788     68.8606     14.7700     59.4765
  1770.5000     17.7809     68.9170     14.6099     59.8072
  1770.7500     17.6546     69.1294     14.4064     58.8902
  1771.0000     17.2862     69.5562     14.1884     57.4500
  1771.2500     16.5727     70.2415     13.9810     57.9245
  1771.5000     15.4946     71.1987     13.7987     62.6908
  1771.7500     14.2266     72.3968     13.6450     68.5351
  1772.0000     13.1701     73.7512     13.5174     79.0854
  1772.2500     12.7422     75.1312     13.4128     85.4453
  1772.5000     13.0975     76.3939     13.3318     91.4913
  1772.7500     14.0601     77.4341     13.2807     92.7424
  1773.0000     15.2716     78.2170     13.2697     91.4884
  1773.2500     16.3970     78.7729     13.3097     89.8176
  1773.5000     17.2641     79.1638     13.4076     88.1826
  1773.7500     17.8789     79.4471     13.5649     88.3537
  1774.0000     18.3432     79.6564     13.7768     90.1290
  1774.2500     18.7760     79.8018     14.0335     91.2975
  1774.5000     19.2352     79.8871     14.3188     90.9140
  1774.7500     19.6738     79.9280     14.6081     88.5007
  1775.0000     20.0111     79.9542     14.8671     81.9061
  1775.2500     20.2277     79.9950     15.0594     76.3891
  1775.5000     20.3970     80.0672     15.1607     68.1704
  1775.7500     20.6362     80.1747     15.1723     63.4306
  1776.0000     20.9761     80.3156     15.1219     58.0011
  1776.2500     21.2869     80.4855     15.0500     55.7659
  1776.5000     21.3319     80.6769     14.9889     55.2784
  1776.7500     20.9245     80.8769     14.9481     57.3833
  1777.0000     20.1331     81.0678     14.9112     64.3071
  1777.2500     19.2715     81.2312     14.8469     70.6864
  1777.5000     18.5996     81.3541     14.7269     80.6326
  1777.7500     18.1188     81.4331     14.5394     86.3703
  1778.0000     17.6738     81.4740     14.2867     93.0552
  1778.2500     17.1566     81.4855     13.9757     96.5303
  1778.5000     16.5998     81.4736     13.6111    100.7022
  1778.7500     16.1091     81.4401     13.1990    102.6970
  1779.0000     15.7635     81.3863     12.7547    104.3085
  1779.2500     15.5635     81.3179     12.3052    104.6146
  1779.5000     15.4229     81.2463     11.8794    104.3302
  1779.7500     15.2357     81.1858     11.4952    103.6660
  1780.0000     14.9511     81.1457     11.1531    101.7184
  1780.2500     14.5745     81.1226     10.8406     99.7835
  1780.5000     14.1461     81.0984     10.5447     96.4910
  1780.7500     13.7272     81.0490     10.2607     94.6169
  1781.0000     13.3478     80.9609      9.9918     93.1667
  1781.2500     12.9916     80.8470      9.7408     93.2484
  1781.5000     12.6675     80.7430      9.5032     94.4882
  1781.7500     12.4208     80.6822      9.2674     95.6513
  1782.0000     12.2555     80.6681      9.0229     97.3221
  1782.2500     12.1082     80.6738      8.7684     98.0594
  1782.5000     11.9123     80.6617      8.5133     98.0254
  1782.7500     11.6651     80.5997      8.2722     97.1943
  1783.0000     11.4290     80.4621      8.0579     95.6140
  1783.2500     11.2932     80.2304      7.8773     95.1126
  1783.5000     11.2969     79.9015      7.7322     95.7022
  1783.7500     11.3336     79.4912      7.6216     96.5364
  1784.0000     11.2340     79.0176      7.5425     97.2922
  1784.2500     10.9685     78.4730      7.4898     97.2585
  1784.5000     10.6484     77.8078      7.4565     97.0497
  1784.7500     10.3767     76.9379      7.4348     97.2383
  1785.0000     10.1751     75.7716      7.4188     97.9436
  1785.2500      9.9940     74.2543      7.4074     98.2385
  1785.5000      9.7468     72.4315      7.4049     97.7248
  1785.7500      9.3785     70.5180      7.4194     96.7843
  1786.0000      8.9600     68.9120      7.4587     95.5171
  1786.2500      8.7026     68.0724      7.5279     95.6434
  1786.5000      8.8487     68.2721      7.6284     98.0034
  1786.7500      9.5252     69.4069      7.7591    100.4932
  1787.0000     10.6712     71.0477      7.9177    103.5641
  1787.2500     12.0390     72.7048      8.1003    104.1023
  1787.5000     13.2036     74.0710      8.3003    102.1789
  1787.7500     13.7218     75.0791      8.5083     99.6887
  1788.0000     13.4581     75.8112      8.7139     95.9500
  1788.2500     12.6969     76.3848      8.9097     94.2710
  1788.5000     11.9089     76.8874      9.0952     93.0727
  1788.7500     11.5083     77.3594      9.2769     92.5565
  1789.0000     11.7657     77.8035      9.4667     91.1022
  1789.2500     12.7607     78.2043      9.6772     89.4311
  1789.5000     14.2841     78.5460      9.9188     86.0906
  1789.7500     15.8596     78.8201     10.1981     83.5905
  1790.0000     17.0474     79.0248     10.5194     80.1001
  1790.2500     17.7254     79.1655     10.8872     78.4793
  1790.5000     18.0168     79.2536     11.3056     77.9536
  1790.7500     18.0641     79.3026     11.7718     79.0956
  1791.0000     17.9015     79.3223     12.2684     83.0306
  1791.2500     17.4591     79.3205     12.7598     87.0567
  1791.5000     16.7710     79.3122     13.1993     94.7353
  1791.7500     16.1989     79.3196     13.5423    100.2298
  1792.0000     16.2222     79.3586     13.7567    107.1675
  1792.2500     16.9524     79.4240     13.8244    109.9137
  1792.5000     18.0220     79.4932     13.7379    110.5205
  1792.7500     18.9814     79.5417     13.5018    109.0245
  1793.0000     19.6442     79.5579     13.1392    105.9464
  1793.2500     20.0300     79.5454     12.6957    104.8069
  1793.5000     20.1733     79.5150     12.2328    106.2289
  1793.7500     20.0883     79.4718     11.8087    109.2579
  1794.0000     19.8001     79.4066     11.4588    115.1723
  1794.2500     19.3074     79.2973     11.1878    118.6551
  1794.5000     18.6131     79.1213     10.9783    121.5453
  1794.7500     17.8403     78.8678     10.8114    121.6638
  1795.0000     17.1729     78.5341     10.6839    119.8100
  1795.2500     16.6526     78.1064     10.6091    117.9663
  1795.5000     16.1954     77.5521     10.6021    115.2905
  1795.7500     15.7889     76.8414     10.6631    113.6514
  1796.0000     15.5155     75.9820     10.7739    110.6389
  1796.2500     15.4609     75.0417     10.9069    107.4458
  1796.5000     15.7217     74.1485     11.0380     99.6017
  1796.7500     16.4353     73.4665     11.1547     92.2661
  1797.0000     17.7998     73.1481     11.2555     79.7025
  1797.2500     20.0925     73.2801     11.3447     71.8742
