~Version Information
VERS.                      2.0: CWLS Log ASCII Standard - VERSION 2.0
WRAP.                       NO: One line per depth step
~Well Information Block
STRT.FT                -7.0000: 
STOP.FT              3030.2500: 
STEP.FT                 0.2500: 
NULL.                -999.2500: 
COMP.          Pioneer Natural Resources: COMPANY
WELL.            Cleaver 24-12: WELL
FLD.           Purgatorie River: FIELD
LOC.           204' FSL & 2351' FWL--: LOCATION
CNTY.               Las Animas: COUNTY
SRVC.          Patterson Wireline: SERVICE COMPANY
DATE.          Thu Feb 02 12:17:57 2006: LOG DATE
UWI.           05 071 08634 00: UNIQUE WELL ID
STAT.                       CO: STATE
~Curve Information Block
DEPT.FT            0 000 00 00: Depth
CCL.                          : Casing Collar Locator
TT3.usec                      : CBL 3' Travel Time
AMP3.mV                       : CBL 3' Amplitude
GR.GAPI                       : Gamma Ray
~Parameter Information Block
~A  Depth       CCL         TT3         AMP3         GR     
# ...
   797.0000      0.0000    302.4675     28.9016    100.7007
   797.2500      0.0000    302.4526     28.7412     99.6114
   797.5000      0.0000    302.4064     28.5944     98.0936
   797.7500      0.0000    302.3320     28.4546     96.3444
   798.0000      0.0000    302.2536     28.3024     94.5454
   798.2500      0.0000    302.1987     28.1264     93.1772
   798.5000      0.0000    302.1784     27.9403     93.0715
   798.7500      0.0000    302.1819     27.7813     94.6327
   799.0000      0.0000    302.1917     27.6879     97.3950
   799.2500      0.0000    302.2007     27.6758    100.8634
   799.5000      0.0000    302.2119     27.7377    105.2985
   799.7500      0.0000    302.2278     27.8591    110.8418
   800.0000      0.0000    302.2502     28.0239    116.0728
   800.2500      0.0000    302.2856     28.2054    118.4430
   800.5000      0.0000    302.3405     28.3739    116.7081
   800.7500      0.0000    302.4093     28.5209    112.5786
   801.0000      0.0000    302.4751     28.6695    109.2647
   801.2500      0.0000    302.5213     28.8553    108.3037
   801.5000      0.0000    302.5396     29.1024    108.4723
   801.7500      0.0000    302.5284     29.4082    108.0087
   802.0000      0.0000    302.4944     29.7378    107.0289
   802.2500      0.0000    302.4530     30.0353    107.0671
   802.5000      0.0000    302.4226     30.2538    108.8373
   802.7500      0.0000    302.4149     30.3803    111.4206
   803.0000      0.0000    302.4285     30.4374    113.5610
   803.2500      0.0000    302.4488     30.4679    114.9054
   803.5000      0.0000    302.4539     30.5204    115.7694
   803.7500      0.0000    302.4252     30.6335    116.3438
   804.0000      0.0000    302.3588     30.8207    116.5874
   804.2500      0.0000    302.2674     31.0623    116.6805
   804.5000      0.0000    302.1716     31.3150    116.9989
   804.7500      0.0000    302.0880     31.5322    117.4961
   805.0000      0.0000    302.0251     31.6839    117.6653
   805.2500      0.0000    301.9837     31.7708    117.4118
   805.5000      0.0000    301.9566     31.8286    117.2669
   805.7500      0.0000    301.9297     31.9120    117.5083
   806.0000      0.0000    301.8909     32.0601    118.0901
   806.2500      0.0000    301.8396     32.2721    119.6550
   806.5000      0.0000    301.7861     32.5108    123.1678
   806.7500      0.0000    301.7459     32.7166    128.0981
   807.0000      0.0000    301.7359     32.8171    132.3651
   807.2500      0.0000    301.7689     32.7514    134.6072
   807.5000      0.0000    301.8452     32.5105    135.6463
   807.7500      0.0000    301.9492     32.1531    137.5638
   808.0000      0.0000    302.0545     31.7697    141.8669
   808.2500      0.0000    302.1382     31.4295    148.2341
   808.5000      0.0000    302.1895     31.1619    154.3799
   808.7500      0.0000    302.2083     30.9735    157.4283
   809.0000      0.0000    302.2022     30.8585    156.0822
   809.2500      0.0000    302.1869     30.7866    151.5988
   809.5000      0.0000    302.1866     30.7015    146.6258
   809.7500      0.0000    302.2255     30.5498    143.2707
   810.0000      0.0000    302.3153     30.3156    142.0525
   810.2500      0.0000    302.4458     30.0246    142.1913
   810.5000      0.0000    302.5847     29.7176    142.6785
   810.7500      0.0000    302.6920     29.4234    143.0693
   811.0000      0.0000    302.7375     29.1547    143.2161
   811.2500      0.0000    302.7137     28.9205    142.5553
   811.5000      0.0000    302.6350     28.7294    140.3243
   811.7500      0.0000    302.5294     28.5841    136.4500
   812.0000      0.0000    302.4288     28.4820    131.4084
   812.2500      0.0000    302.3594     28.4200    125.2817
   812.5000      0.0000    302.3325     28.3985    118.1279
   812.7500      0.0000    302.3436     28.4243    111.4447
   813.0000      0.0000    302.3788     28.5083    107.9805
   813.2500      0.0000    302.4227     28.6550    109.1919
   813.5000      0.0000    302.4600     28.8539    113.4265
   813.7500      0.0000    302.4748     29.0847    117.4214
   814.0000      0.0000    302.4537     29.3289    119.3064
   814.2500      0.0000    302.3929     29.5713    119.5592
   814.5000      0.0000    302.3030     29.7996    119.3739
   814.7500      0.0000    302.2080     30.0080    118.9780
   815.0000      0.0000    302.1371     30.1911    117.7562
   815.2500      0.0000    302.1126     30.3293    115.5616
   815.5000      0.0000    302.1411     30.3892    113.4187
   815.7500      0.0000    302.2112     30.3495    112.6829
   816.0000      0.0000    302.3027     30.2210    113.5205
   816.2500      0.0000    302.3976     30.0394    114.4864
   816.5000      0.0000    302.4825     29.8487    113.8086
   816.7500      0.0000    302.5453     29.6931    110.9297
   817.0000      0.0000    302.5749     29.6096    106.7618
   817.2500      0.0000    302.5687     29.6091    102.9597
   817.5000      0.0000    302.5369     29.6610    101.2348
   817.7500      0.0000    302.4991     29.7056    102.7307
   818.0000      0.0000    302.4748     29.6908    107.1799
   818.2500      0.0000    302.4751     29.6074    112.5570
   818.5000      0.0000    302.4998     29.4942    115.9474
   818.7500      0.0000    302.5414     29.4050    115.2789
   819.0000      0.0000    302.5905     29.3676    110.8011
   819.2500      0.0000    302.6376     29.3727    105.2192
   819.5000      0.0000    302.6727     29.3962    102.1100
   819.7500      0.0000    302.6894     29.4228    103.6428
   820.0000      0.0000    302.6899     29.4424    109.2199
   820.2500      0.0000    302.6848     29.4311    115.8592
   820.5000      0.0000    302.6843     29.3551    120.0274
   820.7500      0.0000    302.6879     29.2078    119.9283
   821.0000      0.0000    302.6856     29.0398    116.7142
   821.2500      0.0000    302.6944     28.9298    113.4407
   821.5000      0.0000    302.8122     28.9155    112.5092
   821.7500      0.0000    303.4520     28.9468    114.0922
   822.0000      0.0000    305.7817     28.9035    116.8775
   822.2500      0.0000    312.1378     28.6417    119.6899
   822.5000      0.0000    325.1574     28.0025    121.8526
   822.7500      0.0000    344.5294     26.8245    122.4837
   823.0000      0.0000    363.7954     25.0848    120.5585
   823.2500      0.0000    372.8676     23.0853    116.0527
   823.5000      0.0000    366.5640     21.3657    110.5059
   823.7500      0.0000    349.7651     20.3199    106.2421
   824.0000      0.0000    332.8260     19.9487    105.2040
   824.2500     -2.0000    323.7853     19.9938    108.0919
   824.5000      0.0000    326.3938     20.1962    113.8265
   824.7500      0.0000    341.9920     20.4218    119.9321
   825.0000      0.0000    368.1047     20.6687    124.0278
   825.2500      0.0000    394.6785     21.0254    125.1320
   825.5000      0.0000    406.9911     21.5822    123.5992
   825.7500      0.0000    397.0812     22.3817    120.3332
   826.0000      0.0000    371.0537     23.4770    116.3728
   826.2500      0.0000    342.7620     24.9187    112.7146
   826.5000      0.0000    322.1202     26.5819    109.7917
   826.7500      0.0000    310.8395     28.1241    107.0544
   827.0000      0.0000    305.9769     29.2377    103.4682
   827.2500      0.0000    304.2747     29.8706     98.6936
   827.5000      0.0000    303.7865     30.1663     93.7656
   827.7500      0.0000    303.6693     30.2870     90.4512
   828.0000      0.0000    303.6427     30.3306     89.7864
   828.2500      0.0000    303.6068     30.3387     91.3835
   828.5000      0.0000    303.5463     30.3158     94.4143
   828.7500      0.0000    303.4742     30.2559     98.9338
   829.0000      0.0000    303.4092     30.1757    105.5317
   829.2500      0.0000    303.3531     30.1199    113.5500
   829.5000      0.0000    303.2900     30.1269    120.2413
   829.7500      0.0000    303.2054     30.1938    122.2778
   830.0000      0.0000    303.1033     30.2804    118.1395
   830.2500      0.0000    303.0041     30.3441    108.9882
