~Version Information
VERS.                      2.0: CWLS Log ASCII Standard - VERSION 2.0
WRAP.                       NO: One line per depth step
~Well Information Block
STRT.FT               645.0000: 
STOP.FT              2133.5000: 
STEP.FT                 0.2500: 
NULL.                -999.2500: 
COMP.          Pioneer Natural Resources: COMPANY
WELL.          Gunslinger 13-24: WELL
FLD.           Purgatoire River: FIELD
LOC.           1968' FSL & 633' FWL: LOCATION
PROV.                 Colorado: PROVINCE
CNTY.               Las Animas: COUNTRY
SRVC.                Patterson: SERVICE COMPANY
DATE.          Fri Jul 29 15:04:35 2005: LOG DATE
UWI.           05 071 08442 00: UNIQUE WELL ID
~Curve Information Block
DEPT.FT            0 000 00 00: Depth
SN.Ohm-m                      : IEL Short Normal
SP.mV                         : IEL Spontaneous Potential
DIR.Ohm-m                     : IEL Induction Resistivity
GR.GAPI                       : Gamma Ray
~Parameter Information Block
~A  Depth        SN          SP         DIR          GR     
# ...
  1985.0000     19.7188     39.3312     14.7117     65.9893
  1985.2500     20.9579     39.2728     15.1900     65.5537
  1985.5000     22.1667     39.2030     15.6962     64.8562
  1985.7500     23.2921     39.1354     16.1852     63.8826
  1986.0000     24.1366     39.0769     16.5975     61.5733
  1986.2500     24.4685     39.0361     16.8744     59.9050
  1986.5000     24.3290     39.0239     16.9757     58.1823
  1986.7500     23.9226     39.0460     16.8852     57.8019
  1987.0000     23.3647     39.0984     16.6055     58.2196
  1987.2500     22.6886     39.1702     16.1524     59.0539
  1987.5000     21.9364     39.2526     15.5609     61.1955
  1987.7500     21.1659     39.3424     14.8927     63.1659
  1988.0000     20.4410     39.4403     14.2280     66.4217
  1988.2500     19.8261     39.5457     13.6390     68.4700
  1988.5000     19.3384     39.6526     13.1645     71.3230
  1988.7500     18.8783     39.7428     12.8065     73.3293
  1989.0000     18.2830     39.7789     12.5451     76.8813
  1989.2500     17.5537     39.7066     12.3608     79.7314
  1989.5000     16.9340     39.4797     12.2470     84.8996
  1989.7500     16.5991     39.0990     12.2090     88.8550
  1990.0000     16.4456     38.6309     12.2550     94.5824
  1990.2500     16.3417     38.1763     12.3873     97.3424
  1990.5000     16.2959     37.8079     12.5988     98.5514
  1990.7500     16.3130     37.5286     12.8748     96.9775
  1991.0000     16.3947     37.2734     13.2011     90.8129
  1991.2500     16.6832     36.9393     13.5724     84.3938
  1991.5000     17.4088     36.4280     13.9991     72.6930
  1991.7500     18.7605     35.6985     14.5075     64.8213
  1992.0000     20.9036     34.8072     15.1333     55.1712
  1992.2500     24.0458     33.8949     15.9122     51.1251
  1992.5000     28.3268     33.1133     16.8743     49.5507
  1992.7500     33.3853     32.5455     18.0420     51.5991
  1993.0000     38.1008     32.1848     19.4294     58.4260
  1993.2500     41.2282     31.9733     21.0319     64.3289
  1993.5000     42.2772     31.8483     22.8094     72.9063
  1993.7500     41.5879     31.7558     24.6748     77.3880
  1994.0000     39.9575     31.6465     26.5082     81.3378
  1994.2500     38.2723     31.4798     28.1886     82.0992
  1994.5000     37.0213     31.2427     29.6117     81.1943
  1994.7500     36.0856     30.9601     30.6843     80.0541
  1995.0000     35.1579     30.6795     31.3238     79.0738
  1995.2500     34.2230     30.4367     31.4865     79.3018
  1995.5000     33.4643     30.2321     31.1984     80.1446
  1995.7500     32.9128     30.0347     30.5562     80.1384
  1996.0000     32.4626     29.8070     29.6994     78.6050
  1996.2500     32.0480     29.5310     28.7751     76.9771
  1996.5000     31.6077     29.2200     27.9102     74.8235
  1996.7500     31.0709     28.9092     27.1897     74.0325
  1997.0000     30.4462     28.6346     26.6413     73.9277
  1997.2500     29.8027     28.4133     26.2326     74.3932
  1997.5000     29.1956     28.2423     25.8895     75.5045
  1997.7500     28.6301     28.1105     25.5312     76.4498
  1998.0000     28.0481     28.0094     25.1081     78.5366
  1998.2500     27.3911     27.9288     24.6125     80.7867
  1998.5000     26.7049     27.8476     24.0618     85.9646
  1998.7500     26.0691     27.7357     23.4740     90.4204
  1999.0000     25.4051     27.5722     22.8587     97.0216
  1999.2500     24.5858     27.3602     22.2259     99.9981
  1999.5000     23.7078     27.1222     21.5970    100.6465
  1999.7500     22.9836     26.8835     21.0025     98.5609
  2000.0000     22.4557     26.6604     20.4672     93.1557
  2000.2500     22.0357     26.4602     19.9966     89.1503
  2000.5000     21.6932     26.2879     19.5776     84.0539
  2000.7500     21.4298     26.1515     19.1964     81.7156
  2001.0000     21.2078     26.0574     18.8567     79.7697
  2001.2500     21.0012     26.0035     18.5794     79.2596
  2001.5000     20.8071     25.9746     18.3821     79.3674
  2001.7500     20.6049     25.9475     18.2595     79.9023
  2002.0000     20.3452     25.8985     18.1821     80.9458
  2002.2500     20.0206     25.8091     18.1116     81.4275
  2002.5000     19.7145     25.6682     18.0210     81.3751
  2002.7500     19.5036     25.4715     17.9048     80.8130
  2003.0000     19.3931     25.2199     17.7771     79.6709
  2003.2500     19.3662     24.9183     17.6614     79.2403
  2003.5000     19.4103     24.5767     17.5800     79.9351
  2003.7500     19.5120     24.2096     17.5464     81.3746
  2004.0000     19.6452     23.8281     17.5645     84.1672
  2004.2500     19.7444     23.4316     17.6297     85.6096
  2004.5000     19.7466     23.0091     17.7307     85.8192
  2004.7500     19.6652     22.5521     17.8503     84.3668
  2005.0000     19.5650     22.0686     17.9701     80.6545
  2005.2500     19.5026     21.5874     18.0775     78.2997
  2005.5000     19.4958     21.1477     18.1714     76.7203
  2005.7500     19.5189     20.7836     18.2614     77.1327
  2006.0000     19.5467     20.5121     18.3620     78.5452
  2006.2500     19.5961     20.3324     18.4842     78.8755
  2006.5000     19.6794     20.2296     18.6281     77.5468
  2006.7500     19.7556     20.1804     18.7827     75.8581
  2007.0000     19.7859     20.1603     18.9334     73.6510
  2007.2500     19.8083     20.1538     19.0730     73.0480
  2007.5000     19.9100     20.1606     19.2078     73.5556
  2007.7500     20.1264     20.1859     19.3538     74.4837
  2008.0000     20.4094     20.2209     19.5260     75.9452
  2008.2500     20.7132     20.2386     19.7297     76.5794
  2008.5000     21.0410     20.2133     19.9595     76.9982
  2008.7500     21.4045     20.1385     20.2067     77.3696
  2009.0000     21.8112     20.0218     20.4727     78.8517
  2009.2500     22.2344     19.8707     20.7757     80.3485
  2009.5000     22.6167     19.6884     21.1450     82.1236
  2009.7500     22.9793     19.4747     21.6034     82.1824
  2010.0000     23.4088     19.2236     22.1489     80.0015
  2010.2500     23.8925     18.9232     22.7453     77.3246
  2010.5000     24.3180     18.5609     23.3270     72.6787
  2010.7500     24.6427     18.1328     23.8225     69.9039
  2011.0000     24.9424     17.6477     24.1901     67.0448
  2011.2500     25.2906     17.1244     24.4417     66.2048
  2011.5000     25.6932     16.5842     24.6339     66.6693
  2011.7500     26.1169     16.0445     24.8360     68.1597
  2012.0000     26.5232     15.5188     25.1035     71.9054
  2012.2500     26.9246     15.0203     25.4711     74.9433
  2012.5000     27.3770     14.5652     25.9516     79.2404
  2012.7500     27.8750     14.1700     26.5335     81.4458
  2013.0000     28.3584     13.8457     27.1829     83.3829
  2013.2500     28.8214     13.5921     27.8584     83.7811
  2013.5000     29.2981     13.4016     28.5309     83.6388
  2013.7500     29.7693     13.2702     29.1914     83.6828
  2014.0000     30.1864     13.2076     29.8471     84.6200
  2014.2500     30.6138     13.2269     30.5114     85.4791
  2014.5000     31.2344     13.3202     31.1935     85.6408
  2014.7500     32.1012     13.4468     31.8838     84.3474
  2015.0000     33.0135     13.5536     32.5423     80.4319
  2015.2500     33.7313     13.6015     33.1007     77.1876
  2015.5000     34.1780     13.5705     33.4845     72.7139
  2015.7500     34.4058     13.4564     33.6466     70.4624
  2016.0000     34.5022     13.2750     33.5911     68.3500
  2016.2500     34.5727     13.0630     33.3768     67.7551
  2016.5000     34.6968     12.8638     33.0980     68.1738
  2016.7500     34.8284     12.7125     32.8475     69.3889
  2017.0000     34.8174     12.6341     32.6731     72.2678
  2017.2500     34.5653     12.6413     32.5470     74.3633
  2017.5000     34.0908     12.7265     32.3649     76.8970
  2017.7500     33.4694     12.8600     31.9927     78.0993
  2018.0000     32.7619     13.0052     31.3429     79.8174
  2018.2500     31.9689     13.1415     30.4237     81.3355
