~Version Information
VERS.                      2.0: CWLS Log ASCII Standard - VERSION 2.0
WRAP.                       NO: One line per depth step
~Well Information Block
STRT.FT               695.5000: 
STOP.FT              1499.5000: 
STEP.FT                 0.2500: 
NULL.                -999.2500: 
COMP.          Pioneer Natural Resources: COMPANY
WELL.          Pallet Ranch 34-25 Tr: WELL
FLD.           Purgatoire River: FIELD
LOC.           465' FSL & 2138' FEL: LOCATION
PROV.                 Colorado: PROVINCE
CNTY.               Las Animas: COUNTRY
SRVC.                Patterson: SERVICE COMPANY
DATE.          Wed Jan 18 18:58:46 2006: LOG DATE
UWI.           05 071 08657 00: UNIQUE WELL ID
~Curve Information Block
DEPT.FT            0 000 00 00: Depth
SN.Ohm-m                      : IEL Short Normal
SP.mV                         : IEL Spontaneous Potential
DIR.Ohm-m                     : IEL Induction Resistivity
GR.GAPI                       : Gamma Ray
~Parameter Information Block
~A  Depth        SN          SP         DIR          GR     
# ...
  1298.5000     25.3641     43.5719     23.6052     89.7976
  1298.7500     25.6308     43.6558     23.4300     83.9902
  1299.0000     25.8697     43.8081     23.1109     76.5677
  1299.2500     26.0933     44.0063     22.7053     74.3908
  1299.5000     26.2840     44.1986     22.2627     76.3087
  1299.7500     26.4304     44.3395     21.8131     80.0494
  1300.0000     26.5805     44.4218     21.3706     86.1980
  1300.2500     26.6479     44.4744     20.9442     89.1338
  1300.5000     26.3530     44.5339     20.5423     91.2014
  1300.7500     25.5498     44.6185     20.1660     91.8459
  1301.0000     24.4101     44.7184     19.7998     94.0426
  1301.2500     23.2046     44.8011     19.4109     97.5277
  1301.5000     22.0903     44.8274     18.9686    106.5200
  1301.7500     21.1256     44.7765     18.4686    114.3455
  1302.0000     20.3159     44.6602     17.9387    126.0037
  1302.2500     19.6094     44.5146     17.4183    131.8618
  1302.5000     18.9486     44.3826     16.9302    135.9642
  1302.7500     18.3170     44.2996     16.4656    135.7362
  1303.0000     17.7284     44.2831     15.9919    132.7051
  1303.2500     17.2294     44.3204     15.4756    130.1661
  1303.5000     16.8471     44.3721     14.9100    127.4020
  1303.7500     16.5035     44.3963     14.3265    126.9377
  1304.0000     16.1071     44.3758     13.7805    128.6284
  1304.2500     15.6856     44.3265     13.3201    130.8355
  1304.5000     15.2843     44.2819     12.9628    133.8261
  1304.7500     14.8650     44.2729     12.6927    134.6527
  1305.0000     14.3933     44.3159     12.4738    134.4265
  1305.2500     13.9128     44.4123     12.2687    134.3645
  1305.5000     13.5039     44.5518     12.0509    135.7420
  1305.7500     13.1929     44.7166     11.8080    137.5393
  1306.0000     12.9315     44.8840     11.5368    140.5278
  1306.2500     12.6849     45.0298     11.2382    142.1557
  1306.5000     12.4679     45.1323     10.9175    143.5734
  1306.7500     12.3189     45.1808     10.5884    143.8706
  1307.0000     12.2567     45.1819     10.2728    143.6805
  1307.2500     12.1935     45.1574      9.9931    143.2141
  1307.5000     12.0099     45.1335      9.7632    141.9380
  1307.7500     11.7645     45.1304      9.5851    140.9089
  1308.0000     11.6275     45.1570      9.4518    140.1609
  1308.2500     11.6400     45.2129      9.3550    140.7376
  1308.5000     11.6942     45.2943      9.2878    142.9609
  1308.7500     11.6670     45.3950      9.2452    144.6839
  1309.0000     11.5009     45.5032      9.2189    146.9694
  1309.2500     11.2141     45.6024      9.1941    148.4313
  1309.5000     10.8380     45.6785      9.1498    150.5981
  1309.7500     10.3944     45.7255      9.0671    151.5211
  1310.0000      9.9405     45.7437      8.9401    151.0791
  1310.2500      9.5618     45.7349      8.7809    149.4903
  1310.5000      9.3412     45.7017      8.6126    145.9980
  1310.7500      9.3169     45.6502      8.4587    143.5823
  1311.0000      9.4602     45.5924      8.3350    140.8356
  1311.2500      9.6843     45.5442      8.2477    140.0582
  1311.5000      9.8728     45.5214      8.1949    140.7592
  1311.7500      9.9822     45.5328      8.1699    142.1554
  1312.0000     10.0924     45.5761      8.1654    144.4533
  1312.2500     10.2726     45.6387      8.1771    145.4158
  1312.5000     10.4710     45.7032      8.2025    145.5337
  1312.7500     10.6173     45.7553      8.2377    145.0866
  1313.0000     10.7204     45.7888      8.2751    144.8854
  1313.2500     10.8378     45.8070      8.3069    145.5447
  1313.5000     11.0070     45.8214      8.3300    147.3718
  1313.7500     11.1819     45.8464      8.3489    148.5971
  1314.0000     11.2962     45.8931      8.3745    150.1333
  1314.2500     11.3324     45.9647      8.4198    151.2266
  1314.5000     11.2689     46.0548      8.4966    153.1732
  1314.7500     11.0989     46.1499      8.6148    154.3776
  1315.0000     10.8841     46.2315      8.7812    155.5565
  1315.2500     10.7345     46.2795      9.0005    155.9506
  1315.5000     10.7642     46.2804      9.2737    156.0315
  1315.7500     11.0284     46.2375      9.5999    155.4585
  1316.0000     11.4662     46.1745      9.9761    152.6254
  1316.2500     11.9343     46.1256     10.3993    148.7449
  1316.5000     12.3435     46.1177     10.8672    139.2813
  1316.7500     12.7692     46.1606     11.3799    130.8195
  1317.0000     13.3752     46.2494     11.9418    116.6996
  1317.2500     14.2420     46.3726     12.5624    107.7989
  1317.5000     15.3429     46.5150     13.2534     97.3044
  1317.7500     16.6336     46.6529     14.0206     92.7167
  1318.0000     18.0356     46.7582     14.8520     88.9717
  1318.2500     19.3858     46.8114     15.7078     87.8839
  1318.5000     20.5139     46.8119     16.5191     87.3475
  1318.7500     21.3569     46.7709     17.1977     87.3343
  1319.0000     21.9669     46.7003     17.6564     87.3376
  1319.2500     22.3216     46.6114     17.8303     87.2823
  1319.5000     22.2515     46.5206     17.6966     88.0143
  1319.7500     21.7109     46.4488     17.2817     90.2170
  1320.0000     20.8717     46.4129     16.6515     97.9588
  1320.2500     19.9292     46.4181     15.8876    106.1108
  1320.5000     19.0207     46.4563     15.0619    120.5816
  1320.7500     18.1573     46.5112     14.2242    129.8265
  1321.0000     17.1787     46.5631     13.4029    140.5892
  1321.2500     16.0187     46.5938     12.6160    145.1133
  1321.5000     14.8720     46.5938     11.8803    148.3833
  1321.7500     13.9262     46.5673     11.2127    149.0221
  1322.0000     13.1825     46.5319     10.6246    148.9196
  1322.2500     12.5658     46.5102     10.1161    148.4024
  1322.5000     12.0320     46.5212      9.6761    146.8811
  1322.7500     11.5681     46.5727      9.2895    145.4425
  1323.0000     11.1268     46.6600      8.9439    143.0429
  1323.2500     10.6824     46.7701      8.6333    141.2568
  1323.5000     10.3102     46.8878      8.3578    137.4317
  1323.7500     10.0426     46.9989      8.1206    133.5772
  1324.0000      9.8038     47.0889      7.9245    126.0668
  1324.2500      9.5733     47.1452      7.7695    120.7715
  1324.5000      9.4684     47.1645      7.6515    114.0281
  1324.7500      9.5810     47.1572      7.5638    110.7980
  1325.0000      9.7956     47.1415      7.4984    107.7669
  1325.2500      9.9232     47.1332      7.4496    106.8012
  1325.5000      9.9586     47.1379      7.4153    107.1444
  1325.7500     10.0074     47.1519      7.3978    108.8429
  1326.0000     10.0647     47.1673      7.4019    113.5967
  1326.2500     10.0412     47.1766      7.4327    117.8325
  1326.5000      9.9669     47.1759      7.4931    124.8947
  1326.7500      9.9851     47.1657      7.5830    129.7269
  1327.0000     10.0827     47.1486      7.6992    136.8971
  1327.2500     10.0928     47.1274      7.8352    141.4685
  1327.5000     10.0158     47.1028      7.9822    147.0933
  1327.7500     10.0319     47.0752      8.1311    148.9941
  1328.0000     10.2120     47.0490      8.2767    147.5465
  1328.2500     10.4553     47.0362      8.4194    143.9595
  1328.5000     10.6513     47.0549      8.5648    137.4859
  1328.7500     10.7487     47.1219      8.7202    134.5537
  1329.0000     10.7867     47.2448      8.8897    134.2958
  1329.2500     10.9244     47.4186      9.0708    136.7185
  1329.5000     11.2722     47.6284      9.2538    142.5136
  1329.7500     11.7408     47.8548      9.4249    146.6988
  1330.0000     12.1671     48.0766      9.5691    152.0099
  1330.2500     12.4500     48.2725      9.6743    154.3615
  1330.5000     12.5748     48.4285      9.7319    155.7508
  1330.7500     12.6261     48.5474      9.7378    155.4138
  1331.0000     12.7053     48.6512      9.6923    153.7210
  1331.2500     12.8169     48.7694      9.6012    152.3362
  1331.5000     12.8755     48.9233      9.4757    150.9538
  1331.7500     12.7897     49.1141      9.3311    151.0887
