~Version Information
 VERS.                                  2.0 : CWLS LAS VERSION
 WRAP.                                   NO : WRAPING MODE
 SWARE .                 MController 2.5.0J : SOFTWARE VERSION
~Well Information
 WELL.                          Rolls 14-14 : WELL
 COMP.    Pioneer Natural Resources USA Inc : COMPANY
 FLD.                      Purgatoire River : FIELD
 LOC.                SW/SW Sec 14 T32S R66W : LOCATION
 DATE.                       07/31-08/01/05 : DATE(S) LOGGED
 SRVC.       BLANCO Geological Services LLC : SERVICE COMPANY
 STAT.                                   CO : STATE
 CNTY.                           Las Animas : COUNTY
 CTRY.                                  USA : COUNTRY
 API.                       05-071-08455-00 : API NUMBER
 STRT.FT                             831.00 : START DEPTH
 STOP.FT                            2365.00 : STOP DEPTH
 STEP.FT                               1.00 : DEPTH INCREMENT
 NULL.                                -9999 : NULL VALUE
~Curve information
 DEPTH.FT                                   :
 ROP.MIN/FT                                 :
 GAS.UNITS                                  :
~ASCII Log data
# ...
      1231.0         0.23         31.6 
      1232.0         0.40         30.9 
      1233.0         0.42         30.5 
      1234.0         0.60         31.9 
      1235.0         0.47         32.2 
      1236.0         0.23         32.1 
      1237.0         0.17         32.3 
      1238.0         0.20         32.3 
      1239.0         0.20         32.2 
      1240.0         0.20         31.3 
      1241.0         0.23         30.9 
      1242.0         0.17         29.8 
      1243.0         0.27         30.4 
      1244.0         0.25         30.4 
      1245.0         0.27         30.0 
      1246.0         0.23         30.2 
      1247.0         0.27         29.7 
      1248.0         0.23         29.9 
      1249.0         0.23         30.0 
      1250.0         0.23         29.8 
      1251.0         0.23         29.0 
      1252.0         0.13         29.0 
      1253.0         0.20         29.7 
      1254.0         0.20         29.6 
      1255.0         0.23         29.9 
      1256.0         2.02         30.4 
      1257.0         0.27         29.0 
      1258.0         0.33         30.8 
      1259.0         0.47         36.0 
      1260.0         0.27         43.5 
      1261.0         0.30         55.8 
      1262.0         0.30         68.8 
      1263.0         0.25         71.7 
      1264.0         0.20         71.6 
      1265.0         0.20         68.2 
      1266.0         0.20         61.9 
      1267.0         0.20         53.0 
      1268.0         0.27         49.4 
      1269.0         0.23         44.8 
      1270.0         0.17         43.5 
      1271.0         0.20         42.6 
      1272.0         0.13         42.3 
      1273.0         0.20         42.3 
      1274.0         0.23         42.7 
      1275.0         0.23         41.4 
      1276.0         0.23         41.2 
      1277.0         0.20         39.5 
      1278.0         0.20         38.0 
      1279.0         0.18         36.9 
      1280.0         0.27         36.7 
      1281.0         0.20         35.2 
      1282.0         0.17         36.0 
      1283.0         0.17         35.6 
      1284.0         0.17         35.5 
      1285.0         0.17         35.3 
      1286.0         4.45         35.2 
      1287.0         0.30         33.9 
      1288.0         0.33         40.7 
      1289.0         0.37         50.4 
      1290.0         0.25         68.1 
      1291.0         0.20         80.8 
      1292.0         0.23         89.2 
      1293.0         0.27         87.2 
      1294.0         0.23         77.2 
      1295.0         0.27         63.8 
      1296.0         0.27         50.7 
      1297.0         0.43         45.1 
      1298.0         0.67         40.2 
      1299.0         0.43         35.6 
      1300.0         0.28         33.5 
      1301.0         0.17         33.8 
      1302.0         0.20         33.5 
      1303.0         0.23         33.0 
      1304.0         0.17         33.1 
      1305.0         0.17         33.3 
      1306.0         0.23         33.1 
      1307.0         0.20         32.7 
      1308.0         0.23         32.5 
      1309.0         0.17         32.1 
      1310.0         0.17         32.1 
      1311.0         0.20         31.3 
      1312.0         0.17         32.2 
      1313.0         0.17         32.1 
      1314.0         0.17         31.6 
      1315.0         0.13         31.8 
      1316.0         1.72         33.2 
      1317.0         0.27         28.7 
      1318.0         0.13         29.5 
      1319.0         0.37         30.0 
      1320.0         0.43         32.7 
      1321.0         0.37         38.9 
      1322.0         0.35         49.4 
      1323.0         0.30         58.1 
      1324.0         0.23         60.2 
      1325.0         0.23         58.7 
      1326.0         0.23         55.0 
      1327.0         0.23         60.1 
      1328.0         0.23         69.5 
      1329.0         0.23         87.1 
      1330.0         0.20         98.9 
      1331.0         0.20        110.2 
      1332.0         0.13        111.9 
      1333.0         0.17        114.7 
      1334.0         0.17        116.1 
      1335.0         0.17        116.5 
      1336.0         0.17        116.3 
      1337.0         0.17        115.8 
      1338.0         0.18        114.7 
      1339.0         0.17        113.0 
      1340.0         0.17        110.0 
      1341.0         0.17        108.6 
      1342.0         0.13        106.1 
      1343.0         0.20        105.4 
      1344.0         0.37        102.2 
      1345.0         0.43        101.4 
      1346.0         4.08         98.5 
      1347.0         0.57        160.6 
      1348.0         0.55        176.8 
      1349.0         0.57        158.0 
      1350.0         0.37        118.0 
      1351.0         0.20        103.4 
      1352.0         0.17        101.7 
      1353.0         0.20         95.5 
      1354.0         0.17         92.4 
      1355.0         0.17         89.6 
      1356.0         0.17         86.1 
      1357.0         0.17         84.5 
      1358.0         0.13         82.4 
      1359.0         0.20         79.5 
      1360.0         0.20         76.9 
      1361.0         0.20         74.0 
      1362.0         0.17         72.7 
      1363.0         0.22         71.3 
      1364.0         0.17         69.4 
      1365.0         0.17         69.1 
      1366.0         0.20         69.0 
      1367.0         0.17         68.6 
      1368.0         0.17         68.0 
      1369.0         0.20         67.8 
      1370.0         0.20         67.2 
      1371.0         0.20         66.9 
      1372.0         0.23         66.9 
      1373.0         0.17         67.1 
      1374.0         0.20         67.0 
      1375.0         0.17         66.6 
      1376.0         1.95         65.8 
      1377.0         0.47         49.5 
      1378.0         0.40         57.8 
      1379.0         0.33         71.7 
      1380.0         0.30         97.4 
      1381.0         0.23        125.0 
      1382.0         0.23        141.9 
      1383.0         0.23        144.6 
      1384.0         0.25        142.4 
      1385.0         0.20        134.0 
      1386.0         0.23        126.5 
      1387.0         0.17        106.2 
      1388.0         0.20        101.8 
      1389.0         0.20         94.1 
      1390.0         0.23         90.7 
      1391.0         0.23         88.3 
      1392.0         0.17         84.1 
      1393.0         0.17         82.5 
      1394.0         0.13         79.6 
      1395.0         0.20         76.9 
      1396.0         0.17         74.9 
      1397.0         0.17         73.5 
      1398.0         0.17         72.0 
      1399.0         0.17         70.4 
      1400.0         0.17         68.7 
      1401.0         0.18         66.7 
      1402.0         0.23         65.3 
      1403.0         0.17         64.3 
      1404.0         0.20         63.2 
      1405.0         0.17         62.4 
      1406.0         1.57         62.0 
      1407.0         0.33         52.8 
      1408.0         0.33         50.6 
      1409.0         0.28         51.0 
      1410.0         0.23         54.3 
      1411.0         0.37         60.8 
      1412.0         0.40         87.2 
      1413.0         0.33        109.3 
      1414.0         0.23        120.2 
      1415.0         0.27        120.4 
      1416.0         0.27        116.5 
      1417.0         0.23        121.6 
      1418.0         0.23        125.9 
      1419.0         0.20        126.0 
      1420.0         0.20        126.4 
      1421.0         0.10        126.9 
      1422.0         0.10        126.9 
      1423.0         0.10        126.5 
      1424.0         0.12        123.7 
      1425.0         0.10        121.1 
      1426.0         0.13        117.9 
      1427.0         0.13        114.5 
      1428.0         0.17        107.0 
      1429.0         0.20        105.6 
      1430.0         0.20         94.2 
