~Version Information
VERS.                      2.0: CWLS Log ASCII Standard - VERSION 2.0
WRAP.                       NO: One line per depth step
~Well Information Block
STRT.FT               310.0000: 
STOP.FT              2295.5000: 
STEP.FT                 0.1000: 
NULL.                -999.2500: 
COMP.          Pioneer Natural Resources: COMPANY
WELL.               Relay 12-7: WELL
FLD.           Purgatoire River: FIELD
LOC.           1999' FNL & 848' FWL: LOCATION
PROV.                 Colorado: PROVINCE
CNTY.               Las Animas: COUNTRY
SRVC.                Patterson: SERVICE COMPANY
DATE.          Mon Dec 19 07:37:11 2005: LOG DATE
UWI.           05 071 08453 00: UNIQUE WELL ID
~Curve Information Block
DEPT.FT            0 000 00 00: Depth
DCAL.in                       : CDL Caliper
RHOB.g/cc                     : CDL Bulk Density
RHOC.g/cc                     : CDL Density Correction
DPOR.pu                       : CDL Density Porosity
GR.GAPI                       : Gamma Ray
NPOR.pu                       : Neutron Porosity
~Parameter Information Block
~A  Depth       DCAL        RHOB        RHOC        DPOR         GR         NPOR    
# ...
  2143.6000      7.8732      2.4980      0.0376      9.2133     94.0432     18.7085
  2143.7000      7.8732      2.4730      0.0090     10.7290     87.6715     18.6338
  2143.8000      7.8752      2.4526      0.0324     11.9629     79.4043     18.6535
  2143.9000      7.8752      2.4470      0.0278     12.3023     74.3634     18.8132
  2144.0000      7.8730      2.4486      0.0382     12.2031     74.9984     18.6593
  2144.1000      7.8730      2.4501      0.0041     12.1167     75.6648     18.0250
  2144.2000      7.8730      2.4576      0.0353     11.6606     72.8459     17.7972
  2144.3000      7.8739      2.4813      0.0257     10.2240     71.9097     18.6229
  2144.4000      7.8739      2.5116      0.0676      8.3902     77.4171     19.7513
  2144.5000      7.8767      2.5223      0.0883      7.7367     85.7548     19.9023
  2144.6000      7.8767      2.5098      0.0479      8.4967     92.1202     19.0182
  2144.7000      7.8767      2.4914      0.0445      9.6111     94.0952     18.3428
  2144.8000      7.8794      2.4781      0.0495     10.4194     91.3108     18.6651
  2144.9000      7.8794      2.4758     -0.0009     10.5587     86.1066     19.7957
  2145.0000      7.8799      2.4801      0.0400     10.2975     82.5196     20.7296
  2145.1000      7.8799      2.4746      0.0533     10.6277     82.6370     20.6893
  2145.2000      7.8799      2.4596      0.0312     11.5385     85.9069     20.0726
  2145.3000      7.8815      2.4539      0.0308     11.8862     91.4862     19.4976
  2145.4000      7.8815      2.4677      0.0243     11.0496     97.8863     19.2605
  2145.5000      7.8825      2.4905      0.0813      9.6659    101.5759     19.4465
  2145.6000      7.8825      2.5024      0.0697      8.9482     99.9504     20.0295
  2145.7000      7.8825      2.4947      0.0472      9.4134     95.0634     20.8446
  2145.8000      7.8817      2.4760      0.0277     10.5478     91.0808     21.3601
  2145.9000      7.8817      2.4584      0.0382     11.6108     89.3373     20.9826
  2146.0000      7.8813      2.4479      0.0275     12.2469     87.6832     20.2585
  2146.1000      7.8813      2.4507      0.0278     12.0804     85.6254     20.1298
  2146.2000      7.8813      2.4662      0.0419     11.1385     85.7741     20.2117
  2146.3000      7.8795      2.4804      0.0659     10.2789     86.9378     19.5544
  2146.4000      7.8795      2.4864      0.0544      9.9147     87.2076     18.4772
  2146.5000      7.8765      2.4908      0.0217      9.6515     89.4736     17.9410
  2146.6000      7.8765      2.4909      0.0150      9.6435     91.3757     17.9158
  2146.7000      7.8765      2.4740      0.0002     10.6660     91.1340     18.0703
  2146.8000      7.8761      2.4449     -0.0172     12.4324     92.7964     18.5395
  2146.9000      7.8761      2.4215     -0.0034     13.8489     93.8372     19.1220
  2147.0000      7.8769      2.4135     -0.0335     14.3354     90.1006     19.2790
  2147.1000      7.8769      2.4201      0.0269     13.9333     85.7336     18.9457
  2147.2000      7.8769      2.4364     -0.0259     12.9483     82.7304     18.7208
  2147.3000      7.8847      2.4584      0.0088     11.6101     79.3245     19.0732
  2147.4000      7.8847      2.4793      0.0174     10.3432     78.4545     19.7962
  2147.5000      7.9005      2.4914      0.0401      9.6107     81.5991     20.2285
  2147.6000      7.9005      2.4877      0.0662      9.8346     82.0838     20.2801
  2147.7000      7.9005      2.4676      0.0174     11.0541     75.0830     20.2941
  2147.8000      7.8975      2.4498      0.0351     12.1328     67.7814     20.2743
  2147.9000      7.8975      2.4478      0.0000     12.2519     69.7634     19.9378
  2148.0000      7.8975      2.4496      0.0472     12.1455     76.7197     19.3135
  2148.1000      7.8975      2.4436      0.0463     12.5073     76.3358     18.7038
  2148.2000      7.8975      2.4434     -0.0218     12.5232     68.8538     18.4540
  2148.3000      7.8950      2.4590      0.0582     11.5729     65.1486     18.8838
  2148.4000      7.8950      2.4740      0.0683     10.6654     68.2810     19.3216
  2148.5000      7.8893      2.4788      0.0360     10.3737     72.9404     19.0141
  2148.6000      7.8893      2.4841      0.0279     10.0543     75.6683     18.8298
  2148.7000      7.8893      2.4948      0.0776      9.4035     76.6456     19.2309
  2148.8000      7.8874      2.5078      0.0235      8.6196     76.0057     19.3494
  2148.9000      7.8874      2.5163      0.0922      8.1059     73.8104     18.7797
  2149.0000      7.8884      2.5058      0.0948      8.7404     73.0702     18.1803
  2149.1000      7.8884      2.4782      0.0303     10.4096     74.4583     18.2867
  2149.2000      7.8884      2.4557      0.0410     11.7746     75.9462     18.7175
  2149.3000      7.8870      2.4473      0.0226     12.2847     77.8557     18.4833
  2149.4000      7.8870      2.4487     -0.0160     12.2013     77.1455     17.8003
  2149.5000      7.8857      2.4569      0.0365     11.7027     69.9516     17.6277
  2149.6000      7.8857      2.4594      0.0720     11.5510     60.8365     18.0942
  2149.7000      7.8857      2.4464      0.0177     12.3391     58.3639     18.4997
  2149.8000      7.8872      2.4297      0.0310     13.3496     63.7126     18.3605
  2149.9000      7.8872      2.4239      0.0026     13.7043     69.3937     18.0626
  2150.0000      7.8828      2.4300      0.0460     13.3320     70.5246     17.7247
  2150.1000      7.8828      2.4374     -0.0083     12.8824     70.4613     17.1261
  2150.2000      7.8828      2.4377      0.0230     12.8682     73.5960     16.7663
  2150.3000      7.8827      2.4345      0.0024     13.0626     77.2051     16.9741
  2150.4000      7.8827      2.4306      0.0357     13.2949     76.0589     17.3453
  2150.5000      7.8869      2.4157      0.0339     14.1981     69.8986     17.5086
  2150.6000      7.8869      2.3951     -0.0463     15.4493     63.4086     17.4554
  2150.7000      7.8869      2.3961     -0.0066     15.3887     61.5293     17.4901
  2150.8000      7.8904      2.4206      0.0171     13.9030     65.2369     17.5458
  2150.9000      7.8904      2.4375      0.0211     12.8799     70.2946     17.3929
  2151.0000      7.8882      2.4271      0.0075     13.5073     71.6052     17.2918
  2151.1000      7.8882      2.4096     -0.0328     14.5682     71.2520     17.5852
  2151.2000      7.8882      2.4138     -0.0193     14.3132     72.2025     18.3611
  2151.3000      7.8925      2.4375      0.0207     12.8813     71.1493     19.3925
  2151.4000      7.8925      2.4607      0.0267     11.4739     66.8524     20.3316
  2151.5000      7.9117      2.4714      0.0316     10.8228     63.5237     21.1011
  2151.6000      7.9117      2.4662      0.0409     11.1378     62.9227     21.3141
  2151.7000      7.9117      2.4491      0.0370     12.1738     63.2264     20.7136
  2151.8000      7.9046      2.4296      0.0292     13.3584     64.4022     20.1556
  2151.9000      7.9046      2.4133      0.0181     14.3447     65.7493     20.0038
  2152.0000      7.9177      2.4086     -0.0198     14.6277     66.5960     19.5972
  2152.1000      7.9177      2.4215      0.0140     13.8482     69.8896     18.8416
  2152.2000      7.9177      2.4431      0.0062     12.5403     75.9514     18.1059
  2152.3000      7.9156      2.4619      0.0256     11.4015     79.6516     17.4978
  2152.4000      7.9156      2.4665      0.0616     11.1203     78.8800     16.8602
  2152.5000      7.9117      2.4554      0.0029     11.7969     76.5102     16.5433
  2152.6000      7.9117      2.4438     -0.0041     12.4980     75.6337     17.1436
  2152.7000      7.9117      2.4429     -0.0080     12.5504     74.9221     18.7154
  2152.8000      7.9048      2.4566      0.0015     11.7207     73.2357     20.4162
  2152.9000      7.9048      2.4797      0.0318     10.3240     72.3753     20.8953
  2153.0000      7.9158      2.4884      0.0705      9.7950     71.7695     20.1133
  2153.1000      7.9158      2.4750     -0.0273     10.6045     70.2735     19.7478
