~Version Information
VERS.                      2.0: CWLS Log ASCII Standard - VERSION 2.0
WRAP.                       NO: One line per depth step
~Well Information Block
STRT.FT               491.0000: 
STOP.FT              1909.5000: 
STEP.FT                 0.1000: 
NULL.                -999.2500: 
COMP.          Pioneer Natural Resources: COMPANY
WELL.            Corazon 13-10: WELL
FLD.           Purgatoire River: FIELD
LOC.           2510' FSL & 439' FWL: LOCATION
PROV.                 Colorado: PROVINCE
CNTY.               Las Animas: COUNTRY
SRVC.                Patterson: SERVICE COMPANY
DATE.          Thu Dec 01 07:28:46 2005: LOG DATE
UWI.           05 071 08613 00: UNIQUE WELL ID
~Curve Information Block
DEPT.FT            0 000 00 00: Depth
DCAL.in                       : CDL Caliper
RHOB.g/cc                     : CDL Bulk Density
RHOC.g/cc                     : CDL Density Correction
DPOR.pu                       : CDL Density Porosity
GR.GAPI                       : Gamma Ray
NPOR.pu                       : Neutron Porosity
~Parameter Information Block
~A  Depth       DCAL        RHOB        RHOC        DPOR         GR         NPOR    
# ...
   673.4000      8.3024      2.4237      0.0506     13.7130    170.7783     25.8530
   673.5000      8.3145      2.4038      0.1109     14.9224    163.5415     25.0124
   673.6000      8.3145      2.3999      0.1702     15.1572    158.5230     24.8749
   673.7000      8.3145      2.3843      0.1644     16.1057    157.4505     25.4306
   673.8000      8.3042      2.3490      0.0781     18.2419    157.3387     25.9562
   673.9000      8.3042      2.3185      0.0298     20.0918    157.1939     25.8481
   674.0000      8.3134      2.3169      0.0144     20.1878    157.9032     25.1743
   674.1000      8.3134      2.3506      0.1026     18.1456    158.5852     24.3181
   674.2000      8.3134      2.4133      0.1626     14.3469    160.3406     23.5985
   674.3000      8.3160      2.4848      0.2514     10.0096    164.6220     23.2399
   674.4000      8.3160      2.5272      0.3807      7.4419    170.4568     23.1955
   674.5000      8.3086      2.5220      0.2933      7.7557    173.3188     23.4006
   674.6000      8.3086      2.5035      0.2780      8.8817    168.8568     23.8445
   674.7000      8.3086      2.5080      0.2205      8.6044    160.1098     24.3356
   674.8000      8.3477      2.5243      0.2666      7.6202    153.4880     24.6395
   674.9000      8.3477      2.5248      0.1770      7.5860    150.4992     24.7173
   675.0000      8.4122      2.5128      0.1682      8.3130    149.2533     24.9315
   675.1000      8.4122      2.4979      0.2372      9.2163    153.0439     25.5450
   675.2000      8.4122      2.4796      0.1965     10.3277    162.5837     26.1584
   675.3000      8.3751      2.4698      0.1284     10.9224    169.5340     26.6358
   675.4000      8.3751      2.4779      0.1763     10.4324    172.7341     27.3977
   675.5000      8.4848      2.4856      0.1585      9.9666    175.3874     28.3436
   675.6000      8.4848      2.4775      0.0496     10.4573    175.1419     28.7449
   675.7000      8.4848      2.4659      0.0266     11.1589    173.1164     28.5050
   675.8000      8.3951      2.4662      0.0296     11.1385    171.3448     28.4639
   675.9000      8.3951      2.4724      0.0599     10.7666    168.6667     28.9053
   676.0000      8.3478      2.4716      0.0089     10.8115    165.6690     29.4467
   676.1000      8.3478      2.4714     -0.0322     10.8231    164.1053     29.7326
   676.2000      8.3478      2.4741      0.0663     10.6613    167.1559     29.5742
   676.3000      8.3302      2.4734     -0.0144     10.7059    172.7899     29.3546
   676.4000      8.3302      2.4794     -0.0088     10.3416    174.8078     29.7056
   676.5000      8.2865      2.4895      0.0257      9.7268    170.5777     30.3101
   676.6000      8.2865      2.4943      0.0013      9.4355    162.0895     30.4117
   676.7000      8.2865      2.5062      0.0148      8.7165    153.2959     30.1551
   676.8000      8.2848      2.5278      0.0676      7.4045    147.5263     30.0754
   676.9000      8.2848      2.5424      0.0486      6.5232    144.2388     30.5186
   677.0000      8.2939      2.5480      0.0396      6.1823    141.4364     31.5695
   677.1000      8.2939      2.5565      0.0110      5.6645    141.4159     32.7528
   677.2000      8.2939      2.5706      0.0248      4.8133    144.9617     33.4088
   677.3000      8.2903      2.5871     -0.0270      3.8103    148.9091     33.4535
   677.4000      8.2903      2.6035      0.0140      2.8157    147.1249     33.1862
   677.5000      8.3092      2.6161      0.0266      2.0531    139.0947     32.6476
   677.6000      8.3092      2.6288      0.0180      1.2849    132.4647     31.7210
   677.7000      8.3092      2.6433     -0.0133      0.4042    127.9057     30.6410
   677.8000      8.3217      2.6490     -0.0244      0.0589    122.1894     30.1003
   677.9000      8.3217      2.6415     -0.0415      0.5181    116.5429     30.2188
   678.0000      8.3169      2.6310     -0.0795      1.1512    113.8511     30.2098
   678.1000      8.3169      2.6240     -0.0662      1.5761    115.4948     29.7518
   678.2000      8.3169      2.6186     -0.0244      1.9004    119.0795     29.3844
   678.3000      8.3144      2.6145     -0.0321      2.1501    120.2932     29.2654
   678.4000      8.3144      2.6121     -0.0112      2.2940    118.2666     29.1050
   678.5000      8.3583      2.6015     -0.0214      2.9401    117.8524     28.8882
   678.6000      8.3583      2.5724     -0.0596      4.7043    121.5116     28.7907
   678.7000      8.3583      2.5315     -0.0832      7.1808    126.2351     28.6963
   678.8000      8.3361      2.4885     -0.0659      9.7902    128.7883     28.3171
   678.9000      8.3361      2.4539     -0.0896     11.8877    128.0020     27.6627
   679.0000      8.2646      2.4408     -0.0274     12.6816    126.5052     27.0039
   679.1000      8.2646      2.4474     -0.0447     12.2794    128.3238     26.6821
   679.2000      8.2646      2.4600      0.0279     11.5136    132.7348     26.8445
   679.3000      8.2798      2.4691      0.0070     10.9643    134.0952     27.2614
   679.4000      8.2798      2.4782      0.0058     10.4148    129.8140     27.5201
   679.5000      8.3127      2.4897      0.0050      9.7129    125.3513     27.4224
   679.6000      8.3127      2.4906      0.0894      9.6592    126.3931     27.3750
   679.7000      8.3127      2.4776      0.0274     10.4458    130.8645     27.5832
   679.8000      8.2849      2.4699      0.0927     10.9136    133.2788     27.5615
   679.9000      8.2849      2.4702      0.1390     10.8984    132.3579     27.1001
   680.0000      8.2067      2.4659      0.0917     11.1580    132.5854     26.5846
   680.1000      8.2067      2.4641      0.0761     11.2690    138.5702     26.2320
   680.2000      8.2067      2.4742      0.0843     10.6528    146.7670     26.1204
   680.3000      8.1685      2.4875      0.1029      9.8511    148.8313     26.4920
   680.4000      8.1685      2.5047      0.0664      8.8038    144.3357     27.2785
   680.5000      8.1672      2.5422      0.1123      6.5344    140.9024     27.9975
   680.6000      8.1672      2.5930      0.2350      3.4522    140.6057     28.5785
   680.7000      8.1672      2.6280      0.2268      1.3358    142.2574     29.3110
   680.8000      8.1585      2.6290      0.2895      1.2733    144.2551     29.9047
   680.9000      8.1585      2.6006      0.2053      2.9922    143.5904     29.8160
   681.0000      8.1901      2.5706      0.1310      4.8099    139.0655     29.4177
   681.1000      8.1901      2.5694      0.0750      4.8828    132.9655     29.4195
   681.2000      8.1901      2.5958      0.0957      3.2845    130.2436     29.5614
   681.3000      8.1731      2.6262      0.0409      1.4419    131.5710     29.2929
   681.4000      8.1731      2.6520      0.0598     -0.1201    132.2951     28.7374
   681.5000      8.1775      2.6689      0.0910     -1.1433    128.5548     28.3899
   681.6000      8.1775      2.6588      0.1651     -0.5346    121.0799     28.4977
   681.7000      8.1775      2.6189      0.0757      1.8855    115.4002     28.7883
   681.8000      8.2132      2.5777      0.0644      4.3825    117.6618     28.8319
   681.9000      8.2132      2.5563      0.0925      5.6800    125.5018     28.4029
   682.0000      8.1733      2.5535      0.0769      5.8479    131.6403     27.7759
   682.1000      8.1733      2.5653      0.1607      5.1335    133.5908     27.4533
   682.2000      8.1733      2.5926      0.1597      3.4766    134.5430     27.4358
   682.3000      8.1430      2.6370      0.2062      0.7851    138.3299     27.2429
   682.4000      8.1430      2.6842      0.2048     -2.0697    141.6191     26.8249
   682.5000      8.1413      2.7100      0.2643     -3.6355    139.6079     26.5033
   682.6000      8.1413      2.7081      0.2174     -3.5183    135.3263     26.3353
   682.7000      8.1413      2.6885      0.1903     -2.3321    133.3662     26.1207
   682.8000      8.1707      2.6524      0.1903     -0.1428    132.8731     25.9463
   682.9000      8.1707      2.5957      0.1583      3.2885    135.4733     26.1465
