~Version Information
VERS.                      2.0: CWLS Log ASCII Standard - VERSION 2.0
WRAP.                       NO: One line per depth step
~Well Information Block
STRT.FT               310.0000: 
STOP.FT              2295.5000: 
STEP.FT                 0.1000: 
NULL.                -999.2500: 
COMP.          Pioneer Natural Resources: COMPANY
WELL.               Relay 12-7: WELL
FLD.           Purgatoire River: FIELD
LOC.           1999' FNL & 848' FWL: LOCATION
PROV.                 Colorado: PROVINCE
CNTY.               Las Animas: COUNTRY
SRVC.                Patterson: SERVICE COMPANY
DATE.          Mon Dec 19 07:37:11 2005: LOG DATE
UWI.           05 071 08453 00: UNIQUE WELL ID
~Curve Information Block
DEPT.FT            0 000 00 00: Depth
DCAL.in                       : CDL Caliper
RHOB.g/cc                     : CDL Bulk Density
RHOC.g/cc                     : CDL Density Correction
DPOR.pu                       : CDL Density Porosity
GR.GAPI                       : Gamma Ray
NPOR.pu                       : Neutron Porosity
~Parameter Information Block
~A  Depth       DCAL        RHOB        RHOC        DPOR         GR         NPOR    
# ...
   569.2000      8.2604      2.3010      0.0194     21.1538     63.1178     17.0087
   569.3000      8.2564      2.3038      0.0273     20.9797     65.8020     16.6500
   569.4000      8.2564      2.3097      0.0129     20.6214     65.5947     16.6618
   569.5000      8.2545      2.3205      0.0435     19.9669     64.8900     16.8187
   569.6000      8.2545      2.3273      0.0619     19.5579     65.4113     16.9507
   569.7000      8.2545      2.3195      0.0458     20.0309     64.5543     16.9468
   569.8000      8.2462      2.2987      0.0279     21.2908     61.7036     16.7285
   569.9000      8.2462      2.2759      0.0555     22.6714     60.1635     16.4983
   570.0000      8.2607      2.2594      0.0443     23.6713     60.4330     16.5639
   570.1000      8.2607      2.2515      0.0453     24.1533     59.4957     16.7810
   570.2000      8.2607      2.2519      0.0393     24.1295     56.8807     16.8955
   570.3000      8.2633      2.2635      0.0501     23.4262     56.2132     17.0109
   570.4000      8.2633      2.2830      0.0811     22.2411     60.6219     17.1169
   570.5000      8.2580      2.2968      0.0920     21.4043     68.5060     17.0860
   570.6000      8.2580      2.3032      0.0697     21.0173     71.4779     16.8988
   570.7000      8.2580      2.3141      0.0877     20.3582     64.6034     16.6811
   570.8000      8.2675      2.3294      0.1381     19.4290     55.4256     16.6178
   570.9000      8.2675      2.3338      0.1737     19.1664     51.4609     16.7377
   571.0000      8.2824      2.3198      0.1332     20.0108     52.9379     16.9129
   571.1000      8.2824      2.3023      0.0799     21.0719     56.9864     17.1802
   571.2000      8.2824      2.3041      0.0913     20.9630     60.5893     17.5363
   571.3000      8.2867      2.3310      0.1127     19.3329     61.6218     17.6211
   571.4000      8.2867      2.3612      0.1904     17.5019     59.0242     17.2653
   571.5000      8.2846      2.3684      0.1830     17.0676     54.2619     16.7686
   571.6000      8.2846      2.3544      0.1724     17.9162     51.3952     16.4276
   571.7000      8.2846      2.3403      0.1371     18.7702     52.6822     16.3438
   571.8000      8.2839      2.3407      0.1349     18.7461     54.8047     16.6420
   571.9000      8.2839      2.3622      0.1128     17.4448     54.7280     17.4086
   572.0000      8.2872      2.3971      0.1607     15.3265     55.3418     18.2274
   572.1000      8.2872      2.4212      0.1676     13.8652     56.8267     18.3544
   572.2000      8.2872      2.4218      0.1249     13.8322     53.4658     17.9138
   572.3000      8.2814      2.4044      0.1772     14.8856     47.1360     17.6213
   572.4000      8.2814      2.3825      0.1222     16.2138     44.3565     17.5160
   572.5000      8.2769      2.3694      0.1313     17.0044     45.6669     17.3935
   572.6000      8.2769      2.3671      0.1001     17.1447     49.3951     17.3482
   572.7000      8.2769      2.3734      0.0729     16.7623     53.7440     17.3128
   572.8000      8.2575      2.3810      0.1439     16.3046     56.4301     17.2186
   572.9000      8.2575      2.3826      0.0500     16.2080     57.4454     17.3008
   573.0000      8.2366      2.3898      0.0873     15.7714     58.1661     17.5953
   573.1000      8.2366      2.4076      0.0926     14.6923     59.5265     17.8074
   573.2000      8.2366      2.4209      0.1359     13.8854     60.4881     17.7276
   573.3000      8.2335      2.4180      0.1060     14.0633     58.8241     17.4257
   573.4000      8.2335      2.4045      0.0868     14.8807     55.9391     17.2730
   573.5000      8.2273      2.3883      0.0986     15.8578     56.0327     17.5855
   573.6000      8.2273      2.3772      0.0397     16.5339     59.6832     18.3111
   573.7000      8.2273      2.3818      0.0500     16.2528     64.3145     19.1392
   573.8000      8.2176      2.3961      0.1249     15.3901     67.3851     19.6517
   573.9000      8.2176      2.4058      0.0368     14.7977     67.7608     19.6404
   574.0000      8.2267      2.4092      0.0787     14.5943     67.6261     19.4894
   574.1000      8.2267      2.4074      0.1046     14.7012     68.8982     19.5752
   574.2000      8.2267      2.4104      0.0600     14.5241     69.8766     19.8200
   574.3000      8.2284      2.4242      0.1348     13.6872     70.2897     20.1871
   574.4000      8.2284      2.4379      0.0959     12.8565     73.9610     20.7043
   574.5000      8.2267      2.4475      0.0784     12.2722     83.3493     21.2647
   574.6000      8.2267      2.4555      0.0949     11.7904     93.7365     21.8395
   574.7000      8.2267      2.4636      0.0717     11.2984     99.8198     22.4255
   574.8000      8.2239      2.4817      0.0732     10.2009    101.2711     22.8949
   574.9000      8.2239      2.5110      0.0889      8.4222    101.1103     23.1787
   575.0000      8.2257      2.5360      0.0838      6.9105    103.0723     23.3601
   575.1000      8.2257      2.5418      0.1182      6.5563    105.7829     23.6279
   575.2000      8.2257      2.5286      0.1492      7.3573    107.7083     24.0931
   575.3000      8.2249      2.5142      0.0675      8.2284    112.2124     24.6985
   575.4000      8.2249      2.5137      0.1173      8.2624    118.7348     25.5013
   575.5000      8.2269      2.5187      0.0696      7.9548    120.5863     26.2403
   575.6000      8.2269      2.5194      0.0503      7.9124    115.4269     26.4401
   575.7000      8.2269      2.5197      0.0029      7.8943    109.6428     26.2765
   575.8000      8.2253      2.5167      0.1072      8.0812    108.4840     26.0737
   575.9000      8.2253      2.4963      0.0215      9.3130    110.1227     25.8156
   576.0000      8.2252      2.4697      0.0140     10.9281    108.7121     25.4323
   576.1000      8.2252      2.4645     -0.0425     11.2403    102.8252     25.0386
   576.2000      8.2252      2.4871     -0.0206      9.8734     99.5815     24.7616
   576.3000      8.2333      2.5104      0.0579      8.4620    103.1749     24.4608
   576.4000      8.2333      2.5124      0.0325      8.3419    108.1858     24.1172
   576.5000      8.2827      2.5035      0.0549      8.8769    108.4948     23.9802
   576.6000      8.2827      2.4924      0.0338      9.5529    104.7101     24.2355
   576.7000      8.2827      2.4747      0.0210     10.6241     99.3080     24.5638
   576.8000      8.2944      2.4507      0.0347     12.0813     94.9772     24.4113
   576.9000      8.2944      2.4254     -0.0159     13.6118     97.0539     23.8307
   577.0000      8.2986      2.4109     -0.0241     14.4896    105.3849     23.3387
   577.1000      8.2986      2.4147     -0.0140     14.2599    112.5099     23.3874
   577.2000      8.2986      2.4293      0.0089     13.3785    113.0154     23.9333
   577.3000      8.3037      2.4401      0.0740     12.7186    108.5937     24.3018
   577.4000      8.3037      2.4392      0.0371     12.7755    104.6402     23.9784
   577.5000      8.3046      2.4304     -0.0043     13.3105    101.4583     23.4077
   577.6000      8.3046      2.4172      0.0305     14.1072     96.2909     23.3484
   577.7000      8.3046      2.3961      0.0178     15.3852     92.0497     23.7446
   577.8000      8.3094      2.3650      0.0443     17.2702     91.6243     23.9287
   577.9000      8.3094      2.3395     -0.0466     18.8187     93.1977     23.5421
   578.0000      8.3024      2.3419      0.0166     18.6713     93.5630     22.8414
   578.1000      8.3024      2.3689      0.0097     17.0337     91.7208     22.2349
   578.2000      8.3024      2.4055      0.0475     14.8160     88.1416     21.6618
   578.3000      8.2947      2.4390      0.0977     12.7875     83.7144     21.0193
   578.4000      8.2947      2.4553      0.1386     11.8004     80.0962     20.2778
   578.5000      8.3027      2.4554      0.1255     11.7968     78.5251     19.7570
   578.6000      8.3027      2.4535      0.1988     11.9101     79.7886     19.8745
   578.7000      8.3027      2.4534      0.1833     11.9174     83.1323     20.2100
