~Version Information
VERS.                      2.0: CWLS Log ASCII Standard - VERSION 2.0
WRAP.                       NO: One line per depth step
~Well Information Block
STRT.FT                -8.7500: 
STOP.FT              1727.2500: 
STEP.FT                 0.2500: 
NULL.                -999.2500: 
COMP.          XTO Energy Inc.: COMPANY
WELL.          Apache Canyon 34-08: WELL
FLD.              Vermejo Coal: FIELD
LOC.           1668' FNL & 275' FEL: LOCATION
STAT.                       CO: State
CNTY.               Las Animas: COUNTY
CTRY. USA : Country
SECT. 34 : Section
TOWN. 33S : Township
RANG. 67W : Range
SRVC.          Patterson Wireline: SERVICE COMPANY
DATE.          Mon Jan 09 09:34:21 2006: LOG DATE
API.           05 071 08541 00: UNIQUE WELL ID
~Curve Information Block
DEPT.FT            0 000 00 00: Depth
CCL.                          : Casing Collar Locator
TT3.usec                      : CBL 3' Travel Time
AMP3.mV                       : CBL 3' Amplitude
GR.GAPI                       : Gamma Ray
~Parameter Information Block
~A  Depth       CCL         TT3         AMP3         GR     
# ...
  1130.2500      0.0000    720.6635      4.9078    117.9748
  1130.5000      0.0000    721.8872      4.9239    127.6326
  1130.7500      0.0000    722.0590      4.9248    136.4526
  1131.0000      0.0000    722.6340      4.9100    144.0074
  1131.2500      0.0000    725.5516      4.8930    149.7000
  1131.5000      0.0000    731.4397      4.8943    153.4378
  1131.7500      0.0000    738.9557      4.9276    155.8423
  1132.0000      0.0000    745.8648      4.9900    157.9326
  1132.2500      0.0000    750.6599      5.0639    160.8282
  1132.5000      0.0000    753.2137      5.1286    165.2865
  1132.7500      0.0000    754.2462      5.1698    170.7941
  1133.0000      0.0000    754.4982      5.1842    175.3464
  1133.2500      0.0000    754.2853      5.1765    177.0616
  1133.5000      0.0000    753.4182      5.1559    176.1673
  1133.7500      0.0000    751.3286      5.1316    174.6292
  1134.0000      0.0000    747.5315      5.1119    173.7907
  1134.2500      0.0000    742.3007      5.1022    173.1826
  1134.5000      0.0000    736.7630      5.1022    171.6072
  1134.7500      0.0000    731.9722      5.1047    168.3826
  1135.0000      0.0000    728.0117      5.0995    163.2951
  1135.2500      0.0000    724.3658      5.0807    156.5879
  1135.5000      0.0000    720.8997      5.0491    149.7283
  1135.7500      0.0000    718.0019      5.0094    145.1508
  1136.0000      0.0000    715.9852      4.9673    144.1310
  1136.2500      0.0000    714.7796      4.9288    145.3142
  1136.5000      0.0000    714.1245      4.8994    146.1233
  1136.7500      0.0000    713.7918      4.8814    145.2457
  1137.0000      0.0000    713.6330      4.8722    142.9951
  1137.2500      0.0000    713.5591      4.8679    139.7201
  1137.5000      0.0000    713.5308      4.8684    135.2121
  1137.7500      0.0000    713.5411      4.8764    129.8775
  1138.0000      0.0000    713.5829      4.8911    125.3894
  1138.2500      0.0000    713.6127      4.9079    123.5909
  1138.5000      0.0000    713.5590      4.9228    125.1594
  1138.7500      0.0000    713.3845      4.9310    129.3608
  1139.0000      0.0000    713.1390      4.9204    134.5757
  1139.2500      0.0000    712.9120      4.8730    139.0008
  1139.5000      0.0000    712.6516      4.7777    141.1354
  1139.7500      0.0000    711.7460      4.6468    139.7496
  1140.0000      0.0000    708.5261      4.5233    133.7442
  1140.2500      0.0000    700.2109      4.4587    122.7599
  1140.5000      0.0000    684.1756      4.4681    108.1760
  1140.7500      0.0000    660.5794      4.5106     92.8846
  1141.0000      0.0000    633.8434      4.5334     79.5305
  1141.2500      0.0000    609.8746      4.5256     69.1159
  1141.5000      0.0000    591.8383      4.5139     61.4420
  1141.7500      0.0000    581.5075      4.5173     56.3776
  1142.0000     -2.0000    584.2503      4.5278     54.2337
  1142.2500      0.0000    606.4063      4.5246     55.0685
  1142.5000      0.0000    645.2065      4.4947     58.0378
  1142.7500      0.0000    686.4194      4.4433     61.6640
  1143.0000      0.0000    715.1945      4.3913     64.7080
  1143.2500      0.0000    726.9226      4.3567     66.6109
  1143.5000      0.0000    727.0044      4.3440     67.2470
  1143.7500      0.0000    723.5301      4.3578     66.8133
  1144.0000      0.0000    721.9230      4.4114     66.1998
  1144.2500      0.0000    724.1163      4.5068     66.7963
  1144.5000      0.0000    729.6573      4.6194     69.1928
  1144.7500      0.0000    736.7166      4.7153     72.1855
  1145.0000      0.0000    743.0900      4.7782     73.6215
  1145.2500      0.0000    747.1058      4.8137     72.3050
  1145.5000      0.0000    747.5623      4.8362     68.8565
  1145.7500      0.0000    742.4255      4.8565     64.8790
  1146.0000      0.0000    727.9131      4.8760     61.7327
  1146.2500      0.0000    700.2291      4.8877     60.2614
  1146.5000      0.0000    659.8668      4.8822     61.2333
  1146.7500      0.0000    614.1824      4.8558     65.2562
  1147.0000      0.0000    573.9604      4.8153     71.9758
  1147.2500      0.0000    546.4455      4.7741     79.8891
  1147.5000      0.0000    531.9019      4.7445     87.3520
  1147.7500      0.0000    526.0945      4.7310     93.4288
  1148.0000      0.0000    524.5293      4.7318     97.5308
  1148.2500      0.0000    524.4887      4.7443     98.8946
  1148.5000      0.0000    524.8182      4.7701     97.1419
  1148.7500      0.0000    525.1246      4.8122     92.9438
  1149.0000      0.0000    525.2864      4.8670     87.3344
  1149.2500      0.0000    525.2692      4.9205     80.6767
  1149.5000      0.0000    525.0771      4.9554     73.1189
  1149.7500      0.0000    524.7255      4.9621     65.6751
  1150.0000      0.0000    524.2451      4.9427     59.8309
  1150.2500      0.0000    523.6879      4.9067     56.1520
  1150.5000      0.0000    523.1236      4.8658     54.1102
  1150.7500      0.0000    522.6255      4.8297     53.3233
  1151.0000      0.0000    522.2500      4.8031     54.1517
  1151.2500      0.0000    522.0118      4.7843     56.7246
  1151.5000      0.0000    521.8735      4.7685     59.9945
  1151.7500      0.0000    521.7672      4.7529     62.3895
  1152.0000      0.0000    521.6431      4.7386     63.3008
  1152.2500      0.0000    521.5006      4.7283     63.4977
  1152.5000      0.0000    521.3831      4.7232     64.0248
  1152.7500      0.0000    521.3478      4.7232     65.0275
  1153.0000      0.0000    521.5541      4.7279     65.8590
  1153.2500      0.0000    522.5062      4.7370     66.1304
  1153.5000      0.0000    525.4293      4.7480     66.2190
  1153.7500      0.0000    532.3394      4.7569     66.5498
  1154.0000      0.0000    545.2350      4.7620     66.7788
  1154.2500      0.0000    564.6730      4.7675     66.2427
  1154.5000      0.0000    588.8964      4.7789     65.1762
  1154.7500      0.0000    614.2842      4.7952     65.0075
  1155.0000      0.0000    636.9189      4.8092     67.3427
  1155.2500      0.0000    654.7623      4.8160     72.8704
  1155.5000      0.0000    668.7830      4.8193     81.1668
  1155.7500      0.0000    681.1533      4.8267     90.8223
  1156.0000      0.0000    692.3950      4.8405     99.1796
  1156.2500      0.0000    701.2485      4.8582    102.7670
  1156.5000      0.0000    706.8191      4.8803     99.4384
  1156.7500      0.0000    709.6386      4.9136     90.2708
  1157.0000      0.0000    710.8854      4.9634     78.7401
  1157.2500      0.0000    711.4161      5.0267     68.1957
  1157.5000      0.0000    711.5928      5.0922     60.4133
  1157.7500      0.0000    711.5278      5.1466     55.7766
  1158.0000      0.0000    711.3064      5.1819     53.8652
  1158.2500      0.0000    711.0400      5.1980     53.7915
  1158.5000      0.0000    710.8059      5.2008     54.3009
  1158.7500      0.0000    710.6172      5.1978     53.8856
  1159.0000      0.0000    710.4265      5.1938     51.4582
  1159.2500      0.0000    710.0345      5.1904     47.3843
  1159.5000      0.0000    708.7836      5.1887     43.5615
  1159.7500      0.0000    705.0627      5.1910     41.9730
  1160.0000      0.0000    696.1450      5.1990     43.1009
  1160.2500      0.0000    679.2805      5.2108     45.7915
  1160.5000      0.0000    654.0139      5.2199     48.3675
  1160.7500      0.0000    623.5938      5.2194     49.7665
  1161.0000      0.0000    593.3929      5.2091     49.9506
  1161.2500      0.0000    567.7328      5.1982     49.4961
  1161.5000      0.0000    548.3887      5.1992     48.8324
  1161.7500      0.0000    535.5071      5.2170     48.0082
  1162.0000      0.0000    529.1855      5.2447     47.1569
  1162.2500      0.0000    530.7905      5.2695     46.7434
  1162.5000      0.0000    543.5347      5.2834     47.1776
  1162.7500      0.0000    570.7045      5.2878     48.4503
  1163.0000      0.0000    611.3036      5.2890     50.1094
  1163.2500      0.0000    657.2681      5.2927     51.3287
  1163.5000      0.0000    696.8452      5.3015     51.2620
