~Version Information
VERS.                      2.0: CWLS Log ASCII Standard - VERSION 2.0
WRAP.                       NO: One line per depth step
~Well Information Block
STRT.FT               845.0000: 
STOP.FT              2103.2000: 
STEP.FT                 0.1000: 
NULL.                -999.2500: 
COMP.          Petrogulf Corporation: COMPANY
WELL.               YWAM 7-32R: WELL
FLD.           Purgatorie River: FIELD
LOC.           2355' FNL & 2376' FEL: LOCATION
PROV.                 Colorado: PROVINCE
CNTY.               Las Animas: COUNTRY
SRVC.                Patterson: SERVICE COMPANY
DATE.          Thu Sep 29 23:12:08 2005: LOG DATE
UWI.                          : UNIQUE WELL ID
~Curve Information Block
DEPT.FT            0 000 00 00: Depth
SP.mV                         : DIL Spontaneous Potential
RILD.Ohm-m                    : DIL Deep Resistivity
RILM.Ohm-m                    : DIL Medium Resistivity
RLL3.Ohm-m                    : DIL Shallow Resistivity
GR.GAPI                       : Gamma Ray
~Parameter Information Block
~A  Depth        SP         RILD        RILM        RLL3         GR     
# ...
   923.4000    131.6850     17.2976     17.2167     24.2169    115.2238
   923.5000    131.0280     17.7034     17.4354     21.4719    115.7199
   923.6000    131.0280     17.7034     17.4354     21.4719    116.2694
   923.7000    131.0280     17.7034     17.4354     21.4719    116.8604
   923.8000    130.3437     18.0392     17.6462     19.1334    117.4809
   923.9000    130.3437     18.0392     17.6462     19.1334    118.1085
   924.0000    129.6759     18.2560     17.8666     17.8854    118.7121
   924.1000    129.6759     18.2560     17.8666     17.8854    119.2473
   924.2000    129.6759     18.2560     17.8666     17.8854    119.6618
   924.3000    129.0366     18.3193     18.0925     18.0223    119.9047
   924.4000    129.0366     18.3193     18.0925     18.0223    119.9266
   924.5000    128.4040     18.2186     18.2960     19.4265    119.6906
   924.6000    128.4040     18.2186     18.2960     19.4265    119.1745
   924.7000    128.4040     18.2186     18.2960     19.4265    118.3781
   924.8000    127.7544     17.9722     18.4323     21.5983    117.3196
   924.9000    127.7544     17.9722     18.4323     21.5983    116.0394
   925.0000    127.0976     17.6247     18.4542     23.8132    114.5949
   925.1000    127.0976     17.6247     18.4542     23.8132    113.0600
   925.2000    127.0976     17.6247     18.4542     23.8132    111.5179
   925.3000    126.4670     17.2377     18.3302     25.3864    110.0620
   925.4000    126.4670     17.2377     18.3302     25.3864    108.7903
   925.5000    125.8718     16.8756     18.0589     25.8818    107.7988
   925.6000    125.8718     16.8756     18.0589     25.8818    107.1816
   925.7000    125.8718     16.8756     18.0589     25.8818    107.0225
   925.8000    125.2846     16.5907     17.6714     25.1849    107.3877
   925.9000    125.2846     16.5907     17.6714     25.1849    108.3214
   926.0000    124.6891     16.4141     17.2208     23.4886    109.8333
   926.1000    124.6891     16.4141     17.2208     23.4886    111.9033
   926.2000    124.6891     16.4141     17.2208     23.4886    114.4661
   926.3000    124.1182     16.3513     16.7670     21.2265    117.4220
   926.4000    124.1182     16.3513     16.7670     21.2265    120.6323
   926.5000    123.6223     16.3850     16.3624     18.9282    123.9317
   926.6000    123.6223     16.3850     16.3624     18.9282    127.1382
   926.7000    123.6223     16.3850     16.3624     18.9282    130.0643
   926.8000    123.2117     16.4828     16.0450     17.0351    132.5384
   926.9000    123.2117     16.4828     16.0450     17.0351    134.4171
   927.0000    122.8486     16.6071     15.8368     15.7867    135.6050
   927.1000    122.8486     16.6071     15.8368     15.7867    136.0588
   927.2000    122.8486     16.6071     15.8368     15.7867    135.7954
   927.3000    122.4809     16.7245     15.7457     15.2363    134.8827
   927.4000    122.4809     16.7245     15.7457     15.2363    133.4273
   927.5000    122.0707     16.8106     15.7684     15.3334    131.5544
   927.6000    122.0707     16.8106     15.7684     15.3334    129.3902
   927.7000    122.0707     16.8106     15.7684     15.3334    127.0466
   927.8000    121.6009     16.8510     15.8921     15.9851    124.6161
   927.9000    121.6009     16.8510     15.8921     15.9851    122.1692
   928.0000    121.0780     16.8423     16.0970     17.0758    119.7646
   928.1000    121.0780     16.8423     16.0970     17.0758    117.4531
   928.2000    121.0780     16.8423     16.0970     17.0758    115.2879
   928.3000    120.5293     16.7924     16.3576     18.4755    113.3224
   928.4000    120.5293     16.7924     16.3576     18.4755    111.6066
   928.5000    119.9843     16.7227     16.6452     20.0521    110.1783
   928.6000    119.9843     16.7227     16.6452     20.0521    109.0541
   928.7000    119.9843     16.7227     16.6452     20.0521    108.2245
   928.8000    119.4554     16.6655     16.9313     21.6683    107.6546
   928.9000    119.4554     16.6655     16.9313     21.6683    107.2907
   929.0000    118.9394     16.6582     17.1923     23.1561    107.0677
   929.1000    118.9394     16.6582     17.1923     23.1561    106.9281
   929.2000    118.9394     16.6582     17.1923     23.1561    106.8252
   929.3000    118.4463     16.7341     17.4143     24.2919    106.7377
   929.4000    118.4463     16.7341     17.4143     24.2919    106.6686
   929.5000    118.0162     16.9156     17.5970     24.8124    106.6454
   929.6000    118.0162     16.9156     17.5970     24.8124    106.7142
   929.7000    118.0162     16.9156     17.5970     24.8124    106.9306
   929.8000    117.6918     17.2116     17.7549     24.4997    107.3527
   929.9000    117.6918     17.2116     17.7549     24.4997    108.0333
   930.0000    117.4793     17.6176     17.9148     23.3369    109.0094
   930.1000    117.4793     17.6176     17.9148     23.3369    110.3042
   930.2000    117.4793     17.6176     17.9148     23.3369    111.9158
   930.3000    117.3511     18.1167     18.1107     21.6384    113.8256
   930.4000    117.3511     18.1167     18.1107     21.6384    115.9923
   930.5000    117.2818     18.6811     18.3778     19.9868    118.3515
   930.6000    117.2818     18.6811     18.3778     19.9868    120.8212
   930.7000    117.2818     18.6811     18.3778     19.9868    123.2962
   930.8000    117.2588     19.2751     18.7476     18.9443    125.6605
   930.9000    117.2588     19.2751     18.7476     18.9443    127.7851
   931.0000    117.2565     19.8612     19.2436     18.7639    129.5508
   931.1000    117.2565     19.8612     19.2436     18.7639    130.8504
   931.2000    117.2565     19.8612     19.2436     18.7639    131.6113
   931.3000    117.2255     20.4059     19.8793     19.3569    131.8020
   931.4000    117.2255     20.4059     19.8793     19.3569    131.4380
   931.5000    117.1183     20.8852     20.6557     20.5174    130.5808
   931.6000    117.1183     20.8852     20.6557     20.5174    129.3235
   931.7000    117.1183     20.8852     20.6557     20.5174    127.7759
   931.8000    116.9290     21.2882     21.5599     22.1747    126.0426
   931.9000    116.9290     21.2882     21.5599     22.1747    124.2144
   932.0000    116.7205     21.6177     22.5629     24.4610    122.3549
   932.1000    116.7205     21.6177     22.5629     24.4610    120.5066
   932.2000    116.7205     21.6177     22.5629     24.4610    118.6998
   932.3000    116.6201     21.8868     23.6182     27.5191    116.9610
   932.4000    116.6201     21.8868     23.6182     27.5191    115.3232
   932.5000    116.7563     22.1117     24.6629     31.1622    113.8384
   932.6000    116.7563     22.1117     24.6629     31.1622    112.5627
   932.7000    116.7563     22.1117     24.6629     31.1622    111.5552
   932.8000    117.1395     22.3046     25.6231     34.6885    110.8620
   932.9000    117.1395     22.3046     25.6231     34.6885    110.5008
   933.0000    117.5763     22.4698     26.4234     37.1303    110.4598
   933.1000    117.5763     22.4698     26.4234     37.1303    110.6917
   933.2000    117.5763     22.4698     26.4234     37.1303    111.1279
   933.3000    117.7496     22.6014     26.9990     37.8108    111.6932
   933.4000    117.7496     22.6014     26.9990     37.8108    112.3157
   933.5000    117.4677     22.6822     27.3045     36.7187    112.9410
   933.6000    117.4677     22.6822     27.3045     36.7187    113.5410
   933.7000    117.4677     22.6822     27.3045     36.7187    114.1095
   933.8000    116.8631     22.6837     27.3177     34.4216    114.6546
   933.9000    116.8631     22.6837     27.3177     34.4216    115.1869
   934.0000    116.3104     22.5722     27.0360     31.7367    115.7129
   934.1000    116.3104     22.5722     27.0360     31.7367    116.2202
   934.2000    116.3104     22.5722     27.0360     31.7367    116.6767
   934.3000    116.1309     22.3204     26.4721     29.4472    117.0349
   934.4000    116.1309     22.3204     26.4721     29.4472    117.2326
   934.5000    116.3941     21.9207     25.6515     28.0893    117.2067
