~Version Information
VERS.                      2.0: CWLS Log ASCII Standard - VERSION 2.0
WRAP.                       NO: One line per depth step
~Well Information Block
STRT.FT                -8.2500: 
STOP.FT              2119.7500: 
STEP.FT                 0.2500: 
NULL.                -999.2500: 
COMP.          Pioneer Natural Resources: COMPANY
WELL.          Hemisphere 32-24: WELL
FLD.           Purgatorie River: FIELD
LOC.           1850' FNL & 2284' FEL--: LOCATION
PROV.                       CO: PROVINCE
CNTY.               Las Animas: COUNTRY
SRVC.          Patterson Wireline: SERVICE COMPANY
DATE.          Sat Aug 27 08:06:42 2005: LOG DATE
UWI.           05 071 08440 00: UNIQUE WELL ID
~Curve Information Block
DEPT.FT            0 000 00 00: Depth
CCL.                          : Casing Collar Locator
TT3.usec                      : CBL 3' Travel Time
AMP3.mV                       : CBL 3' Amplitude
GR.GAPI                       : Gamma Ray
~Parameter Information Block
~A  Depth       CCL         TT3         AMP3         GR     
# ...
  1398.7500      0.0000    606.1468      5.7168    101.5829
  1399.0000      0.0000    595.1902      5.7228     98.2617
  1399.2500      0.0000    611.9554      5.6953     96.7325
  1399.5000      0.0000    651.7352      5.6323     96.9449
  1399.7500      0.0000    695.4811      5.5391     98.0655
  1400.0000      0.0000    724.6736      5.4258     99.6245
  1400.2500      0.0000    733.2318      5.3030    102.5890
  1400.5000      0.0000    726.0522      5.1817    108.7720
  1400.7500      0.0000    711.2449      5.0755    118.7649
  1401.0000      0.0000    695.5061      4.9998    130.6390
  1401.2500      0.0000    683.3521      4.9637    140.6886
  1401.5000      0.0000    677.0057      4.9618    145.3356
  1401.7500      0.0000    676.2347      4.9747    142.9601
  1402.0000      0.0000    678.9482      4.9801    134.9778
  1402.2500      0.0000    682.7365      4.9664    125.4557
  1402.5000      0.0000    686.4846      4.9362    119.0504
  1402.7500      0.0000    690.4902      4.8980    118.3686
  1403.0000      0.0000    694.6485      4.8588    122.7344
  1403.2500      0.0000    696.3738      4.8235    129.4631
  1403.5000      0.0000    690.9791      4.7989    136.3138
  1403.7500      0.0000    675.3354      4.7936    142.5311
  1404.0000      0.0000    652.2072      4.8138    147.8460
  1404.2500      0.0000    630.9395      4.8598    151.4326
  1404.5000      0.0000    622.4755      4.9256    152.3094
  1404.7500      0.0000    631.9214      5.0017    150.3296
  1405.0000      0.0000    655.1104      5.0788    146.3550
  1405.2500      0.0000    682.2807      5.1488    141.6037
  1405.5000      0.0000    704.8989      5.2064    137.0516
  1405.7500      0.0000    719.5607      5.2508    133.3543
  1406.0000      0.0000    727.2203      5.2844    130.9480
  1406.2500      0.0000    730.3926      5.3059    129.9822
  1406.5000      0.0000    731.0023      5.3074    130.3713
  1406.7500      0.0000    729.6544      5.2813    132.1443
  1407.0000      0.0000    726.0355      5.2306    135.4626
  1407.2500      0.0000    719.7799      5.1699    140.0236
  1407.5000      0.0000    711.0884      5.1142    144.7467
  1407.7500      0.0000    700.7336      5.0659    148.3040
  1408.0000      0.0000    689.8603      5.0151    149.7148
  1408.2500      0.0000    679.8787      4.9539    148.6625
  1408.5000      0.0000    672.1224      4.8884    145.8703
  1408.7500      0.0000    667.1804      4.8350    142.8998
  1409.0000      0.0000    664.6154      4.8072    140.8952
  1409.2500      0.0000    663.4604      4.8070    139.7779
  1409.5000      0.0000    662.9099      4.8271    139.1028
  1409.7500      0.0000    662.5753      4.8593    139.2054
  1410.0000      0.0000    662.3499      4.8988    140.8708
  1410.2500      0.0000    662.2668      4.9419    143.9693
  1410.5000      0.0000    662.5218      4.9803    147.1010
  1410.7500      0.0000    663.5711      5.0029    149.2288
  1411.0000      0.0000    666.0588      5.0037    151.3111
  1411.2500      0.0000    670.2633      4.9870    155.2447
  1411.5000      0.0000    675.2485      4.9645    161.1535
  1411.7500      0.0000    678.7823      4.9504    166.7453
  1412.0000      0.0000    678.8240      4.9562    169.4018
  1412.2500      0.0000    675.3646      4.9833    168.1820
  1412.5000      0.0000    670.4440      5.0192    163.9831
  1412.7500      0.0000    666.3123      5.0476    158.6491
  1413.0000      0.0000    663.9077      5.0618    154.0299
  1413.2500      0.0000    662.9245      5.0649    151.2021
  1413.5000      0.0000    662.6891      5.0578    150.0142
  1413.7500      0.0000    662.7329      5.0356    149.2293
  1414.0000      0.0000    662.8538      4.9970    147.2231
  1414.2500      0.0000    662.9814      4.9531    142.9377
  1414.5000      0.0000    663.0841      4.9235    136.5436
  1414.7500      0.0000    663.1630      4.9248    129.2778
  1415.0000      0.0000    663.2877      4.9602    122.8475
  1415.2500      0.0000    663.6200      5.0145    119.0356
  1415.5000      0.0000    664.4377      5.0642    119.1872
  1415.7500      0.0000    666.0528      5.0974    123.2128
  1416.0000      0.0000    668.4152      5.1206    129.0999
  1416.2500      0.0000    670.6836      5.1419    134.0427
  1416.5000      0.0000    671.5273      5.1525    136.4439
  1416.7500      0.0000    670.4079      5.1258    136.8126
  1417.0000      0.0000    668.5796      5.0359    136.8420
  1417.2500      0.0000    668.3729      4.8859    137.9425
  1417.5000      0.0000    671.2424      4.7197    140.5503
  1417.7500      0.0000    676.9084      4.5888    144.0371
  1418.0000      0.0000    684.6210      4.5026    146.7738
  1418.2500      0.0000    694.2227      4.4360    146.8538
  1418.5000      0.0000    705.1511      4.3810    143.3799
  1418.7500      0.0000    715.6461      4.3585    137.0517
  1419.0000      0.0000    724.3314      4.3813    129.6216
  1419.2500      2.0000    731.7420      4.4402    123.2637
  1419.5000      0.0000    739.1561      4.5296    120.1745
  1419.7500      0.0000    746.4620      4.6677    121.6400
  1420.0000      0.0000    751.6399      4.8866    126.8734
  1420.2500      0.0000    752.0411      5.1955    133.2429
  1420.5000      0.0000    746.2173      5.5393    138.1482
  1420.7500      0.0000    735.0999      5.8066    140.5620
  1421.0000      0.0000    721.6374      5.9133    140.8954
  1421.2500      0.0000    709.1936      5.8742    140.3535
  1421.5000      0.0000    699.8852      5.7708    140.7875
  1421.7500      0.0000    693.8145      5.6655    144.0038
  1422.0000      0.0000    689.2153      5.5681    150.1949
  1422.2500      0.0000    683.3177      5.4660    157.3615
  1422.5000      0.0000    673.5867      5.3572    162.7989
  1422.7500      0.0000    658.5387      5.2531    165.0525
  1423.0000      0.0000    638.3979      5.1657    164.4455
  1423.2500      0.0000    616.3900      5.1015    162.1478
  1423.5000      0.0000    599.0438      5.0611    158.9529
  1423.7500      0.0000    592.8823      5.0423    154.7418
  1424.0000      0.0000    599.5139      5.0409    148.9560
  1424.2500      0.0000    614.5193      5.0506    141.5818
  1424.5000      0.0000    630.9485      5.0640    133.3913
  1424.7500      0.0000    643.3196      5.0752    124.9704
  1425.0000      0.0000    649.3125      5.0811    115.9735
  1425.2500      0.0000    649.4240      5.0814    105.8696
  1425.5000      0.0000    645.4421      5.0821     95.1763
  1425.7500      0.0000    638.4104      5.0991     85.4876
  1426.0000      0.0000    627.9180      5.1534     78.2748
  1426.2500      0.0000    614.5398      5.2536     73.9651
  1426.5000      0.0000    603.2255      5.3840     72.2783
  1426.7500      0.0000    601.5862      5.5094     73.1152
  1427.0000      0.0000    612.1586      5.5925     76.7415
  1427.2500      0.0000    627.4368      5.6079     83.2734
  1427.5000      0.0000    634.9313      5.5501     92.4383
  1427.7500      0.0000    627.3218      5.4355    103.5717
  1428.0000      0.0000    607.8214      5.2959    115.1028
  1428.2500      0.0000    587.4946      5.1662    124.1279
  1428.5000      0.0000    577.9546      5.0741    127.4385
  1428.7500      0.0000    584.5932      5.0341    123.5734
  1429.0000      0.0000    604.2864      5.0442    113.9912
  1429.2500      0.0000    628.6050      5.0866    102.3753
  1429.5000      0.0000    649.8611      5.1397     92.6933
  1429.7500      0.0000    664.9753      5.1917     87.2929
  1430.0000      0.0000    674.4771      5.2447     86.0596
  1430.2500      0.0000    679.2347      5.3066     86.8572
  1430.5000      0.0000    679.4009      5.3815     86.8846
  1430.7500      0.0000    675.8079      5.4668     84.4262
  1431.0000      0.0000    670.6089      5.5558     79.9802
  1431.2500      0.0000    665.9403      5.6414     75.6909
  1431.5000      0.0000    662.4974      5.7134     73.6882
  1431.7500      0.0000    659.5555      5.7548     75.1703
  1432.0000      0.0000    655.9799      5.7497     80.5851
