~Version Information
VERS.                      2.0: CWLS Log ASCII Standard - VERSION 2.0
WRAP.                       NO: One line per depth step
~Well Information Block
STRT.FT                -6.2500: 
STOP.FT              1327.5000: 
STEP.FT                 0.2500: 
NULL.                -999.2500: 
COMP.          Pioneer Natural Resources: COMPANY
WELL.            Avant 14-3 Tr: WELL
FLD.           Purgatorie River: FIELD
LOC.           170' FSL & 1174' FWL--: LOCATION
STAT.                       CO: State
CNTY.               Las Animas: COUNTY
CTRY. USA : Country
SECT. 3 : Section
TOWN. 33S : Township
RANG. 67W : Range
SRVC.          Patterson Wireline: SERVICE COMPANY
DATE.          Tue Aug 23 16:44:25 2005: LOG DATE
API.           05 071 08463 00: UNIQUE WELL ID
~Curve Information Block
DEPT.FT            0 000 00 00: Depth
CCL.                          : Casing Collar Locator
TT3.usec                      : CBL 3' Travel Time
AMP3.mV                       : CBL 3' Amplitude
GR.GAPI                       : Gamma Ray
~Parameter Information Block
~A  Depth       CCL         TT3         AMP3         GR     
# ...
   529.7500      0.0000    760.4438     12.7198     50.8422
   530.0000      0.0000    751.9131     12.5648     52.8863
   530.2500      0.0000    746.4107     12.4297     54.7064
   530.5000      0.0000    746.2186     12.3119     54.7195
   530.7500      0.0000    751.3129     12.2036     51.9453
   531.0000      0.0000    759.3338     12.0990     47.1549
   531.2500      0.0000    767.1739     12.0014     43.1464
   531.5000      0.0000    772.8166     11.9208     43.1455
   531.7500      0.0000    775.9911     11.8651     48.2288
   532.0000      0.0000    777.5609     11.8350     56.5119
   532.2500      0.0000    778.7361     11.8246     65.2050
   532.5000      0.0000    780.8941     11.8256     72.9829
   532.7500      0.0000    785.6161     11.8308     79.9023
   533.0000      0.0000    794.0566     11.8330     85.7264
   533.2500      0.0000    805.5353     11.8221     89.2492
   533.5000      0.0000    816.9038     11.7879     89.1952
   533.7500      0.0000    824.2943     11.7291     85.3351
   534.0000      0.0000    826.1768     11.6569     78.6876
   534.2500      0.0000    824.4452     11.5873     70.7187
   534.5000      0.0000    822.2480     11.5301     62.4750
   534.7500      0.0000    821.0536     11.4878     54.6674
   535.0000      0.0000    820.1299     11.4592     48.2256
   535.2500      0.0000    818.7157     11.4424     44.1191
   535.5000      0.0000    817.9706     11.4364     42.7351
   535.7500      0.0000    819.8104     11.4427     43.9671
   536.0000      0.0000    824.0826     11.4647     47.6678
   536.2500      0.0000    828.4205     11.5018     53.4030
   536.5000      0.0000    831.2707     11.5470     59.8110
   536.7500      0.0000    833.6348     11.5935     64.9253
   537.0000      0.0000    837.1985     11.6399     67.5747
   537.2500      0.0000    841.9271     11.6874     68.3249
   537.5000      0.0000    846.3374     11.7339     68.9295
   537.7500      0.0000    849.2941     11.7756     70.8885
   538.0000      0.0000    850.7847     11.8114     74.2575
   538.2500      0.0000    851.3815     11.8440     77.5069
   538.5000      0.0000    851.5919     11.8729     78.6376
   538.7500      0.0000    851.6761     11.8901     76.6607
   539.0000      0.0000    851.7223     11.8832     72.1397
   539.2500      0.0000    851.7253     11.8452     66.7918
   539.5000      0.0000    851.5927     11.7827     62.9722
   539.7500      0.0000    851.0694     11.7130     62.8091
   540.0000      0.0000    849.6600     11.6517     66.6548
   540.2500      0.0000    846.8195     11.6035     72.3801
   540.5000      0.0000    842.6541     11.5641     76.8922
   540.7500      0.0000    838.5972     11.5270     78.4838
   541.0000      0.0000    836.8292     11.4867     77.6040
   541.2500      0.0000    838.4200     11.4414     75.9721
   541.5000      0.0000    842.2268     11.3956     75.5614
   541.7500      0.0000    845.9440     11.3598     77.8387
   542.0000      0.0000    847.8764     11.3440     82.8791
   542.2500      0.0000    847.5864     11.3514     88.9986
   542.5000      0.0000    845.6514     11.3760     93.6969
   542.7500      0.0000    843.4157     11.4061     95.2689
   543.0000      0.0000    842.4660     11.4324     93.5429
   543.2500      0.0000    843.5660     11.4552     89.1550
   543.5000      0.0000    846.0758     11.4811     82.6487
   543.7500      0.0000    848.6804     11.5148     74.8459
   544.0000      0.0000    850.5167     11.5539     67.5937
   544.2500      0.0000    851.5007     11.5919     63.0005
   544.5000      0.0000    851.9366     11.6235     61.6510
   544.7500      0.0000    852.1365     11.6473     62.1690
   545.0000      0.0000    852.2966     11.6665     62.7386
   545.2500      0.0000    852.4877     11.6871     62.7074
   545.5000      0.0000    852.6823     11.7144     62.6215
   545.7500      0.0000    852.8253     11.7501     63.2488
   546.0000      0.0000    852.8898     11.7944     65.0470
   546.2500      0.0000    852.8868     11.8459     68.1169
   546.5000      0.0000    852.8153     11.8969     71.8754
   546.7500      0.0000    852.6174     11.9346     74.9652
   547.0000      0.0000    851.9252     11.9498     76.2103
   547.2500      0.0000    849.5258     11.9433     75.6243
   547.5000      0.0000    842.5174     11.9238     74.1978
   547.7500      0.0000    826.1686     11.9001     72.9366
   548.0000      0.0000    795.9399     11.8780     72.3346
   548.2500      0.0000    751.3676     11.8597     72.4896
   548.5000      0.0000    699.3776     11.8454     73.3886
   548.7500      0.0000    654.8099     11.8333     75.0063
   549.0000      0.0000    636.1483     11.8166     77.1758
   549.2500      0.0000    654.7704     11.7860     79.6312
   549.5000      0.0000    704.1634     11.7380     82.3810
   549.7500      0.0000    762.5101     11.6799     85.7150
   550.0000      0.0000    808.8901     11.6220     89.4155
   550.2500      0.0000    835.8576     11.5680     92.2217
   550.5000      0.0000    847.7004     11.5175     92.6673
   550.7500      0.0000    851.7159     11.4736     90.3076
   551.0000      0.0000    852.8015     11.4418     85.6602
   551.2500      0.0000    853.0535     11.4187     79.2879
   551.5000      0.0000    853.0621     11.3891     71.5903
   551.7500      0.0000    852.9395     11.3366     63.3964
   552.0000      0.0000    852.6768     11.2579     56.2269
   552.2500      0.0000    852.1354     11.1636     51.6843
   552.5000      0.0000    850.8803     11.0708     50.6323
   552.7500      0.0000    848.0471     10.9973     52.9434
   553.0000      0.0000    842.5037     10.9609     57.9415
   553.2500      0.0000    833.6002     10.9820     65.0168
   553.5000      0.0000    822.5510     11.0781     73.6767
   553.7500      0.0000    813.5431     11.2344     82.9187
   554.0000      0.0000    813.0231     11.3714     90.7983
   554.2500      0.0000    826.3699     11.3819     94.9873
   554.5000      0.0000    853.5209     11.2327     94.0382
   554.7500      0.0000    887.5847     11.0037     88.4483
   555.0000      0.0000    919.5577     10.8093     80.7268
   555.2500      0.0000    945.6563     10.7133     74.2366
   555.5000      2.0000    968.0159     10.7202     71.6125
   555.7500      0.0000    987.0712     10.7982     73.7377
   556.0000      0.0000    996.6414     10.9038     79.3400
   556.2500      0.0000    989.3358     11.0212     85.4456
   556.5000      0.0000    965.2571     11.1801     89.1292
   556.7500      0.0000    933.3500     11.4060     89.3122
   557.0000      0.0000    904.3705     11.6573     86.7615
   557.2500      0.0000    883.6855     11.8519     82.9771
   557.5000      0.0000    870.6151     11.9427     79.8046
   557.7500      0.0000    862.4581     11.9379     79.3183
   558.0000      0.0000    857.4330     11.8696     82.6884
   558.2500      0.0000    854.6803     11.7712     88.9433
   558.5000      0.0000    853.4657     11.6700     95.2419
   558.7500      0.0000    853.0749     11.5817     98.6045
   559.0000      0.0000    853.0106     11.5115     97.9105
   559.2500      0.0000    853.0406     11.4595     94.7997
   559.5000      0.0000    853.0884     11.4240     92.3922
   559.7500      0.0000    853.1187     11.3987     92.6230
   560.0000      0.0000    853.0888     11.3748     94.7926
   560.2500      0.0000    852.9375     11.3448     96.5706
   560.5000      0.0000    852.5748     11.3092     96.0088
   560.7500      0.0000    851.5900     11.2741     92.9017
   561.0000      0.0000    848.6317     11.2451     88.8133
   561.2500      0.0000    840.8083     11.2223     85.6109
   561.5000      0.0000    824.7877     11.2034     83.7760
   561.7500      0.0000    801.0034     11.1886     82.6325
   562.0000      0.0000    777.7791     11.1802     81.9557
   562.2500      0.0000    768.0218     11.1794     82.2241
   562.5000      0.0000    778.1900     11.1856     83.2234
   562.7500      0.0000    801.7664     11.1991     83.5963
   563.0000      0.0000    825.8016     11.2211     82.3865
