~Version Information
VERS.                      2.0: CWLS Log ASCII Standard - VERSION 2.0
WRAP.                       NO: One line per depth step
~Well Information Block
STRT.FT               235.0000: 
STOP.FT              1271.0000: 
STEP.FT                 0.1000: 
NULL.                -999.2500: 
COMP.          Pioneer Natural Resources: COMPANY
WELL.              Julie 11-30: WELL
FLD.           Purgatoire River: FIELD
LOC.           672' FNL & 1052' FWL: LOCATION
CNTY.               Las Animas: COUNTY
SRVC.                Patterson: SERVICE COMPANY
DATE.          Fri Apr 14 07:21:24 2006: LOG DATE
UWI.           05 071 08724 00: UNIQUE WELL ID
STAT.                 Colorado: STATE
~Curve Information Block
DEPT.FT            0 000 00 00: Depth
DCAL.in                       : CDL Caliper
RHOB.g/cc                     : CDL Bulk Density
RHOC.g/cc                     : CDL Density Correction
DPOR.pu                       : CDL Density Porosity
GR.GAPI                       : Gamma Ray
NPOR.pu                       : Neutron Porosity
~Parameter Information Block
~A  Depth       DCAL        RHOB        RHOC        DPOR         GR         NPOR    
# ...
   983.8000      8.0765      2.4941      0.0192      9.4495     96.7979     24.1431
   983.9000      8.0765      2.4935      0.0014      9.4865     99.1503     24.2705
   984.0000      8.0766      2.4912      0.0436      9.6216     97.8252     24.9174
   984.1000      8.0766      2.4782      0.0246     10.4126     92.9658     25.2463
   984.2000      8.0766      2.4595     -0.0136     11.5451     92.0218     24.8754
   984.3000      8.0764      2.4566     -0.0055     11.7203     96.7059     24.4162
   984.4000      8.0764      2.4688      0.0223     10.9790     97.9081     24.3148
   984.5000      8.0750      2.4759      0.0119     10.5527     94.2257     24.4048
   984.6000      8.0750      2.4740      0.0065     10.6659     92.3584     24.3908
   984.7000      8.0750      2.4718      0.0148     10.8006     92.3852     24.1566
   984.8000      8.0727      2.4693      0.0126     10.9499     92.9202     23.8559
   984.9000      8.0727      2.4576      0.0543     11.6612     94.3490     23.7590
   985.0000      8.0736      2.4404      0.0271     12.7057     95.1610     23.8684
   985.1000      8.0736      2.4352      0.0522     13.0194     94.9332     24.1398
   985.2000      8.0736      2.4421      0.0491     12.5996     94.8319     24.6055
   985.3000      8.0676      2.4470      0.0375     12.3002     95.2723     25.1007
   985.4000      8.0676      2.4485      0.0977     12.2105     96.2355     25.3871
   985.5000      8.0504      2.4579      0.0488     11.6402     95.9927     25.3931
   985.6000      8.0504      2.4794      0.1183     10.3376     93.8779     25.2164
   985.7000      8.0504      2.4953      0.1249      9.3764     92.9911     25.2443
   985.8000      8.0431      2.4970      0.1396      9.2749     92.7059     25.6577
   985.9000      8.0431      2.5010      0.1463      9.0287     91.3005     26.3607
   986.0000      8.0418      2.5270      0.0904      7.4538     90.0646     26.8707
   986.1000      8.0418      2.5707      0.1537      4.8052     88.3326     26.5771
   986.2000      8.0418      2.6028      0.1910      2.8579     85.9715     26.0086
   986.3000      8.0496      2.6132      0.1649      2.2333     85.2904     26.1280
   986.4000      8.0496      2.6190      0.2151      1.8784     86.8366     26.5815
   986.5000      8.0469      2.6223      0.1630      1.6765     86.8234     26.5972
   986.6000      8.0469      2.6083      0.1783      2.5294     84.0509     26.2913
   986.7000      8.0469      2.5742      0.1395      4.5920     82.2832     26.2691
   986.8000      8.0426      2.5318      0.1555      7.1662     81.5496     26.8028
   986.9000      8.0426      2.4997      0.0567      9.1089     79.0797     27.3393
   987.0000      8.0461      2.4963      0.0237      9.3167     76.2606     27.5917
   987.1000      8.0461      2.5106      0.0774      8.4487     77.1478     27.7616
   987.2000      8.0461      2.5199      0.0592      7.8875     82.3553     27.5335
   987.3000      8.0568      2.5173      0.0272      8.0427     86.8092     26.9863
   987.4000      8.0568      2.5021     -0.0037      8.9620     86.9867     26.4326
   987.5000      8.0688      2.4839     -0.0267     10.0646     85.9867     25.5810
   987.6000      8.0688      2.4826     -0.0127     10.1430     86.9740     24.6132
   987.7000      8.0688      2.4897      0.0730      9.7144     87.7830     24.3007
   987.8000      8.0763      2.4769     -0.0057     10.4915     86.5836     24.5593
   987.9000      8.0763      2.4524     -0.0375     11.9741     84.8100     24.4886
   988.0000      8.0872      2.4345      0.0489     13.0609     83.0138     23.7794
   988.1000      8.0872      2.4071      0.0286     14.7238     80.1013     22.7617
   988.2000      8.0872      2.3434      0.0135     18.5826     78.6895     21.4860
   988.3000      8.0876      2.2382     -0.0523     24.9567     79.3944     19.9635
   988.4000      8.0876      2.1131     -0.0812     32.5370     77.7963     18.4473
   988.5000      8.0890      1.9929     -0.1131     39.8250     76.4496     17.2113
   988.6000      8.0890      1.8885     -0.1244     46.1520     78.3636     16.6132
   988.7000      8.0890      1.8108     -0.1430     50.8628     79.8265     16.8376
   988.8000      8.0897      1.7756     -0.1469     52.9914     78.6290     17.4089
   988.9000      8.0897      1.7880     -0.0618     52.2411     77.8328     17.7709
   989.0000      8.0891      1.8413      0.0053     49.0105     80.7553     17.9214
   989.1000      8.0891      1.9355      0.0865     43.3012     85.5457     18.2403
   989.2000      8.0891      2.0678      0.1969     35.2864     88.9397     19.1286
   989.3000      8.0898      2.2094      0.2817     26.7048     93.4540     20.3832
   989.4000      8.0898      2.3272      0.2676     19.5657    100.6628     21.4426
   989.5000      8.0835      2.4193      0.2556     13.9804    106.8212     22.2939
   989.6000      8.0835      2.4920      0.2125      9.5788    108.7230     23.3116
   989.7000      8.0835      2.5364      0.1960      6.8843    106.7269     24.3757
   989.8000      8.0676      2.5527      0.1208      5.8994    103.1441     25.1680
   989.9000      8.0676      2.5541      0.1262      5.8137    100.3073     25.7654
   990.0000      8.0692      2.5498      0.0639      6.0730    100.7623     26.2669
   990.1000      8.0692      2.5484      0.0754      6.1591    103.2991     26.5737
   990.2000      8.0692      2.5465      0.0772      6.2743    104.6757     26.7614
   990.3000      8.0775      2.5224      0.1121      7.7358    104.2013     26.7239
   990.4000      8.0775      2.4816     -0.0436     10.2048    102.5622     26.3485
   990.5000      8.0814      2.4640      0.0042     11.2736    101.0026     26.1723
   990.6000      8.0814      2.4784      0.0298     10.3981    100.6824     26.4297
   990.7000      8.0814      2.4980      0.0150      9.2121    102.9220     26.4871
   990.8000      8.0788      2.4984      0.0360      9.1905    106.8101     26.0475
   990.9000      8.0788      2.4749      0.0225     10.6149    108.3265     25.7740
   991.0000      8.0731      2.4458      0.0380     12.3780    107.2454     25.9683
   991.1000      8.0731      2.4266      0.0485     13.5393    107.0076     26.0395
   991.2000      8.0731      2.4187      0.0103     14.0157    106.6821     25.6319
   991.3000      8.0715      2.4259      0.0170     13.5818    104.9371     25.2609
   991.4000      8.0715      2.4528      0.0537     11.9490    107.7242     25.2661
   991.5000      8.0739      2.4980      0.0285      9.2144    115.3762     25.2030
   991.6000      8.0739      2.5391      0.1261      6.7227    118.3672     25.1558
   991.7000      8.0739      2.5430      0.1136      6.4832    114.7407     25.5983
   991.8000      8.0763      2.5155      0.0758      8.1509    111.1956     26.0666
   991.9000      8.0763      2.4834      0.0782     10.0987    110.2530     25.8648
   992.0000      8.0807      2.4514      0.0753     12.0366    108.1485     25.4168
   992.1000      8.0807      2.4229      0.0505     13.7639    103.2198     25.2161
   992.2000      8.0807      2.4155      0.0132     14.2092    100.4558     25.1287
   992.3000      8.0771      2.4369      0.0976     12.9133    100.6593     25.3768
   992.4000      8.0771      2.4714      0.1088     10.8219     96.9009     25.9703
   992.5000      8.0685      2.5016      0.0945      8.9910     91.2145     26.1394
   992.6000      8.0685      2.5172      0.0739      8.0496     92.8639     25.8152
   992.7000      8.0685      2.5180      0.0446      8.0025     97.7172     25.4403
   992.8000      8.0789      2.5178      0.0508      8.0148     95.9872     24.7930
   992.9000      8.0789      2.5169      0.0358      8.0690     89.8232     23.7656
   993.0000      8.0799      2.4898      0.0623      9.7086     85.3345     22.8020
   993.1000      8.0799      2.4104      0.0554     14.5188     82.3737     21.8752
   993.2000      8.0799      2.2735      0.0436     22.8181     78.8230     20.6992
   993.3000      8.0818      2.0990     -0.0331     33.3922     74.5248     19.3393
