~Version Information
VERS.                      2.0: CWLS Log ASCII Standard - VERSION 2.0
WRAP.                       NO: One line per depth step
~Well Information Block
STRT.FT               520.0000: 
STOP.FT              2555.2000: 
STEP.FT                 0.1000: 
NULL.                -999.2500: 
COMP.          Pioneer Natural Resources: COMPANY
WELL.          Horsefeathers 24-34: WELL
FLD.           Purgatoire River: FIELD
LOC.           183' FSL & 1570' FWL--: LOCATION
CNTY.               Las Animas: COUNTY
SRVC.                Patterson: SERVICE COMPANY
DATE.          Mon Feb 06 08:03:40 2006: LOG DATE
UWI.           05 071 08675 00: UNIQUE WELL ID
STAT.                 Colorado: STATE
~Curve Information Block
DEPT.FT            0 000 00 00: Depth
DCAL.in                       : CDL Caliper
RHOB.g/cc                     : CDL Bulk Density
RHOC.g/cc                     : CDL Density Correction
DPOR.pu                       : CDL Density Porosity
NPOR.pu                       : Neutron Porosity
GR.GAPI                       : Gamma Ray
~Parameter Information Block
~A  Depth       DCAL        RHOB        RHOC        DPOR        NPOR         GR     
# ...
  1988.8000      8.1106      2.4968      0.1070      9.2851     27.3088    107.8212
  1988.9000      8.1106      2.4828      0.0681     10.1327     27.4478    118.9916
  1989.0000      8.1123      2.4899      0.0655      9.7002     27.5967    128.0281
  1989.1000      8.1123      2.5129      0.0943      8.3111     27.3902    130.8570
  1989.2000      8.1123      2.5314      0.1005      7.1902     26.7693    131.2075
  1989.3000      8.1146      2.5369      0.0953      6.8565     26.0468    132.3213
  1989.4000      8.1146      2.5346      0.1055      6.9943     25.6619    131.1488
  1989.5000      8.1167      2.5314      0.1050      7.1855     25.4893    126.5900
  1989.6000      8.1167      2.5317      0.1020      7.1719     25.3760    122.9637
  1989.7000      8.1167      2.5407      0.1088      6.6217     25.5714    125.4874
  1989.8000      8.1239      2.5595      0.1304      5.4832     25.9947    134.6170
  1989.9000      8.1239      2.5734      0.1790      4.6406     26.0303    141.2476
  1990.0000      8.1245      2.5664      0.1308      5.0674     25.6253    138.4364
  1990.1000      8.1245      2.5433      0.0966      6.4661     25.4853    131.2599
  1990.2000      8.1245      2.5224      0.0632      7.7329     25.6614    124.7412
  1990.3000      8.1057      2.5168      0.0346      8.0729     25.7831    118.9048
  1990.4000      8.1057      2.5251      0.1018      7.5712     25.9381    116.3325
  1990.5000      8.0889      2.5388      0.0821      6.7402     26.1892    117.1149
  1990.6000      8.0889      2.5561      0.0843      5.6898     26.3176    118.1065
  1990.7000      8.0889      2.5688      0.0833      4.9219     26.3393    120.4995
  1990.8000      8.0861      2.5591      0.1083      5.5120     26.3994    124.5116
  1990.9000      8.0861      2.5276      0.0620      7.4183     26.2716    127.3119
  1991.0000      8.0851      2.4931      0.0804      9.5110     26.0028    127.3564
  1991.1000      8.0851      2.4671      0.0847     11.0867     26.0100    126.2414
  1991.2000      8.0851      2.4594      0.0414     11.5488     26.4068    126.4593
  1991.3000      8.0821      2.4715      0.0862     10.8187     26.9730    127.7600
  1991.4000      8.0821      2.4826      0.0822     10.1440     27.3341    131.5729
  1991.5000      8.0911      2.4780      0.1143     10.4232     27.2399    136.8818
  1991.6000      8.0911      2.4606      0.0980     11.4805     26.8228    137.4254
  1991.7000      8.0911      2.4408      0.0702     12.6787     26.4653    134.9868
  1991.8000      8.1228      2.4385      0.0391     12.8203     26.3675    134.2673
  1991.9000      8.1228      2.4637      0.1098     11.2902     26.4104    132.3796
  1992.0000      8.1692      2.5036      0.1383      8.8727     26.8230    129.2888
  1992.1000      8.1692      2.5517      0.1068      5.9580     27.7570    127.3816
  1992.2000      8.1692      2.6046      0.2007      2.7498     28.1697    126.5919
  1992.3000      8.1969      2.6410      0.2153      0.5478     27.4996    128.2410
  1992.4000      8.1969      2.6509      0.2202     -0.0525     26.5390    132.4287
  1992.5000      8.1942      2.6462      0.2102      0.2310     25.7647    137.0077
  1992.6000      8.1942      2.6365      0.2046      0.8194     25.2889    138.2929
  1992.7000      8.1942      2.6216      0.1968      1.7220     25.3214    134.3177
  1992.8000      8.1674      2.5991      0.1343      3.0820     25.6364    130.3721
  1992.9000      8.1674      2.5763      0.1002      4.4676     25.8317    131.8644
  1993.0000      8.1258      2.5676      0.0903      4.9967     25.9168    133.3692
  1993.1000      8.1258      2.5778      0.0973      4.3761     26.0515    129.6610
  1993.2000      8.1258      2.5985      0.0675      3.1207     26.5739    128.4206
  1993.3000      8.1225      2.6167      0.0903      2.0177     27.5955    135.0356
  1993.4000      8.1225      2.6242      0.1037      1.5607     28.3824    141.2053
  1993.5000      8.1685      2.6283      0.1139      1.3139     28.5517    139.1768
  1993.6000      8.1685      2.6349      0.1299      0.9129     28.4662    133.6510
  1993.7000      8.1685      2.6365      0.1097      0.8168     28.1176    131.9370
  1993.8000      8.2045      2.6322      0.0915      1.0765     27.4012    133.2383
  1993.9000      8.2045      2.6337      0.0687      0.9879     26.7780    136.9075
  1994.0000      8.2109      2.6527      0.0403     -0.1643     26.7823    145.7763
  1994.1000      8.2109      2.6821      0.1337     -1.9434     27.1357    153.7080
  1994.2000      8.2109      2.6980      0.0990     -2.9096     27.4242    150.9460
  1994.3000      8.2089      2.6987      0.0743     -2.9536     27.9175    139.2593
  1994.4000      8.2089      2.6964      0.0555     -2.8149     28.2502    125.5358
  1994.5000      8.2082      2.6824      0.0795     -1.9641     27.8174    116.4595
  1994.6000      8.2082      2.6491      0.0325      0.0519     27.1919    119.3443
  1994.7000      8.2082      2.6199      0.0034      1.8232     26.8884    128.1890
  1994.8000      8.2082      2.6140      0.0302      2.1804     26.6403    128.2337
  1994.9000      8.2082      2.6237      0.0346      1.5918     26.5150    119.8109
  1995.0000      8.2086      2.6374      0.0744      0.7640     26.6729    112.9563
  1995.1000      8.2086      2.6471      0.0581      0.1734     26.7506    113.5568
  1995.2000      8.2086      2.6472      0.0921      0.1699     26.6255    124.1740
  1995.3000      8.2078      2.6380      0.0741      0.7272     26.5523    138.9957
  1995.4000      8.2078      2.6321      0.0307      1.0827     26.8162    146.3852
  1995.5000      8.2070      2.6479      0.0475      0.1297     27.2928    144.9845
  1995.6000      8.2070      2.6829      0.0903     -1.9928     27.5435    143.1421
  1995.7000      8.2070      2.7116      0.1152     -3.7310     27.5361    145.8236
  1995.8000      8.2074      2.7133      0.1201     -3.8365     27.5051    149.1402
  1995.9000      8.2074      2.6915      0.1070     -2.5156     27.6991    147.0484
  1996.0000      8.2084      2.6610      0.0955     -0.6675     28.2800    139.7599
  1996.1000      8.2084      2.6333      0.0864      1.0104     28.7799    131.6786
  1996.2000      8.2084      2.6108      0.0534      2.3783     28.7718    129.5799
  1996.3000      8.2105      2.5933      0.0574      3.4365     28.8209    136.4923
  1996.4000      8.2105      2.5851      0.0593      3.9326     29.5028    145.6265
  1996.5000      8.2112      2.5771      0.0804      4.4204     30.4977    149.8962
  1996.6000      8.2112      2.5516      0.0603      5.9613     30.9181    149.4401
  1996.7000      8.2112      2.5106      0.0117      8.4471     30.4932    148.3378
  1996.8000      8.2097      2.4678      0.0269     11.0418     30.0242    145.9637
  1996.9000      8.2097      2.4316     -0.0033     13.2386     29.9684    140.5946
  1997.0000      8.2094      2.3939      0.0493     15.5183     30.1158    137.9019
  1997.1000      8.2094      2.3384      0.0116     18.8877     30.5109    138.8629
  1997.2000      8.2094      2.2751     -0.0265     22.7213     31.0411    138.3128
  1997.3000      8.2195      2.2248      0.0030     25.7685     31.5334    134.8878
  1997.4000      8.2195      2.1796      0.0038     28.5114     31.9594    130.5598
  1997.5000      8.2495      2.1232     -0.0028     31.9251     32.2523    127.7848
  1997.6000      8.2495      2.0669     -0.0329     35.3374     32.6647    127.5201
  1997.7000      8.2495      2.0339     -0.0033     37.3404     33.5495    128.3705
  1997.8000      8.3211      2.0215      0.0262     38.0921     34.4277    130.0055
  1997.9000      8.3211      2.0151      0.0459     38.4808     34.6788    131.4681
  1998.0000      8.4771      2.0315      0.0002     37.4835     34.3219    130.1154
  1998.1000      8.4771      2.0953      0.1765     33.6163     33.4890    126.5306
  1998.2000      8.4771      2.1794      0.3423     28.5207     32.5737    122.3292
  1998.3000      8.6572      2.2452      0.3171     24.5363     31.8703    120.4739
