~Version Information
VERS.                      2.0: CWLS Log ASCII Standard - VERSION 2.0
WRAP.                       NO: One line per depth step
~Well Information Block
STRT.FT                -8.5000: 
STOP.FT              2823.2500: 
STEP.FT                 0.2500: 
NULL.                -999.2500: 
COMP.          Pioneer Natural Resources: COMPANY
WELL.                AMX 13-13: WELL
FLD.           Purgatorie River: FIELD
LOC.           2316' FSL & 865' FWL--: LOCATION
PROV.                       CO: PROVINCE
CNTY.               Las Animas: COUNTRY
SRVC.          Patterson Wireline: SERVICE COMPANY
DATE.          Tue Dec 27 10:40:58 2005: LOG DATE
UWI.           05 071 08630 00: UNIQUE WELL ID
~Curve Information Block
DEPT.FT            0 000 00 00: Depth
CCL.                          : Casing Collar Locator
TT3.usec                      : CBL 3' Travel Time
AMP3.mV                       : CBL 3' Amplitude
GR.GAPI                       : Gamma Ray
~Parameter Information Block
~A  Depth       CCL         TT3         AMP3         GR     
# ...
  2604.5000      0.0000    501.3988      8.0394     77.2279
  2604.7500      0.0000    550.3075      7.9167     80.3982
  2605.0000      0.0000    601.3329      7.8284     81.8387
  2605.2500      0.0000    637.9061      7.7659     82.5838
  2605.5000      0.0000    647.4133      7.7198     82.4184
  2605.7500      0.0000    627.1967      7.6841     80.3345
  2606.0000      0.0000    584.8450      7.6579     76.0926
  2606.2500      0.0000    534.4667      7.6451     70.8501
  2606.5000      0.0000    490.1881      7.6499     66.3344
  2606.7500      0.0000    459.6893      7.6693     63.8551
  2607.0000      0.0000    442.4062      7.6916     63.9386
  2607.2500      0.0000    433.0450      7.7028     66.4390
  2607.5000      0.0000    426.2906      7.6961     70.8905
  2607.7500      0.0000    419.3412      7.6738     76.7688
  2608.0000      0.0000    412.0727      7.6428     83.2545
  2608.2500      0.0000    405.7224      7.6090     88.8560
  2608.5000      0.0000    401.2483      7.5768     91.8752
  2608.7500      0.0000    398.5351      7.5519     91.7681
  2609.0000      0.0000    396.9414      7.5409     89.8444
  2609.2500      0.0000    396.7108      7.5452     88.1338
  2609.5000      0.0000    400.4131      7.5554     87.6596
  2609.7500      0.0000    413.2534      7.5555     88.0097
  2610.0000      0.0000    440.9016      7.5387     88.0491
  2610.2500      0.0000    484.9305      7.5149     86.7602
  2610.5000      0.0000    539.1606      7.4939     83.9598
  2610.7500      0.0000    591.5319      7.4607     80.3935
  2611.0000      0.0000    631.4986      7.3811     76.7712
  2611.2500      0.0000    656.2755      7.2392     73.0044
  2611.5000      0.0000    670.0570      7.0672     68.9881
  2611.7500      0.0000    678.3302      6.9269     65.7751
  2612.0000      0.0000    683.7469      6.8655     65.1347
  2612.2500      0.0000    686.4808      6.8922     67.7338
  2612.5000      0.0000    686.8380      6.9881     72.1855
  2612.7500      0.0000    686.5196      7.1265     76.3527
  2613.0000      0.0000    687.3342      7.2821     79.5052
  2613.2500      0.0000    689.0858      7.4309     82.6605
  2613.5000      0.0000    688.8355      7.5514     86.7389
  2613.7500      0.0000    681.6149      7.6314     90.9697
  2614.0000      0.0000    661.7138      7.6723     93.3093
  2614.2500      0.0000    625.1588      7.6858     92.1052
  2614.5000      0.0000    573.5969      7.6845     87.3911
  2614.7500      0.0000    516.1390      7.6774     80.9763
  2615.0000      0.0000    465.3756      7.6716     75.3864
  2615.2500      0.0000    430.2858      7.6707     72.4642
  2615.5000      0.0000    413.0230      7.6682     72.6237
  2615.7500      0.0000    411.8669      7.6427     74.9984
  2616.0000      0.0000    425.2347      7.5616     78.1156
  2616.2500      0.0000    451.8291      7.3979     80.8791
  2616.5000      0.0000    488.3938      7.1568     83.5028
  2616.7500      0.0000    529.9242      6.8869     87.2933
  2617.0000      0.0000    572.3570      6.6582     93.0488
  2617.2500      0.0000    612.9370      6.5237     99.8431
  2617.5000      0.0000    647.8888      6.4989    105.6950
  2617.7500      0.0000    672.2483      6.5653    109.1855
  2618.0000      0.0000    682.2607      6.6857    110.2092
  2618.2500      0.0000    676.5418      6.8165    109.6386
  2618.5000      0.0000    656.3163      6.9156    108.7494
  2618.7500      0.0000    627.4839      6.9482    108.7453
  2619.0000      0.0000    601.8112      6.8971    110.3881
  2619.2500      0.0000    591.7642      6.7725    113.7947
  2619.5000      0.0000    600.8731      6.6122    118.2036
  2619.7500      0.0000    619.1918      6.4642    121.8603
  2620.0000      0.0000    629.3026      6.3647    122.7426
  2620.2500      0.0000    618.2403      6.3255    120.0296
  2620.5000      0.0000    585.7665      6.3369    114.7631
  2620.7500      0.0000    542.8484      6.3794    108.7406
  2621.0000      0.0000    502.1369      6.4360    103.0591
  2621.2500      0.0000    469.5738      6.4969     98.0144
  2621.5000      0.0000    444.5171      6.5603     93.8667
  2621.7500      0.0000    425.1613      6.6323     91.0027
  2622.0000      0.0000    411.1880      6.7259     89.4116
  2622.2500      0.0000    402.4209      6.8530     88.4103
  2622.5000      0.0000    397.6152      7.0145     87.0511
  2622.7500      0.0000    395.0825      7.1988     84.9082
  2623.0000      0.0000    393.6082      7.3892     82.5089
  2623.2500      0.0000    392.6122      7.5725     80.8294
  2623.5000      0.0000    391.8700      7.7411     80.2349
  2623.7500      0.0000    391.2655      7.8892     80.0070
  2624.0000      0.0000    390.7156      8.0117     78.9538
  2624.2500      0.0000    390.1968      8.1084     76.5082
  2624.5000      0.0000    389.7252      8.1870     73.2886
  2624.7500      0.0000    389.2905      8.2573     70.5228
  2625.0000      0.0000    388.8230      8.3207     68.9613
  2625.2500      0.0000    388.2596      8.3679     68.6106
  2625.5000      0.0000    387.6418      8.3888     69.3992
  2625.7500      0.0000    387.1301      8.3824     71.4639
  2626.0000      0.0000    386.9162      8.3544     74.6493
  2626.2500      0.0000    387.1154      8.3102     78.1763
  2626.5000      0.0000    387.6994      8.2499     80.9199
  2626.7500      0.0000    388.4864      8.1701     81.8754
  2627.0000      0.0000    389.2168      8.0682     80.6897
  2627.2500      0.0000    389.6956      7.9481     78.2330
  2627.5000      0.0000    389.9110      7.8192     76.5663
  2627.7500      0.0000    390.0083      7.6876     77.8252
  2628.0000      0.0000    390.0929      7.5514     82.5714
  2628.2500      0.0000    390.0000      7.4065     89.0364
  2628.5000      0.0000    389.3867      7.2572     94.3894
  2628.7500      0.0000    388.6424      7.1178     96.9684
  2629.0000      0.0000    390.3411      7.0000     96.9885
  2629.2500      0.0000    399.6820      6.8980     95.4302
  2629.5000      0.0000    421.7221      6.7891     93.1412
  2629.7500      0.0000    456.3348      6.6555     90.9389
  2630.0000      0.0000    496.3086      6.5044     89.5848
  2630.2500      0.0000    532.5911      6.3589     89.1863
  2630.5000      0.0000    561.7274      6.2251     88.9796
  2630.7500      0.0000    586.7686      6.0786     87.9596
  2631.0000      0.0000    611.5632      5.8978     85.6219
  2631.2500      0.0000    636.2437      5.7110     82.0878
  2631.5000      0.0000    657.8557      5.5907     77.6882
  2631.7500      0.0000    673.6375      5.5855     72.6675
  2632.0000      0.0000    683.5182      5.6677     67.3763
  2632.2500      0.0000    689.9191      5.7548     62.7064
  2632.5000     -2.0000    695.0632      5.7762     60.2156
  2632.7500      0.0000    698.5680      5.7184     61.4374
  2633.0000      0.0000    698.0936      5.6279     66.6401
  2633.2500      0.0000    692.3893      5.5825     74.2815
  2633.5000      0.0000    683.1270      5.6391     81.9929
  2633.7500      0.0000    673.1522      5.7804     88.1030
  2634.0000      0.0000    662.4553      5.9176     92.2443
  2634.2500      0.0000    646.5718      5.9662     95.0200
  2634.5000      0.0000    620.5452      5.9178     97.3705
  2634.7500      0.0000    585.0417      5.8302     99.6739
  2635.0000      0.0000    547.5294      5.7664    101.1339
  2635.2500      0.0000    516.9901      5.7608    100.5806
  2635.5000      0.0000    498.2431      5.8266     98.0889
  2635.7500      0.0000    491.4592      5.9702     95.1870
  2636.0000      0.0000    495.7555      6.1944     93.1470
  2636.2500      0.0000    511.9340      6.4942     91.6879
  2636.5000      0.0000    541.2161      6.8545     89.8027
  2636.7500      0.0000    581.2457      7.2535     87.2104
  2637.0000      0.0000    624.2052      7.6690     84.3598
  2637.2500      0.0000    660.3560      8.0803     81.5792
  2637.5000      0.0000    683.9717      8.4660     79.0690
  2637.7500      0.0000    695.3798      8.8053     77.4087
