~Version Information
VERS.                      2.0: CWLS Log ASCII Standard - VERSION 2.0
WRAP.                       NO: One line per depth step
~Well Information Block
STRT.FT               350.0000: 
STOP.FT              2808.2500: 
STEP.FT                 0.2500: 
NULL.                -999.2500: 
COMP.          Pioneer Natural Resources: COMPANY
WELL.          Grey Goose 33-30: WELL
FLD.           Purgatoire River: FIELD
LOC.           2136' FSL & 2065' FEL--: LOCATION
STAT.                 Colorado: State
CNTY.               Las Animas: COUNTY
CTRY. USA : Country
SECT. 30 : Section
TOWN. 32S : Township
RANG. 67W : Range
SRVC.                Patterson: SERVICE COMPANY
DATE.          Fri Nov 04 09:00:45 2005: LOG DATE
API.           05 071 08546 00: UNIQUE WELL ID
~Curve Information Block
DEPT.FT            0 000 00 00: Depth
DIR.Ohm-m                     : IEL Induction Resistivity
SN.Ohm-m                      : IEL Short Normal
SP.mV                         : IEL Spontaneous Potential
GR.GAPI                       : Gamma Ray
~Parameter Information Block
~A  Depth       DIR          SN          SP          GR     
# ...
   819.0000     36.8551   2000.0000   2000.0000     96.5665
   819.2500     35.9231   2000.0000   2000.0000     97.4863
   819.5000     34.9429   2000.0000   2000.0000     97.2100
   819.7500     33.9226   2000.0000   2000.0000     96.4644
   820.0000     32.9292   2000.0000   2000.0000     94.8965
   820.2500     32.0510   2000.0000   2000.0000     93.5038
   820.5000     31.3629   2000.0000   2000.0000     90.9909
   820.7500     30.9083   2000.0000   2000.0000     89.4620
   821.0000     30.6917   2000.0000   2000.0000     88.4620
   821.2500     30.6701   2000.0000   2000.0000     88.9809
   821.5000     30.7474   2000.0000   2000.0000     90.8297
   821.7500     30.7904   2000.0000   2000.0000     91.7882
   822.0000     30.6713   2000.0000   2000.0000     91.4726
   822.2500     30.3177   2000.0000   2000.0000     90.1469
   822.5000     29.7344   2000.0000   2000.0000     87.8903
   822.7500     28.9825   2000.0000   2000.0000     87.2107
   823.0000     28.1398   2000.0000   2000.0000     88.4234
   823.2500     27.2687   2000.0000   2000.0000     90.6255
   823.5000     26.4025   2000.0000   2000.0000     94.9850
   823.7500     25.5493   2000.0000   2000.0000     97.9588
   824.0000     24.7079   2000.0000   2000.0000    102.0108
   824.2500     23.8866   2000.0000   2000.0000    104.4640
   824.5000     23.1108   2000.0000   2000.0000    108.0131
   824.7500     22.4159   2000.0000   2000.0000    110.3754
   825.0000     21.8305   2000.0000   2000.0000    113.5685
   825.2500     21.3663   2000.0000   2000.0000    114.9220
   825.5000     21.0188   2000.0000   2000.0000    114.9241
   825.7500     20.7761   2000.0000   2000.0000    113.6040
   826.0000     20.6272   2000.0000   2000.0000    110.6991
   826.2500     20.5683   2000.0000   2000.0000    108.8796
   826.5000     20.6040   2000.0000   2000.0000    106.9622
   826.7500     20.7454   2000.0000   2000.0000    106.2080
   827.0000     21.0058   2000.0000   2000.0000    105.5458
   827.2500     21.3962   2000.0000   2000.0000    105.2429
   827.5000     21.9206   2000.0000   2000.0000    104.8541
   827.7500     22.5691   2000.0000   2000.0000    104.5657
   828.0000     23.3129   2000.0000   2000.0000    103.7157
   828.2500     24.1103   2000.0000   2000.0000    102.5498
   828.5000     24.9272   2000.0000   2000.0000     99.6000
   828.7500     25.7619   2000.0000   2000.0000     96.9095
   829.0000     26.6539   2000.0000   2000.0000     92.2752
   829.2500     27.6653   2000.0000   2000.0000     89.2352
   829.5000     28.8485   2000.0000   2000.0000     85.5093
   829.7500     30.2167   2000.0000   2000.0000     83.7733
   830.0000     31.7279   2000.0000   2000.0000     82.2511
   830.2500     33.2827   2000.0000   2000.0000     81.9562
   830.5000     34.7368   2000.0000   2000.0000     82.5249
   830.7500     35.9303   2000.0000   2000.0000     83.1578
   831.0000     36.7363   2000.0000   2000.0000     83.1138
   831.2500     37.1123   2000.0000   2000.0000     81.8057
   831.5000     37.1218   2000.0000   2000.0000     78.1894
   831.7500     36.9080   2000.0000   2000.0000     75.4892
   832.0000     36.6366   2000.0000   2000.0000     72.3519
   832.2500     36.4387   2000.0000   2000.0000     71.1970
   832.5000     36.3723   2000.0000   2000.0000     70.8938
   832.7500     36.4058   2000.0000   2000.0000     71.6034
   833.0000     36.4275   2000.0000   2000.0000     73.8656
   833.2500     36.2838   2000.0000   2000.0000     75.9396
   833.5000     35.8457   2000.0000   2000.0000     79.5369
   833.7500     35.0728   2000.0000   2000.0000     82.2989
   834.0000     34.0335   2000.0000   2000.0000     87.5016
   834.2500     32.8638   2000.0000   2000.0000     92.0254
   834.5000     31.6997   2000.0000   2000.0000    100.6199
   834.7500     30.6371   2000.0000   2000.0000    107.3624
   835.0000     29.7339   2000.0000   2000.0000    118.1013
   835.2500     29.0269   2000.0000   2000.0000    124.7733
   835.5000     28.5359   2000.0000   2000.0000    131.7507
   835.7500     28.2572   2000.0000   2000.0000    132.9131
   836.0000     28.1646   2000.0000   2000.0000    128.1301
   836.2500     28.2272   2000.0000   2000.0000    121.1819
   836.5000     28.4339   2000.0000   2000.0000    107.9828
   836.7500     28.8035   2000.0000   2000.0000     99.1003
   837.0000     29.3744   2000.0000   2000.0000     87.3999
   837.2500     30.1784   2000.0000   2000.0000     80.9387
   837.5000     31.2118   2000.0000   2000.0000     73.3051
   837.7500     32.4126   2000.0000   2000.0000     69.7440
   838.0000     33.6547   2000.0000   2000.0000     67.0698
   838.2500     34.7681   2000.0000   2000.0000     67.1717
   838.5000     35.5857   2000.0000   2000.0000     70.1151
   838.7500     36.0023   2000.0000   2000.0000     73.8990
   839.0000     36.0133   2000.0000   2000.0000     82.1849
   839.2500     35.7067   2000.0000   2000.0000     89.0806
   839.5000     35.2188   2000.0000   2000.0000     99.7989
   839.7500     34.6841   2000.0000   2000.0000    105.7798
   840.0000     34.2033   2000.0000   2000.0000    111.1725
   840.2500     33.8300   2000.0000   2000.0000    112.2729
   840.5000     33.5742   2000.0000   2000.0000    111.5291
   840.7500     33.4188   2000.0000   2000.0000    110.4755
   841.0000     33.3473   2000.0000   2000.0000    108.8800
   841.2500     33.3662   2000.0000   2000.0000    107.4610
   841.5000     33.5068   2000.0000   2000.0000    103.7420
   841.7500     33.8033   2000.0000   2000.0000    100.0775
   842.0000     34.2625   2000.0000   2000.0000     93.7060
   842.2500     34.8410   2000.0000   2000.0000     89.5165
   842.5000     35.4380   2000.0000   2000.0000     83.7377
   842.7500     35.8972   2000.0000   2000.0000     80.1467
   843.0000     36.0186   2000.0000   2000.0000     75.1313
   843.2500     35.5939   2000.0000   2000.0000     72.2538
   843.5000     34.4850   2000.0000   2000.0000     69.3294
   843.7500     32.7162   2000.0000   2000.0000     68.8666
   844.0000     30.4960   2000.0000   2000.0000     71.5842
   844.2500     28.1264   2000.0000   2000.0000     76.2459
   844.5000     25.8741   2000.0000   2000.0000     87.4918
   844.7500     23.8998   2000.0000   2000.0000     96.9798
   845.0000     22.2629   2000.0000   2000.0000    111.7736
   845.2500     20.9614   2000.0000   2000.0000    120.5908
   845.5000     19.9674   2000.0000   2000.0000    130.6489
   845.7500     19.2469   2000.0000   2000.0000    134.9287
   846.0000     18.7652   2000.0000   2000.0000    138.0363
   846.2500     18.4851   2000.0000   2000.0000    138.4150
   846.5000     18.3647   2000.0000   2000.0000    137.5145
   846.7500     18.3565   2000.0000   2000.0000    136.4234
   847.0000     18.4070   2000.0000   2000.0000    134.2933
   847.2500     18.4588   2000.0000   2000.0000    132.3597
   847.5000     18.4573   2000.0000   2000.0000    128.3312
   847.7500     18.3599   2000.0000   2000.0000    125.0529
   848.0000     18.1462   2000.0000   2000.0000    120.4366
   848.2500     17.8207   2000.0000   2000.0000    118.5188
   848.5000     17.4061   2000.0000   2000.0000    118.5337
   848.7500     16.9331   2000.0000   2000.0000    120.4574
   849.0000     16.4314   2000.0000   2000.0000    124.9763
   849.2500     15.9261   2000.0000   2000.0000    128.0330
   849.5000     15.4395   2000.0000   2000.0000    131.2831
   849.7500     14.9931   2000.0000   2000.0000    132.1993
   850.0000     14.6087   2000.0000   2000.0000    131.8308
   850.2500     14.3069   2000.0000   2000.0000    130.8823
   850.5000     14.1051   2000.0000   2000.0000    129.5063
   850.7500     14.0179   2000.0000   2000.0000    129.0419
   851.0000     14.0553   2000.0000   2000.0000    128.8938
   851.2500     14.2218   2000.0000   2000.0000    128.7669
   851.5000     14.5135   2000.0000   2000.0000    127.9396
   851.7500     14.9179   2000.0000   2000.0000    126.7627
   852.0000     15.4160   2000.0000   2000.0000    123.8739
   852.2500     15.9860   2000.0000   2000.0000    121.2246
