~Version Information
VERS.                      2.0: CWLS Log ASCII Standard - VERSION 2.0
WRAP.                       NO: One line per depth step
~Well Information Block
STRT.FT               240.0000: 
STOP.FT              1159.2500: 
STEP.FT                 0.2500: 
NULL.                -999.2500: 
COMP.          Pioneer Natural Resources: COMPANY
WELL.               Ryan 41-17: WELL
FLD.           Purgatoire River: FIELD
LOC.           822' FNL & 532' FEL--: LOCATION
CNTY.               Las Animas: COUNTY
SRVC.                Patterson: SERVICE COMPANY
DATE.          Thu Mar 16 16:50:09 2006: LOG DATE
UWI.           05 071 08719 00: UNIQUE WELL ID
STAT.                 Colorado: STATE
~Curve Information Block
DEPT.FT            0 000 00 00: Depth
SN.Ohm-m                      : IEL Short Normal
SP.mV                         : IEL Spontaneous Potential
DIR.Ohm-m                     : IEL Induction Resistivity
GR.GAPI                       : Gamma Ray
~Parameter Information Block
~A  Depth        SN          SP         DIR          GR     
# ...
   809.5000     60.0317    -41.2280     44.6114     28.2376
   809.7500     58.9137    -42.0022     45.4417     29.4513
   810.0000     56.6155    -42.8181     44.6653     32.1660
   810.2500     53.4065    -43.6580     42.5353     34.7967
   810.5000     49.6401    -44.5030     39.4892     40.9063
   810.7500     45.7149    -45.3361     36.0127     47.1253
   811.0000     41.9749    -46.1447     32.5395     60.1131
   811.2500     38.6053    -46.9217     29.3740     70.6199
   811.5000     35.6107    -47.6653     26.6552     87.0625
   811.7500     32.8891    -48.3777     24.3763     97.1458
   812.0000     30.3390    -49.0621     22.4448    109.3006
   812.2500     27.9253    -49.7207     20.7483    115.1866
   812.5000     25.6815    -50.3528     19.2027    121.7426
   812.7500     23.6679    -50.9548     17.7664    125.5783
   813.0000     21.9240    -51.5205     16.4293    131.2881
   813.2500     20.4430    -52.0429     15.1918    134.5762
   813.5000     19.1793    -52.5156     14.0529    137.3464
   813.7500     18.0756    -52.9349     13.0076    137.7108
   814.0000     17.0858    -53.3003     12.0511    138.0749
   814.2500     16.1803    -53.6147     11.1816    139.8291
   814.5000     15.3414    -53.8843     10.4005    145.9894
   814.7500     14.5633    -54.1170      9.7099    151.7662
   815.0000     13.8587    -54.3208      9.1096    160.2504
   815.2500     13.2599    -54.5022      8.5954    164.1943
   815.5000     12.8014    -54.6652      8.1595    165.9292
   815.7500     12.4945    -54.8113      7.7924    164.3037
   816.0000     12.3130    -54.9403      7.4847    159.3582
   816.2500     12.2057    -55.0519      7.2277    155.8855
   816.5000     12.1235    -55.1472      7.0138    152.1264
   816.7500     12.0401    -55.2293      6.8372    150.4304
   817.0000     11.9508    -55.3039      6.6945    147.5641
   817.2500     11.8577    -55.3780      6.5825    144.7615
   817.5000     11.7580    -55.4586      6.4965    139.2722
   817.7500     11.6435    -55.5527      6.4283    135.2731
   818.0000     11.5069    -55.6654      6.3663    129.8955
   818.2500     11.3453    -55.8004      6.2997    127.3293
   818.5000     11.1578    -55.9601      6.2220    125.6568
   818.7500     10.9459    -56.1441      6.1343    125.9743
   819.0000     10.7211    -56.3496      6.0449    127.7657
   819.2500     10.5139    -56.5696      5.9659    129.1563
   819.5000     10.3737    -56.7924      5.9096    130.8352
   819.7500     10.3492    -57.0009      5.8853    131.6224
   820.0000     10.4617    -57.1726      5.8987    132.2647
   820.2500     10.6898    -57.2798      5.9522    132.2895
   820.5000     10.9772    -57.2904      6.0460    132.0757
   820.7500     11.2616    -57.1708      6.1789    132.2051
   821.0000     11.5016    -56.8884      6.3481    133.1651
   821.2500     11.6872    -56.4184      6.5486    134.0114
   821.5000     11.8303    -55.7483      6.7718    134.7168
   821.7500     11.9489    -54.8827      7.0067    134.6295
   822.0000     12.0554    -53.8435      7.2433    134.1420
   822.2500     12.1546    -52.6665      7.4753    133.9500
   822.5000     12.2487    -51.3941      7.7020    134.0930
   822.7500     12.3445    -50.0682      7.9267    134.4420
   823.0000     12.4553    -48.7249      8.1536    135.1223
   823.2500     12.5929    -47.3950      8.3860    135.2344
   823.5000     12.7576    -46.1082      8.6267    133.5677
   823.7500     12.9379    -44.8996      8.8797    130.6637
   824.0000     13.1236    -43.8138      9.1513    124.0602
   824.2500     13.3170    -42.9032      9.4505    119.1226
   824.5000     13.5348    -42.2211      9.7893    112.4718
   824.7500     13.8032    -41.8090     10.1831    108.9339
   825.0000     14.1553    -41.6849     10.6518    105.1257
   825.2500     14.6251    -41.8345     11.2179    103.7215
   825.5000     15.2306    -42.2117     11.9017    103.2096
   825.7500     15.9540    -42.7458     12.7127    103.1512
   826.0000     16.7421    -43.3549     13.6406    101.2819
   826.2500     17.5334    -43.9605     14.6519     98.0873
   826.5000     18.2940    -44.4992     15.6975     91.4739
   826.7500     19.0346    -44.9291     16.7284     87.5379
   827.0000     19.7953    -45.2299     17.7115     84.6485
   827.2500     20.6068    -45.3992     18.6326     84.6547
   827.5000     21.4593    -45.4475     19.4893     85.1462
   827.7500     22.3026    -45.3934     20.2790     84.2026
   828.0000     23.0706    -45.2605     20.9922     79.9608
   828.2500     23.7060    -45.0757     21.6138     76.0850
   828.5000     24.1714    -44.8676     22.1316     71.2949
   828.7500     24.4558    -44.6646     22.5466     69.8538
   829.0000     24.5775    -44.4922     22.8693     70.0381
   829.2500     24.5752    -44.3706     23.1054     70.6753
   829.5000     24.4849    -44.3120     23.2431     71.1178
   829.7500     24.3187    -44.3205     23.2544     71.1899
   830.0000     24.0678    -44.3916     23.1116     71.5564
   830.2500     23.7272    -44.5144     22.8061     71.7704
   830.5000     23.3171    -44.6735     22.3583     71.0818
   830.7500     22.8778    -44.8516     21.8161     69.7925
   831.0000     22.4490    -45.0318     21.2429     67.4727
   831.2500     22.0561    -45.1996     20.6982     66.2613
   831.5000     21.7111    -45.3434     20.2201     65.1020
   831.7500     21.4169    -45.4558     19.8185     64.4941
   832.0000     21.1667    -45.5334     19.4794     63.6671
   832.2500     20.9424    -45.5770     19.1793     63.3870
   832.5000     20.7211    -45.5907     18.8980     63.7992
   832.7500     20.4897    -45.5813     18.6258     64.7193
   833.0000     20.2573    -45.5569     18.3642     66.7977
   833.2500     20.0547    -45.5255     18.1235     68.2111
   833.5000     19.9177    -45.4936     17.9207     69.6195
   833.7500     19.8678    -45.4650     17.7745     70.0561
   834.0000     19.9009    -45.4408     17.6982     70.5270
   834.2500     19.9889    -45.4188     17.6925     70.8672
   834.5000     20.0930    -45.3944     17.7433     70.8987
   834.7500     20.1818    -45.3615     17.8266     70.2353
   835.0000     20.2457    -45.3131     17.9175     68.2951
   835.2500     20.2984    -45.2425     17.9985     66.7338
   835.5000     20.3597    -45.1439     18.0658     64.4263
   835.7500     20.4348    -45.0129     18.1296     63.0121
   836.0000     20.5119    -44.8479     18.2103     61.5863
   836.2500     20.5808    -44.6497     18.3301     61.5795
   836.5000     20.6491    -44.4221     18.5017     63.0833
   836.7500     20.7359    -44.1710     18.7216     64.4671
   837.0000     20.8519    -43.9041     18.9693     65.9152
   837.2500     20.9893    -43.6289     19.2138     66.3165
   837.5000     21.1333    -43.3518     19.4248     66.5005
   837.7500     21.2796    -43.0772     19.5834     66.5262
   838.0000     21.4391    -42.8066     19.6906     66.5197
   838.2500     21.6276    -42.5396     19.7674     66.6081
   838.5000     21.8543    -42.2746     19.8465     67.0915
   838.7500     22.1232    -42.0095     19.9591     67.5926
   839.0000     22.4386    -41.7436     20.1250     68.1885
   839.2500     22.8028    -41.4777     20.3481     68.1167
   839.5000     23.2101    -41.2147     20.6181     66.6472
   839.7500     23.6504    -40.9597     20.9159     64.5544
   840.0000     24.1192    -40.7195     21.2225     60.0386
   840.2500     24.6227    -40.5031     21.5310     56.5863
   840.5000     25.1723    -40.3212     21.8568     51.6226
   840.7500     25.7736    -40.1863     22.2402     48.8647
   841.0000     26.4171    -40.1121     22.7330     46.0271
   841.2500     27.0674    -40.1125     23.3710     45.0702
   841.5000     27.6493    -40.1997     24.1382     44.6645
   841.7500     28.0391    -40.3825     24.9363     44.6838
   842.0000     28.0810    -40.6651     25.5788     44.7091
   842.2500     27.6457    -41.0458     25.8349     44.7943
   842.5000     26.7094    -41.5176     25.5264     45.6872
   842.7500     25.3926    -42.0690     24.6262     47.4621
