~Version Information
VERS.                      2.0: CWLS Log ASCII Standard - VERSION 2.0
WRAP.                       NO: One line per depth step
~Well Information Block
STRT.FT                -7.7500: 
STOP.FT              1485.2500: 
STEP.FT                 0.2500: 
NULL.                -999.2500: 
COMP.          Pioneer Natural Resources: COMPANY
WELL.          Hammerhead 24-24 Tr: WELL
FLD.           Purgatorie River: FIELD
LOC.           953' FSL & 1922' FWL--: LOCATION
CNTY.               Las Animas: COUNTY
SRVC.          Patterson Wireline: SERVICE COMPANY
DATE.          Thu Feb 02 15:03:23 2006: LOG DATE
UWI.           05 071 08669 00: UNIQUE WELL ID
STAT.                       CO: STATE
~Curve Information Block
DEPT.FT            0 000 00 00: Depth
CCL.                          : Casing Collar Locator
TT3.usec                      : CBL 3' Travel Time
AMP3.mV                       : CBL 3' Amplitude
GR.GAPI                       : Gamma Ray
~Parameter Information Block
~A  Depth       CCL         TT3         AMP3         GR     
# ...
    92.7500      0.0000    383.0807     10.6164     66.6020
    93.0000      0.0000    379.7740     10.6877     62.9773
    93.2500      0.0000    375.0232     10.8005     59.3318
    93.5000      0.0000    369.3199     10.9537     56.2799
    93.7500      0.0000    363.8727     11.1170     53.9374
    94.0000      0.0000    361.2559     11.2361     51.9685
    94.2500      0.0000    366.2658     11.2592     50.1333
    94.5000      0.0000    385.1299     11.1596     48.7269
    94.7500      0.0000    421.6931     10.9425     48.1178
    95.0000      0.0000    473.4091     10.6414     48.0801
    95.2500      0.0000    533.5613     10.3025     48.0931
    95.5000      0.0000    599.5449      9.9436     48.0556
    95.7500      0.0000    674.5128      9.5338     48.2274
    96.0000      0.0000    755.6847      9.0530     48.7572
    96.2500      0.0000    826.1251      8.5615     49.7339
    96.5000      0.0000    866.6843      8.1633     51.3541
    96.7500      0.0000    873.9012      7.9028     53.5330
    97.0000      2.0000    860.0496      7.7370     55.4939
    97.2500      0.0000    839.1608      7.6069     56.1857
    97.5000     -2.0000    817.8770      7.5186     55.0913
    97.7500      0.0000    795.2806      7.5545     52.4892
    98.0000      0.0000    766.4268      7.7945     49.2963
    98.2500      0.0000    727.8761      8.2170     46.9529
    98.5000      0.0000    681.4698      8.7023     46.9413
    98.7500      0.0000    632.9761      9.1565     49.7077
    99.0000      0.0000    590.7302      9.5780     54.0028
    99.2500      0.0000    566.2319      9.9729     57.6570
    99.5000      0.0000    568.8668     10.2800     59.1835
    99.7500      0.0000    595.9645     10.4259     58.6550
   100.0000      0.0000    632.4254     10.4067     57.2116
   100.2500      0.0000    662.6490     10.2856     56.0426
   100.5000      0.0000    680.5195     10.1368     55.8038
   100.7500      0.0000    688.4664     10.0060     56.5214
   101.0000      0.0000    691.2314      9.9071     57.7922
   101.2500      0.0000    692.0476      9.8366     59.4558
   101.5000      0.0000    692.3060      9.7904     62.2445
   101.7500      0.0000    692.4293      9.7674     67.3433
   102.0000      0.0000    692.5060      9.7610     74.9064
   102.2500      0.0000    692.5469      9.7541     83.1673
   102.5000      0.0000    692.5656      9.7266     89.2564
   102.7500      0.0000    692.6006      9.6704     90.9675
   103.0000      0.0000    692.6879      9.5972     88.0701
   103.2500      0.0000    692.8419      9.5287     82.4975
   103.5000      0.0000    693.0612      9.4801     77.2826
   103.7500      0.0000    693.3290      9.4506     74.7705
   104.0000      0.0000    693.6019      9.4272     75.4005
   104.2500      0.0000    693.8172      9.3986     77.8377
   104.5000      0.0000    693.9282      9.3641     80.0003
   104.7500      0.0000    693.9351      9.3328     80.3500
   105.0000      0.0000    693.8842      9.3121     79.0224
   105.2500      0.0000    693.8409      9.3014     77.7652
   105.5000      0.0000    693.8597      9.2949     78.2141
   105.7500      0.0000    693.9595      9.2882     80.2627
   106.0000      0.0000    694.1135      9.2816     82.5540
   106.2500      0.0000    694.2664      9.2787     84.2044
   106.5000      0.0000    694.3781      9.2842     85.2906
   106.7500      0.0000    694.4505      9.2999     85.9631
   107.0000      0.0000    694.5048      9.3220     85.9266
   107.2500      0.0000    694.5441      9.3413     84.7334
   107.5000      0.0000    694.5499      9.3504     82.0339
   107.7500      0.0000    694.5056      9.3498     77.6311
   108.0000      0.0000    694.4067      9.3474     71.7339
   108.2500      0.0000    694.2545      9.3537     65.1869
   108.5000      0.0000    694.0537      9.3764     59.2216
   108.7500      0.0000    693.8214      9.4171     54.8523
   109.0000      0.0000    693.5880      9.4688     52.4403
   109.2500      0.0000    693.3811      9.5156     51.6598
   109.5000      0.0000    693.2046      9.5411     51.7910
   109.7500      0.0000    693.0402      9.5382     52.1865
   110.0000      0.0000    692.8749      9.5122     52.6572
   110.2500      0.0000    692.7200      9.4752     53.4949
   110.5000      0.0000    692.6003      9.4374     55.0414
   110.7500      0.0000    692.5311      9.4057     57.0384
   111.0000      0.0000    692.5112      9.3832     58.3437
   111.2500      0.0000    692.5303      9.3701     57.5822
   111.5000      0.0000    692.5679      9.3637     54.3017
   111.7500      0.0000    692.5950      9.3591     49.4533
   112.0000      0.0000    692.5943      9.3512     44.8307
   112.2500      0.0000    692.5860      9.3389     42.0706
   112.5000      0.0000    692.6250      9.3302     41.7658
   112.7500      0.0000    692.7563      9.3398     43.2708
   113.0000      0.0000    692.9625      9.3773     45.5049
   113.2500      0.0000    693.1555      9.4354     47.7971
   113.5000      0.0000    693.2309      9.4926     49.8449
   113.7500      0.0000    693.1402      9.5311     51.3772
   114.0000      0.0000    692.9197      9.5494     52.1659
   114.2500      0.0000    692.6568      9.5592     52.0743
   114.5000      0.0000    692.4318      9.5727     51.0399
   114.7500      0.0000    692.2821      9.5959     49.2544
   115.0000      0.0000    692.2060      9.6313     47.2054
   115.2500      0.0000    692.1828      9.6805     45.3967
   115.5000      0.0000    692.1815      9.7431     44.1709
   115.7500      0.0000    692.1570      9.8109     43.8078
   116.0000      0.0000    692.0632      9.8629     44.6280
   116.2500      0.0000    691.8886      9.8735     46.8782
   116.5000      0.0000    691.6776      9.8309     50.2886
   116.7500      0.0000    691.5010      9.7501     53.7383
   117.0000      0.0000    691.4048      9.6620     55.8558
   117.2500      0.0000    691.3874      9.5909     56.3470
   117.5000      0.0000    691.4111      9.5440     56.4544
   117.7500      0.0000    691.4226      9.5172     57.7239
   118.0000      0.0000    691.3724      9.5057     60.5325
   118.2500      0.0000    691.2386      9.5057     64.0959
   118.5000      0.0000    691.0469      9.5117     67.5523
   118.7500      0.0000    690.8646      9.5151     70.5379
   119.0000      0.0000    690.7593      9.5098     72.8900
   119.2500      0.0000    690.7499      9.4990     74.3341
   119.5000      0.0000    690.7864      9.4945     74.6228
   119.7500      0.0000    690.7790      9.5075     73.9839
   120.0000      0.0000    690.6540      9.5388     73.4567
   120.2500      0.0000    690.3998      9.5802     74.3910
   120.5000      0.0000    690.0679      9.6224     76.9773
   120.7500      0.0000    689.7355      9.6581     79.4026
   121.0000      0.0000    689.4639      9.6801     79.1759
   121.2500      0.0000    689.2783      9.6821     75.4929
   121.5000      0.0000    689.1721      9.6610     69.8739
   121.7500      0.0000    689.1303      9.6173     64.4998
   122.0000      0.0000    689.1523      9.5542     60.5275
   122.2500      0.0000    689.2485      9.4776     58.1175
   122.5000      0.0000    689.4131      9.3957     57.3724
   122.7500      0.0000    689.6168      9.3187     58.5206
   123.0000      0.0000    689.8386      9.2594     61.1434
   123.2500      0.0000    690.0767      9.2280     63.7470
   123.5000      0.0000    690.3018      9.2208     64.6811
   123.7500      0.0000    690.4329      9.2183     63.5580
   124.0000      0.0000    690.4059      9.2002     61.6185
   124.2500      0.0000    690.2512      9.1610     60.7997
   124.5000      0.0000    690.0625      9.1091     62.4358
   124.7500      0.0000    689.9097      9.0544     66.3338
   125.0000      0.0000    689.8242      9.0045     70.5317
   125.2500      0.0000    689.8492      8.9719     72.1867
   125.5000      0.0000    690.0336      8.9763     69.5190
   125.7500      0.0000    690.3497      9.0310     63.3797
   126.0000      0.0000    690.6550      9.1259     56.8035
