~Version Information
VERS.                      2.0: CWLS Log ASCII Standard - VERSION 2.0
WRAP.                       NO: One line per depth step
~Well Information Block
STRT.FT               530.0000: 
STOP.FT              1298.0000: 
STEP.FT                 0.1000: 
NULL.                -999.2500: 
COMP.          Pioneer Natural Resources: COMPANY
WELL.            Keiko 14-6 Tr: WELL
FLD.           Purgatoire River: FIELD
LOC.           462' FSL & 1202' FWL: LOCATION
PROV.                 Colorado: PROVINCE
CNTY.               Las Animas: COUNTRY
SRVC.                Patterson: SERVICE COMPANY
DATE.          Fri Dec 30 07:26:03 2005: LOG DATE
UWI.           05 071 08629 00: UNIQUE WELL ID
~Curve Information Block
DEPT.FT            0 000 00 00: Depth
DCAL.in                       : CDL Caliper
RHOB.g/cc                     : CDL Bulk Density
RHOC.g/cc                     : CDL Density Correction
DPOR.pu                       : CDL Density Porosity
GR.GAPI                       : Gamma Ray
~Parameter Information Block
~A  Depth       DCAL        RHOB        RHOC        DPOR         GR     
# ...
   832.4000      8.0575      2.5410      0.0113      6.6074    103.7823
   832.5000      8.0587      2.5207     -0.0257      7.8364    101.7811
   832.6000      8.0587      2.4965      0.0046      9.3048    100.8141
   832.7000      8.0587      2.4638     -0.0422     11.2857    101.6368
   832.8000      8.0549      2.4254     -0.0045     13.6101    106.4102
   832.9000      8.0549      2.3817     -0.0235     16.2632    113.0564
   833.0000      8.0521      2.3343     -0.0429     19.1303    117.0860
   833.1000      8.0521      2.3031     -0.0584     21.0212    121.6964
   833.2000      8.0521      2.3034      0.0033     21.0048    131.0475
   833.3000      8.0627      2.3303      0.0070     19.3767    142.1873
   833.4000      8.0627      2.3744      0.0782     16.7041    150.1476
   833.5000      8.0650      2.4246      0.1298     13.6628    151.1790
   833.6000      8.0650      2.4701      0.1645     10.9055    145.0852
   833.7000      8.0650      2.5041      0.1668      8.8455    137.3683
   833.8000      8.0636      2.5228      0.1874      7.7116    129.8674
   833.9000      8.0636      2.5284      0.1249      7.3719    122.4415
   834.0000      8.0607      2.5295      0.0757      7.3014    118.9417
   834.1000      8.0607      2.5290      0.0700      7.3306    120.4322
   834.2000      8.0607      2.5251      0.0603      7.5711    123.6965
   834.3000      8.0559      2.5240      0.0556      7.6393    123.4545
   834.4000      8.0559      2.5270      0.0271      7.4557    118.2380
   834.5000      8.0598      2.5256      0.0378      7.5387    113.5659
   834.6000      8.0598      2.5214     -0.0076      7.7928    113.6645
   834.7000      8.0598      2.5277      0.0300      7.4095    115.4488
   834.8000      8.0611      2.5467      0.0439      6.2616    116.3001
   834.9000      8.0611      2.5661      0.0705      5.0864    116.8088
   835.0000      8.0600      2.5825      0.0100      4.0900    116.8271
   835.1000      8.0600      2.5981      0.0661      3.1451    114.6272
   835.2000      8.0600      2.5966      0.1058      3.2352    109.8407
   835.3000      8.0606      2.5696      0.0566      4.8748    105.3724
   835.4000      8.0606      2.5365      0.0314      6.8794    105.8504
   835.5000      8.0569      2.5200     -0.0220      7.8776    111.2070
   835.6000      8.0569      2.5241      0.0071      7.6276    113.8016
   835.7000      8.0569      2.5284      0.0082      7.3681    113.1139
   835.8000      8.0619      2.5189     -0.0054      7.9452    114.6227
   835.9000      8.0619      2.5146      0.0011      8.2076    118.7188
   836.0000      8.0610      2.5354      0.0225      6.9455    121.9098
   836.1000      8.0610      2.5702      0.0353      4.8357    120.5332
   836.2000      8.0610      2.5915      0.0593      3.5456    114.4780
   836.3000      8.0607      2.5907      0.0381      3.5957    108.2448
   836.4000      8.0607      2.5905     -0.0241      3.6040    105.0785
   836.5000      8.0584      2.6050      0.0549      2.7297    104.9181
   836.6000      8.0584      2.6190      0.0399      1.8806    108.0286
   836.7000      8.0584      2.6345     -0.0108      0.9391    113.2859
   836.8000      8.0609      2.6691      0.0459     -1.1603    114.1005
   836.9000      8.0609      2.7086      0.0710     -3.5515    107.6519
   837.0000      8.0608      2.7218      0.0580     -4.3536    100.2080
   837.1000      8.0608      2.7075      0.0126     -3.4841     93.5846
   837.2000      8.0608      2.6882     -0.0016     -2.3146     84.6543
   837.3000      8.0624      2.6794      0.0189     -1.7837     74.8771
   837.4000      8.0624      2.6883     -0.0149     -2.3186     67.9717
   837.5000      8.0573      2.7146      0.0552     -3.9177     64.3802
   837.6000      8.0573      2.7492     -0.0048     -6.0126     62.9165
   837.7000      8.0573      2.7828      0.0506     -8.0473     60.7972
   837.8000      8.0485      2.7998      0.0649     -9.0769     57.2868
   837.9000      8.0485      2.7901      0.0687     -8.4882     56.0731
   838.0000      8.0375      2.7613      0.0643     -6.7442     57.6388
   838.1000      8.0375      2.7321      0.0166     -4.9772     59.8444
   838.2000      8.0375      2.7194      0.0070     -4.2064     61.8553
   838.3000      8.0371      2.7175      0.0214     -4.0915     64.2261
   838.4000      8.0371      2.7149      0.0158     -3.9305     68.2563
   838.5000      8.0415      2.7092      0.0321     -3.5903     74.5323
   838.6000      8.0415      2.6921      0.0448     -2.5501     83.4921
   838.7000      8.0415      2.6624     -0.0065     -0.7490     95.2938
   838.8000      8.0586      2.6390     -0.0318      0.6645    106.1300
   838.9000      8.0586      2.6290      0.0074      1.2702    109.4029
   839.0000      8.0595      2.6251     -0.0161      1.5099    105.0762
   839.1000      8.0595      2.6285      0.0052      1.3005    100.6456
   839.2000      8.0595      2.6355      0.0303      0.8797    101.3371
   839.3000      8.0578      2.6316      0.0655      1.1139    104.4694
   839.4000      8.0578      2.6160      0.0042      2.0621    106.3882
   839.5000      8.0590      2.6025      0.0252      2.8788    109.1278
   839.6000      8.0590      2.5933      0.0353      3.4335    115.0336
   839.7000      8.0590      2.5760      0.0499      4.4849    120.4893
   839.8000      8.0571      2.5475     -0.0047      6.2127    118.2656
   839.9000      8.0571      2.5257     -0.0321      7.5353    110.5731
   840.0000      8.0591      2.5215      0.0129      7.7853    105.5549
   840.1000      8.0591      2.5227     -0.0141      7.7151    102.0624
   840.2000      8.0591      2.5205     -0.0144      7.8461     95.5059
   840.3000      8.0605      2.5210      0.0137      7.8182     90.8319
   840.4000      8.0605      2.5272      0.0123      7.4433     93.5860
   840.5000      8.0581      2.5367      0.0421      6.8648    100.5596
   840.6000      8.0581      2.5520     -0.0150      5.9385    108.2515
   840.7000      8.0581      2.5797      0.0358      4.2603    113.4398
   840.8000      8.0579      2.6072      0.1055      2.5963    111.6392
   840.9000      8.0579      2.6146      0.0766      2.1469    105.0661
   841.0000      8.0569      2.6041      0.0499      2.7818    100.2293
   841.1000      8.0569      2.5869      0.0326      3.8266     98.9629
   841.2000      8.0569      2.5759      0.0396      4.4934    100.4734
   841.3000      8.0582      2.5870      0.0152      3.8166    102.1719
   841.4000      8.0582      2.6152      0.0795      2.1091    101.7466
   841.5000      8.0576      2.6303      0.0716      1.1916    101.3857
   841.6000      8.0576      2.6170      0.0293      2.0017    102.5504
   841.7000      8.0576      2.5917      0.0272      3.5352    102.7390
   841.8000      8.0567      2.5790      0.0267      4.3020    101.3585
   841.9000      8.0567      2.5812      0.0397      4.1692    103.0631
   842.0000      8.0568      2.5846      0.0270      3.9616    107.0223
   842.1000      8.0568      2.5858      0.0383      3.8931    108.1059
   842.2000      8.0568      2.5903      0.0034      3.6174    104.6674
   842.3000      8.0565      2.5983      0.0449      3.1322     95.9343
   842.4000      8.0565      2.5947      0.0718      3.3536     83.4360
   842.5000      8.0581      2.5715      0.0276      4.7602     74.6299
   842.6000      8.0581      2.5440     -0.0094      6.4267     75.2872
   842.7000      8.0581      2.5360     -0.0079      6.9071     80.4821
   842.8000      8.0580      2.5621      0.0014      5.3286     83.6042
   842.9000      8.0580      2.6073      0.0684      2.5889     83.4616
   843.0000      8.0570      2.6407      0.0760      0.5607     81.4260
   843.1000      8.0570      2.6528      0.1050     -0.1713     80.9625
   843.2000      8.0570      2.6512      0.0930     -0.0712     82.9159
   843.3000      8.0562      2.6354      0.1224      0.8820     83.4471
   843.4000      8.0562      2.6017      0.0929      2.9296     80.8753
   843.5000      8.0560      2.5659      0.0296      5.0950     77.9398
