~Version Information
VERS.                      2.0: CWLS Log ASCII Standard - VERSION 2.0
WRAP.                       NO: One line per depth step
~Well Information Block
STRT.FT               491.0000: 
STOP.FT              1909.5000: 
STEP.FT                 0.1000: 
NULL.                -999.2500: 
COMP.          Pioneer Natural Resources: COMPANY
WELL.            Corazon 13-10: WELL
FLD.           Purgatoire River: FIELD
LOC.           2510' FSL & 439' FWL: LOCATION
PROV.                 Colorado: PROVINCE
CNTY.               Las Animas: COUNTRY
SRVC.                Patterson: SERVICE COMPANY
DATE.          Thu Dec 01 07:28:46 2005: LOG DATE
UWI.           05 071 08613 00: UNIQUE WELL ID
~Curve Information Block
DEPT.FT            0 000 00 00: Depth
DCAL.in                       : CDL Caliper
RHOB.g/cc                     : CDL Bulk Density
RHOC.g/cc                     : CDL Density Correction
DPOR.pu                       : CDL Density Porosity
GR.GAPI                       : Gamma Ray
NPOR.pu                       : Neutron Porosity
~Parameter Information Block
~A  Depth       DCAL        RHOB        RHOC        DPOR         GR         NPOR    
# ...
  1892.6000      7.8429      2.6306      0.0529      1.1774      0.0079     17.7180
  1892.7000      7.8429      2.6424      0.0385      0.4621      0.0000     18.1216
  1892.8000      7.8402      2.6402      0.0690      0.5913   -999.2500     18.3982
  1892.9000      7.8402      2.6219      0.0466      1.7003   -999.2500     18.9339
  1893.0000      7.8414      2.6008      0.0373      2.9845   -999.2500     20.0439
  1893.1000      7.8414      2.5863      0.0255      3.8594   -999.2500     21.1544
  1893.2000      7.8414      2.5764      0.0357      4.4581   -999.2500     21.2646
  1893.3000      7.8402      2.5692      0.0289      4.8966   -999.2500     20.9771
  1893.4000      7.8402      2.5630      0.0246      5.2713   -999.2500     21.3035
  1893.5000      7.8330      2.5555      0.0413      5.7294   -999.2500     22.3545
  1893.6000      7.8330      2.5546      0.0594      5.7834   -999.2500     23.6742
  1893.7000      7.8330      2.5671      0.0488      5.0259   -999.2500     24.5413
  1893.8000      7.8345      2.5788      0.0913      4.3123   -999.2500     25.0784
  1893.9000      7.8345      2.5776      0.0241      4.3865   -999.2500     25.5461
  1894.0000      7.8393      2.5706      0.0484      4.8101   -999.2500     25.7554
  1894.1000      7.8393      2.5581      0.0836      5.5709   -999.2500     25.6678
  1894.2000      7.8393      2.5349      0.0748      6.9762   -999.2500     25.3006
  1894.3000      7.8378      2.5113      0.0616      8.4041   -999.2500     24.9087
  1894.4000      7.8378      2.4948      0.0987      9.4057   -999.2500     24.8867
  1894.5000      7.8457      2.4841      0.0286     10.0545   -999.2500     24.9702
  1894.6000      7.8457      2.4827      0.0270     10.1400   -999.2500     26.2631
  1894.7000      7.8457      2.4865     -0.0056      9.9077   -999.2500     31.9616
  1894.8000      7.8057      2.4859      0.0204      9.9459   -999.2500     41.2954
  1894.9000      7.8057      2.4857     -0.0156      9.9593   -999.2500     48.0843
  1895.0000      7.8433      2.5015      0.0115      8.9971   -999.2500     50.5471
  1895.1000      7.8433      2.5314      0.0567      7.1895   -999.2500     51.0313
  1895.2000      7.8433      2.5512      0.0851      5.9883   -999.2500     51.0827
  1895.3000      7.8918      2.5472      0.0265      6.2286   -999.2500     51.0856
  1895.4000      7.8918      2.5328     -0.0055      7.1044   -999.2500   -999.2500
  1895.5000      7.8746      2.5275     -0.0032      7.4270   -999.2500   -999.2500
  1895.6000      7.8746      2.5366      0.0298      6.8746   -999.2500   -999.2500
  1895.7000      7.8746      2.5494      0.0736      6.0956   -999.2500   -999.2500
  1895.8000      7.7803      2.5532      0.0206      5.8671   -999.2500   -999.2500
  1895.9000      7.7803      2.5502      0.0024      6.0478   -999.2500   -999.2500
  1896.0000      7.7984      2.5493      0.0091      6.1041   -999.2500   -999.2500
  1896.1000      7.7984      2.5523      0.0675      5.9204   -999.2500   -999.2500
  1896.2000      7.7984      2.5539      0.0809      5.8256   -999.2500   -999.2500
  1896.3000      7.8051      2.5460      0.0527      6.3004   -999.2500   -999.2500
  1896.4000      7.8051      2.5305     -0.0108      7.2401   -999.2500   -999.2500
  1896.5000      7.8137      2.5178      0.0228      8.0137   -999.2500   -999.2500
  1896.6000      7.8137      2.5134      0.0021      8.2801   -999.2500   -999.2500
  1896.7000      7.8137      2.5138      0.0336      8.2519   -999.2500   -999.2500
  1896.8000      7.8393      2.5116      0.0358      8.3901   -999.2500   -999.2500
  1896.9000      7.8393      2.5094     -0.0008      8.5227   -999.2500   -999.2500
  1897.0000      7.8501      2.5083      0.0199      8.5886   -999.2500   -999.2500
  1897.1000      7.8501      2.5036      0.0261      8.8757   -999.2500   -999.2500
  1897.2000      7.8501      2.5051     -0.0199      8.7795   -999.2500   -999.2500
  1897.3000      7.8636      2.5208      0.0110      7.8274   -999.2500   -999.2500
  1897.4000      7.8636      2.5343      0.0663      7.0149   -999.2500   -999.2500
  1897.5000      7.8751      2.5342      0.0195      7.0167   -999.2500   -999.2500
  1897.6000      7.8751      2.5338      0.0008      7.0399   -999.2500   -999.2500
  1897.7000      7.8751      2.5391      0.0366      6.7231   -999.2500   -999.2500
  1897.8000      7.8606      2.5411      0.0481      6.6004   -999.2500   -999.2500
  1897.9000      7.8606      2.5403      0.0466      6.6480   -999.2500   -999.2500
  1898.0000      7.8539      2.5467     -0.0134      6.2590   -999.2500   -999.2500
  1898.1000      7.8539      2.5534      0.0745      5.8562   -999.2500   -999.2500
  1898.2000      7.8539      2.5467      0.0047      6.2632   -999.2500   -999.2500
  1898.3000      7.8597      2.5383      0.0591      6.7680   -999.2500   -999.2500
  1898.4000      7.8597      2.5404      0.0324      6.6398   -999.2500   -999.2500
  1898.5000      7.8353      2.5478      0.0507      6.1970   -999.2500   -999.2500
  1898.6000      7.8353      2.5513      0.0560      5.9833   -999.2500   -999.2500
  1898.7000      7.8353      2.5500      0.0162      6.0581   -999.2500   -999.2500
  1898.8000      7.8390      2.5508      0.0292      6.0131   -999.2500   -999.2500
  1898.9000      7.8390      2.5542      0.0726      5.8086   -999.2500   -999.2500
  1899.0000      7.8321      2.5549      0.0242      5.7667   -999.2500   -999.2500
  1899.1000      7.8321      2.5430      0.0726      6.4860   -999.2500   -999.2500
  1899.2000      7.8321      2.5059      0.0343      8.7359   -999.2500   -999.2500
  1899.3000      7.8297      2.4581     -0.0442     11.6285   -999.2500   -999.2500
  1899.4000      7.8297      2.4365     -0.0639     12.9366   -999.2500   -999.2500
  1899.5000      7.8247      2.4520      0.0009     12.0023   -999.2500   -999.2500
  1899.6000      7.8247      2.4806      0.0319     10.2655   -999.2500   -999.2500
  1899.7000      7.8247      2.5062      0.0124      8.7142   -999.2500   -999.2500
  1899.8000      7.8090      2.5342      0.0113      7.0152   -999.2500   -999.2500
  1899.9000      7.8090      2.5636      0.0579      5.2366   -999.2500   -999.2500
  1900.0000      7.8091      2.5862      0.0463      3.8672   -999.2500   -999.2500
  1900.1000      7.8091      2.6001      0.0655      3.0235   -999.2500   -999.2500
  1900.2000      7.8091      2.6016      0.0746      2.9303   -999.2500   -999.2500
  1900.3000      7.8009      2.5911      0.0377      3.5685   -999.2500   -999.2500
  1900.4000      7.8009      2.5737      0.0551      4.6247   -999.2500   -999.2500
  1900.5000      7.7942      2.5552      0.0427      5.7470   -999.2500   -999.2500
  1900.6000      7.7942      2.5510      0.0464      6.0023   -999.2500   -999.2500
  1900.7000      7.7942      2.5661      0.0730      5.0861   -999.2500   -999.2500
  1900.8000      7.7935      2.5854      0.0685      3.9167   -999.2500   -999.2500
  1900.9000      7.7935      2.5953      0.0795      3.3147   -999.2500   -999.2500
  1901.0000      7.8031      2.5857      0.1134      3.8964   -999.2500   -999.2500
  1901.1000      7.8031      2.5615      0.0304      5.3650   -999.2500   -999.2500
  1901.2000      7.8031      2.5537      0.0314      5.8379   -999.2500   -999.2500
  1901.3000      7.8168      2.5698      0.1244      4.8596   -999.2500   -999.2500
  1901.4000      7.8168      2.5784      0.1003      4.3373   -999.2500   -999.2500
  1901.5000      7.8127      2.5681      0.0955      4.9631   -999.2500   -999.2500
  1901.6000      7.8127      2.5596      0.0604      5.4775   -999.2500   -999.2500
  1901.7000      7.8127      2.5610      0.0584      5.3960   -999.2500   -999.2500
  1901.8000      7.8117      2.5548      0.0886      5.7705   -999.2500   -999.2500
  1901.9000      7.8117      2.5363      0.0331      6.8920   -999.2500   -999.2500
  1902.0000      7.8050      2.5240      0.0192      7.6378   -999.2500   -999.2500
  1902.1000      7.8050      2.5218      0.0632      7.7724   -999.2500   -999.2500
