~Version Information
VERS.                      2.0: CWLS Log ASCII Standard - VERSION 2.0
WRAP.                       NO: One line per depth step
~Well Information Block
STRT.FT                -5.2500: 
STOP.FT              1184.2500: 
STEP.FT                 0.2500: 
NULL.                -999.2500: 
COMP.          Pioneer Natural Resources: COMPANY
WELL.          Lucky Lady 42-29: WELL
FLD.           Purgatoire River: FIELD
LOC.           2482' FNL & 662' FEL: LOCATION
CNTY.               Las Animas: COUNTY
SRVC.                         : SERVICE COMPANY
DATE.          Tue Mar 14 14:47:22 2006: LOG DATE
UWI.           05 071 08659 00: UNIQUE WELL ID
STAT.                       CO: STATE
~Curve Information Block
DEPT.FT            0 000 00 00: Depth
GR.GAPI                       : Gamma Ray
CCL.                          : Casing Collar Locator
TT3.usec                      : CBL 3' Travel Time
AMP3.mV                       : CBL 3' Amplitude
~Parameter Information Block
~A  Depth        GR         CCL         TT3         AMP3    
# ...
   530.7500    127.7606      0.0000    750.9086      8.4678
   531.0000    130.0503      0.0000    753.5739      8.7688
   531.2500    132.6953      0.0000    755.1311      8.9417
   531.5000    136.1265      0.0000    753.9468      9.0340
   531.7500    140.1446      0.0000    751.0022      9.1091
   532.0000    144.1562      0.0000    748.8214      9.2120
   532.2500    147.5938      0.0000    749.5510      9.3516
   532.5000    150.1501      0.0000    753.2701      9.4954
   532.7500    151.8304      0.0000    758.1202      9.5944
   533.0000    152.9584      0.0000    762.0458      9.6197
   533.2500    153.9059      0.0000    764.2058      9.5734
   533.5000    154.6124      0.0000    764.9360      9.4717
   533.7500    154.4905      0.0000    764.9449      9.3302
   534.0000    152.9349      0.0000    764.7549      9.1666
   534.2500    149.9366      0.0000    764.6201      9.0060
   534.5000    146.2738      0.0000    764.6370      8.8785
   534.7500    143.2000      0.0000    764.8326      8.8094
   535.0000    141.8688      0.0000    765.2020      8.8056
   535.2500    142.7675      0.0000    765.7162      8.8501
   535.5000    145.4486      0.0000    766.3042      8.9125
   535.7500    148.9157      0.0000    766.8363      8.9636
   536.0000    152.4307      0.0000    767.1790      8.9813
   536.2500    155.7968      0.0000    767.3026      8.9538
   536.5000    158.7584      0.0000    767.3190      8.8858
   536.7500    160.4956      0.0000    767.3808      8.8012
   537.0000    160.0140      0.0000    767.5529      8.7379
   537.2500    156.9113      0.0000    767.8234      8.7309
   537.5000    151.8091      0.0000    768.2524      8.7915
   537.7500    146.3535      0.0000    769.1074      8.8966
   538.0000    142.6313      0.0000    770.7531      9.0000
   538.2500    142.0106      0.0000    773.1821      9.0603
   538.5000    144.3189      0.0000    775.5613      9.0627
   538.7500    148.1515      0.0000    776.5806      9.0144
   539.0000    151.8751      0.0000    775.5829      8.9249
   539.2500    154.3172      0.0000    773.2049      8.7999
   539.5000    154.7567      0.0000    770.6688      8.6532
   539.7500    152.7095      0.0000    768.7628      8.5117
   540.0000    148.2285      0.0000    767.7985      8.3987
   540.2500    142.6253      0.0000    768.1083      8.3181
   540.5000    138.3645      0.0000    769.8386      8.2601
   540.7500    137.4681      0.0000    772.2710      8.2176
   541.0000    139.9083      0.0000    774.0853      8.1899
   541.2500    143.9455      0.0000    774.5580      8.1734
   541.5000    147.8728      0.0000    774.0654      8.1579
   541.7500    151.0835      0.0000    773.3771      8.1357
   542.0000    153.8098      0.0000    772.8881      8.1079
   542.2500    156.3210      0.0000    772.5948      8.0787
   542.5000    158.2874      0.0000    772.4700      8.0485
   542.7500    158.9154      0.0000    772.7246      8.0148
   543.0000    157.8315      0.0000    773.7288      7.9819
   543.2500    155.4325      0.0000    775.5438      7.9669
   543.5000    152.0913      0.0000    777.4153      7.9904
   543.7500    147.5067      0.0000    778.0508      8.0613
   544.0000    141.2209      0.0000    776.7443      8.1729
   544.2500    133.5501      0.0000    774.0927      8.3115
   544.5000    125.8908      0.0000    771.3658      8.4622
   544.7500    120.3434      0.0000    769.3822      8.6106
   545.0000    118.8071      0.0000    768.1636      8.7489
   545.2500    121.8373      0.0000    767.3635      8.8786
   545.5000    127.9873      0.0000    766.7184      9.0001
   545.7500    134.4590      0.0000    766.1715      9.0981
   546.0000    138.8733      0.0000    765.7932      9.1470
   546.2500    140.7183      0.0000    765.6641      9.1328
   546.5000    141.1488      0.0000    765.7937      9.0654
   546.7500    141.4926      0.0000    766.0552      8.9706
   547.0000    142.0503      0.0000    766.0924      8.8730
   547.2500    142.1440      0.0000    765.2358      8.7876
   547.5000    140.8014      0.0000    762.7410      8.7215
   547.7500    137.0809      0.0000    758.6192      8.6728
   548.0000    130.2543      0.0000    754.4307      8.6291
   548.2500    120.6193      0.0000    752.6376      8.5732
   548.5000    110.2861      0.0000    754.4998      8.4957
   548.7500    102.3558      0.0000    758.8294      8.4027
   549.0000     98.6548      0.0000    763.2178      8.3100
   549.2500     98.4229      0.0000    766.1313      8.2278
   549.5000     99.4074      0.0000    767.5559      8.1520
   549.7500    100.0904      0.0000    768.1832      8.0689
   550.0000    100.7987      0.0000    768.5471      7.9680
   550.2500    102.9904      0.0000    768.8023      7.8514
   550.5000    107.6884      0.0000    768.9091      7.7326
   550.7500    114.5340      0.0000    768.8436      7.6242
   551.0000    122.1339      0.0000    768.6907      7.5282
   551.2500    129.1621      0.0000    768.5959      7.4407
   551.5000    135.0570      0.0000    768.6550      7.3617
   551.7500    139.7953      0.0000    768.8276      7.2954
   552.0000    143.3009      0.0000    768.9695      7.2401
   552.2500    145.3318      0.0000    768.9661      7.1880
   552.5000    145.9536      0.0000    768.8317      7.1351
   552.7500    145.8574      0.0000    768.6680      7.0862
   553.0000    146.0020      0.0000    768.5525      7.0486
   553.2500    146.9383      0.0000    768.4973      7.0251
   553.5000    148.4459      0.0000    768.5014      7.0151
   553.7500    149.7516      0.0000    768.6031      7.0197
   554.0000    150.0721      0.0000    768.8545      7.0429
   554.2500    148.8805      0.0000    769.2370      7.0886
   554.5000    145.6335      0.0000    769.6312      7.1540
   554.7500    139.6552      0.0000    769.9048      7.2271
   555.0000    130.7031      0.0000    770.0239      7.2943
   555.2500    119.5048      0.0000    770.0522      7.3552
   555.5000    107.6255      0.0000    770.0594      7.4280
   555.7500     97.1316      0.0000    770.0229      7.5383
   556.0000     90.2677      0.0000    769.7484      7.6993
   556.2500     88.7111      0.0000    768.8317      7.9032
   556.5000     92.6753      0.0000    766.7729      8.1316
   556.7500    100.7352      0.0000    763.4104      8.3667
   557.0000    110.5038      0.0000    759.5155      8.5924
   557.2500    119.6758      0.0000    756.8021      8.7932
   557.5000    126.9017      0.0000    756.8097      8.9589
   557.7500    131.8593      0.0000    759.5424      9.0873
   558.0000    134.6570      0.0000    763.4479      9.1827
   558.2500    135.6778      0.0000    766.7141      9.2532
   558.5000    136.0124      0.0000    768.2933      9.3020
   558.7500    137.2364      0.0000    767.7766      9.3202
   559.0000    140.2366      0.0000    764.9933      9.2974
   559.2500    144.4752      0.0000    760.3979      9.2406
   559.5000    148.6128      0.0000    755.7751      9.1699
   559.7500    151.5125      0.0000    753.6475      9.0927
   560.0000    152.4198      0.0000    755.1313      8.9948
   560.2500    150.7602      0.0000    758.5590      8.8602
   560.5000    146.5841      0.0000    760.5895      8.6927
   560.7500    141.2309      0.0000    758.5414      8.5156
   561.0000    136.8691      0.0000    751.9940      8.3602
   561.2500    134.9439      0.0000    743.0616      8.2539
   561.5000    135.1374      0.0000    735.1385      8.2089
   561.7500    135.7893      0.0000    730.7212      8.2127
   562.0000    135.1717      0.0000    730.4630      8.2323
   562.2500    132.6481      0.0000    733.9999      8.2363
   562.5000    129.1271      0.0000    740.4391      8.2180
   562.7500    126.5103      0.0000    747.9591      8.1930
   563.0000    126.5023      0.0000    754.3464      8.1782
   563.2500    129.7335      0.0000    758.2932      8.1811
   563.5000    135.7069      0.0000    759.6045      8.2073
   563.7500    143.1192      0.0000    758.6241      8.2657
   564.0000    150.1154      0.0000    756.3969      8.3569
