~Version Information
VERS.                      2.0: CWLS Log ASCII Standard - VERSION 2.0
WRAP.                       NO: One line per depth step
~Well Information Block
STRT.FT                -7.7500: 
STOP.FT              1519.0000: 
STEP.FT                 0.2500: 
NULL.                -999.2500: 
COMP.          Pioneer Natural Resources: COMPANY
WELL.          Mow 8-14-33-67 Tr: WELL
FLD.           Purgatorie River: FIELD
LOC.           2258' FNL & 929' FEL--: LOCATION
CNTY.               Las Animas: COUNTY
SRVC.          Patterson Wireline: SERVICE COMPANY
DATE.          Thu Feb 02 10:06:28 2006: LOG DATE
UWI.           05 071 08684 00: UNIQUE WELL ID
STAT.                       CO: STATE
~Curve Information Block
DEPT.FT            0 000 00 00: Depth
MINMK.                        : Magnetic Mark Ticks
CCL.                          : Casing Collar Locator
TT3.usec                      : CBL 3' Travel Time
AMP3.mV                       : CBL 3' Amplitude
GR.GAPI                       : Gamma Ray
~Parameter Information Block
~A  Depth      MINMK        CCL         TT3         AMP3         GR     
# ...
  1504.2500      0.0000      0.0000    409.4586     12.4486    116.8284
  1504.5000      0.0000      0.0000    383.7361     12.5458    115.5653
  1504.7500      0.0000      0.0000    363.0684     12.6724    114.8788
  1505.0000      0.0000      0.0000    350.7695     12.8240    109.9975
  1505.2500      0.0000      0.0000    345.1105     12.9960     96.9842
  1505.5000      0.0000      0.0000    343.0894     13.1724     75.7546
  1505.7500      0.0000      0.0000    342.5900     13.3258     50.8216
  1506.0000      0.0000      0.0000    342.5973     13.4326     28.5733
  1506.2500      0.0000      0.0000    342.7350     13.4889     13.2064
  1506.5000      0.0000      0.0000    342.8591     13.5134      4.9444
  1506.7500      0.0000      0.0000    342.9127     13.5335      1.4830
  1507.0000      0.0000      0.0000    342.8812     13.5608      0.3529
  1507.2500      0.0000      0.0000    342.7914     13.5813      0.0654
  1507.5000      0.0000      0.0000    342.6922     13.5698      0.0089
  1507.7500      0.0000      0.0000    342.6273     13.5124   -999.2500
  1508.0000      0.0000      0.0000    342.6241     13.4171   -999.2500
  1508.2500      0.0000      0.0000    342.6911     13.3089   -999.2500
  1508.5000      0.0000      0.0000    342.7805     13.2207   -999.2500
  1508.7500      0.0000      0.0000    342.7008     13.1871   -999.2500
  1509.0000      0.0000      0.0000    341.9774     13.2367   -999.2500
  1509.2500      0.0000      0.0000    339.7832     13.3844   -999.2500
  1509.5000      0.0000      0.0000    334.9921     13.6125   -999.2500
  1509.7500      0.0000      0.0000    326.1476     13.8303   -999.2500
  1510.0000      0.0000      0.0000    310.7597     13.8150   -999.2500
  1510.2500      0.0000      0.0000    284.4904     13.2035   -999.2500
  1510.5000      0.0000      0.0000    242.8158     11.6498   -999.2500
  1510.7500      0.0000      0.0000    186.1901      9.1373   -999.2500
  1511.0000      0.0000      0.0000    123.7237      6.1591   -999.2500
  1511.2500      0.0000      0.0000     69.1627      3.4733   -999.2500
  1511.5000      0.0000      0.0000     31.8123      1.6062   -999.2500
  1511.7500      0.0000      0.0000     11.8514      0.6004   -999.2500
  1512.0000      0.0000      0.0000      3.5358      0.1796   -999.2500
  1512.2500      0.0000      0.0000      0.8372      0.0426   -999.2500
  1512.5000      0.0000      0.0000      0.1549      0.0079   -999.2500
  1512.7500      0.0000      0.0000   -999.2500   -999.2500   -999.2500
  1513.0000      0.0000      0.0000   -999.2500   -999.2500   -999.2500
  1513.2500      0.0000      0.0000   -999.2500   -999.2500   -999.2500
  1513.5000      0.0000      0.0000   -999.2500   -999.2500   -999.2500
  1513.7500      0.0000      0.0000   -999.2500   -999.2500   -999.2500
  1514.0000      0.0000      0.0000   -999.2500   -999.2500   -999.2500
  1514.2500      0.0000      0.0000   -999.2500   -999.2500   -999.2500
  1514.5000      0.0000      0.0000   -999.2500   -999.2500   -999.2500
  1514.7500      0.0000      0.0000   -999.2500   -999.2500   -999.2500
  1515.0000      0.0000      0.0000   -999.2500   -999.2500   -999.2500
  1515.2500      0.0000      0.0000   -999.2500   -999.2500   -999.2500
  1515.5000      0.0000      0.0000   -999.2500   -999.2500   -999.2500
  1515.7500      0.0000      0.0000   -999.2500   -999.2500   -999.2500
  1516.0000      0.0000      0.0000   -999.2500   -999.2500   -999.2500
  1516.2500      0.0000      0.0000   -999.2500   -999.2500   -999.2500
  1516.5000      0.0000      0.0000   -999.2500   -999.2500   -999.2500
  1516.7500      0.0000      0.0000   -999.2500   -999.2500   -999.2500
  1517.0000      0.0000      0.0000   -999.2500   -999.2500   -999.2500
  1517.2500      0.0000      0.0000   -999.2500   -999.2500   -999.2500
  1517.5000      0.0000      0.0000   -999.2500   -999.2500   -999.2500
  1517.7500      0.0000      0.0000   -999.2500   -999.2500   -999.2500
  1518.0000      0.0000      0.0000   -999.2500   -999.2500   -999.2500
  1518.2500      0.0000      0.0000   -999.2500   -999.2500   -999.2500
  1518.5000      0.0000      0.0000   -999.2500   -999.2500   -999.2500
  1518.7500      0.0000   -999.2500   -999.2500   -999.2500   -999.2500
  1519.0000      0.0000   -999.2500   -999.2500   -999.2500   -999.2500
