~Version Information
VERS.                      2.0: CWLS Log ASCII Standard - VERSION 2.0
WRAP.                       NO: One line per depth step
~Well Information Block
STRT.FT                -7.7500: 
STOP.FT              1485.2500: 
STEP.FT                 0.2500: 
NULL.                -999.2500: 
COMP.          Pioneer Natural Resources: COMPANY
WELL.          Hammerhead 24-24 Tr: WELL
FLD.           Purgatorie River: FIELD
LOC.           953' FSL & 1922' FWL--: LOCATION
CNTY.               Las Animas: COUNTY
SRVC.          Patterson Wireline: SERVICE COMPANY
DATE.          Thu Feb 02 15:03:23 2006: LOG DATE
UWI.           05 071 08669 00: UNIQUE WELL ID
STAT.                       CO: STATE
~Curve Information Block
DEPT.FT            0 000 00 00: Depth
CCL.                          : Casing Collar Locator
TT3.usec                      : CBL 3' Travel Time
AMP3.mV                       : CBL 3' Amplitude
GR.GAPI                       : Gamma Ray
~Parameter Information Block
~A  Depth       CCL         TT3         AMP3         GR     
# ...
   293.7500      0.0000    716.3655      6.2607     85.1729
   294.0000      0.0000    716.1381      6.2577     85.4380
   294.2500      0.0000    719.2787      6.2681     87.5342
   294.5000      0.0000    724.1647      6.2920     91.8846
   294.7500      0.0000    728.3698      6.3190     97.7042
   295.0000      0.0000    730.6178      6.3341    103.0869
   295.2500      0.0000    731.2779      6.3264    105.5560
   295.5000      0.0000    730.9437      6.2958    103.3547
   295.7500      0.0000    729.4226      6.2520     96.6546
   296.0000      0.0000    726.5712      6.2101     87.5364
   296.2500      0.0000    723.1321      6.1825     78.9091
   296.5000      0.0000    719.5659      6.1684     73.2095
   296.7500      0.0000    714.6070      6.1414     71.4001
   297.0000      0.0000    706.7728      6.0530     72.8826
   297.2500      0.0000    697.8928      5.8730     76.4837
   297.5000      0.0000    693.6676      5.6360     81.3011
   297.7500      0.0000    699.1176      5.4278     86.4838
   298.0000      0.0000    713.4789      5.3090     90.9276
   298.2500      0.0000    730.3537      5.2723     93.7379
   298.5000      0.0000    743.0684      5.2768     94.7851
   298.7500      0.0000    749.5692      5.2939     94.6135
   299.0000      2.0000    752.3896      5.3099     93.9686
   299.2500     -2.0000    754.9451      5.3200     93.4601
   299.5000      0.0000    758.5484      5.3352     93.4696
   299.7500      0.0000    762.1316      5.3931     94.0895
   300.0000      0.0000    763.4470      5.5459     95.1010
   300.2500      0.0000    760.5723      5.8158     96.0658
   300.5000      0.0000    753.3352      6.1481     96.4365
   300.7500      0.0000    743.5685      6.4241     95.7108
   301.0000      0.0000    733.5935      6.5489     93.8914
   301.2500      0.0000    724.7956      6.5190     91.9759
   301.5000      0.0000    717.8930      6.4012     91.5454
   301.7500      0.0000    713.5336      6.2685     93.3703
   302.0000      0.0000    711.7917      6.1665     96.4657
   302.2500      0.0000    711.6967      6.1112     98.7597
   302.5000      0.0000    711.9031      6.0975     98.7203
   302.7500      0.0000    711.4602      6.1095     96.2781
   303.0000      0.0000    709.8672      6.1321     92.3371
   303.2500      0.0000    707.0995      6.1570     87.9016
   303.5000      0.0000    703.8151      6.1817     83.8982
   303.7500      0.0000    700.9955      6.2062     81.1716
   304.0000      0.0000    699.2178      6.2298     79.9141
   304.2500      0.0000    698.4806      6.2500     79.3592
   304.5000      0.0000    698.6688      6.2633     78.7402
   304.7500      0.0000    700.0384      6.2668     78.4747
   305.0000      0.0000    703.2698      6.2599     79.8139
   305.2500      0.0000    708.9849      6.2445     83.3016
   305.5000      0.0000    716.9074      6.2233     87.8778
   305.7500      0.0000    725.3748      6.1973     91.5111
   306.0000      0.0000    731.8781      6.1657     92.9102
   306.2500      0.0000    734.2813      6.1283     93.0708
   306.5000      0.0000    731.7764      6.0881     94.6583
   306.7500      0.0000    725.1927      6.0505     99.0933
   307.0000      0.0000    716.7045      6.0198    104.6269
   307.2500      0.0000    708.8434      5.9973    107.9440
   307.5000      0.0000    703.2250      5.9825    107.2243
   307.7500      0.0000    700.0180      5.9742    103.1728
   308.0000      0.0000    698.4882      5.9703     97.7526
   308.2500      0.0000    697.8417      5.9685     92.7649
   308.5000      0.0000    697.6179      5.9699     89.3201
   308.7500      0.0000    697.6469      5.9815     87.8274
   309.0000      0.0000    697.9542      6.0109     88.1034
   309.2500      0.0000    698.8214      6.0550     89.5206
   309.5000      0.0000    700.9511      6.0940     91.0804
   309.7500      0.0000    705.4028      6.1032     91.4782
   310.0000      0.0000    712.8546      6.0752     89.5452
   310.2500      0.0000    722.4725      6.0255     85.1300
   310.5000      0.0000    731.7703      5.9743     79.6049
   310.7500      0.0000    738.2631      5.9282     75.2248
   311.0000      0.0000    741.3278      5.8849     73.5842
   311.2500      0.0000    742.1780      5.8448     74.5219
   311.5000      0.0000    742.3464      5.8138     76.5313
   311.7500      0.0000    742.6193      5.7989     78.2084
   312.0000      0.0000    743.0815      5.8039     79.3855
   312.2500      0.0000    743.5622      5.8248     81.0802
   312.5000      0.0000    743.9216      5.8488     84.3799
   312.7500      0.0000    744.1450      5.8605     89.2843
   313.0000      0.0000    744.3134      5.8507     94.5539
   313.2500      0.0000    744.5099      5.8233     98.5819
   313.5000      0.0000    744.8035      5.7935    100.4375
   313.7500      0.0000    745.2825      5.7775    100.2874
   314.0000      0.0000    746.0506      5.7812     98.9982
   314.2500      0.0000    747.0149      5.7996     97.4443
   314.5000      0.0000    747.4991      5.8237     96.2491
   314.7500      0.0000    746.1563      5.8475     95.7948
   315.0000      0.0000    741.7146      5.8720     95.6887
   315.2500      0.0000    734.1014      5.9038     94.4486
   315.5000      0.0000    724.7204      5.9485     90.9858
   315.7500      0.0000    715.5991      6.0064     86.5030
   316.0000      0.0000    708.3371      6.0746     83.7231
   316.2500      0.0000    703.5660      6.1479     83.9872
   316.5000      0.0000    700.9799      6.2195     85.8080
   316.7500      0.0000    699.7863      6.2814     86.3156
   317.0000      0.0000    699.2463      6.3305     83.6781
   317.2500      0.0000    698.9429      6.3723     78.1994
   317.5000      0.0000    698.7350      6.4181     71.6477
   317.7500      0.0000    698.5966      6.4759     65.8919
   318.0000      0.0000    698.5197      6.5427     61.9466
   318.2500      0.0000    698.4812      6.6087     59.8521
   318.5000      0.0000    698.4528      6.6662     59.1972
   318.7500      0.0000    698.4040      6.7150     59.7119
   319.0000      0.0000    698.3071      6.7583     61.3012
   319.2500      0.0000    698.1498      6.7972     63.7398
   319.5000      0.0000    697.9445      6.8282     66.6786
   319.7500      0.0000    697.7295      6.8466     69.9530
   320.0000      0.0000    697.5592      6.8500     73.6389
   320.2500      0.0000    697.4838      6.8405     77.5800
   320.5000      0.0000    697.5230      6.8238     80.8983
   320.7500      0.0000    697.6496      6.8052     82.3950
   321.0000      0.0000    697.8016      6.7878     81.7912
   321.2500      0.0000    697.9176      6.7725     80.2339
   321.5000      0.0000    697.9700      6.7603     79.3282
   321.7500      0.0000    697.9697      6.7521     80.1319
   322.0000      0.0000    697.9415      6.7482     83.0746
   322.2500      0.0000    697.9052      6.7480     87.9098
   322.5000      0.0000    697.8832      6.7514     93.4145
   322.7500      0.0000    697.9102      6.7594     97.8117
   323.0000      0.0000    698.0186      6.7728     99.8292
   323.2500      0.0000    698.2141      6.7919     99.2378
   323.5000      0.0000    698.4501      6.8162     96.6483
   323.7500      0.0000    698.6013      6.8442     93.1900
   324.0000      0.0000    698.2209      6.8761     90.0969
   324.2500      0.0000    695.8395      6.9136     87.9618
   324.5000      0.0000    687.8198      6.9597     86.2238
   324.7500      0.0000    668.0276      7.0161     83.6949
   325.0000      0.0000    630.6128      7.0822     79.9810
   325.2500      0.0000    575.8470      7.1540     76.4172
   325.5000      0.0000    513.5498      7.2233     75.3237
   325.7500      0.0000    458.3923      7.2812     78.0807
   326.0000      0.0000    420.3472      7.3219     83.8189
   326.2500      0.0000    399.8904      7.3458     90.0253
   326.5000      0.0000    391.3112      7.3578     94.3799
   326.7500      0.0000    388.5049      7.3655     95.9265
   327.0000      0.0000    387.7899      7.3755     94.7772
