~Version Information
VERS.                      2.0: CWLS Log ASCII Standard - VERSION 2.0
WRAP.                       NO: One line per depth step
~Well Information Block
STRT.FT               550.0000: 
STOP.FT              1498.5000: 
STEP.FT                 0.1000: 
NULL.                -999.2500: 
COMP.          Pioneer Natural Resources: COMPANY
WELL.          Surtees 23-34 Tr: WELL
FLD.           Purgatoire River: FIELD
LOC.           1559' FSL & 1997' FWL: LOCATION
PROV.                 Colorado: PROVINCE
CNTY.               Las Animas: COUNTRY
SRVC.                Patterson: SERVICE COMPANY
DATE.          Wed Jul 27 09:35:51 2005: LOG DATE
UWI.           05 071 08449 00: UNIQUE WELL ID
~Curve Information Block
DEPT.FT            0 000 00 00: Depth
DCAL.in                       : CDL Caliper
RHOB.g/cc                     : CDL Bulk Density
RHOC.g/cc                     : CDL Density Correction
DPOR.pu                       : CDL Density Porosity
GR.GAPI                       : Gamma Ray
NPOR.pu                       : Neutron Porosity
~Parameter Information Block
~A  Depth       DCAL        RHOB        RHOC        DPOR         GR         NPOR    
# ...
   732.4000      8.0857      2.4050      0.0049     14.8498    139.3640     21.8293
   732.5000      8.0909      2.3726     -0.0266     16.8124    138.9538     21.1710
   732.6000      8.0909      2.3562      0.0243     17.8081    141.8196     20.4584
   732.7000      8.0909      2.3300      0.0576     19.3957    146.3494     19.8149
   732.8000      8.1009      2.2855      0.0318     22.0884    151.7443     19.4769
   732.9000      8.1009      2.2467      0.0517     24.4396    156.0659     19.7570
   733.0000      8.1268      2.2351      0.1278     25.1477    156.4134     20.5131
   733.1000      8.1268      2.2508      0.0758     24.1956    153.9544     20.9393
   733.2000      8.1268      2.2884      0.1343     21.9160    152.2373     20.8049
   733.3000      8.0946      2.3362      0.2169     19.0168    148.5014     20.9615
   733.4000      8.0946      2.3838      0.2422     16.1313    137.8457     21.7928
   733.5000      8.1203      2.4306      0.3156     13.2971    125.8031     22.7899
   733.6000      8.1203      2.4764      0.2936     10.5199    122.3807     23.5786
   733.7000      8.1203      2.5173      0.3423      8.0448    124.7617     24.1648
   733.8000      8.1656      2.5466      0.3129      6.2690    122.8746     24.5567
   733.9000      8.1656      2.5577      0.2099      5.5919    116.3460     24.7853
   734.0000      8.2098      2.5491      0.0865      6.1168    108.4334     25.0758
   734.1000      8.2098      2.5342      0.0867      7.0193     97.8372     25.3090
   734.2000      8.2098      2.5291      0.0804      7.3277     86.3481     24.9901
   734.3000      8.1696      2.5353      0.0741      6.9512     78.6285     24.0059
   734.4000      8.1696      2.5472      0.1188      6.2321     74.1058     23.0279
   734.5000      8.1340      2.5588      0.0856      5.5245     71.1209     22.6570
   734.6000      8.1340      2.5638      0.1090      5.2224     70.7899     22.4011
   734.7000      8.1340      2.5616      0.0586      5.3566     72.4374     21.7786
   734.8000      8.1303      2.5590      0.0633      5.5157     71.7258     20.9823
   734.9000      8.1303      2.5550      0.0621      5.7582     66.5845     20.1927
   735.0000      8.1268      2.5449      0.0661      6.3704     59.6046     19.6912
   735.1000      8.1268      2.5351      0.0178      6.9609     55.4314     19.5084
   735.2000      8.1268      2.5362      0.0433      6.8980     54.0145     19.1028
   735.3000      8.1277      2.5421      0.1089      6.5394     52.5521     18.2472
   735.4000      8.1277      2.5421      0.0482      6.5385     51.5226     17.4844
   735.5000      8.1355      2.5380      0.0531      6.7889     49.5122     17.2216
   735.6000      8.1355      2.5264      0.0485      7.4929     45.3345     17.2447
   735.7000      8.1355      2.5050     -0.0392      8.7850     41.1915     17.2280
   735.8000      8.1440      2.4872     -0.0140      9.8640     39.5805     17.1263
   735.9000      8.1440      2.4785     -0.0208     10.3947     40.9747     17.2676
   736.0000      8.1650      2.4684     -0.0023     11.0034     43.4656     17.7233
   736.1000      8.1650      2.4555     -0.0249     11.7894     44.0297     18.0967
   736.2000      8.1650      2.4538     -0.0123     11.8880     42.0936     18.2220
   736.3000      8.1889      2.4655      0.0131     11.1811     40.7373     18.2842
   736.4000      8.1889      2.4820     -0.0032     10.1792     41.8258     18.5008
   736.5000      8.1879      2.4998      0.0480      9.1017     42.9643     18.9516
   736.6000      8.1879      2.5086      0.0611      8.5688     42.5914     19.3609
   736.7000      8.1879      2.5008      0.0588      9.0414     43.2741     19.3681
   736.8000      8.1531      2.4851      0.0261      9.9946     45.4561     18.9618
   736.9000      8.1531      2.4732      0.0518     10.7142     46.7066     18.3636
   737.0000      8.1019      2.4636      0.0903     11.2990     46.7275     17.8600
   737.1000      8.1019      2.4533      0.0342     11.9235     45.9445     17.5184
   737.2000      8.1019      2.4525      0.0856     11.9711     43.5430     17.0987
   737.3000      8.0751      2.4726      0.0379     10.7516     39.8594     16.5663
   737.4000      8.0751      2.5138      0.1292      8.2574     38.2109     16.3091
   737.5000      8.0212      2.5617      0.1770      5.3510     39.0993     16.4894
   737.6000      8.0212      2.6039      0.1777      2.7939     39.7799     16.5827
   737.7000      8.0212      2.6252      0.2430      1.5031     39.6174     16.0952
   737.8000      8.0105      2.6091      0.1770      2.4791     39.3812     15.4472
   737.9000      8.0105      2.5726      0.0906      4.6884     38.7386     15.1642
   738.0000      8.0097      2.5492      0.1290      6.1079     38.1997     15.2081
   738.1000      8.0097      2.5466      0.0994      6.2678     39.0841     15.3010
   738.2000      8.0097      2.5496      0.0958      6.0865     41.3911     15.4712
   738.3000      8.0343      2.5382      0.0807      6.7781     43.9217     16.0002
   738.4000      8.0343      2.5131      0.0339      8.2958     46.1900     16.7315
   738.5000      8.0686      2.4994      0.0070      9.1297     48.5014     17.3228
   738.6000      8.0686      2.5079      0.0140      8.6126     49.3457     17.5167
   738.7000      8.0686      2.5134      0.0912      8.2801     46.5765     17.4396
   738.8000      8.1108      2.4887      0.0385      9.7780     41.2985     17.5472
   738.9000      8.1108      2.4475     -0.0300     12.2722     39.0145     18.0153
   739.0000      8.0967      2.4226     -0.0317     13.7820     44.3800     18.7202
   739.1000      8.0967      2.4177      0.0105     14.0777     53.4642     19.3866
   739.2000      8.0967      2.4113     -0.0157     14.4641     58.7107     19.7056
   739.3000      8.0934      2.4007     -0.0354     15.1092     59.7157     19.8215
   739.4000      8.0934      2.4081     -0.0276     14.6615     58.0180     20.0848
   739.5000      8.1127      2.4344      0.0213     13.0660     52.8367     20.2902
   739.6000      8.1127      2.4554      0.0710     11.7917     47.4158     20.2533
   739.7000      8.1127      2.4773      0.0151     10.4686     44.8936     20.2567
   739.8000      8.1191      2.5252      0.0983      7.5607     45.9229     20.1903
   739.9000      8.1191      2.5846      0.1945      3.9666     50.3415     19.8667
   740.0000      8.0574      2.6255      0.2145      1.4870     55.3071     19.6366
   740.1000      8.0574      2.6498      0.2131      0.0143     57.2872     19.4536
   740.2000      8.0574      2.6616      0.2231     -0.7036     55.6054     19.0079
   740.3000      7.9796      2.6590      0.2011     -0.5435     52.5247     18.7335
   740.4000      7.9796      2.6684      0.1532     -1.1163     49.5979     19.0729
   740.5000      7.9311      2.7203      0.1877     -4.2598     46.5623     19.8461
   740.6000      7.9311      2.8030      0.2197     -9.2727     42.7191     20.7635
   740.7000      7.9311      2.8774      0.2498    -13.7796     39.2362     21.6091
   740.8000      7.9427      2.9156      0.2597    -16.0951     38.1651     22.1415
   740.9000      7.9427      2.9163      0.2231    -16.1394     39.2151     22.3053
   741.0000      7.9667      2.8826      0.2046    -14.0965     41.0753     22.2594
   741.1000      7.9667      2.8091      0.1132     -9.6449     42.9975     22.1061
   741.2000      7.9667      2.7115      0.0257     -3.7279     44.7230     21.8330
   741.3000      7.9895      2.6351     -0.0761      0.9056     46.2243     21.4335
   741.4000      7.9895      2.5990     -0.0324      3.0894     45.6428     21.0326
   741.5000      8.0363      2.5786     -0.0360      4.3248     42.4312     20.6777
   741.6000      8.0363      2.5701     -0.0185      4.8420     39.9026     20.3239
   741.7000      8.0363      2.5806      0.1191      4.2064     40.6446     19.8690
   741.8000      8.0418      2.5895      0.1537      3.6694     44.6042     19.1504
   741.9000      8.0418      2.5922      0.1227      3.5035     50.2763     18.2628
