~Version Information
VERS.                      2.0: CWLS Log ASCII Standard - VERSION 2.0
WRAP.                       NO: One line per depth step
~Well Information Block
STRT.FT               875.0000: 
STOP.FT              2947.2500: 
STEP.FT                 0.2500: 
NULL.                -999.2500: 
COMP.          Pioneer Natural Resources: COMPANY
WELL.          Hanginstone 21-27: WELL
FLD.           Purgatoire River: FIELD
LOC.           1186' FNL & 1606' FWL--: LOCATION
PROV.                 Colorado: PROVINCE
CNTY.               Las Animas: COUNTRY
SRVC.                Patterson: SERVICE COMPANY
DATE.          Sat Jan 07 09:06:14 2006: LOG DATE
UWI.           05 071 08632 00: UNIQUE WELL ID
~Curve Information Block
DEPT.FT            0 000 00 00: Depth
SN.Ohm-m                      : IEL Short Normal
SP.mV                         : IEL Spontaneous Potential
DIR.Ohm-m                     : IEL Induction Resistivity
GR.GAPI                       : Gamma Ray
~Parameter Information Block
~A  Depth        SN          SP         DIR          GR     
# ...
  2248.5000     11.6183     62.7475     13.1416     75.6600
  2248.7500     11.4390     62.9400     12.6890     81.1213
  2249.0000     11.1385     63.1780     12.1432     90.3288
  2249.2500     10.7252     63.4676     11.5431     96.0890
  2249.5000     10.2351     63.8102     10.9215    103.4358
  2249.7500      9.7180     64.2022     10.3015    107.6121
  2250.0000      9.2180     64.6352      9.6975    113.3063
  2250.2500      8.7632     65.0977      9.1177    116.8822
  2250.5000      8.3672     65.5758      8.5672    121.8828
  2250.7500      8.0369     66.0552      8.0503    124.8306
  2251.0000      7.7748     66.5220      7.5726    128.3269
  2251.2500      7.5782     66.9634      7.1402    129.8970
  2251.5000      7.4375     67.3681      6.7593    131.2448
  2251.7500      7.3389     67.7261      6.4340    131.8224
  2252.0000      7.2677     68.0279      6.1662    132.8690
  2252.2500      7.2098     68.2642      5.9552    133.7397
  2252.5000      7.1530     68.4261      5.7987    134.6805
  2252.7500      7.0895     68.5058      5.6928    134.7051
  2253.0000      7.0184     68.4977      5.6328    133.9512
  2253.2500      6.9459     68.4008      5.6141    133.2417
  2253.5000      6.8861     68.2192      5.6335    131.9375
  2253.7500      6.8601     67.9624      5.6891    130.5180
  2254.0000      6.8907     67.6451      5.7796    126.9654
  2254.2500      6.9917     67.2851      5.9028    123.9401
  2254.5000      7.1579     66.9009      6.0538    120.0144
  2254.7500      7.3651     66.5105      6.2244    118.6889
  2255.0000      7.5799     66.1289      6.4036    118.9067
  2255.2500      7.7725     65.7679      6.5781    120.0052
  2255.5000      7.9250     65.4360      6.7345    121.8603
  2255.7500      8.0303     65.1381      6.8610    122.6215
  2256.0000      8.0877     64.8765      6.9493    122.5291
  2256.2500      8.1008     64.6509      6.9968    121.8707
  2256.5000      8.0782     64.4591      7.0070    121.1975
  2256.7500      8.0325     64.2969      6.9884    121.6128
  2257.0000      7.9764     64.1583      6.9526    123.6495
  2257.2500      7.9187     64.0358      6.9116    125.4942
  2257.5000      7.8658     63.9201      6.8750    128.1387
  2257.7500      7.8269     63.8001      6.8499    129.5793
  2258.0000      7.8159     63.6624      6.8405    131.1856
  2258.2500      7.8448     63.4905      6.8493    131.8118
  2258.5000      7.9159     63.2661      6.8783    131.9120
  2258.7500      8.0227     62.9702      6.9302    131.5001
  2259.0000      8.1597     62.5862      7.0097    130.6381
  2259.2500      8.3274     62.1044      7.1233    130.0740
  2259.5000      8.5262     61.5278      7.2790    128.9423
  2259.7500      8.7467     60.8777      7.4837    127.5792
  2260.0000      8.9711     60.1965      7.7409    124.0131
  2260.2500      9.1888     59.5451      8.0485    120.5371
  2260.5000      9.4092     58.9933      8.3993    114.1316
  2260.7500      9.6615     58.6036      8.7834    109.6893
  2261.0000      9.9811     58.4117      9.1924    104.0657
  2261.2500     10.3955     58.4116      9.6213    101.4262
  2261.5000     10.9165     58.5493     10.0668     98.8602
  2261.7500     11.5370     58.7317     10.5247     97.7566
  2262.0000     12.2360     58.8467     10.9880     96.9939
  2262.2500     12.9930     58.7897     11.4497     97.1956
  2262.5000     13.7968     58.4869     11.9057     97.9652
  2262.7500     14.6380     57.9099     12.3584     97.8403
  2263.0000     15.4937     57.0781     12.8165     95.0078
  2263.2500     16.3363     56.0524     13.2936     91.1188
  2263.5000     17.1621     54.9229     13.8041     83.7802
  2263.7500     17.9952     53.7969     14.3583     79.3617
  2264.0000     18.8374     52.7864     14.9521     75.1362
  2264.2500     19.6010     51.9966     15.5529     73.7934
  2264.5000     20.0999     51.5141     16.0866     72.4944
  2264.7500     20.1373     51.3967     16.4402     71.4012
  2265.0000     19.6365     51.6648     16.4954     69.6047
  2265.2500     18.7043     52.2997     16.1869     69.1434
  2265.5000     17.5692     53.2464     15.5448     71.4075
  2265.7500     16.4480     54.4238     14.6795     75.6811
  2266.0000     15.4515     55.7375     13.7240     86.2062
  2266.2500     14.5860     57.0936     12.7826     94.8866
  2266.5000     13.8129     58.4103     11.9127    107.4484
  2266.7500     13.1016     59.6232     11.1338    114.0582
  2267.0000     12.4468     60.6899     10.4462    120.5039
  2267.2500     11.8606     61.5877      9.8456    122.8800
  2267.5000     11.3591     62.3110      9.3308    124.8012
  2267.7500     10.9555     62.8656      8.9050    125.6782
  2268.0000     10.6594     63.2642      8.5734    127.3318
  2268.2500     10.4762     63.5218      8.3408    128.9747
  2268.5000     10.4057     63.6528      8.2100    131.9837
  2268.7500     10.4400     63.6693      8.1809    133.5880
  2269.0000     10.5667     63.5810      8.2510    133.5537
  2269.2500     10.7736     63.3960      8.4153    131.1446
  2269.5000     11.0531     63.1219      8.6670    124.0847
  2269.7500     11.4037     62.7671      8.9987    118.1429
  2270.0000     11.8283     62.3419      9.4029    110.4130
  2270.2500     12.3325     61.8583      9.8733    107.7196
  2270.5000     12.9229     61.3296     10.4046    108.0116
  2270.7500     13.6043     60.7688     10.9932    109.7242
  2271.0000     14.3748     60.1869     11.6380    111.0095
  2271.2500     15.2260     59.5913     12.3397    109.8508
  2271.5000     16.1484     58.9852     13.1000    105.7593
  2271.7500     17.1387     58.3683     13.9200    102.5518
  2272.0000     18.2009     57.7386     14.8005     98.1650
  2272.2500     19.3349     57.0953     15.7421     95.5885
  2272.5000     20.5260     56.4409     16.7420     92.1142
  2272.7500     21.7426     55.7836     17.7890     90.1740
  2273.0000     22.9424     55.1372     18.8607     88.3928
  2273.2500     24.0813     54.5190     19.9268     88.2796
  2273.5000     25.1269     53.9472     20.9572     89.6970
  2273.7500     26.0727     53.4367     21.9295     91.1717
  2274.0000     26.9435     52.9957     22.8320     92.7596
  2274.2500     27.7835     52.6229     23.6638     92.8240
  2274.5000     28.6335     52.3066     24.4319     91.7060
  2274.7500     29.5096     52.0257     25.1490     90.9670
  2275.0000     30.4001     51.7522     25.8297     91.2500
  2275.2500     31.2876     51.4556     26.4889     92.4705
  2275.5000     32.1755     51.1074     27.1417     94.6916
  2275.7500     33.0947     50.6862     27.8038     95.6589
  2276.0000     34.0830     50.1806     28.4871     96.0686
  2276.2500     35.1581     49.5916     29.1941     95.9569
  2276.5000     36.3052     48.9313     29.9177     95.2722
  2276.7500     37.4799     48.2216     30.6500     93.9387
  2277.0000     38.6232     47.4899     31.3872     89.5733
  2277.2500     39.6905     46.7653     32.1241     85.0934
  2277.5000     40.6803     46.0745     32.8441     77.6075
  2277.7500     41.6369     45.4386     33.5258     73.5634
  2278.0000     42.6160     44.8710     34.1661     70.8790
  2278.2500     43.6367     44.3773     34.7916     71.5766
  2278.5000     44.6600     43.9568     35.4356     75.2075
  2278.7500     45.6097     43.6046     36.0920     78.2825
  2279.0000     46.4079     43.3148     36.6934     82.2223
  2279.2500     46.9904     43.0835     37.1359     83.7252
  2279.5000     47.3096     42.9103     37.3318     83.7899
  2279.7500     47.3474     42.7966     37.2487     82.5248
  2280.0000     47.1351     42.7430     36.9138     79.3114
  2280.2500     46.7504     42.7448     36.3957     76.5757
  2280.5000     46.2880     42.7890     35.7785     72.0772
  2280.7500     45.8353     42.8533     35.1394     69.4336
  2281.0000     45.4593     42.9107     34.5368     67.1781
  2281.2500     45.1852     42.9376     34.0098     66.8563
  2281.5000     44.9590     42.9241     33.5779     66.6441
  2281.7500     44.6334     42.8825     33.2281     65.4423
